{"type": "FeatureCollection", "features": [
{"geometry": {"type": "Point", "coordinates": [-90.61957, 38.66789]}, "type": "Feature", "properties": {"collection_times": [{"days": "Mon-Fri", "time": "1:30pm"}, {"days": "Sat", "time": "12:00pm"}, {"days": "Sun", "time": "Closed"}], "id": "6300500007", "name": "USPS COLLECTION BOX - BLUE BOX", "address": {"city": "CHESTERFIELD", "state": "MO", "street": "101 CHESTERFIELD BUS PKWY", "postcode": "63005"}}},
{"geometry": {"type": "Point", "coordinates": [-90.64565, 38.667942]}, "type": "Feature", "properties": {"collection_times": [{"days": "Mon-Fri", "time": "1:30pm"}, {"days": "Sat", "time": "12:00pm"}, {"days": "Sun", "time": "Closed"}], "id": "6300500017", "name": "USPS COLLECTION BOX - BLUE BOX", "address": {"city": "CHESTERFIELD", "state": "MO", "street": "770 SPIRIT OF SAINT LOUIS BLVD", "postcode": "63005"}}},
{"geometry": {"type": "Point", "coordinates": [-90.5781561621, 38.6667659999]}, "type": "Feature", "properties": {"collection_times": [{"days": "Mon-Fri", "time": "1:45pm"}, {"days": "Sat", "time": "12:15pm"}, {"days": "Sun", "time": "Closed"}], "id": "6300500024", "name": "USPS COLLECTION BOX - BLUE BOX", "address": {"city": "CHESTERFIELD", "state": "MO", "street": "17050 BAXTER RD", "postcode": "63005"}}},
{"geometry": {"type": "Point", "coordinates": [-90.61957, 38.66789]}, "type": "Feature", "properties": {"collection_times": [{"days": "Mon-Fri", "time": "1:30pm"}, {"days": "Sat", "time": "12:00pm"}, {"days": "Sun", "time": "Closed"}], "id": "6300500026", "name": "USPS COLLECTION BOX - BLUE BOX", "address": {"city": "CHESTERFIELD", "state": "MO", "street": "101 CHESTERFIELD BUS PKWY", "postcode": "63005"}}},
{"geometry": {"type": "Point", "coordinates": [-90.5575289066, 38.6547625152]}, "type": "Feature", "properties": {"collection_times": [{"days": "Mon-Fri", "time": "5:00pm"}, {"days": "Sat", "time": "3:00pm"}, {"days": "Sun", "time": "Closed"}], "id": "6300500027", "name": "USPS COLLECTION BOX - APC", "address": {"city": "CHESTERFIELD", "state": "MO", "street": "16105 SWINGLEY RIDGE RD", "postcode": "63005"}}},
{"geometry": {"type": "Point", "coordinates": [-90.5575289066, 38.6547625152]}, "type": "Feature", "properties": {"collection_times": [{"days": "Mon-Fri", "time": "5:00pm"}, {"days": "Sat", "time": "3:00pm"}, {"days": "Sun", "time": "Closed"}], "id": "6300500029", "name": "USPS COLLECTION BOX - BLUE BOX", "address": {"city": "CHESTERFIELD", "state": "MO", "street": "16105 SWINGLEY RIDGE RD", "postcode": "63005"}}},
{"geometry": {"type": "Point", "coordinates": [-90.5575289066, 38.6547625152]}, "type": "Feature", "properties": {"collection_times": [{"days": "Mon-Fri", "time": "5:00pm"}, {"days": "Sat", "time": "3:00pm"}, {"days": "Sun", "time": "Closed"}], "id": "6300500030", "name": "USPS COLLECTION BOX - BLUE BOX", "address": {"city": "CHESTERFIELD", "state": "MO", "street": "16105 SWINGLEY RIDGE RD", "postcode": "63005"}}},
{"geometry": {"type": "Point", "coordinates": [-90.5575289066, 38.6547625152]}, "type": "Feature", "properties": {"collection_times": [{"days": "Mon-Fri", "time": "5:00pm"}, {"days": "Sat", "time": "3:00pm"}, {"days": "Sun", "time": "Closed"}], "id": "6300500031", "name": "USPS COLLECTION BOX - BLUE BOX", "address": {"city": "CHESTERFIELD", "state": "MO", "street": "16105 SWINGLEY RIDGE RD", "postcode": "63005"}}},
{"geometry": {"type": "Point", "coordinates": [-90.5575289066, 38.6547625152]}, "type": "Feature", "properties": {"collection_times": [{"days": "Mon-Fri", "time": "5:00pm"}, {"days": "Sat", "time": "3:00pm"}, {"days": "Sun", "time": "Closed"}], "id": "6300500032", "name": "USPS COLLECTION BOX - BLUE BOX", "address": {"city": "CHESTERFIELD", "state": "MO", "street": "16105 SWINGLEY RIDGE RD", "postcode": "63005"}}},
{"geometry": {"type": "Point", "coordinates": [-90.5575289066, 38.6547625152]}, "type": "Feature", "properties": {"collection_times": [{"days": "Mon-Fri", "time": "5:00pm"}, {"days": "Sat", "time": "3:00pm"}, {"days": "Sun", "time": "Closed"}], "id": "6300500035", "name": "USPS COLLECTION BOX - PO LOBBY", "address": {"city": "CHESTERFIELD", "state": "MO", "street": "16105 SWINGLEY RIDGE RD", "postcode": "63005"}}},
{"geometry": {"type": "Point", "coordinates": [-90.6357224942, 38.6693756073]}, "type": "Feature", "properties": {"collection_times": [{"days": "Mon-Fri", "time": "1:30pm"}, {"days": "Sat", "time": "12:00pm"}, {"days": "Sun", "time": "Closed"}], "id": "6300500037", "name": "USPS COLLECTION BOX - BLUE BOX", "address": {"city": "CHESTERFIELD", "state": "MO", "street": "18065 CHESTERFIELD AIRPORT RD", "postcode": "63005"}}},
{"geometry": {"type": "Point", "coordinates": [-90.6195703725, 38.6678117356]}, "type": "Feature", "properties": {"collection_times": [{"days": "Mon-Fri", "time": "1:30pm"}, {"days": "Sat", "time": "12:00pm"}, {"days": "Sun", "time": "Closed"}], "id": "6300500039", "name": "USPS COLLECTION BOX - BLUE BOX", "address": {"city": "CHESTERFIELD", "state": "MO", "street": "101 CHESTERFIELD BUSINESS PKWY", "postcode": "63005"}}},
{"geometry": {"type": "Point", "coordinates": [-90.61826, 38.661762]}, "type": "Feature", "properties": {"collection_times": [{"days": "Mon-Fri", "time": "2:00pm"}, {"days": "Sat", "time": "12:00pm"}, {"days": "Sun", "time": "Closed"}], "id": "6300500043", "name": "USPS COLLECTION BOX - BLUE BOX", "address": {"city": "CHESTERFIELD", "state": "MO", "street": "100 CHESTERFIELD TOWNE CTR", "postcode": "63005"}}},
{"geometry": {"type": "Point", "coordinates": [-90.61826, 38.661762]}, "type": "Feature", "properties": {"collection_times": [{"days": "Mon-Fri", "time": "2:00pm"}, {"days": "Sat", "time": "12:00pm"}, {"days": "Sun", "time": "Closed"}], "id": "6300500044", "name": "USPS COLLECTION BOX - BLUE BOX", "address": {"city": "CHESTERFIELD", "state": "MO", "street": "100 CHESTERFIELD TOWNE CTR", "postcode": "63005"}}},
{"geometry": {"type": "Point", "coordinates": [-90.61826, 38.661762]}, "type": "Feature", "properties": {"collection_times": [{"days": "Mon-Fri", "time": "2:00pm"}, {"days": "Sat", "time": "12:00pm"}, {"days": "Sun", "time": "Closed"}], "id": "6300500045", "name": "USPS COLLECTION BOX - BLUE BOX", "address": {"city": "CHESTERFIELD", "state": "MO", "street": "100 CHESTERFIELD TOWNE CTR", "postcode": "63005"}}},
{"geometry": {"type": "Point", "coordinates": [-90.373970347, 38.4375464071]}, "type": "Feature", "properties": {"collection_times": [{"days": "Mon-Fri", "time": "5:45pm"}, {"days": "Sat", "time": "2:30pm"}, {"days": "Sun", "time": "Closed"}], "id": "6301000002", "name": "USPS COLLECTION BOX - BLUE BOX", "address": {"city": "ARNOLD", "state": "MO", "street": "1314 JEFFCO BLVD", "postcode": "63010"}}},
{"geometry": {"type": "Point", "coordinates": [-90.3794628255, 38.4070272488]}, "type": "Feature", "properties": {"collection_times": [{"days": "Mon-Sat", "time": "10:00am"}, {"days": "Sun", "time": "Closed"}], "id": "6301000014", "name": "USPS COLLECTION BOX - BLUE BOX", "address": {"city": "ARNOLD", "state": "MO", "street": "3890 JEFFCO BLVD", "postcode": "63010"}}},
{"geometry": {"type": "Point", "coordinates": [-90.3785062359, 38.4491264339]}, "type": "Feature", "properties": {"collection_times": [{"days": "Mon-Sat", "time": "11:00am"}, {"days": "Sun", "time": "Closed"}], "id": "6301000018", "name": "USPS COLLECTION BOX - BLUE BOX", "address": {"city": "ARNOLD", "state": "MO", "street": "941 W OUTER RD", "postcode": "63010"}}},
{"geometry": {"type": "Point", "coordinates": [-90.373970347, 38.4375464071]}, "type": "Feature", "properties": {"collection_times": [{"days": "Mon-Fri", "time": "5:45pm"}, {"days": "Sat", "time": "2:30pm"}, {"days": "Sun", "time": "Closed"}], "id": "6301000021", "name": "USPS COLLECTION BOX - BLUE BOX", "address": {"city": "ARNOLD", "state": "MO", "street": "1314 JEFFCO BLVD", "postcode": "63010"}}},
{"geometry": {"type": "Point", "coordinates": [-90.373970347, 38.4375464071]}, "type": "Feature", "properties": {"collection_times": [{"days": "Mon-Fri", "time": "5:45pm"}, {"days": "Sat", "time": "2:30pm"}, {"days": "Sun", "time": "Closed"}], "id": "6301000022", "name": "USPS COLLECTION BOX - BLUE BOX", "address": {"city": "ARNOLD", "state": "MO", "street": "1314 JEFFCO BLVD", "postcode": "63010"}}},
{"geometry": {"type": "Point", "coordinates": [-90.373970347, 38.4375464071]}, "type": "Feature", "properties": {"collection_times": [{"days": "Mon-Fri", "time": "5:30pm"}, {"days": "Sat", "time": "2:30pm"}, {"days": "Sun", "time": "Closed"}], "id": "6301000023", "name": "USPS COLLECTION BOX - PO LOBBY", "address": {"city": "ARNOLD", "state": "MO", "street": "1314 JEFFCO BLVD", "postcode": "63010"}}},
{"geometry": {"type": "Point", "coordinates": [-90.373970347, 38.4375464071]}, "type": "Feature", "properties": {"collection_times": [{"days": "Mon-Fri", "time": "5:30pm"}, {"days": "Sat", "time": "2:30pm"}, {"days": "Sun", "time": "Closed"}], "id": "6301000024", "name": "USPS COLLECTION BOX - PO LOBBY", "address": {"city": "ARNOLD", "state": "MO", "street": "1314 JEFFCO BLVD", "postcode": "63010"}}},
{"geometry": {"type": "Point", "coordinates": [-90.3942273967, 38.414492992]}, "type": "Feature", "properties": {"collection_times": [{"days": "Mon-Sat", "time": "10:00am"}, {"days": "Sun", "time": "Closed"}], "id": "6301000027", "name": "USPS COLLECTION BOX - BLUE BOX", "address": {"city": "ARNOLD", "state": "MO", "street": "3910 VOGEL RD", "postcode": "63010"}}},
{"geometry": {"type": "Point", "coordinates": [-90.4020810009, 38.4449387177]}, "type": "Feature", "properties": {"collection_times": [{"days": "Mon-Sat", "time": "11:00am"}, {"days": "Sun", "time": "Closed"}], "id": "6301000028", "name": "USPS COLLECTION BOX - BLUE BOX", "address": {"city": "ARNOLD", "state": "MO", "street": "5 MUNICIPAL DR", "postcode": "63010"}}},
{"geometry": {"type": "Point", "coordinates": [-90.373970347, 38.4375464071]}, "type": "Feature", "properties": {"collection_times": [{"days": "Mon-Fri", "time": "5:30pm"}, {"days": "Sat", "time": "2:30pm"}, {"days": "Sun", "time": "Closed"}], "id": "6301000030", "name": "USPS COLLECTION BOX - APC", "address": {"city": "ARNOLD", "state": "MO", "street": "1314 JEFFCO BLVD", "postcode": "63010"}}},
{"geometry": {"type": "Point", "coordinates": [-90.5655470025, 38.5927801973]}, "type": "Feature", "properties": {"collection_times": [{"days": "Mon-Fri", "time": "5:00pm"}, {"days": "Sat", "time": "2:45pm"}, {"days": "Sun", "time": "Closed"}], "id": "6301100001", "name": "USPS COLLECTION BOX - BLUE BOX", "address": {"city": "ELLISVILLE", "state": "MO", "street": "15455 MANCHESTER RD", "postcode": "63011"}}},
{"geometry": {"type": "Point", "coordinates": [-90.5199414996, 38.6079749962]}, "type": "Feature", "properties": {"collection_times": [{"days": "Mon-Fri", "time": "2:00pm"}, {"days": "Sat", "time": "1:30pm"}, {"days": "Sun", "time": "Closed"}], "id": "6301100008", "name": "USPS COLLECTION BOX - BLUE BOX", "address": {"city": "ELLISVILLE", "state": "MO", "street": "13545 BARRETT PARKWAY DR", "postcode": "63011"}}},
{"geometry": {"type": "Point", "coordinates": [-90.5199414996, 38.6079749962]}, "type": "Feature", "properties": {"collection_times": [{"days": "Mon-Fri", "time": "2:45pm"}, {"days": "Sat", "time": "1:30pm"}, {"days": "Sun", "time": "Closed"}], "id": "6301100010", "name": "USPS COLLECTION BOX - BLUE BOX", "address": {"city": "ELLISVILLE", "state": "MO", "street": "13545 BARRETT PARKWAY MIDDLE", "postcode": "63011"}}},
{"geometry": {"type": "Point", "coordinates": [-90.5594061653, 38.5928892111]}, "type": "Feature", "properties": {"collection_times": [{"days": "Mon-Sat", "time": "2:00pm"}, {"days": "Sun", "time": "Closed"}], "id": "6301100014", "name": "USPS COLLECTION BOX - BLUE BOX", "address": {"city": "ELLISVILLE", "state": "MO", "street": "15333 MANCHESTER RD", "postcode": "63011"}}},
{"geometry": {"type": "Point", "coordinates": [-90.5871159713, 38.6005364775]}, "type": "Feature", "properties": {"collection_times": [{"days": "Mon-Sat", "time": "1:00pm"}, {"days": "Sun", "time": "Closed"}], "id": "6301100016", "name": "USPS COLLECTION BOX - BLUE BOX", "address": {"city": "ELLISVILLE", "state": "MO", "street": "212 CLARKSON EXECUTIVE PARK", "postcode": "63011"}}},
{"geometry": {"type": "Point", "coordinates": [-90.5883272433, 38.6048641231]}, "type": "Feature", "properties": {"collection_times": [{"days": "Mon-Sat", "time": "12:00pm"}, {"days": "Sun", "time": "Closed"}], "id": "6301100018", "name": "USPS COLLECTION BOX - BLUE BOX", "address": {"city": "ELLISVILLE", "state": "MO", "street": "15945 CLAYTON RD", "postcode": "63011"}}},
{"geometry": {"type": "Point", "coordinates": [-90.5683039389, 38.6084086344]}, "type": "Feature", "properties": {"collection_times": [{"days": "Mon-Sat", "time": "10:00am"}, {"days": "Sun", "time": "Closed"}], "id": "6301100020", "name": "USPS COLLECTION BOX - BLUE BOX", "address": {"city": "ELLISVILLE", "state": "MO", "street": "15471 CLAYTON RD", "postcode": "63011"}}},
{"geometry": {"type": "Point", "coordinates": [-90.5645804108, 38.6059153581]}, "type": "Feature", "properties": {"collection_times": [{"days": "Mon-Sat", "time": "10:00am"}, {"days": "Sun", "time": "Closed"}], "id": "6301100022", "name": "USPS COLLECTION BOX - BLUE BOX", "address": {"city": "ELLISVILLE", "state": "MO", "street": "930 KEHRS MILL RD", "postcode": "63011"}}},
{"geometry": {"type": "Point", "coordinates": [-90.5866600508, 38.6034248831]}, "type": "Feature", "properties": {"collection_times": [{"days": "Mon-Sat", "time": "12:00pm"}, {"days": "Sun", "time": "Closed"}], "id": "6301100023", "name": "USPS COLLECTION BOX - BLUE BOX", "address": {"city": "ELLISVILLE", "state": "MO", "street": "1346 CLARKSON CLAYTON CTR", "postcode": "63011"}}},
{"geometry": {"type": "Point", "coordinates": [-90.4907127905, 38.5975782335]}, "type": "Feature", "properties": {"collection_times": [{"days": "Mon-Sat", "time": "11:00am"}, {"days": "Sun", "time": "Closed"}], "id": "6301100024", "name": "USPS COLLECTION BOX - BLUE BOX", "address": {"city": "ELLISVILLE", "state": "MO", "street": "300 CONSORT DR", "postcode": "63011"}}},
{"geometry": {"type": "Point", "coordinates": [-90.5894427736, 38.5921390335]}, "type": "Feature", "properties": {"collection_times": [{"days": "Mon-Sat", "time": "2:00pm"}, {"days": "Sun", "time": "Closed"}], "id": "6301100027", "name": "USPS COLLECTION BOX - BLUE BOX", "address": {"city": "ELLISVILLE", "state": "MO", "street": "15965 MANCHESTER RD", "postcode": "63011"}}},
{"geometry": {"type": "Point", "coordinates": [-90.5199414996, 38.6079749962]}, "type": "Feature", "properties": {"collection_times": [{"days": "Mon-Fri", "time": "1:00pm"}, {"days": "Sat", "time": "1:15pm"}, {"days": "Sun", "time": "Closed"}], "id": "6301100031", "name": "USPS COLLECTION BOX - BLUE BOX", "address": {"city": "ELLISVILLE", "state": "MO", "street": "1393 BIG BEND RD", "postcode": "63011"}}},
{"geometry": {"type": "Point", "coordinates": [-90.5199414996, 38.6079749962]}, "type": "Feature", "properties": {"collection_times": [{"days": "Mon-Sat", "time": "12:00pm"}, {"days": "Sun", "time": "Closed"}], "id": "6301100032", "name": "USPS COLLECTION BOX - BLUE BOX", "address": {"city": "ELLISVILLE", "state": "MO", "street": "65 NATIONALWAY", "postcode": "63011"}}},
{"geometry": {"type": "Point", "coordinates": [-90.5223183595, 38.5949226475]}, "type": "Feature", "properties": {"collection_times": [{"days": "Mon-Sat", "time": "1:30pm"}, {"days": "Sun", "time": "Closed"}], "id": "6301100033", "name": "USPS COLLECTION BOX - BLUE BOX", "address": {"city": "ELLISVILLE", "state": "MO", "street": "427 LAFAYETTE CTR", "postcode": "63011"}}},
{"geometry": {"type": "Point", "coordinates": [-90.5140634454, 38.5929860322]}, "type": "Feature", "properties": {"collection_times": [{"days": "Mon-Fri", "time": "5:00pm"}, {"days": "Sat", "time": "2:00pm"}, {"days": "Sun", "time": "Closed"}], "id": "6301100036", "name": "USPS COLLECTION BOX - BLUE BOX", "address": {"city": "ELLISVILLE", "state": "MO", "street": "14373 MANCHESTER RD", "postcode": "63011"}}},
{"geometry": {"type": "Point", "coordinates": [-90.5199414996, 38.6079749962]}, "type": "Feature", "properties": {"collection_times": [{"days": "Mon-Sat", "time": "2:00pm"}, {"days": "Sun", "time": "Closed"}], "id": "6301100045", "name": "USPS COLLECTION BOX - BLUE BOX", "address": {"city": "ELLISVILLE", "state": "MO", "street": "14615 VILLAGE PLAZA VW", "postcode": "63011"}}},
{"geometry": {"type": "Point", "coordinates": [-90.5961344391, 38.5845465848]}, "type": "Feature", "properties": {"collection_times": [{"days": "Mon-Sat", "time": "12:00pm"}, {"days": "Sun", "time": "Closed"}], "id": "6301100046", "name": "USPS COLLECTION BOX - BLUE BOX", "address": {"city": "ELLISVILLE", "state": "MO", "street": "16129 WESTWOODS BUSINESS PARK", "postcode": "63011"}}},
{"geometry": {"type": "Point", "coordinates": [-90.5140634454, 38.5929860322]}, "type": "Feature", "properties": {"collection_times": [{"days": "Mon-Fri", "time": "5:00pm"}, {"days": "Sat", "time": "2:00pm"}, {"days": "Sun", "time": "Closed"}], "id": "6301100049", "name": "USPS COLLECTION BOX - BLUE BOX", "address": {"city": "ELLISVILLE", "state": "MO", "street": "14373 MANCHESTER RD", "postcode": "63011"}}},
{"geometry": {"type": "Point", "coordinates": [-90.5655470025, 38.5927801973]}, "type": "Feature", "properties": {"collection_times": [{"days": "Mon-Fri", "time": "5:00pm"}, {"days": "Sat", "time": "2:45pm"}, {"days": "Sun", "time": "Closed"}], "id": "6301100061", "name": "USPS COLLECTION BOX - BLUE BOX", "address": {"city": "ELLISVILLE", "state": "MO", "street": "15455 MANCHESTER RD", "postcode": "63011"}}},
{"geometry": {"type": "Point", "coordinates": [-90.5199414996, 38.6079749962]}, "type": "Feature", "properties": {"collection_times": [{"days": "Mon-Sat", "time": "12:00pm"}, {"days": "Sun", "time": "Closed"}], "id": "6301100062", "name": "USPS COLLECTION BOX - BLUE BOX", "address": {"city": "ELLISVILLE", "state": "MO", "street": "1346 CLARKSON CLAYTON CTR", "postcode": "63011"}}},
{"geometry": {"type": "Point", "coordinates": [-90.5199414996, 38.6079749962]}, "type": "Feature", "properties": {"collection_times": [{"days": "Mon-Sat", "time": "1:00pm"}, {"days": "Sun", "time": "Closed"}], "id": "6301100063", "name": "USPS COLLECTION BOX - BLUE BOX", "address": {"city": "ELLISVILLE", "state": "MO", "street": "701 SANDY SUMMIT", "postcode": "63011"}}},
{"geometry": {"type": "Point", "coordinates": [-90.5655470025, 38.5927801973]}, "type": "Feature", "properties": {"collection_times": [{"days": "Mon-Fri", "time": "5:00pm"}, {"days": "Sat", "time": "2:45pm"}, {"days": "Sun", "time": "Closed"}], "id": "6301100066", "name": "USPS COLLECTION BOX - BLUE BOX", "address": {"city": "ELLISVILLE", "state": "MO", "street": "15455 MANCHESTER RD", "postcode": "63011"}}},
{"geometry": {"type": "Point", "coordinates": [-90.5655470025, 38.5927801973]}, "type": "Feature", "properties": {"collection_times": [{"days": "Mon-Sat", "time": "5:00pm"}, {"days": "Sun", "time": "Closed"}], "id": "6301100067", "name": "USPS COLLECTION BOX - PO LOBBY", "address": {"city": "ELLISVILLE", "state": "MO", "street": "15455 MANCHESTER RD", "postcode": "63011"}}},
{"geometry": {"type": "Point", "coordinates": [-90.5655470025, 38.5927801973]}, "type": "Feature", "properties": {"collection_times": [{"days": "Mon-Sat", "time": "5:00pm"}, {"days": "Sun", "time": "Closed"}], "id": "6301100068", "name": "USPS COLLECTION BOX - PO LOBBY", "address": {"city": "ELLISVILLE", "state": "MO", "street": "15455 MANCHESTER RD", "postcode": "63011"}}},
{"geometry": {"type": "Point", "coordinates": [-90.5140634454, 38.5929860322]}, "type": "Feature", "properties": {"collection_times": [{"days": "Mon-Fri", "time": "5:00pm"}, {"days": "Sat", "time": "2:00pm"}, {"days": "Sun", "time": "Closed"}], "id": "6301100069", "name": "USPS COLLECTION BOX - PO LOBBY", "address": {"city": "ELLISVILLE", "state": "MO", "street": "14373 MANCHESTER RD", "postcode": "63011"}}},
{"geometry": {"type": "Point", "coordinates": [-90.5140634454, 38.5929860322]}, "type": "Feature", "properties": {"collection_times": [{"days": "Mon-Fri", "time": "5:00pm"}, {"days": "Sat", "time": "2:00pm"}, {"days": "Sun", "time": "Closed"}], "id": "6301100074", "name": "USPS COLLECTION BOX - PO LOBBY", "address": {"city": "ELLISVILLE", "state": "MO", "street": "14373 MANCHESTER RD", "postcode": "63011"}}},
{"geometry": {"type": "Point", "coordinates": [-90.4863991882, 38.5966401102]}, "type": "Feature", "properties": {"collection_times": [{"days": "Mon-Fri", "time": "4:15pm"}, {"days": "Sat", "time": "12:00pm"}, {"days": "Sun", "time": "Closed"}], "id": "6301100077", "name": "USPS COLLECTION BOX - BLUE BOX", "address": {"city": "ELLISVILLE", "state": "MO", "street": "14231 MANCHESTER RD", "postcode": "63011"}}},
{"geometry": {"type": "Point", "coordinates": [-90.5926753258, 38.5912378236]}, "type": "Feature", "properties": {"collection_times": [{"days": "Mon-Sat", "time": "12:00pm"}, {"days": "Sun", "time": "Closed"}], "id": "6301100081", "name": "USPS COLLECTION BOX - BLUE BOX", "address": {"city": "ELLISVILLE", "state": "MO", "street": "16024 MANCHESTER RD", "postcode": "63011"}}},
{"geometry": {"type": "Point", "coordinates": [-90.5655470025, 38.5927801973]}, "type": "Feature", "properties": {"collection_times": [{"days": "Mon-Fri", "time": "5:00pm"}, {"days": "Sat", "time": "2:45pm"}, {"days": "Sun", "time": "Closed"}], "id": "6301100082", "name": "USPS COLLECTION BOX - APC", "address": {"city": "ELLISVILLE", "state": "MO", "street": "15455 MANCHESTER RD", "postcode": "63011"}}},
{"geometry": {"type": "Point", "coordinates": [-90.3998691213, 38.346740247]}, "type": "Feature", "properties": {"collection_times": [{"days": "Mon-Fri", "time": "4:15pm"}, {"days": "Sat", "time": "11:15am"}, {"days": "Sun", "time": "Closed"}], "id": "6301200001", "name": "USPS COLLECTION BOX - BLUE BOX", "address": {"city": "BARNHART", "state": "MO", "street": "1635 MARRIOTT LN", "postcode": "63012"}}},
{"geometry": {"type": "Point", "coordinates": [-90.4105087499, 38.332853577]}, "type": "Feature", "properties": {"collection_times": [{"days": "Mon-Sat", "time": "10:30am"}, {"days": "Sun", "time": "Closed"}], "id": "6301200002", "name": "USPS COLLECTION BOX - BLUE BOX", "address": {"city": "BARNHART", "state": "MO", "street": "7028 HIGHWAY 61 67", "postcode": "63012"}}},
{"geometry": {"type": "Point", "coordinates": [-90.3998691213, 38.346740247]}, "type": "Feature", "properties": {"collection_times": [{"days": "Mon-Fri", "time": "4:15pm"}, {"days": "Sat", "time": "11:15am"}, {"days": "Sun", "time": "Closed"}], "id": "6301200004", "name": "USPS COLLECTION BOX - PO LOBBY", "address": {"city": "BARNHART", "state": "MO", "street": "1635 MARRIOTT LN", "postcode": "63012"}}},
{"geometry": {"type": "Point", "coordinates": [-90.3998691213, 38.346740247]}, "type": "Feature", "properties": {"collection_times": [{"days": "Mon-Fri", "time": "4:15pm"}, {"days": "Sat", "time": "11:15am"}, {"days": "Sun", "time": "Closed"}], "id": "6301200005", "name": "USPS COLLECTION BOX - PO LOBBY", "address": {"city": "BARNHART", "state": "MO", "street": "1635 MARRIOTT LN", "postcode": "63012"}}},
{"geometry": {"type": "Point", "coordinates": [-91.1886868955, 38.4151250028]}, "type": "Feature", "properties": {"collection_times": [{"days": "Mon-Fri", "time": "12:15pm"}, {"days": "Sat", "time": "9:15am"}, {"days": "Sun", "time": "Closed"}], "id": "6301300001", "name": "USPS COLLECTION BOX - BLUE BOX", "address": {"city": "BEAUFORT", "state": "MO", "street": "6611 HIGHWAY 185", "postcode": "63013"}}},
{"geometry": {"type": "Point", "coordinates": [-91.1886868955, 38.4151250028]}, "type": "Feature", "properties": {"collection_times": [{"days": "Mon-Fri", "time": "12:15pm"}, {"days": "Sat", "time": "8:30am"}, {"days": "Sun", "time": "Closed"}], "id": "6301300002", "name": "USPS COLLECTION BOX - PO LOBBY", "address": {"city": "BEAUFORT", "state": "MO", "street": "6611 HIGHWAY 185", "postcode": "63013"}}},
{"geometry": {"type": "Point", "coordinates": [-91.3371054702, 38.6758222655]}, "type": "Feature", "properties": {"collection_times": [{"days": "Mon-Fri", "time": "11:15am"}, {"days": "Sat", "time": "8:45am"}, {"days": "Sun", "time": "Closed"}], "id": "6301400001", "name": "USPS COLLECTION BOX - BLUE BOX", "address": {"city": "BERGER", "state": "MO", "street": "211 MARKET ST", "postcode": "63014"}}},
{"geometry": {"type": "Point", "coordinates": [-91.3371054702, 38.6758222655]}, "type": "Feature", "properties": {"collection_times": [{"days": "Mon-Fri", "time": "11:15am"}, {"days": "Sat", "time": "8:45am"}, {"days": "Sun", "time": "Closed"}], "id": "6301400002", "name": "USPS COLLECTION BOX - PO LOBBY", "address": {"city": "BERGER", "state": "MO", "street": "211 MARKET ST", "postcode": "63014"}}},
{"geometry": {"type": "Point", "coordinates": [-90.7426126099, 38.3854800632]}, "type": "Feature", "properties": {"collection_times": [{"days": "Mon-Fri", "time": "3:15pm"}, {"days": "Sat", "time": "10:00am"}, {"days": "Sun", "time": "Closed"}], "id": "6301500001", "name": "USPS COLLECTION BOX - BLUE BOX", "address": {"city": "CATAWISSA", "state": "MO", "street": "3016 HIGHWAY N", "postcode": "63015"}}},
{"geometry": {"type": "Point", "coordinates": [-90.7426126099, 38.3854800632]}, "type": "Feature", "properties": {"collection_times": [{"days": "Mon-Fri", "time": "4:45pm"}, {"days": "Sat", "time": "10:00am"}, {"days": "Sun", "time": "Closed"}], "id": "6301500002", "name": "USPS COLLECTION BOX - PO LOBBY", "address": {"city": "CATAWISSA", "state": "MO", "street": "3016 HIGHWAY N", "postcode": "63015"}}},
{"geometry": {"type": "Point", "coordinates": [-90.6457140319, 38.3540054134]}, "type": "Feature", "properties": {"collection_times": [{"days": "Mon-Fri", "time": "4:15pm"}, {"days": "Sat", "time": "11:00am"}, {"days": "Sun", "time": "Closed"}], "id": "6301600002", "name": "USPS COLLECTION BOX - BLUE BOX", "address": {"city": "CEDAR HILL", "state": "MO", "street": "7050 STATE RD BB", "postcode": "63016"}}},
{"geometry": {"type": "Point", "coordinates": [-90.6457140319, 38.3540054134]}, "type": "Feature", "properties": {"collection_times": [{"days": "Mon-Fri", "time": "4:30pm"}, {"days": "Sat", "time": "11:00am"}, {"days": "Sun", "time": "Closed"}], "id": "6301600003", "name": "USPS COLLECTION BOX - PO LOBBY", "address": {"city": "CEDAR HILL", "state": "MO", "street": "7050 STATE RD BB", "postcode": "63016"}}},
{"geometry": {"type": "Point", "coordinates": [-90.5354553362, 38.6479878598]}, "type": "Feature", "properties": {"collection_times": [{"days": "Mon-Sat", "time": "11:00am"}, {"days": "Sun", "time": "Closed"}], "id": "6301700007", "name": "USPS COLLECTION BOX - BLUE BOX", "address": {"city": "CHESTERFIELD", "state": "MO", "street": "14567 NORTH OUTER 40 RD", "postcode": "63017"}}},
{"geometry": {"type": "Point", "coordinates": [-90.56746, 38.64206]}, "type": "Feature", "properties": {"collection_times": [{"days": "Mon-Sat", "time": "12:00pm"}, {"days": "Sun", "time": "Closed"}], "id": "6301700020", "name": "USPS COLLECTION BOX - BLUE BOX", "address": {"city": "CHESTERFIELD", "state": "MO", "street": "1785 CLARKSON RD", "postcode": "63017"}}},
{"geometry": {"type": "Point", "coordinates": [-90.5068027243, 38.6525843749]}, "type": "Feature", "properties": {"collection_times": [{"days": "Mon-Sat", "time": "11:00am"}, {"days": "Sun", "time": "Closed"}], "id": "6301700024", "name": "USPS COLLECTION BOX - BLUE BOX", "address": {"city": "CHESTERFIELD", "state": "MO", "street": "222 S WOODS MILL RD", "postcode": "63017"}}},
{"geometry": {"type": "Point", "coordinates": [-90.560814, 38.64861]}, "type": "Feature", "properties": {"collection_times": [{"days": "Mon-Sat", "time": "11:00am"}, {"days": "Sun", "time": "Closed"}], "id": "6301700038", "name": "USPS COLLECTION BOX - BLUE BOX", "address": {"city": "CHESTERFIELD", "state": "MO", "street": "1400 ELBRIDGE PAYNE RD", "postcode": "63017"}}},
{"geometry": {"type": "Point", "coordinates": [-90.50427, 38.67949]}, "type": "Feature", "properties": {"collection_times": [{"days": "Mon-Sat", "time": "11:00am"}, {"days": "Sun", "time": "Closed"}], "id": "6301700041", "name": "USPS COLLECTION BOX - BLUE BOX", "address": {"city": "CHESTERFIELD", "state": "MO", "street": "68 FOUR SEASONS SHOPPING CTR", "postcode": "63017"}}},
{"geometry": {"type": "Point", "coordinates": [-90.5623411837, 38.6521824817]}, "type": "Feature", "properties": {"collection_times": [{"days": "Mon-Sat", "time": "11:00am"}, {"days": "Sun", "time": "Closed"}], "id": "6301700070", "name": "USPS COLLECTION BOX - BLUE BOX", "address": {"city": "CHESTERFIELD", "state": "MO", "street": "400 CHESTERFIELD CTR", "postcode": "63017"}}},
{"geometry": {"type": "Point", "coordinates": [-90.5369525585, 38.651355825]}, "type": "Feature", "properties": {"collection_times": [{"days": "Mon-Fri", "time": "5:00pm"}, {"days": "Sat", "time": "3:00pm"}, {"days": "Sun", "time": "Closed"}], "id": "6301700082", "name": "USPS COLLECTION BOX - BLUE BOX", "address": {"city": "CHESTERFIELD", "state": "MO", "street": "1100 TOWN & COUNTRY CMNS", "postcode": "63017"}}},
{"geometry": {"type": "Point", "coordinates": [-90.5369525585, 38.651355825]}, "type": "Feature", "properties": {"collection_times": [{"days": "Mon-Fri", "time": "5:00pm"}, {"days": "Sat", "time": "3:00pm"}, {"days": "Sun", "time": "Closed"}], "id": "6301700083", "name": "USPS COLLECTION BOX - BLUE BOX", "address": {"city": "CHESTERFIELD", "state": "MO", "street": "1100 TOWN & COUNTRY CMNS", "postcode": "63017"}}},
{"geometry": {"type": "Point", "coordinates": [-90.5369525585, 38.651355825]}, "type": "Feature", "properties": {"collection_times": [{"days": "Mon-Fri", "time": "5:00pm"}, {"days": "Sat", "time": "3:00pm"}, {"days": "Sun", "time": "Closed"}], "id": "6301700085", "name": "USPS COLLECTION BOX - BLUE BOX", "address": {"city": "CHESTERFIELD", "state": "MO", "street": "1100 TOWN & COUNTRY CMNS", "postcode": "63017"}}},
{"geometry": {"type": "Point", "coordinates": [-90.5369525585, 38.651355825]}, "type": "Feature", "properties": {"collection_times": [{"days": "Mon-Fri", "time": "5:00pm"}, {"days": "Sat", "time": "3:00pm"}, {"days": "Sun", "time": "Closed"}], "id": "6301700086", "name": "USPS COLLECTION BOX - BLUE BOX", "address": {"city": "CHESTERFIELD", "state": "MO", "street": "1100 TOWN & COUNTRY CMNS", "postcode": "63017"}}},
{"geometry": {"type": "Point", "coordinates": [-90.5369525585, 38.651355825]}, "type": "Feature", "properties": {"collection_times": [{"days": "Mon-Fri", "time": "5:00pm"}, {"days": "Sat", "time": "3:00pm"}, {"days": "Sun", "time": "Closed"}], "id": "6301700092", "name": "USPS COLLECTION BOX - PO LOBBY", "address": {"city": "CHESTERFIELD", "state": "MO", "street": "1100 TOWN & COUNTRY CMNS", "postcode": "63017"}}},
{"geometry": {"type": "Point", "coordinates": [-90.5138, 38.640537]}, "type": "Feature", "properties": {"collection_times": [{"days": "Mon-Sat", "time": "11:00am"}, {"days": "Sun", "time": "Closed"}], "id": "6301700102", "name": "USPS COLLECTION BOX - BLUE BOX", "address": {"city": "CHESTERFIELD", "state": "MO", "street": "14362 S OUTER 40 RD", "postcode": "63017"}}},
{"geometry": {"type": "Point", "coordinates": [-90.5138, 38.640537]}, "type": "Feature", "properties": {"collection_times": [{"days": "Mon-Sat", "time": "11:00am"}, {"days": "Sun", "time": "Closed"}], "id": "6301700103", "name": "USPS COLLECTION BOX - BLUE BOX", "address": {"city": "CHESTERFIELD", "state": "MO", "street": "14362 S OUTER 40 RD", "postcode": "63017"}}},
{"geometry": {"type": "Point", "coordinates": [-90.5352297087, 38.6473416089]}, "type": "Feature", "properties": {"collection_times": [{"days": "Mon-Fri", "time": "5:00pm"}, {"days": "Sat", "time": "3:00pm"}, {"days": "Sun", "time": "Closed"}], "id": "6301700105", "name": "USPS COLLECTION BOX - APC", "address": {"city": "CHESTERFIELD", "state": "MO", "street": "1100 TOWN AND COUNTRY COMMONS", "postcode": "63017"}}},
{"geometry": {"type": "Point", "coordinates": [-90.5369525585, 38.651355825]}, "type": "Feature", "properties": {"collection_times": [{"days": "Mon-Sat", "time": "10:00am"}, {"days": "Sun", "time": "Closed"}], "id": "6301700118", "name": "USPS COLLECTION BOX - BLUE BOX", "address": {"city": "CHESTERFIELD", "state": "MO", "street": "1024 TOWN & COUNTRY CROSSING RD", "postcode": "63017"}}},
{"geometry": {"type": "Point", "coordinates": [-90.3818571344, 38.2177337041]}, "type": "Feature", "properties": {"collection_times": [{"days": "Mon-Fri", "time": "3:30pm"}, {"days": "Sat", "time": "11:00am"}, {"days": "Sun", "time": "Closed"}], "id": "6301900001", "name": "USPS COLLECTION BOX - BLUE BOX", "address": {"city": "CRYSTAL CITY", "state": "MO", "street": "324 BAILEY RD", "postcode": "63019"}}},
{"geometry": {"type": "Point", "coordinates": [-90.3776469835, 38.2187983672]}, "type": "Feature", "properties": {"collection_times": [{"days": "Mon-Sat", "time": "1:00pm"}, {"days": "Sun", "time": "Closed"}], "id": "6301900003", "name": "USPS COLLECTION BOX - BLUE BOX", "address": {"city": "CRYSTAL CITY", "state": "MO", "street": "100 BAILEY RD", "postcode": "63019"}}},
{"geometry": {"type": "Point", "coordinates": [-90.3775596768, 38.220414916]}, "type": "Feature", "properties": {"collection_times": [{"days": "Mon-Sat", "time": "1:00pm"}, {"days": "Sun", "time": "Closed"}], "id": "6301900007", "name": "USPS COLLECTION BOX - BLUE BOX", "address": {"city": "CRYSTAL CITY", "state": "MO", "street": "130 MISSISSIPPI AVE", "postcode": "63019"}}},
{"geometry": {"type": "Point", "coordinates": [-90.3874259858, 38.218008296]}, "type": "Feature", "properties": {"collection_times": [{"days": "Mon-Sat", "time": "10:00am"}, {"days": "Sun", "time": "Closed"}], "id": "6301900022", "name": "USPS COLLECTION BOX - BLUE BOX", "address": {"city": "CRYSTAL CITY", "state": "MO", "street": "135 TWIN CITY MALL", "postcode": "63019"}}},
{"geometry": {"type": "Point", "coordinates": [-90.3818571344, 38.2177337041]}, "type": "Feature", "properties": {"collection_times": [{"days": "Mon-Fri", "time": "3:30pm"}, {"days": "Sat", "time": "11:00am"}, {"days": "Sun", "time": "Closed"}], "id": "6301900026", "name": "USPS COLLECTION BOX - PO LOBBY", "address": {"city": "CRYSTAL CITY", "state": "MO", "street": "324 BAILEY RD", "postcode": "63019"}}},
{"geometry": {"type": "Point", "coordinates": [-90.5548625171, 38.1359782271]}, "type": "Feature", "properties": {"collection_times": [{"days": "Mon-Sat", "time": "2:45pm"}, {"days": "Sun", "time": "Closed"}], "id": "6302000010", "name": "USPS COLLECTION BOX - BLUE BOX", "address": {"city": "DE SOTO", "state": "MO", "street": "400 N MAIN ST", "postcode": "63020"}}},
{"geometry": {"type": "Point", "coordinates": [-90.5549394095, 38.1357735752]}, "type": "Feature", "properties": {"collection_times": [{"days": "Mon-Sat", "time": "2:45pm"}, {"days": "Sun", "time": "Closed"}], "id": "6302000011", "name": "USPS COLLECTION BOX - BLUE BOX", "address": {"city": "DE SOTO", "state": "MO", "street": "406 S MAIN ST", "postcode": "63020"}}},
{"geometry": {"type": "Point", "coordinates": [-90.4715307571, 38.1381691379]}, "type": "Feature", "properties": {"collection_times": [{"days": "Mon-Sat", "time": "1:15pm"}, {"days": "Sun", "time": "Closed"}], "id": "6302000023", "name": "USPS COLLECTION BOX - BLUE BOX", "address": {"city": "DE SOTO", "state": "MO", "street": "3625 ATHENA SCHOOL RD", "postcode": "63020"}}},
{"geometry": {"type": "Point", "coordinates": [-90.5628373542, 38.1422277293]}, "type": "Feature", "properties": {"collection_times": [{"days": "Mon-Fri", "time": "4:45pm"}, {"days": "Sat", "time": "4:00pm"}, {"days": "Sun", "time": "Closed"}], "id": "6302000028", "name": "USPS COLLECTION BOX - BLUE BOX", "address": {"city": "DE SOTO", "state": "MO", "street": "950 BOYD ST", "postcode": "63020"}}},
{"geometry": {"type": "Point", "coordinates": [-90.5628373542, 38.1422277293]}, "type": "Feature", "properties": {"collection_times": [{"days": "Mon-Fri", "time": "4:45pm"}, {"days": "Sat", "time": "4:00pm"}, {"days": "Sun", "time": "Closed"}], "id": "6302000029", "name": "USPS COLLECTION BOX - BLUE BOX", "address": {"city": "DE SOTO", "state": "MO", "street": "950 BOYD ST", "postcode": "63020"}}},
{"geometry": {"type": "Point", "coordinates": [-90.5795880854, 38.1455530208]}, "type": "Feature", "properties": {"collection_times": [{"days": "Mon-Sat", "time": "2:45pm"}, {"days": "Sun", "time": "Closed"}], "id": "6302000030", "name": "USPS COLLECTION BOX - BLUE BOX", "address": {"city": "DE SOTO", "state": "MO", "street": "17 JEFFERSON SQ", "postcode": "63020"}}},
{"geometry": {"type": "Point", "coordinates": [-90.5628373542, 38.1422277293]}, "type": "Feature", "properties": {"collection_times": [{"days": "Mon-Fri", "time": "4:45pm"}, {"days": "Sat", "time": "4:00pm"}, {"days": "Sun", "time": "Closed"}], "id": "6302000031", "name": "USPS COLLECTION BOX - BLUE BOX", "address": {"city": "DE SOTO", "state": "MO", "street": "950 BOYD ST", "postcode": "63020"}}},
{"geometry": {"type": "Point", "coordinates": [-90.5628373542, 38.1422277293]}, "type": "Feature", "properties": {"collection_times": [{"days": "Mon-Fri", "time": "5:00pm"}, {"days": "Sat", "time": "4:00pm"}, {"days": "Sun", "time": "Closed"}], "id": "6302000032", "name": "USPS COLLECTION BOX - PO LOBBY", "address": {"city": "DE SOTO", "state": "MO", "street": "950 BOYD ST", "postcode": "63020"}}},
{"geometry": {"type": "Point", "coordinates": [-90.7128059611, 38.2660886571]}, "type": "Feature", "properties": {"collection_times": [{"days": "Mon-Fri", "time": "3:00pm"}, {"days": "Sat", "time": "10:30am"}, {"days": "Sun", "time": "Closed"}], "id": "6302300001", "name": "USPS COLLECTION BOX - BLUE BOX", "address": {"city": "DITTMER", "state": "MO", "street": "7768 GRAVOIS RD", "postcode": "63023"}}},
{"geometry": {"type": "Point", "coordinates": [-90.7128059611, 38.2660886571]}, "type": "Feature", "properties": {"collection_times": [{"days": "Mon-Fri", "time": "3:00pm"}, {"days": "Sat", "time": "10:30am"}, {"days": "Sun", "time": "Closed"}], "id": "6302300002", "name": "USPS COLLECTION BOX - PO LOBBY", "address": {"city": "DITTMER", "state": "MO", "street": "7768 GRAVOIS RD", "postcode": "63023"}}},
{"geometry": {"type": "Point", "coordinates": [-90.6268211024, 38.5010569449]}, "type": "Feature", "properties": {"collection_times": [{"days": "Mon-Fri", "time": "4:45pm"}, {"days": "Sat", "time": "12:00pm"}, {"days": "Sun", "time": "Closed"}], "id": "6302500004", "name": "USPS COLLECTION BOX - BLUE BOX", "address": {"city": "EUREKA", "state": "MO", "street": "101 THRESHER DR", "postcode": "63025"}}},
{"geometry": {"type": "Point", "coordinates": [-90.626821102, 38.501056945]}, "type": "Feature", "properties": {"collection_times": [{"days": "Mon-Fri", "time": "4:45pm"}, {"days": "Sat", "time": "12:00pm"}, {"days": "Sun", "time": "Closed"}], "id": "6302500008", "name": "USPS COLLECTION BOX - PO LOBBY", "address": {"city": "EUREKA", "state": "MO", "street": "101 THRESHER DR", "postcode": "63025"}}},
{"geometry": {"type": "Point", "coordinates": [-90.4439253133, 38.5343104064]}, "type": "Feature", "properties": {"collection_times": [{"days": "Mon-Sat", "time": "10:30am"}, {"days": "Sun", "time": "Closed"}], "id": "6302600005", "name": "USPS COLLECTION BOX - BLUE BOX", "address": {"city": "FENTON", "state": "MO", "street": "1626 MANUFACTURERS DR", "postcode": "63026"}}},
{"geometry": {"type": "Point", "coordinates": [-90.471518744, 38.540753512]}, "type": "Feature", "properties": {"collection_times": [{"days": "Mon-Sat", "time": "10:30am"}, {"days": "Sun", "time": "Closed"}], "id": "6302600008", "name": "USPS COLLECTION BOX - BLUE BOX", "address": {"city": "FENTON", "state": "MO", "street": "1855 INTERTECH DR", "postcode": "63026"}}},
{"geometry": {"type": "Point", "coordinates": [-90.462541472, 38.499580828]}, "type": "Feature", "properties": {"collection_times": [{"days": "Mon-Sat", "time": "10:00am"}, {"days": "Sun", "time": "Closed"}], "id": "6302600012", "name": "USPS COLLECTION BOX - BLUE BOX", "address": {"city": "FENTON", "state": "MO", "street": "300 BILTMORE DR", "postcode": "63026"}}},
{"geometry": {"type": "Point", "coordinates": [-90.442425288, 38.540070409]}, "type": "Feature", "properties": {"collection_times": [{"days": "Mon-Sat", "time": "9:00am"}, {"days": "Sun", "time": "Closed"}], "id": "6302600016", "name": "USPS COLLECTION BOX - BLUE BOX", "address": {"city": "FENTON", "state": "MO", "street": "1 FABICK DR", "postcode": "63026"}}},
{"geometry": {"type": "Point", "coordinates": [-90.4636599041, 38.5381776036]}, "type": "Feature", "properties": {"collection_times": [{"days": "Mon-Fri", "time": "2:00pm"}, {"days": "Sat", "time": "12:15pm"}, {"days": "Sun", "time": "Closed"}], "id": "6302600019", "name": "USPS COLLECTION BOX - BLUE BOX", "address": {"city": "FENTON", "state": "MO", "street": "997 HORAN DR", "postcode": "63026"}}},
{"geometry": {"type": "Point", "coordinates": [-90.456807972, 38.539647429]}, "type": "Feature", "properties": {"collection_times": [{"days": "Mon-Sat", "time": "12:00pm"}, {"days": "Sun", "time": "Closed"}], "id": "6302600022", "name": "USPS COLLECTION BOX - BLUE BOX", "address": {"city": "FENTON", "state": "MO", "street": "796 MERUS CT", "postcode": "63026"}}},
{"geometry": {"type": "Point", "coordinates": [-90.448901858, 38.540248427]}, "type": "Feature", "properties": {"collection_times": [{"days": "Mon-Sat", "time": "10:30am"}, {"days": "Sun", "time": "Closed"}], "id": "6302600030", "name": "USPS COLLECTION BOX - BLUE BOX", "address": {"city": "FENTON", "state": "MO", "street": "1860 FENPARK DR", "postcode": "63026"}}},
{"geometry": {"type": "Point", "coordinates": [-90.4551662507, 38.5379079509]}, "type": "Feature", "properties": {"collection_times": [{"days": "Mon-Fri", "time": "12:30pm"}, {"days": "Sat", "time": "12:00pm"}, {"days": "Sun", "time": "Closed"}], "id": "6302600034", "name": "USPS COLLECTION BOX - BLUE BOX", "address": {"city": "FENTON", "state": "MO", "street": "1670 LARKIN WILLIAMS RD", "postcode": "63026"}}},
{"geometry": {"type": "Point", "coordinates": [-90.455166251, 38.537907951]}, "type": "Feature", "properties": {"collection_times": [{"days": "Mon-Fri", "time": "12:30pm"}, {"days": "Sat", "time": "12:00pm"}, {"days": "Sun", "time": "Closed"}], "id": "6302600035", "name": "USPS COLLECTION BOX - BLUE BOX", "address": {"city": "FENTON", "state": "MO", "street": "1670 LARKIN WILLIAMS RD", "postcode": "63026"}}},
{"geometry": {"type": "Point", "coordinates": [-90.440272572, 38.512153864]}, "type": "Feature", "properties": {"collection_times": [{"days": "Mon-Fri", "time": "5:15pm"}, {"days": "Sat", "time": "1:30pm"}, {"days": "Sun", "time": "Closed"}], "id": "6302600042", "name": "USPS COLLECTION BOX - BLUE BOX", "address": {"city": "FENTON", "state": "MO", "street": "10 FENTON PLZ", "postcode": "63026"}}},
{"geometry": {"type": "Point", "coordinates": [-90.440272572, 38.512153864]}, "type": "Feature", "properties": {"collection_times": [{"days": "Mon-Fri", "time": "5:15pm"}, {"days": "Sat", "time": "1:30pm"}, {"days": "Sun", "time": "Closed"}], "id": "6302600044", "name": "USPS COLLECTION BOX - BLUE BOX", "address": {"city": "FENTON", "state": "MO", "street": "10 FENTON PLZ", "postcode": "63026"}}},
{"geometry": {"type": "Point", "coordinates": [-90.440272572, 38.512153864]}, "type": "Feature", "properties": {"collection_times": [{"days": "Mon-Fri", "time": "5:15pm"}, {"days": "Sat", "time": "1:30pm"}, {"days": "Sun", "time": "Closed"}], "id": "6302600047", "name": "USPS COLLECTION BOX - PO LOBBY", "address": {"city": "FENTON", "state": "MO", "street": "10 FENTON PLZ", "postcode": "63026"}}},
{"geometry": {"type": "Point", "coordinates": [-90.440272572, 38.512153864]}, "type": "Feature", "properties": {"collection_times": [{"days": "Mon-Fri", "time": "5:15pm"}, {"days": "Sat", "time": "1:30pm"}, {"days": "Sun", "time": "Closed"}], "id": "6302600049", "name": "USPS COLLECTION BOX - APC", "address": {"city": "FENTON", "state": "MO", "street": "10 FENTON PLZ", "postcode": "63026"}}},
{"geometry": {"type": "Point", "coordinates": [-90.441788914, 38.543487714]}, "type": "Feature", "properties": {"collection_times": [{"days": "Mon-Sat", "time": "11:00am"}, {"days": "Sun", "time": "Closed"}], "id": "6302600053", "name": "USPS COLLECTION BOX - BLUE BOX", "address": {"city": "FENTON", "state": "MO", "street": "205 SOCCER PARK RD", "postcode": "63026"}}},
{"geometry": {"type": "Point", "coordinates": [-90.457079376, 38.493624421]}, "type": "Feature", "properties": {"collection_times": [{"days": "Mon-Sat", "time": "10:15am"}, {"days": "Sun", "time": "Closed"}], "id": "6302600054", "name": "USPS COLLECTION BOX - BLUE BOX", "address": {"city": "FENTON", "state": "MO", "street": "820 SUNPARK DR", "postcode": "63026"}}},
{"geometry": {"type": "Point", "coordinates": [-90.4490149869, 38.5143466288]}, "type": "Feature", "properties": {"collection_times": [{"days": "Mon-Sat", "time": "10:00am"}, {"days": "Sun", "time": "Closed"}], "id": "6302600055", "name": "USPS COLLECTION BOX - BLUE BOX", "address": {"city": "FENTON", "state": "MO", "street": "450 OLD SMIZER MILL RD", "postcode": "63026"}}},
{"geometry": {"type": "Point", "coordinates": [-90.3955341698, 38.2198052317]}, "type": "Feature", "properties": {"collection_times": [{"days": "Mon-Fri", "time": "4:00pm"}, {"days": "Sat", "time": "1:00pm"}, {"days": "Sun", "time": "Closed"}], "id": "6302800001", "name": "USPS COLLECTION BOX - BLUE BOX", "address": {"city": "FESTUS", "state": "MO", "street": "109 WALNUT ST", "postcode": "63028"}}},
{"geometry": {"type": "Point", "coordinates": [-90.3911634726, 38.2197163433]}, "type": "Feature", "properties": {"collection_times": [{"days": "Mon-Sat", "time": "10:00am"}, {"days": "Sun", "time": "Closed"}], "id": "6302800004", "name": "USPS COLLECTION BOX - BLUE BOX", "address": {"city": "FESTUS", "state": "MO", "street": "125 E MAIN ST", "postcode": "63028"}}},
{"geometry": {"type": "Point", "coordinates": [-90.3952848115, 38.1968238457]}, "type": "Feature", "properties": {"collection_times": [{"days": "Mon-Fri", "time": "11:00am"}, {"days": "Sat", "time": "10:00am"}, {"days": "Sun", "time": "Closed"}], "id": "6302800010", "name": "USPS COLLECTION BOX - BLUE BOX", "address": {"city": "FESTUS", "state": "MO", "street": "1400 US HIGHWAY 61", "postcode": "63028"}}},
{"geometry": {"type": "Point", "coordinates": [-90.3899391101, 38.2195933156]}, "type": "Feature", "properties": {"collection_times": [{"days": "Mon-Sat", "time": "10:00am"}, {"days": "Sun", "time": "Closed"}], "id": "6302800012", "name": "USPS COLLECTION BOX - BLUE BOX", "address": {"city": "FESTUS", "state": "MO", "street": "39 E MAIN ST", "postcode": "63028"}}},
{"geometry": {"type": "Point", "coordinates": [-90.4035313086, 38.210298807]}, "type": "Feature", "properties": {"collection_times": [{"days": "Mon-Fri", "time": "12:00pm"}, {"days": "Sat", "time": "10:00am"}, {"days": "Sun", "time": "Closed"}], "id": "6302800017", "name": "USPS COLLECTION BOX - BLUE BOX", "address": {"city": "FESTUS", "state": "MO", "street": "1181 W GANNON DR", "postcode": "63028"}}},
{"geometry": {"type": "Point", "coordinates": [-90.3954130889, 38.2020561706]}, "type": "Feature", "properties": {"collection_times": [{"days": "Mon-Sat", "time": "10:00am"}, {"days": "Sun", "time": "Closed"}], "id": "6302800018", "name": "USPS COLLECTION BOX - BLUE BOX", "address": {"city": "FESTUS", "state": "MO", "street": "1275 N TRUMAN BLVD", "postcode": "63028"}}},
{"geometry": {"type": "Point", "coordinates": [-90.3955341698, 38.2198052317]}, "type": "Feature", "properties": {"collection_times": [{"days": "Mon-Fri", "time": "4:00pm"}, {"days": "Sat", "time": "1:00pm"}, {"days": "Sun", "time": "Closed"}], "id": "6302800021", "name": "USPS COLLECTION BOX - BLUE BOX", "address": {"city": "FESTUS", "state": "MO", "street": "109 WALNUT ST", "postcode": "63028"}}},
{"geometry": {"type": "Point", "coordinates": [-90.3955341698, 38.2198052317]}, "type": "Feature", "properties": {"collection_times": [{"days": "Mon-Fri", "time": "4:00pm"}, {"days": "Sat", "time": "1:00pm"}, {"days": "Sun", "time": "Closed"}], "id": "6302800025", "name": "USPS COLLECTION BOX - PO LOBBY", "address": {"city": "FESTUS", "state": "MO", "street": "109 WALNUT ST", "postcode": "63028"}}},
{"geometry": {"type": "Point", "coordinates": [-90.3952432314, 38.1972588173]}, "type": "Feature", "properties": {"collection_times": [{"days": "Mon-Fri", "time": "11:00am"}, {"days": "Sat", "time": "10:00am"}, {"days": "Sun", "time": "Closed"}], "id": "6302800026", "name": "USPS COLLECTION BOX - BLUE BOX", "address": {"city": "FESTUS", "state": "MO", "street": "1390 US HIGHWAY 61", "postcode": "63028"}}},
{"geometry": {"type": "Point", "coordinates": [-90.7364435972, 38.1655998366]}, "type": "Feature", "properties": {"collection_times": [{"days": "Mon-Fri", "time": "1:30pm"}, {"days": "Sat", "time": "11:30am"}, {"days": "Sun", "time": "Closed"}], "id": "6303000001", "name": "USPS COLLECTION BOX - BLUE BOX", "address": {"city": "FLETCHER", "state": "MO", "street": "7682 OLD HIGHWAY H", "postcode": "63030"}}},
{"geometry": {"type": "Point", "coordinates": [-90.3673623382, 38.8070365421]}, "type": "Feature", "properties": {"collection_times": [{"days": "Mon-Sat", "time": "12:50pm"}, {"days": "Sun", "time": "Closed"}], "id": "6303100004", "name": "USPS COLLECTION BOX - BLUE BOX", "address": {"city": "FLORISSANT", "state": "MO", "street": "2121 FLORDAWN DR", "postcode": "63031"}}},
{"geometry": {"type": "Point", "coordinates": [-90.3664585576, 38.8154521122]}, "type": "Feature", "properties": {"collection_times": [{"days": "Mon-Sat", "time": "1:05pm"}, {"days": "Sun", "time": "Closed"}], "id": "6303100005", "name": "USPS COLLECTION BOX - BLUE BOX", "address": {"city": "FLORISSANT", "state": "MO", "street": "555 BLUFF PARKS DR", "postcode": "63031"}}},
{"geometry": {"type": "Point", "coordinates": [-90.3149264864, 38.8254959216]}, "type": "Feature", "properties": {"collection_times": [{"days": "Mon-Sat", "time": "12:00pm"}, {"days": "Sun", "time": "Closed"}], "id": "6303100007", "name": "USPS COLLECTION BOX - BLUE BOX", "address": {"city": "FLORISSANT", "state": "MO", "street": "629 GREENWAY MANOR DR", "postcode": "63031"}}},
{"geometry": {"type": "Point", "coordinates": [-90.3390201569, 38.8210941689]}, "type": "Feature", "properties": {"collection_times": [{"days": "Mon-Sat", "time": "12:35pm"}, {"days": "Sun", "time": "Closed"}], "id": "6303100008", "name": "USPS COLLECTION BOX - BLUE BOX", "address": {"city": "FLORISSANT", "state": "MO", "street": "15955 NEWS HALLS FERRY RD", "postcode": "63031"}}},
{"geometry": {"type": "Point", "coordinates": [-90.3626067327, 38.8050971951]}, "type": "Feature", "properties": {"collection_times": [{"days": "Mon-Sat", "time": "11:00am"}, {"days": "Sun", "time": "Closed"}], "id": "6303100010", "name": "USPS COLLECTION BOX - BLUE BOX", "address": {"city": "FLORISSANT", "state": "MO", "street": "490 HOWDERSHELL RD", "postcode": "63031"}}},
{"geometry": {"type": "Point", "coordinates": [-90.3316411382, 38.8052945588]}, "type": "Feature", "properties": {"collection_times": [{"days": "Mon-Sat", "time": "12:50pm"}, {"days": "Sun", "time": "Closed"}], "id": "6303100012", "name": "USPS COLLECTION BOX - BLUE BOX", "address": {"city": "FLORISSANT", "state": "MO", "street": "33 MULLANPHY GARDEN SHOPPING CTR", "postcode": "63031"}}},
{"geometry": {"type": "Point", "coordinates": [-90.327561933, 38.8106567548]}, "type": "Feature", "properties": {"collection_times": [{"days": "Mon-Sat", "time": "12:00pm"}, {"days": "Sun", "time": "Closed"}], "id": "6303100014", "name": "USPS COLLECTION BOX - BLUE BOX", "address": {"city": "FLORISSANT", "state": "MO", "street": "20 PATTERSON PLZ", "postcode": "63031"}}},
{"geometry": {"type": "Point", "coordinates": [-90.317633021, 38.8212417105]}, "type": "Feature", "properties": {"collection_times": [{"days": "Mon-Sat", "time": "11:00am"}, {"days": "Sun", "time": "Closed"}], "id": "6303100016", "name": "USPS COLLECTION BOX - BLUE BOX", "address": {"city": "FLORISSANT", "state": "MO", "street": "2905 PATTERSON RD", "postcode": "63031"}}},
{"geometry": {"type": "Point", "coordinates": [-90.3524996418, 38.8058145455]}, "type": "Feature", "properties": {"collection_times": [{"days": "Mon-Sat", "time": "12:50pm"}, {"days": "Sun", "time": "Closed"}], "id": "6303100017", "name": "USPS COLLECTION BOX - BLUE BOX", "address": {"city": "FLORISSANT", "state": "MO", "street": "501 PAUL AVE", "postcode": "63031"}}},
{"geometry": {"type": "Point", "coordinates": [-90.3431579175, 38.8182603096]}, "type": "Feature", "properties": {"collection_times": [{"days": "Mon-Fri", "time": "5:00pm"}, {"days": "Sat", "time": "3:00pm"}, {"days": "Sun", "time": "Closed"}], "id": "6303100020", "name": "USPS COLLECTION BOX - BLUE BOX", "address": {"city": "FLORISSANT", "state": "MO", "street": "1650 SHACKELFORD RD", "postcode": "63031"}}},
{"geometry": {"type": "Point", "coordinates": [-90.3433222461, 38.8180463412]}, "type": "Feature", "properties": {"collection_times": [{"days": "Mon-Fri", "time": "5:00pm"}, {"days": "Sat", "time": "12:00pm"}, {"days": "Sun", "time": "Closed"}], "id": "6303100023", "name": "USPS COLLECTION BOX - PO LOBBY", "address": {"city": "FLORISSANT", "state": "MO", "street": "1650 SHACKELFORD RD", "postcode": "63031"}}},
{"geometry": {"type": "Point", "coordinates": [-90.3388658751, 38.8072030512]}, "type": "Feature", "properties": {"collection_times": [{"days": "Mon-Sat", "time": "10:45am"}, {"days": "Sun", "time": "Closed"}], "id": "6303100035", "name": "USPS COLLECTION BOX - BLUE BOX", "address": {"city": "FLORISSANT", "state": "MO", "street": "822 THOMPSON DR", "postcode": "63031"}}},
{"geometry": {"type": "Point", "coordinates": [-90.31155, 38.802433]}, "type": "Feature", "properties": {"collection_times": [{"days": "Mon-Fri", "time": "5:00pm"}, {"days": "Sat", "time": "3:00pm"}, {"days": "Sun", "time": "Closed"}], "id": "6303300001", "name": "USPS COLLECTION BOX - BLUE BOX", "address": {"city": "FLORISSANT", "state": "MO", "street": "2200 N HIGHWAY 67", "postcode": "63033"}}},
{"geometry": {"type": "Point", "coordinates": [-90.3102987637, 38.803118582]}, "type": "Feature", "properties": {"collection_times": [{"days": "Mon-Fri", "time": "5:00pm"}, {"days": "Sat", "time": "3:00pm"}, {"days": "Sun", "time": "Closed"}], "id": "6303300003", "name": "USPS COLLECTION BOX - BLUE BOX", "address": {"city": "FLORISSANT", "state": "MO", "street": "2200 N US HIGHWAY 67", "postcode": "63033"}}},
{"geometry": {"type": "Point", "coordinates": [-90.2698652262, 38.7732027327]}, "type": "Feature", "properties": {"collection_times": [{"days": "Mon-Sat", "time": "12:45pm"}, {"days": "Sun", "time": "Closed"}], "id": "6303300005", "name": "USPS COLLECTION BOX - BLUE BOX", "address": {"city": "FLORISSANT", "state": "MO", "street": "11115 NEW HALLS FERRY RD", "postcode": "63033"}}},
{"geometry": {"type": "Point", "coordinates": [-90.3350274858, 38.7794455921]}, "type": "Feature", "properties": {"collection_times": [{"days": "Mon-Sat", "time": "12:00pm"}, {"days": "Sun", "time": "Closed"}], "id": "6303300012", "name": "USPS COLLECTION BOX - BLUE BOX", "address": {"city": "FLORISSANT", "state": "MO", "street": "1225 GRAHAM RD", "postcode": "63033"}}},
{"geometry": {"type": "Point", "coordinates": [-90.2991210397, 38.8082300423]}, "type": "Feature", "properties": {"collection_times": [{"days": "Mon-Sat", "time": "12:00pm"}, {"days": "Sun", "time": "Closed"}], "id": "6303300015", "name": "USPS COLLECTION BOX - BLUE BOX", "address": {"city": "FLORISSANT", "state": "MO", "street": "115 CROSS KEYS SHOPPING CTR", "postcode": "63033"}}},
{"geometry": {"type": "Point", "coordinates": [-90.3402247578, 38.7953258226]}, "type": "Feature", "properties": {"collection_times": [{"days": "Mon-Sat", "time": "10:30am"}, {"days": "Sun", "time": "Closed"}], "id": "6303300016", "name": "USPS COLLECTION BOX - BLUE BOX", "address": {"city": "FLORISSANT", "state": "MO", "street": "222 N HIGHWAY 67", "postcode": "63033"}}},
{"geometry": {"type": "Point", "coordinates": [-90.304789824, 38.806034672]}, "type": "Feature", "properties": {"collection_times": [{"days": "Mon-Sat", "time": "12:20pm"}, {"days": "Sun", "time": "Closed"}], "id": "6303300017", "name": "USPS COLLECTION BOX - BLUE BOX", "address": {"city": "FLORISSANT", "state": "MO", "street": "2686 N HIGHWAY 67", "postcode": "63033"}}},
{"geometry": {"type": "Point", "coordinates": [-90.2967999866, 38.8135120241]}, "type": "Feature", "properties": {"collection_times": [{"days": "Mon-Sat", "time": "12:35pm"}, {"days": "Sun", "time": "Closed"}], "id": "6303300019", "name": "USPS COLLECTION BOX - BLUE BOX", "address": {"city": "FLORISSANT", "state": "MO", "street": "3200 SUNSWEPT PARK DR", "postcode": "63033"}}},
{"geometry": {"type": "Point", "coordinates": [-90.2950664084, 38.8111930982]}, "type": "Feature", "properties": {"collection_times": [{"days": "Mon-Sat", "time": "12:35pm"}, {"days": "Sun", "time": "Closed"}], "id": "6303300020", "name": "USPS COLLECTION BOX - BLUE BOX", "address": {"city": "FLORISSANT", "state": "MO", "street": "3250 N US HIGHWAY 67", "postcode": "63033"}}},
{"geometry": {"type": "Point", "coordinates": [-90.3085172275, 38.7736439764]}, "type": "Feature", "properties": {"collection_times": [{"days": "Mon-Sat", "time": "9:30am"}, {"days": "Sun", "time": "Closed"}], "id": "6303300022", "name": "USPS COLLECTION BOX - BLUE BOX", "address": {"city": "FLORISSANT", "state": "MO", "street": "4585 WASHINGTON ST", "postcode": "63033"}}},
{"geometry": {"type": "Point", "coordinates": [-90.3379751822, 38.7975206948]}, "type": "Feature", "properties": {"collection_times": [{"days": "Mon-Sat", "time": "10:30am"}, {"days": "Sun", "time": "Closed"}], "id": "6303300023", "name": "USPS COLLECTION BOX - BLUE BOX", "address": {"city": "FLORISSANT", "state": "MO", "street": "460 N HIGHWAY 67", "postcode": "63033"}}},
{"geometry": {"type": "Point", "coordinates": [-90.3358211432, 38.7996529675]}, "type": "Feature", "properties": {"collection_times": [{"days": "Mon-Sat", "time": "11:30am"}, {"days": "Sun", "time": "Closed"}], "id": "6303300027", "name": "USPS COLLECTION BOX - BLUE BOX", "address": {"city": "FLORISSANT", "state": "MO", "street": "775 N HIGHWAY 67", "postcode": "63033"}}},
{"geometry": {"type": "Point", "coordinates": [-90.3452445544, 38.7909873378]}, "type": "Feature", "properties": {"collection_times": [{"days": "Mon-Fri", "time": "12:15pm"}, {"days": "Sat", "time": "1:00pm"}, {"days": "Sun", "time": "Closed"}], "id": "6303300028", "name": "USPS COLLECTION BOX - BLUE BOX", "address": {"city": "FLORISSANT", "state": "MO", "street": "8200 N LINDBERGH BLVD", "postcode": "63033"}}},
{"geometry": {"type": "Point", "coordinates": [-90.291033094, 38.7970192456]}, "type": "Feature", "properties": {"collection_times": [{"days": "Mon-Sat", "time": "1:05pm"}, {"days": "Sun", "time": "Closed"}], "id": "6303300032", "name": "USPS COLLECTION BOX - BLUE BOX", "address": {"city": "FLORISSANT", "state": "MO", "street": "13300 NEW HALLS FERRY RD", "postcode": "63033"}}},
{"geometry": {"type": "Point", "coordinates": [-90.3216500138, 38.7940816046]}, "type": "Feature", "properties": {"collection_times": [{"days": "Mon-Sat", "time": "1:50pm"}, {"days": "Sun", "time": "Closed"}], "id": "6303300033", "name": "USPS COLLECTION BOX - BLUE BOX", "address": {"city": "FLORISSANT", "state": "MO", "street": "870 BOONE ST", "postcode": "63033"}}},
{"geometry": {"type": "Point", "coordinates": [-90.3203100357, 38.7919702853]}, "type": "Feature", "properties": {"collection_times": [{"days": "Mon-Sat", "time": "1:00pm"}, {"days": "Sun", "time": "Closed"}], "id": "6303300035", "name": "USPS COLLECTION BOX - BLUE BOX", "address": {"city": "FLORISSANT", "state": "MO", "street": "750 N NEW FLORISSANT RD", "postcode": "63033"}}},
{"geometry": {"type": "Point", "coordinates": [-90.330184523, 38.7754781322]}, "type": "Feature", "properties": {"collection_times": [{"days": "Mon-Sat", "time": "2:20pm"}, {"days": "Sun", "time": "Closed"}], "id": "6303300038", "name": "USPS COLLECTION BOX - BLUE BOX", "address": {"city": "FLORISSANT", "state": "MO", "street": "449 DUNN RD", "postcode": "63033"}}},
{"geometry": {"type": "Point", "coordinates": [-90.3161276096, 38.8024558919]}, "type": "Feature", "properties": {"collection_times": [{"days": "Mon-Sat", "time": "12:10pm"}, {"days": "Sun", "time": "Closed"}], "id": "6303300039", "name": "USPS COLLECTION BOX - BLUE BOX", "address": {"city": "FLORISSANT", "state": "MO", "street": "1768 N NEW FLORISSANT RD", "postcode": "63033"}}},
{"geometry": {"type": "Point", "coordinates": [-90.2961379947, 38.8118756202]}, "type": "Feature", "properties": {"collection_times": [{"days": "Mon-Sat", "time": "12:00pm"}, {"days": "Sun", "time": "Closed"}], "id": "6303300040", "name": "USPS COLLECTION BOX - BLUE BOX", "address": {"city": "FLORISSANT", "state": "MO", "street": "175 FLOWER VALLEY SHOPPING CTR", "postcode": "63033"}}},
{"geometry": {"type": "Point", "coordinates": [-90.2778326295, 38.7958354529]}, "type": "Feature", "properties": {"collection_times": [{"days": "Mon-Sat", "time": "10:00am"}, {"days": "Sun", "time": "Closed"}], "id": "6303300044", "name": "USPS COLLECTION BOX - BLUE BOX", "address": {"city": "FLORISSANT", "state": "MO", "street": "#68 GRANDVIEW PLZ SHOP CTR", "postcode": "63033"}}},
{"geometry": {"type": "Point", "coordinates": [-90.2622731543, 38.7939307627]}, "type": "Feature", "properties": {"collection_times": [{"days": "Mon-Sat", "time": "12:45pm"}, {"days": "Sun", "time": "Closed"}], "id": "6303300049", "name": "USPS COLLECTION BOX - BLUE BOX", "address": {"city": "FLORISSANT", "state": "MO", "street": "12404 CENTERBROOK DR", "postcode": "63033"}}},
{"geometry": {"type": "Point", "coordinates": [-90.329750735, 38.7821615329]}, "type": "Feature", "properties": {"collection_times": [{"days": "Mon-Sat", "time": "2:20pm"}, {"days": "Sun", "time": "Closed"}], "id": "6303300050", "name": "USPS COLLECTION BOX - BLUE BOX", "address": {"city": "FLORISSANT", "state": "MO", "street": "925 S LAFAYETTE ST", "postcode": "63033"}}},
{"geometry": {"type": "Point", "coordinates": [-90.2798450955, 38.7726022573]}, "type": "Feature", "properties": {"collection_times": [{"days": "Mon-Sat", "time": "1:50pm"}, {"days": "Sun", "time": "Closed"}], "id": "6303300052", "name": "USPS COLLECTION BOX - BLUE BOX", "address": {"city": "FLORISSANT", "state": "MO", "street": "11220 W FLORISSANT AVE", "postcode": "63033"}}},
{"geometry": {"type": "Point", "coordinates": [-90.2325618059, 38.794730749]}, "type": "Feature", "properties": {"collection_times": [{"days": "Mon-Sat", "time": "12:00pm"}, {"days": "Sun", "time": "Closed"}], "id": "6303300056", "name": "USPS COLLECTION BOX - BLUE BOX", "address": {"city": "FLORISSANT", "state": "MO", "street": "196 MAYFAIR PLAZA SHOPPING CTR", "postcode": "63033"}}},
{"geometry": {"type": "Point", "coordinates": [-90.3237122406, 38.7952910067]}, "type": "Feature", "properties": {"collection_times": [{"days": "Mon-Sat", "time": "11:00am"}, {"days": "Sun", "time": "Closed"}], "id": "6303300064", "name": "USPS COLLECTION BOX - BLUE BOX", "address": {"city": "FLORISSANT", "state": "MO", "street": "890 N LAFAYETTE ST", "postcode": "63033"}}},
{"geometry": {"type": "Point", "coordinates": [-90.3275983556, 38.7937814869]}, "type": "Feature", "properties": {"collection_times": [{"days": "Mon-Sat", "time": "1:50pm"}, {"days": "Sun", "time": "Closed"}], "id": "6303300068", "name": "USPS COLLECTION BOX - BLUE BOX", "address": {"city": "FLORISSANT", "state": "MO", "street": "525 ST FRANCOIS ST", "postcode": "63033"}}},
{"geometry": {"type": "Point", "coordinates": [-90.31627614, 38.782939852]}, "type": "Feature", "properties": {"collection_times": [{"days": "Mon-Sat", "time": "2:00pm"}, {"days": "Sun", "time": "Closed"}], "id": "6303300070", "name": "USPS COLLECTION BOX - BLUE BOX", "address": {"city": "FLORISSANT", "state": "MO", "street": "1725 WASHINGTON ST", "postcode": "63033"}}},
{"geometry": {"type": "Point", "coordinates": [-90.2990387913, 38.7732824437]}, "type": "Feature", "properties": {"collection_times": [{"days": "Mon-Sat", "time": "12:00pm"}, {"days": "Sun", "time": "Closed"}], "id": "6303300071", "name": "USPS COLLECTION BOX - BLUE BOX", "address": {"city": "FLORISSANT", "state": "MO", "street": "1480 S WATERFORD DR", "postcode": "63033"}}},
{"geometry": {"type": "Point", "coordinates": [-90.3014220352, 38.7886845047]}, "type": "Feature", "properties": {"collection_times": [{"days": "Mon-Sat", "time": "1:20pm"}, {"days": "Sun", "time": "Closed"}], "id": "6303300073", "name": "USPS COLLECTION BOX - BLUE BOX", "address": {"city": "FLORISSANT", "state": "MO", "street": "650 WATERFORD DR", "postcode": "63033"}}},
{"geometry": {"type": "Point", "coordinates": [-90.3039045128, 38.8160272701]}, "type": "Feature", "properties": {"collection_times": [{"days": "Mon-Sat", "time": "12:20pm"}, {"days": "Sun", "time": "Closed"}], "id": "6303300074", "name": "USPS COLLECTION BOX - BLUE BOX", "address": {"city": "FLORISSANT", "state": "MO", "street": "2640 WEDGEWOOD DR W", "postcode": "63033"}}},
{"geometry": {"type": "Point", "coordinates": [-90.2696365846, 38.7918738317]}, "type": "Feature", "properties": {"collection_times": [{"days": "Mon-Sat", "time": "1:05pm"}, {"days": "Sun", "time": "Closed"}], "id": "6303300075", "name": "USPS COLLECTION BOX - BLUE BOX", "address": {"city": "FLORISSANT", "state": "MO", "street": "4690 WHISPER LAKE DR", "postcode": "63033"}}},
{"geometry": {"type": "Point", "coordinates": [-90.2931624883, 38.7739858016]}, "type": "Feature", "properties": {"collection_times": [{"days": "Mon-Sat", "time": "1:50pm"}, {"days": "Sun", "time": "Closed"}], "id": "6303300076", "name": "USPS COLLECTION BOX - BLUE BOX", "address": {"city": "FLORISSANT", "state": "MO", "street": "1611 SUMMER RUN DR", "postcode": "63033"}}},
{"geometry": {"type": "Point", "coordinates": [-90.2825301619, 38.8189221362]}, "type": "Feature", "properties": {"collection_times": [{"days": "Mon-Sat", "time": "12:35pm"}, {"days": "Sun", "time": "Closed"}], "id": "6303300078", "name": "USPS COLLECTION BOX - BLUE BOX", "address": {"city": "FLORISSANT", "state": "MO", "street": "14295 RIVERFRONT DR", "postcode": "63033"}}},
{"geometry": {"type": "Point", "coordinates": [-90.3102987637, 38.803118582]}, "type": "Feature", "properties": {"collection_times": [{"days": "Mon-Fri", "time": "5:00pm"}, {"days": "Sat", "time": "3:00pm"}, {"days": "Sun", "time": "Closed"}], "id": "6303300079", "name": "USPS COLLECTION BOX - BLUE BOX", "address": {"city": "FLORISSANT", "state": "MO", "street": "2200 N US HIGHWAY 67", "postcode": "63033"}}},
{"geometry": {"type": "Point", "coordinates": [-90.3102987637, 38.803118582]}, "type": "Feature", "properties": {"collection_times": [{"days": "Mon-Fri", "time": "5:00pm"}, {"days": "Sat", "time": "3:00pm"}, {"days": "Sun", "time": "Closed"}], "id": "6303300080", "name": "USPS COLLECTION BOX - BLUE BOX", "address": {"city": "FLORISSANT", "state": "MO", "street": "2200 N US HIGHWAY 67", "postcode": "63033"}}},
{"geometry": {"type": "Point", "coordinates": [-90.3102987637, 38.803118582]}, "type": "Feature", "properties": {"collection_times": [{"days": "Mon-Fri", "time": "5:00pm"}, {"days": "Sat", "time": "3:00pm"}, {"days": "Sun", "time": "Closed"}], "id": "6303300081", "name": "USPS COLLECTION BOX - BLUE BOX", "address": {"city": "FLORISSANT", "state": "MO", "street": "2200 N US HIGHWAY 67", "postcode": "63033"}}},
{"geometry": {"type": "Point", "coordinates": [-90.3102987637, 38.803118582]}, "type": "Feature", "properties": {"collection_times": [{"days": "Mon-Fri", "time": "5:00pm"}, {"days": "Sat", "time": "3:00pm"}, {"days": "Sun", "time": "Closed"}], "id": "6303300082", "name": "USPS COLLECTION BOX - BLUE BOX", "address": {"city": "FLORISSANT", "state": "MO", "street": "2200 N US HIGHWAY 67", "postcode": "63033"}}},
{"geometry": {"type": "Point", "coordinates": [-90.2850182219, 38.7948024055]}, "type": "Feature", "properties": {"collection_times": [{"days": "Mon-Sat", "time": "1:35pm"}, {"days": "Sun", "time": "Closed"}], "id": "6303300083", "name": "USPS COLLECTION BOX - BLUE BOX", "address": {"city": "FLORISSANT", "state": "MO", "street": "11011 SUGAR PINES CT", "postcode": "63033"}}},
{"geometry": {"type": "Point", "coordinates": [-90.2850182219, 38.7948024055]}, "type": "Feature", "properties": {"collection_times": [{"days": "Mon-Sat", "time": "1:35pm"}, {"days": "Sun", "time": "Closed"}], "id": "6303300085", "name": "USPS COLLECTION BOX - BLUE BOX", "address": {"city": "FLORISSANT", "state": "MO", "street": "11899 NEW HALLS FERRY RD", "postcode": "63033"}}},
{"geometry": {"type": "Point", "coordinates": [-90.2716008488, 38.7715131615]}, "type": "Feature", "properties": {"collection_times": [{"days": "Mon-Sat", "time": "1:35pm"}, {"days": "Sun", "time": "Closed"}], "id": "6303300086", "name": "USPS COLLECTION BOX - BLUE BOX", "address": {"city": "FLORISSANT", "state": "MO", "street": "3533 DUNN RD", "postcode": "63033"}}},
{"geometry": {"type": "Point", "coordinates": [-90.334875389, 38.7770179297]}, "type": "Feature", "properties": {"collection_times": [{"days": "Mon-Sat", "time": "1:30pm"}, {"days": "Sun", "time": "Closed"}], "id": "6303300087", "name": "USPS COLLECTION BOX - BLUE BOX", "address": {"city": "FLORISSANT", "state": "MO", "street": "1224 GRAHAM RD", "postcode": "63033"}}},
{"geometry": {"type": "Point", "coordinates": [-90.3102987637, 38.803118582]}, "type": "Feature", "properties": {"collection_times": [{"days": "Mon-Fri", "time": "5:00pm"}, {"days": "Sat", "time": "3:00pm"}, {"days": "Sun", "time": "Closed"}], "id": "6303300088", "name": "USPS COLLECTION BOX - PO LOBBY", "address": {"city": "FLORISSANT", "state": "MO", "street": "2200 N US HIGHWAY 67", "postcode": "63033"}}},
{"geometry": {"type": "Point", "coordinates": [-90.2850182219, 38.7948024055]}, "type": "Feature", "properties": {"collection_times": [{"days": "Mon-Sat", "time": "10:00am"}, {"days": "Sun", "time": "Closed"}], "id": "6303300093", "name": "USPS COLLECTION BOX - BLUE BOX", "address": {"city": "FLORISSANT", "state": "MO", "street": "4040 7 HILLS DR", "postcode": "63033"}}},
{"geometry": {"type": "Point", "coordinates": [-90.3322473843, 38.7960728784]}, "type": "Feature", "properties": {"collection_times": [{"days": "Mon-Sat", "time": "1:35pm"}, {"days": "Sun", "time": "Closed"}], "id": "6303300095", "name": "USPS COLLECTION BOX - BLUE BOX", "address": {"city": "FLORISSANT", "state": "MO", "street": "100 ST FRANCOIS ST", "postcode": "63033"}}},
{"geometry": {"type": "Point", "coordinates": [-90.2957938692, 38.8076985581]}, "type": "Feature", "properties": {"collection_times": [{"days": "Mon-Sat", "time": "12:20pm"}, {"days": "Sun", "time": "Closed"}], "id": "6303300097", "name": "USPS COLLECTION BOX - BLUE BOX", "address": {"city": "FLORISSANT", "state": "MO", "street": "4005 NANCY DR", "postcode": "63033"}}},
{"geometry": {"type": "Point", "coordinates": [-90.3102987637, 38.803118582]}, "type": "Feature", "properties": {"collection_times": [{"days": "Mon-Fri", "time": "5:00pm"}, {"days": "Sat", "time": "3:00pm"}, {"days": "Sun", "time": "Closed"}], "id": "6303300098", "name": "USPS COLLECTION BOX - APC", "address": {"city": "FLORISSANT", "state": "MO", "street": "2200 N US HIGHWAY 67", "postcode": "63033"}}},
{"geometry": {"type": "Point", "coordinates": [-90.2867602462, 38.8129158481]}, "type": "Feature", "properties": {"collection_times": [{"days": "Mon-Fri", "time": "12:30pm"}, {"days": "Sat", "time": "12:45pm"}, {"days": "Sun", "time": "Closed"}], "id": "6303300099", "name": "USPS COLLECTION BOX - BLUE BOX", "address": {"city": "FLORISSANT", "state": "MO", "street": "3700 CANDLEWYCK CLUB DR", "postcode": "63033"}}},
{"geometry": {"type": "Point", "coordinates": [-90.362931546, 37.9695561992]}, "type": "Feature", "properties": {"collection_times": [{"days": "Mon-Fri", "time": "3:45pm"}, {"days": "Sat", "time": "11:15am"}, {"days": "Sun", "time": "Closed"}], "id": "6303600001", "name": "USPS COLLECTION BOX - BLUE BOX", "address": {"city": "FRENCH VILLAGE", "state": "MO", "street": "6104 HIGHWAY Y", "postcode": "63036"}}},
{"geometry": {"type": "Point", "coordinates": [-90.362931546, 37.9695561992]}, "type": "Feature", "properties": {"collection_times": [{"days": "Mon-Fri", "time": "2:15pm"}, {"days": "Sat", "time": "11:00am"}, {"days": "Sun", "time": "Closed"}], "id": "6303600003", "name": "USPS COLLECTION BOX - PO LOBBY", "address": {"city": "FRENCH VILLAGE", "state": "MO", "street": "6104 HIGHWAY Y", "postcode": "63036"}}},
{"geometry": {"type": "Point", "coordinates": [-91.3308688194, 38.3997966934]}, "type": "Feature", "properties": {"collection_times": [{"days": "Mon-Fri", "time": "4:00pm"}, {"days": "Sat", "time": "11:00am"}, {"days": "Sun", "time": "Closed"}], "id": "6303700001", "name": "USPS COLLECTION BOX - BLUE BOX", "address": {"city": "GERALD", "state": "MO", "street": "20 W 4TH ST", "postcode": "63037"}}},
{"geometry": {"type": "Point", "coordinates": [-91.3308688194, 38.3997966934]}, "type": "Feature", "properties": {"collection_times": [{"days": "Mon-Fri", "time": "4:30pm"}, {"days": "Sat", "time": "11:30am"}, {"days": "Sun", "time": "Closed"}], "id": "6303700002", "name": "USPS COLLECTION BOX - PO LOBBY", "address": {"city": "GERALD", "state": "MO", "street": "20 W 4TH ST", "postcode": "63037"}}},
{"geometry": {"type": "Point", "coordinates": [-91.3308688194, 38.3997966934]}, "type": "Feature", "properties": {"collection_times": [{"days": "Mon-Fri", "time": "4:00pm"}, {"days": "Sat", "time": "11:00am"}, {"days": "Sun", "time": "Closed"}], "id": "6303700004", "name": "USPS COLLECTION BOX - BLUE BOX", "address": {"city": "GERALD", "state": "MO", "street": "20 W 4TH ST", "postcode": "63037"}}},
{"geometry": {"type": "Point", "coordinates": [-90.6858764055, 38.5738930745]}, "type": "Feature", "properties": {"collection_times": [{"days": "Mon-Fri", "time": "4:00pm"}, {"days": "Sat", "time": "11:00am"}, {"days": "Sun", "time": "Closed"}], "id": "6303800001", "name": "USPS COLLECTION BOX - BLUE BOX", "address": {"city": "GLENCOE", "state": "MO", "street": "18072 MANCHESTER RD", "postcode": "63038"}}},
{"geometry": {"type": "Point", "coordinates": [-90.6998484018, 38.5758339976]}, "type": "Feature", "properties": {"collection_times": [{"days": "Mon-Sat", "time": "10:15am"}, {"days": "Sun", "time": "Closed"}], "id": "6303800003", "name": "USPS COLLECTION BOX - BLUE BOX", "address": {"city": "GLENCOE", "state": "MO", "street": "17065 SANDALWOOD", "postcode": "63038"}}},
{"geometry": {"type": "Point", "coordinates": [-90.6858764055, 38.5738930745]}, "type": "Feature", "properties": {"collection_times": [{"days": "Mon-Fri", "time": "4:00pm"}, {"days": "Sat", "time": "11:00am"}, {"days": "Sun", "time": "Closed"}], "id": "6303800005", "name": "USPS COLLECTION BOX - PO LOBBY", "address": {"city": "GLENCOE", "state": "MO", "street": "18072 MANCHESTER RD", "postcode": "63038"}}},
{"geometry": {"type": "Point", "coordinates": [-90.818010844, 38.4887972087]}, "type": "Feature", "properties": {"collection_times": [{"days": "Mon-Fri", "time": "11:15am"}, {"days": "Sat", "time": "8:45am"}, {"days": "Sun", "time": "Closed"}], "id": "6303900001", "name": "USPS COLLECTION BOX - BLUE BOX", "address": {"city": "GRAY SUMMIT", "state": "MO", "street": "2666 HIGHWAY 100", "postcode": "63039"}}},
{"geometry": {"type": "Point", "coordinates": [-90.818010844, 38.4887972087]}, "type": "Feature", "properties": {"collection_times": [{"days": "Mon-Fri", "time": "11:15am"}, {"days": "Sat", "time": "8:45am"}, {"days": "Sun", "time": "Closed"}], "id": "6303900003", "name": "USPS COLLECTION BOX - PO LOBBY", "address": {"city": "GRAY SUMMIT", "state": "MO", "street": "2666 HIGHWAY 100", "postcode": "63039"}}},
{"geometry": {"type": "Point", "coordinates": [-90.6376556228, 38.5760891988]}, "type": "Feature", "properties": {"collection_times": [{"days": "Mon-Fri", "time": "5:00pm"}, {"days": "Sat", "time": "12:30pm"}, {"days": "Sun", "time": "Closed"}], "id": "6304000001", "name": "USPS COLLECTION BOX - BLUE BOX", "address": {"city": "GROVER", "state": "MO", "street": "16982 MANCHESTER RD", "postcode": "63040"}}},
{"geometry": {"type": "Point", "coordinates": [-90.6376556228, 38.5760891988]}, "type": "Feature", "properties": {"collection_times": [{"days": "Mon-Fri", "time": "5:00pm"}, {"days": "Sat", "time": "12:30pm"}, {"days": "Sun", "time": "Closed"}], "id": "6304000002", "name": "USPS COLLECTION BOX - PO LOBBY", "address": {"city": "GROVER", "state": "MO", "street": "16982 MANCHESTER RD", "postcode": "63040"}}},
{"geometry": {"type": "Point", "coordinates": [-90.6193389968, 38.5808746784]}, "type": "Feature", "properties": {"collection_times": [{"days": "Mon-Sat", "time": "11:00am"}, {"days": "Sun", "time": "Closed"}], "id": "6304000004", "name": "USPS COLLECTION BOX - BLUE BOX", "address": {"city": "GROVER", "state": "MO", "street": "16580 MANCHESTER RD", "postcode": "63040"}}},
{"geometry": {"type": "Point", "coordinates": [-90.6446633778, 38.5766844542]}, "type": "Feature", "properties": {"collection_times": [{"days": "Mon-Sat", "time": "12:00pm"}, {"days": "Sun", "time": "Closed"}], "id": "6304000005", "name": "USPS COLLECTION BOX - BLUE BOX", "address": {"city": "GROVER", "state": "MO", "street": "2600 HIGHWAY 109", "postcode": "63040"}}},
{"geometry": {"type": "Point", "coordinates": [-90.6273930708, 38.5797972535]}, "type": "Feature", "properties": {"collection_times": [{"days": "Mon-Sat", "time": "11:30am"}, {"days": "Sun", "time": "Closed"}], "id": "6304000006", "name": "USPS COLLECTION BOX - BLUE BOX", "address": {"city": "GROVER", "state": "MO", "street": "2460 TAYLOR RD", "postcode": "63040"}}},
{"geometry": {"type": "Point", "coordinates": [-90.7900682501, 38.2247764913]}, "type": "Feature", "properties": {"collection_times": [{"days": "Mon-Fri", "time": "11:00am"}, {"days": "Sat", "time": "10:30am"}, {"days": "Sun", "time": "Closed"}], "id": "6304100001", "name": "USPS COLLECTION BOX - BLUE BOX", "address": {"city": "GRUBVILLE", "state": "MO", "street": "9994 STATE ROAD Y", "postcode": "63041"}}},
{"geometry": {"type": "Point", "coordinates": [-90.7900682501, 38.2247764913]}, "type": "Feature", "properties": {"collection_times": [{"days": "Mon-Fri", "time": "11:45am"}, {"days": "Sat", "time": "10:30am"}, {"days": "Sun", "time": "Closed"}], "id": "6304100002", "name": "USPS COLLECTION BOX - PO LOBBY", "address": {"city": "GRUBVILLE", "state": "MO", "street": "9994 STATE ROAD Y", "postcode": "63041"}}},
{"geometry": {"type": "Point", "coordinates": [-90.3640687109, 38.7719355302]}, "type": "Feature", "properties": {"collection_times": [{"days": "Mon-Fri", "time": "5:00pm"}, {"days": "Sat", "time": "3:00pm"}, {"days": "Sun", "time": "Closed"}], "id": "6304200002", "name": "USPS COLLECTION BOX - BLUE BOX", "address": {"city": "HAZELWOOD", "state": "MO", "street": "6135 N LINDBERGH BLVD", "postcode": "63042"}}},
{"geometry": {"type": "Point", "coordinates": [-90.3640687109, 38.7719355302]}, "type": "Feature", "properties": {"collection_times": [{"days": "Mon-Fri", "time": "5:00pm"}, {"days": "Sat", "time": "3:00pm"}, {"days": "Sun", "time": "Closed"}], "id": "6304200003", "name": "USPS COLLECTION BOX - BLUE BOX", "address": {"city": "HAZELWOOD", "state": "MO", "street": "6135 N LINDBERGH BLVD", "postcode": "63042"}}},
{"geometry": {"type": "Point", "coordinates": [-90.3640687109, 38.7719355302]}, "type": "Feature", "properties": {"collection_times": [{"days": "Mon-Fri", "time": "5:00pm"}, {"days": "Sat", "time": "3:00pm"}, {"days": "Sun", "time": "Closed"}], "id": "6304200005", "name": "USPS COLLECTION BOX - BLUE BOX", "address": {"city": "HAZELWOOD", "state": "MO", "street": "6135 N LINDBERGH BLVD", "postcode": "63042"}}},
{"geometry": {"type": "Point", "coordinates": [-90.3640687109, 38.7719355302]}, "type": "Feature", "properties": {"collection_times": [{"days": "Mon-Fri", "time": "5:00pm"}, {"days": "Sat", "time": "1:00pm"}, {"days": "Sun", "time": "Closed"}], "id": "6304200007", "name": "USPS COLLECTION BOX - PO LOBBY", "address": {"city": "HAZELWOOD", "state": "MO", "street": "6135 N LINDBERGH BLVD", "postcode": "63042"}}},
{"geometry": {"type": "Point", "coordinates": [-90.4038873792, 38.7829929011]}, "type": "Feature", "properties": {"collection_times": [{"days": "Mon-Sat", "time": "1:45pm"}, {"days": "Sun", "time": "Closed"}], "id": "6304200010", "name": "USPS COLLECTION BOX - BLUE BOX", "address": {"city": "HAZELWOOD", "state": "MO", "street": "12565 SANTA MARIA CT", "postcode": "63042"}}},
{"geometry": {"type": "Point", "coordinates": [-90.3630670142, 38.7779901677]}, "type": "Feature", "properties": {"collection_times": [{"days": "Mon-Fri", "time": "5:00pm"}, {"days": "Sat", "time": "1:30pm"}, {"days": "Sun", "time": "Closed"}], "id": "6304200012", "name": "USPS COLLECTION BOX - BLUE BOX", "address": {"city": "HAZELWOOD", "state": "MO", "street": "320 BROOKES DR", "postcode": "63042"}}},
{"geometry": {"type": "Point", "coordinates": [-90.3739792625, 38.7726282049]}, "type": "Feature", "properties": {"collection_times": [{"days": "Mon-Sat", "time": "1:30pm"}, {"days": "Sun", "time": "Closed"}], "id": "6304200014", "name": "USPS COLLECTION BOX - BLUE BOX", "address": {"city": "HAZELWOOD", "state": "MO", "street": "480 CHAPEL RIDGE DR", "postcode": "63042"}}},
{"geometry": {"type": "Point", "coordinates": [-90.3478648086, 38.7869380693]}, "type": "Feature", "properties": {"collection_times": [{"days": "Mon-Sat", "time": "1:30pm"}, {"days": "Sun", "time": "Closed"}], "id": "6304200017", "name": "USPS COLLECTION BOX - BLUE BOX", "address": {"city": "HAZELWOOD", "state": "MO", "street": "401 CHEZ PAREE DR", "postcode": "63042"}}},
{"geometry": {"type": "Point", "coordinates": [-90.3914300833, 38.7820708699]}, "type": "Feature", "properties": {"collection_times": [{"days": "Mon-Sat", "time": "2:00pm"}, {"days": "Sun", "time": "Closed"}], "id": "6304200018", "name": "USPS COLLECTION BOX - BLUE BOX", "address": {"city": "HAZELWOOD", "state": "MO", "street": "5370 KNOLLWOOD PARKWAY CT", "postcode": "63042"}}},
{"geometry": {"type": "Point", "coordinates": [-90.3845077683, 38.7713576261]}, "type": "Feature", "properties": {"collection_times": [{"days": "Mon-Fri", "time": "5:00pm"}, {"days": "Sat", "time": "1:30pm"}, {"days": "Sun", "time": "Closed"}], "id": "6304200020", "name": "USPS COLLECTION BOX - BLUE BOX", "address": {"city": "HAZELWOOD", "state": "MO", "street": "5800 PHANTOM DR", "postcode": "63042"}}},
{"geometry": {"type": "Point", "coordinates": [-90.3889347779, 38.7879707924]}, "type": "Feature", "properties": {"collection_times": [{"days": "Mon-Sat", "time": "2:00pm"}, {"days": "Sun", "time": "Closed"}], "id": "6304200021", "name": "USPS COLLECTION BOX - BLUE BOX", "address": {"city": "HAZELWOOD", "state": "MO", "street": "6577 CORTENA DR", "postcode": "63042"}}},
{"geometry": {"type": "Point", "coordinates": [-90.3738473193, 38.7918343364]}, "type": "Feature", "properties": {"collection_times": [{"days": "Mon-Sat", "time": "2:00pm"}, {"days": "Sun", "time": "Closed"}], "id": "6304200022", "name": "USPS COLLECTION BOX - BLUE BOX", "address": {"city": "HAZELWOOD", "state": "MO", "street": "7023 HOWDERSHELL RD", "postcode": "63042"}}},
{"geometry": {"type": "Point", "coordinates": [-90.3395949567, 38.7766355557]}, "type": "Feature", "properties": {"collection_times": [{"days": "Mon-Sat", "time": "1:30pm"}, {"days": "Sun", "time": "Closed"}], "id": "6304200024", "name": "USPS COLLECTION BOX - BLUE BOX", "address": {"city": "HAZELWOOD", "state": "MO", "street": "7309 SIELOFF DR", "postcode": "63042"}}},
{"geometry": {"type": "Point", "coordinates": [-90.3407609276, 38.7811251747]}, "type": "Feature", "properties": {"collection_times": [{"days": "Mon-Sat", "time": "1:30pm"}, {"days": "Sun", "time": "Closed"}], "id": "6304200025", "name": "USPS COLLECTION BOX - BLUE BOX", "address": {"city": "HAZELWOOD", "state": "MO", "street": "7545 HAZELCREST DR", "postcode": "63042"}}},
{"geometry": {"type": "Point", "coordinates": [-90.3926333954, 38.7714831112]}, "type": "Feature", "properties": {"collection_times": [{"days": "Mon-Sat", "time": "1:30pm"}, {"days": "Sun", "time": "Closed"}], "id": "6304200027", "name": "USPS COLLECTION BOX - BLUE BOX", "address": {"city": "HAZELWOOD", "state": "MO", "street": "5695 CAMPUS PKWY", "postcode": "63042"}}},
{"geometry": {"type": "Point", "coordinates": [-90.3576277689, 38.7891466537]}, "type": "Feature", "properties": {"collection_times": [{"days": "Mon-Sat", "time": "2:00pm"}, {"days": "Sun", "time": "Closed"}], "id": "6304200028", "name": "USPS COLLECTION BOX - BLUE BOX", "address": {"city": "HAZELWOOD", "state": "MO", "street": "7443 FOXTRAIL DR", "postcode": "63042"}}},
{"geometry": {"type": "Point", "coordinates": [-90.3751272809, 38.7822925894]}, "type": "Feature", "properties": {"collection_times": [{"days": "Mon-Sat", "time": "12:00pm"}, {"days": "Sun", "time": "Closed"}], "id": "6304200030", "name": "USPS COLLECTION BOX - BLUE BOX", "address": {"city": "HAZELWOOD", "state": "MO", "street": "755 DUNN RD", "postcode": "63042"}}},
{"geometry": {"type": "Point", "coordinates": [-90.3425115118, 38.7750468741]}, "type": "Feature", "properties": {"collection_times": [{"days": "Mon-Sat", "time": "1:30pm"}, {"days": "Sun", "time": "Closed"}], "id": "6304200031", "name": "USPS COLLECTION BOX - BLUE BOX", "address": {"city": "HAZELWOOD", "state": "MO", "street": "8830 PERSHALL RD", "postcode": "63042"}}},
{"geometry": {"type": "Point", "coordinates": [-90.3700263618, 38.7951892081]}, "type": "Feature", "properties": {"collection_times": [{"days": "Mon-Sat", "time": "2:00pm"}, {"days": "Sun", "time": "Closed"}], "id": "6304200032", "name": "USPS COLLECTION BOX - BLUE BOX", "address": {"city": "HAZELWOOD", "state": "MO", "street": "2075 GERARD PARK LN", "postcode": "63042"}}},
{"geometry": {"type": "Point", "coordinates": [-90.3537445341, 38.7848871045]}, "type": "Feature", "properties": {"collection_times": [{"days": "Mon-Fri", "time": "4:45pm"}, {"days": "Sat", "time": "1:30pm"}, {"days": "Sun", "time": "Closed"}], "id": "6304200034", "name": "USPS COLLECTION BOX - BLUE BOX", "address": {"city": "HAZELWOOD", "state": "MO", "street": "7401 N LINDBERGH BLVD", "postcode": "63042"}}},
{"geometry": {"type": "Point", "coordinates": [-90.3554020802, 38.7835256676]}, "type": "Feature", "properties": {"collection_times": [{"days": "Mon-Sat", "time": "1:30pm"}, {"days": "Sun", "time": "Closed"}], "id": "6304200036", "name": "USPS COLLECTION BOX - BLUE BOX", "address": {"city": "HAZELWOOD", "state": "MO", "street": "7204 N LINDBERGH BLVD", "postcode": "63042"}}},
{"geometry": {"type": "Point", "coordinates": [-90.3690823606, 38.7845295648]}, "type": "Feature", "properties": {"collection_times": [{"days": "Mon-Sat", "time": "2:00pm"}, {"days": "Sun", "time": "Closed"}], "id": "6304200037", "name": "USPS COLLECTION BOX - BLUE BOX", "address": {"city": "HAZELWOOD", "state": "MO", "street": "652 CHERRYVALE DR", "postcode": "63042"}}},
{"geometry": {"type": "Point", "coordinates": [-90.3852912643, 38.770658188]}, "type": "Feature", "properties": {"collection_times": [{"days": "Mon-Fri", "time": "5:00pm"}, {"days": "Sat", "time": "1:30pm"}, {"days": "Sun", "time": "Closed"}], "id": "6304200038", "name": "USPS COLLECTION BOX - BLUE BOX", "address": {"city": "HAZELWOOD", "state": "MO", "street": "5750 PHANTOM DR", "postcode": "63042"}}},
{"geometry": {"type": "Point", "coordinates": [-90.3699370094, 38.7823800348]}, "type": "Feature", "properties": {"collection_times": [{"days": "Mon-Sat", "time": "1:30pm"}, {"days": "Sun", "time": "Closed"}], "id": "6304200039", "name": "USPS COLLECTION BOX - BLUE BOX", "address": {"city": "HAZELWOOD", "state": "MO", "street": "7299 N HANLEY RD", "postcode": "63042"}}},
{"geometry": {"type": "Point", "coordinates": [-90.3843697393, 38.7813414904]}, "type": "Feature", "properties": {"collection_times": [{"days": "Mon-Sat", "time": "12:30pm"}, {"days": "Sun", "time": "Closed"}], "id": "6304200040", "name": "USPS COLLECTION BOX - BLUE BOX", "address": {"city": "HAZELWOOD", "state": "MO", "street": "5494 BROWN RD", "postcode": "63042"}}},
{"geometry": {"type": "Point", "coordinates": [-90.4416261361, 38.7140950051]}, "type": "Feature", "properties": {"collection_times": [{"days": "Mon-Fri", "time": "5:00pm"}, {"days": "Sat", "time": "3:00pm"}, {"days": "Sun", "time": "Closed"}], "id": "6304300003", "name": "USPS COLLECTION BOX - PO LOBBY", "address": {"city": "MARYLAND HTS", "state": "MO", "street": "177 WELDON PKWY", "postcode": "63043"}}},
{"geometry": {"type": "Point", "coordinates": [-90.4416261361, 38.7140950051]}, "type": "Feature", "properties": {"collection_times": [{"days": "Mon-Fri", "time": "5:00pm"}, {"days": "Sat", "time": "3:00pm"}, {"days": "Sun", "time": "Closed"}], "id": "6304300008", "name": "USPS COLLECTION BOX - BLUE BOX", "address": {"city": "MARYLAND HTS", "state": "MO", "street": "177 WELDON PKWY", "postcode": "63043"}}},
{"geometry": {"type": "Point", "coordinates": [-90.4416261361, 38.7140950051]}, "type": "Feature", "properties": {"collection_times": [{"days": "Mon-Fri", "time": "5:00pm"}, {"days": "Sat", "time": "3:00pm"}, {"days": "Sun", "time": "Closed"}], "id": "6304300009", "name": "USPS COLLECTION BOX - BLUE BOX", "address": {"city": "MARYLAND HTS", "state": "MO", "street": "177 WELDON PKWY", "postcode": "63043"}}},
{"geometry": {"type": "Point", "coordinates": [-90.4671390121, 38.7559516421]}, "type": "Feature", "properties": {"collection_times": [{"days": "Mon-Sat", "time": "11:00am"}, {"days": "Sun", "time": "Closed"}], "id": "6304300018", "name": "USPS COLLECTION BOX - BLUE BOX", "address": {"city": "MARYLAND HTS", "state": "MO", "street": "13801 RIVERPORT DR", "postcode": "63043"}}},
{"geometry": {"type": "Point", "coordinates": [-90.4556651244, 38.7145693419]}, "type": "Feature", "properties": {"collection_times": [{"days": "Mon-Sat", "time": "1:00pm"}, {"days": "Sun", "time": "Closed"}], "id": "6304300021", "name": "USPS COLLECTION BOX - BLUE BOX", "address": {"city": "MARYLAND HTS", "state": "MO", "street": "2030 DORSETT VLG", "postcode": "63043"}}},
{"geometry": {"type": "Point", "coordinates": [-90.4095655823, 38.6986905134]}, "type": "Feature", "properties": {"collection_times": [{"days": "Mon-Sat", "time": "11:30am"}, {"days": "Sun", "time": "Closed"}], "id": "6304300022", "name": "USPS COLLECTION BOX - BLUE BOX", "address": {"city": "MARYLAND HTS", "state": "MO", "street": "2300 MILLPARK DR", "postcode": "63043"}}},
{"geometry": {"type": "Point", "coordinates": [-90.4462491398, 38.7172535055]}, "type": "Feature", "properties": {"collection_times": [{"days": "Mon-Sat", "time": "10:00am"}, {"days": "Sun", "time": "Closed"}], "id": "6304300024", "name": "USPS COLLECTION BOX - BLUE BOX", "address": {"city": "MARYLAND HTS", "state": "MO", "street": "2458 OLD DORSETT RD", "postcode": "63043"}}},
{"geometry": {"type": "Point", "coordinates": [-90.4227780509, 38.720180146]}, "type": "Feature", "properties": {"collection_times": [{"days": "Mon-Fri", "time": "2:00pm"}, {"days": "Sat", "time": "1:15pm"}, {"days": "Sun", "time": "Closed"}], "id": "6304300037", "name": "USPS COLLECTION BOX - BLUE BOX", "address": {"city": "MARYLAND HTS", "state": "MO", "street": "10 FEE FEE RD", "postcode": "63043"}}},
{"geometry": {"type": "Point", "coordinates": [-90.4368245057, 38.7168087129]}, "type": "Feature", "properties": {"collection_times": [{"days": "Mon-Sat", "time": "11:00am"}, {"days": "Sun", "time": "Closed"}], "id": "6304300047", "name": "USPS COLLECTION BOX - BLUE BOX", "address": {"city": "MARYLAND HTS", "state": "MO", "street": "218 MILLWELL DR", "postcode": "63043"}}},
{"geometry": {"type": "Point", "coordinates": [-90.4435129557, 38.7407506194]}, "type": "Feature", "properties": {"collection_times": [{"days": "Mon-Sat", "time": "11:00am"}, {"days": "Sun", "time": "Closed"}], "id": "6304300053", "name": "USPS COLLECTION BOX - BLUE BOX", "address": {"city": "MARYLAND HTS", "state": "MO", "street": "12235 MCKELVEY RD", "postcode": "63043"}}},
{"geometry": {"type": "Point", "coordinates": [-90.4647058614, 38.750728875]}, "type": "Feature", "properties": {"collection_times": [{"days": "Mon-Sat", "time": "11:00am"}, {"days": "Sun", "time": "Closed"}], "id": "6304300054", "name": "USPS COLLECTION BOX - BLUE BOX", "address": {"city": "MARYLAND HTS", "state": "MO", "street": "13600 RIVERPORT DR", "postcode": "63043"}}},
{"geometry": {"type": "Point", "coordinates": [-90.4273939568, 38.7067772209]}, "type": "Feature", "properties": {"collection_times": [{"days": "Mon-Fri", "time": "2:00pm"}, {"days": "Sat", "time": "1:15pm"}, {"days": "Sun", "time": "Closed"}], "id": "6304300059", "name": "USPS COLLECTION BOX - BLUE BOX", "address": {"city": "MARYLAND HTS", "state": "MO", "street": "11515 ADIE RD", "postcode": "63043"}}},
{"geometry": {"type": "Point", "coordinates": [-90.4416261361, 38.7140950051]}, "type": "Feature", "properties": {"collection_times": [{"days": "Mon-Fri", "time": "5:00pm"}, {"days": "Sat", "time": "3:00pm"}, {"days": "Sun", "time": "Closed"}], "id": "6304300061", "name": "USPS COLLECTION BOX - BLUE BOX", "address": {"city": "MARYLAND HTS", "state": "MO", "street": "177 WELDON PKWY", "postcode": "63043"}}},
{"geometry": {"type": "Point", "coordinates": [-90.4416261361, 38.7140950051]}, "type": "Feature", "properties": {"collection_times": [{"days": "Mon-Fri", "time": "5:00pm"}, {"days": "Sat", "time": "3:00pm"}, {"days": "Sun", "time": "Closed"}], "id": "6304300062", "name": "USPS COLLECTION BOX - BLUE BOX", "address": {"city": "MARYLAND HTS", "state": "MO", "street": "177 WELDON PKWY", "postcode": "63043"}}},
{"geometry": {"type": "Point", "coordinates": [-90.4307424032, 38.7501995047]}, "type": "Feature", "properties": {"collection_times": [{"days": "Mon-Sat", "time": "10:00am"}, {"days": "Sun", "time": "Closed"}], "id": "6304400012", "name": "USPS COLLECTION BOX - BLUE BOX", "address": {"city": "BRIDGETON", "state": "MO", "street": "12255 DE PAUL DR", "postcode": "63044"}}},
{"geometry": {"type": "Point", "coordinates": [-90.4014340367, 38.7391341725]}, "type": "Feature", "properties": {"collection_times": [{"days": "Mon-Sat", "time": "10:30am"}, {"days": "Sun", "time": "Closed"}], "id": "6304400014", "name": "USPS COLLECTION BOX - BLUE BOX", "address": {"city": "BRIDGETON", "state": "MO", "street": "11253 SAINT CHARLES ROCK RD", "postcode": "63044"}}},
{"geometry": {"type": "Point", "coordinates": [-90.4329834379, 38.7601192066]}, "type": "Feature", "properties": {"collection_times": [{"days": "Mon-Fri", "time": "11:00am"}, {"days": "Sat", "time": "10:00am"}, {"days": "Sun", "time": "Closed"}], "id": "6304400023", "name": "USPS COLLECTION BOX - BLUE BOX", "address": {"city": "BRIDGETON", "state": "MO", "street": "3655 PENNRIDGE DR", "postcode": "63044"}}},
{"geometry": {"type": "Point", "coordinates": [-90.4279511305, 38.7501421307]}, "type": "Feature", "properties": {"collection_times": [{"days": "Mon-Sat", "time": "12:00pm"}, {"days": "Sun", "time": "Closed"}], "id": "6304400033", "name": "USPS COLLECTION BOX - BLUE BOX", "address": {"city": "BRIDGETON", "state": "MO", "street": "3510 MCKELVEY RD", "postcode": "63044"}}},
{"geometry": {"type": "Point", "coordinates": [-90.4644805483, 38.7769276523]}, "type": "Feature", "properties": {"collection_times": [{"days": "Mon-Fri", "time": "11:45am"}, {"days": "Sat", "time": "10:00am"}, {"days": "Sun", "time": "Closed"}], "id": "6304400047", "name": "USPS COLLECTION BOX - BLUE BOX", "address": {"city": "BRIDGETON", "state": "MO", "street": "13781 RIDER TRL N", "postcode": "63044"}}},
{"geometry": {"type": "Point", "coordinates": [-90.4609392675, 38.7615279133]}, "type": "Feature", "properties": {"collection_times": [{"days": "Mon-Sat", "time": "10:00am"}, {"days": "Sun", "time": "Closed"}], "id": "6304400056", "name": "USPS COLLECTION BOX - BLUE BOX", "address": {"city": "BRIDGETON", "state": "MO", "street": "3470 S RIDER TRL", "postcode": "63044"}}},
{"geometry": {"type": "Point", "coordinates": [-90.4632470579, 38.7717997012]}, "type": "Feature", "properties": {"collection_times": [{"days": "Mon-Fri", "time": "12:30pm"}, {"days": "Sat", "time": "10:00am"}, {"days": "Sun", "time": "Closed"}], "id": "6304400063", "name": "USPS COLLECTION BOX - BLUE BOX", "address": {"city": "BRIDGETON", "state": "MO", "street": "13750 SHORELINE DR", "postcode": "63044"}}},
{"geometry": {"type": "Point", "coordinates": [-90.429118711, 38.7537525214]}, "type": "Feature", "properties": {"collection_times": [{"days": "Mon-Sat", "time": "10:00am"}, {"days": "Sun", "time": "Closed"}], "id": "6304400071", "name": "USPS COLLECTION BOX - BLUE BOX", "address": {"city": "BRIDGETON", "state": "MO", "street": "12365 SAINT CHARLES ROCK RD", "postcode": "63044"}}},
{"geometry": {"type": "Point", "coordinates": [-90.4389313556, 38.7585245779]}, "type": "Feature", "properties": {"collection_times": [{"days": "Mon-Sat", "time": "10:00am"}, {"days": "Sun", "time": "Closed"}], "id": "6304400079", "name": "USPS COLLECTION BOX - BLUE BOX", "address": {"city": "BRIDGETON", "state": "MO", "street": "3460 HOLLENBERG DR", "postcode": "63044"}}},
{"geometry": {"type": "Point", "coordinates": [-90.4360910711, 38.7450447605]}, "type": "Feature", "properties": {"collection_times": [{"days": "Mon-Sat", "time": "10:00am"}, {"days": "Sun", "time": "Closed"}], "id": "6304400080", "name": "USPS COLLECTION BOX - BLUE BOX", "address": {"city": "BRIDGETON", "state": "MO", "street": "3221 MCKELVEY RD", "postcode": "63044"}}},
{"geometry": {"type": "Point", "coordinates": [-90.4583981283, 38.7680876182]}, "type": "Feature", "properties": {"collection_times": [{"days": "Mon-Fri", "time": "1:00pm"}, {"days": "Sat", "time": "10:00am"}, {"days": "Sun", "time": "Closed"}], "id": "6304400081", "name": "USPS COLLECTION BOX - BLUE BOX", "address": {"city": "BRIDGETON", "state": "MO", "street": "502 EARTH CITY PLZ", "postcode": "63044"}}},
{"geometry": {"type": "Point", "coordinates": [-90.4215548714, 38.7560226197]}, "type": "Feature", "properties": {"collection_times": [{"days": "Mon-Fri", "time": "5:00pm"}, {"days": "Sat", "time": "2:00pm"}, {"days": "Sun", "time": "Closed"}], "id": "6304400082", "name": "USPS COLLECTION BOX - BLUE BOX", "address": {"city": "BRIDGETON", "state": "MO", "street": "12255 NATURAL BRIDGE RD", "postcode": "63044"}}},
{"geometry": {"type": "Point", "coordinates": [-90.4215548714, 38.7560226197]}, "type": "Feature", "properties": {"collection_times": [{"days": "Mon-Fri", "time": "5:00pm"}, {"days": "Sat", "time": "2:00pm"}, {"days": "Sun", "time": "Closed"}], "id": "6304400083", "name": "USPS COLLECTION BOX - BLUE BOX", "address": {"city": "BRIDGETON", "state": "MO", "street": "12255 NATURAL BRIDGE RD", "postcode": "63044"}}},
{"geometry": {"type": "Point", "coordinates": [-90.4215548714, 38.7560226197]}, "type": "Feature", "properties": {"collection_times": [{"days": "Mon-Fri", "time": "5:00pm"}, {"days": "Sat", "time": "2:00pm"}, {"days": "Sun", "time": "Closed"}], "id": "6304400084", "name": "USPS COLLECTION BOX - PO LOBBY", "address": {"city": "BRIDGETON", "state": "MO", "street": "12255 NATURAL BRIDGE RD", "postcode": "63044"}}},
{"geometry": {"type": "Point", "coordinates": [-90.4723317877, 38.7629260699]}, "type": "Feature", "properties": {"collection_times": [{"days": "Mon-Fri", "time": "12:00pm"}, {"days": "Sat", "time": "10:00am"}, {"days": "Sun", "time": "Closed"}], "id": "6304400086", "name": "USPS COLLECTION BOX - BLUE BOX", "address": {"city": "BRIDGETON", "state": "MO", "street": "3774 S RIDER TRL", "postcode": "63044"}}},
{"geometry": {"type": "Point", "coordinates": [-90.4555123902, 38.7717654695]}, "type": "Feature", "properties": {"collection_times": [{"days": "Mon-Fri", "time": "11:45am"}, {"days": "Sat", "time": "10:00am"}, {"days": "Sun", "time": "Closed"}], "id": "6304400087", "name": "USPS COLLECTION BOX - BLUE BOX", "address": {"city": "BRIDGETON", "state": "MO", "street": "13306 LAKEFRONT DR", "postcode": "63044"}}},
{"geometry": {"type": "Point", "coordinates": [-90.4561967603, 38.7732930426]}, "type": "Feature", "properties": {"collection_times": [{"days": "Mon-Fri", "time": "11:30am"}, {"days": "Sat", "time": "10:00am"}, {"days": "Sun", "time": "Closed"}], "id": "6304400089", "name": "USPS COLLECTION BOX - BLUE BOX", "address": {"city": "BRIDGETON", "state": "MO", "street": "13200 LAKEFRONT DR", "postcode": "63044"}}},
{"geometry": {"type": "Point", "coordinates": [-90.4585708403, 38.7883990236]}, "type": "Feature", "properties": {"collection_times": [{"days": "Mon-Sat", "time": "10:00am"}, {"days": "Sun", "time": "Closed"}], "id": "6304400095", "name": "USPS COLLECTION BOX - BLUE BOX", "address": {"city": "BRIDGETON", "state": "MO", "street": "1 CORPORATE WOODS DR", "postcode": "63044"}}},
{"geometry": {"type": "Point", "coordinates": [-90.4807979012, 38.2018907699]}, "type": "Feature", "properties": {"collection_times": [{"days": "Mon-Fri", "time": "4:45pm"}, {"days": "Sat", "time": "9:45am"}, {"days": "Sun", "time": "Closed"}], "id": "6304700001", "name": "USPS COLLECTION BOX - BLUE BOX", "address": {"city": "HEMATITE", "state": "MO", "street": "3677 STATE ROAD P", "postcode": "63047"}}},
{"geometry": {"type": "Point", "coordinates": [-90.4807979012, 38.2018907699]}, "type": "Feature", "properties": {"collection_times": [{"days": "Mon-Fri", "time": "4:45pm"}, {"days": "Sat", "time": "9:15am"}, {"days": "Sun", "time": "Closed"}], "id": "6304700002", "name": "USPS COLLECTION BOX - PO LOBBY", "address": {"city": "HEMATITE", "state": "MO", "street": "3677 STATE ROAD P", "postcode": "63047"}}},
{"geometry": {"type": "Point", "coordinates": [-90.3934607789, 38.2521022109]}, "type": "Feature", "properties": {"collection_times": [{"days": "Mon-Fri", "time": "4:30pm"}, {"days": "Sat", "time": "12:00pm"}, {"days": "Sun", "time": "Closed"}], "id": "6304800001", "name": "USPS COLLECTION BOX - BLUE BOX", "address": {"city": "HERCULANEUM", "state": "MO", "street": "1234 COMMERCIAL BLVD", "postcode": "63048"}}},
{"geometry": {"type": "Point", "coordinates": [-90.4003385023, 38.2526794949]}, "type": "Feature", "properties": {"collection_times": [{"days": "Mon-Sat", "time": "10:30am"}, {"days": "Sun", "time": "Closed"}], "id": "6304800003", "name": "USPS COLLECTION BOX - BLUE BOX", "address": {"city": "HERCULANEUM", "state": "MO", "street": "300 AUTUMN RIDGE DR", "postcode": "63048"}}},
{"geometry": {"type": "Point", "coordinates": [-90.3990790778, 38.2549346329]}, "type": "Feature", "properties": {"collection_times": [{"days": "Mon-Sat", "time": "10:15am"}, {"days": "Sun", "time": "Closed"}], "id": "6304800004", "name": "USPS COLLECTION BOX - BLUE BOX", "address": {"city": "HERCULANEUM", "state": "MO", "street": "850 MCNUTT ST", "postcode": "63048"}}},
{"geometry": {"type": "Point", "coordinates": [-90.3934607789, 38.2521022109]}, "type": "Feature", "properties": {"collection_times": [{"days": "Mon-Fri", "time": "4:30pm"}, {"days": "Sat", "time": "12:00pm"}, {"days": "Sun", "time": "Closed"}], "id": "6304800005", "name": "USPS COLLECTION BOX - PO LOBBY", "address": {"city": "HERCULANEUM", "state": "MO", "street": "1234 COMMERCIAL BLVD", "postcode": "63048"}}},
{"geometry": {"type": "Point", "coordinates": [-90.5322100359, 38.4630545513]}, "type": "Feature", "properties": {"collection_times": [{"days": "Mon-Fri", "time": "5:00pm"}, {"days": "Sat", "time": "11:00am"}, {"days": "Sun", "time": "Closed"}], "id": "6304900002", "name": "USPS COLLECTION BOX - BLUE BOX", "address": {"city": "HIGH RIDGE", "state": "MO", "street": "2829 HIGH RIDGE BLVD", "postcode": "63049"}}},
{"geometry": {"type": "Point", "coordinates": [-90.5032506488, 38.4862537812]}, "type": "Feature", "properties": {"collection_times": [{"days": "Mon-Sat", "time": "11:00am"}, {"days": "Sun", "time": "Closed"}], "id": "6304900008", "name": "USPS COLLECTION BOX - BLUE BOX", "address": {"city": "HIGH RIDGE", "state": "MO", "street": "4560 GRAVOIS VILLAGE CTR", "postcode": "63049"}}},
{"geometry": {"type": "Point", "coordinates": [-90.5340355015, 38.4554760529]}, "type": "Feature", "properties": {"collection_times": [{"days": "Mon-Sat", "time": "11:00am"}, {"days": "Sun", "time": "Closed"}], "id": "6304900009", "name": "USPS COLLECTION BOX - BLUE BOX", "address": {"city": "HIGH RIDGE", "state": "MO", "street": "5602 HIGHWAY PP", "postcode": "63049"}}},
{"geometry": {"type": "Point", "coordinates": [-90.5229985182, 38.4715122713]}, "type": "Feature", "properties": {"collection_times": [{"days": "Mon-Fri", "time": "5:00pm"}, {"days": "Sat", "time": "12:00pm"}, {"days": "Sun", "time": "Closed"}], "id": "6304900012", "name": "USPS COLLECTION BOX - PO LOBBY", "address": {"city": "HIGH RIDGE", "state": "MO", "street": "2829 HIGH RIDGE BLVD", "postcode": "63049"}}},
{"geometry": {"type": "Point", "coordinates": [-90.5633963711, 38.2270206955]}, "type": "Feature", "properties": {"collection_times": [{"days": "Mon-Fri", "time": "5:00pm"}, {"days": "Sat", "time": "12:30pm"}, {"days": "Sun", "time": "Closed"}], "id": "6305000001", "name": "USPS COLLECTION BOX - BLUE BOX", "address": {"city": "HILLSBORO", "state": "MO", "street": "4620 YEAGER RD", "postcode": "63050"}}},
{"geometry": {"type": "Point", "coordinates": [-90.5660370629, 38.2264559399]}, "type": "Feature", "properties": {"collection_times": [{"days": "Mon-Fri", "time": "1:00pm"}, {"days": "Sat", "time": "12:15pm"}, {"days": "Sun", "time": "Closed"}], "id": "6305000003", "name": "USPS COLLECTION BOX - BLUE BOX", "address": {"city": "HILLSBORO", "state": "MO", "street": "10724 BUSINESS 21", "postcode": "63050"}}},
{"geometry": {"type": "Point", "coordinates": [-90.5636431653, 38.2320613811]}, "type": "Feature", "properties": {"collection_times": [{"days": "Mon-Sat", "time": "12:00pm"}, {"days": "Sun", "time": "Closed"}], "id": "6305000004", "name": "USPS COLLECTION BOX - BLUE BOX", "address": {"city": "HILLSBORO", "state": "MO", "street": "300 2ND ST", "postcode": "63050"}}},
{"geometry": {"type": "Point", "coordinates": [-90.5633963711, 38.2270206955]}, "type": "Feature", "properties": {"collection_times": [{"days": "Mon-Fri", "time": "5:00pm"}, {"days": "Sat", "time": "12:30pm"}, {"days": "Sun", "time": "Closed"}], "id": "6305000009", "name": "USPS COLLECTION BOX - BLUE BOX", "address": {"city": "HILLSBORO", "state": "MO", "street": "4620 YEAGER RD", "postcode": "63050"}}},
{"geometry": {"type": "Point", "coordinates": [-90.5597299527, 38.2419979594]}, "type": "Feature", "properties": {"collection_times": [{"days": "Mon-Sat", "time": "12:15pm"}, {"days": "Sun", "time": "Closed"}], "id": "6305000011", "name": "USPS COLLECTION BOX - BLUE BOX", "address": {"city": "HILLSBORO", "state": "MO", "street": "301 CEDAR VIEW CT", "postcode": "63050"}}},
{"geometry": {"type": "Point", "coordinates": [-90.5633963711, 38.2270206955]}, "type": "Feature", "properties": {"collection_times": [{"days": "Mon-Fri", "time": "5:00pm"}, {"days": "Sat", "time": "12:30pm"}, {"days": "Sun", "time": "Closed"}], "id": "6305000012", "name": "USPS COLLECTION BOX - BLUE BOX", "address": {"city": "HILLSBORO", "state": "MO", "street": "4620 YEAGER RD", "postcode": "63050"}}},
{"geometry": {"type": "Point", "coordinates": [-90.5633963711, 38.2270206955]}, "type": "Feature", "properties": {"collection_times": [{"days": "Mon-Fri", "time": "5:00pm"}, {"days": "Sat", "time": "12:30pm"}, {"days": "Sun", "time": "Closed"}], "id": "6305000013", "name": "USPS COLLECTION BOX - PO LOBBY", "address": {"city": "HILLSBORO", "state": "MO", "street": "4620 YEAGER RD", "postcode": "63050"}}},
{"geometry": {"type": "Point", "coordinates": [-90.5633963711, 38.2270206955]}, "type": "Feature", "properties": {"collection_times": [{"days": "Mon-Fri", "time": "5:00pm"}, {"days": "Sat", "time": "12:30pm"}, {"days": "Sun", "time": "Closed"}], "id": "6305000016", "name": "USPS COLLECTION BOX - PO LOBBY", "address": {"city": "HILLSBORO", "state": "MO", "street": "4620 YEAGER RD", "postcode": "63050"}}},
{"geometry": {"type": "Point", "coordinates": [-90.5781666401, 38.4117020879]}, "type": "Feature", "properties": {"collection_times": [{"days": "Mon-Fri", "time": "4:00pm"}, {"days": "Sat", "time": "12:30pm"}, {"days": "Sun", "time": "Closed"}], "id": "6305100002", "name": "USPS COLLECTION BOX - BLUE BOX", "address": {"city": "HOUSE SPRINGS", "state": "MO", "street": "4650 GRAVOIS RD", "postcode": "63051"}}},
{"geometry": {"type": "Point", "coordinates": [-90.5781666401, 38.4117020879]}, "type": "Feature", "properties": {"collection_times": [{"days": "Mon-Fri", "time": "4:00pm"}, {"days": "Sat", "time": "12:30pm"}, {"days": "Sun", "time": "Closed"}], "id": "6305100006", "name": "USPS COLLECTION BOX - BLUE BOX", "address": {"city": "HOUSE SPRINGS", "state": "MO", "street": "4650 GRAVOIS RD", "postcode": "63051"}}},
{"geometry": {"type": "Point", "coordinates": [-90.5781666401, 38.4117020879]}, "type": "Feature", "properties": {"collection_times": [{"days": "Mon-Fri", "time": "4:00pm"}, {"days": "Sat", "time": "12:30pm"}, {"days": "Sun", "time": "Closed"}], "id": "6305100007", "name": "USPS COLLECTION BOX - PO LOBBY", "address": {"city": "HOUSE SPRINGS", "state": "MO", "street": "4650 GRAVOIS RD", "postcode": "63051"}}},
{"geometry": {"type": "Point", "coordinates": [-90.4329383086, 38.3883983557]}, "type": "Feature", "properties": {"collection_times": [{"days": "Mon-Sat", "time": "10:15am"}, {"days": "Sun", "time": "Closed"}], "id": "6305200004", "name": "USPS COLLECTION BOX - BLUE BOX", "address": {"city": "IMPERIAL", "state": "MO", "street": "5714 OLD HWY 21", "postcode": "63052"}}},
{"geometry": {"type": "Point", "coordinates": [-90.3852392141, 38.3671946545]}, "type": "Feature", "properties": {"collection_times": [{"days": "Mon-Fri", "time": "4:30pm"}, {"days": "Sat", "time": "2:45pm"}, {"days": "Sun", "time": "Closed"}], "id": "6305200009", "name": "USPS COLLECTION BOX - BLUE BOX", "address": {"city": "IMPERIAL", "state": "MO", "street": "6035 S OUTER RD", "postcode": "63052"}}},
{"geometry": {"type": "Point", "coordinates": [-90.3852392141, 38.3671946545]}, "type": "Feature", "properties": {"collection_times": [{"days": "Mon-Fri", "time": "4:30pm"}, {"days": "Sat", "time": "2:45pm"}, {"days": "Sun", "time": "Closed"}], "id": "6305200011", "name": "USPS COLLECTION BOX - BLUE BOX", "address": {"city": "IMPERIAL", "state": "MO", "street": "6035 S OUTER RD", "postcode": "63052"}}},
{"geometry": {"type": "Point", "coordinates": [-90.3852392141, 38.3671946545]}, "type": "Feature", "properties": {"collection_times": [{"days": "Mon-Fri", "time": "4:30pm"}, {"days": "Sat", "time": "11:45am"}, {"days": "Sun", "time": "Closed"}], "id": "6305200014", "name": "USPS COLLECTION BOX - PO LOBBY", "address": {"city": "IMPERIAL", "state": "MO", "street": "6035 S OUTER RD", "postcode": "63052"}}},
{"geometry": {"type": "Point", "coordinates": [-90.3629009193, 38.3651830205]}, "type": "Feature", "properties": {"collection_times": [{"days": "Mon-Sat", "time": "11:00am"}, {"days": "Sun", "time": "Closed"}], "id": "6305300001", "name": "USPS COLLECTION BOX - BLUE BOX", "address": {"city": "KIMMSWICK", "state": "MO", "street": "6057 FRONT ST - CONTRACT STA", "postcode": "63053"}}},
{"geometry": {"type": "Point", "coordinates": [-90.8519186537, 38.5289499353]}, "type": "Feature", "properties": {"collection_times": [{"days": "Mon-Fri", "time": "1:45pm"}, {"days": "Sat", "time": "10:45am"}, {"days": "Sun", "time": "Closed"}], "id": "6305500001", "name": "USPS COLLECTION BOX - BLUE BOX", "address": {"city": "LABADIE", "state": "MO", "street": "106 3RD ST", "postcode": "63055"}}},
{"geometry": {"type": "Point", "coordinates": [-90.8519186537, 38.5289499353]}, "type": "Feature", "properties": {"collection_times": [{"days": "Mon-Fri", "time": "1:45pm"}, {"days": "Sat", "time": "10:45am"}, {"days": "Sun", "time": "Closed"}], "id": "6305500002", "name": "USPS COLLECTION BOX - PO LOBBY", "address": {"city": "LABADIE", "state": "MO", "street": "106 3RD ST", "postcode": "63055"}}},
{"geometry": {"type": "Point", "coordinates": [-91.2310309327, 38.4182483301]}, "type": "Feature", "properties": {"collection_times": [{"days": "Mon-Fri", "time": "11:15am"}, {"days": "Sat", "time": "8:45am"}, {"days": "Sun", "time": "Closed"}], "id": "6305600001", "name": "USPS COLLECTION BOX - BLUE BOX", "address": {"city": "LESLIE", "state": "MO", "street": "321 MAIN ST", "postcode": "63056"}}},
{"geometry": {"type": "Point", "coordinates": [-91.2310309327, 38.4182483301]}, "type": "Feature", "properties": {"collection_times": [{"days": "Mon-Fri", "time": "11:15am"}, {"days": "Sat", "time": "8:45am"}, {"days": "Sun", "time": "Closed"}], "id": "6305600002", "name": "USPS COLLECTION BOX - PO LOBBY", "address": {"city": "LESLIE", "state": "MO", "street": "321 MAIN ST", "postcode": "63056"}}},
{"geometry": {"type": "Point", "coordinates": [-90.4225964143, 38.3578713692]}, "type": "Feature", "properties": {"collection_times": [{"days": "Mon-Fri", "time": "3:45pm"}, {"days": "Sat", "time": "8:45am"}, {"days": "Sun", "time": "Closed"}], "id": "6305700001", "name": "USPS COLLECTION BOX - PO LOBBY", "address": {"city": "LIGUORI", "state": "MO", "street": "1 LIGUORI DR", "postcode": "63057"}}},
{"geometry": {"type": "Point", "coordinates": [-90.8304350916, 38.3082723404]}, "type": "Feature", "properties": {"collection_times": [{"days": "Mon-Fri", "time": "4:00pm"}, {"days": "Sat", "time": "10:00am"}, {"days": "Sun", "time": "Closed"}], "id": "6306000001", "name": "USPS COLLECTION BOX - BLUE BOX", "address": {"city": "LONEDELL", "state": "MO", "street": "3735 HIGHWAY 30", "postcode": "63060"}}},
{"geometry": {"type": "Point", "coordinates": [-90.8304350916, 38.3082723404]}, "type": "Feature", "properties": {"collection_times": [{"days": "Mon-Fri", "time": "3:45pm"}, {"days": "Sat", "time": "9:45am"}, {"days": "Sun", "time": "Closed"}], "id": "6306000002", "name": "USPS COLLECTION BOX - PO LOBBY", "address": {"city": "LONEDELL", "state": "MO", "street": "3735 HIGHWAY 30", "postcode": "63060"}}},
{"geometry": {"type": "Point", "coordinates": [-90.4789589559, 38.2521308651]}, "type": "Feature", "properties": {"collection_times": [{"days": "Mon-Fri", "time": "4:30pm"}, {"days": "Sat", "time": "10:45am"}, {"days": "Sun", "time": "Closed"}], "id": "6306500003", "name": "USPS COLLECTION BOX - BLUE BOX", "address": {"city": "MAPAVILLE", "state": "MO", "street": "3823 STATE ROAD Z", "postcode": "63065"}}},
{"geometry": {"type": "Point", "coordinates": [-90.4789589559, 38.2521308651]}, "type": "Feature", "properties": {"collection_times": [{"days": "Mon-Fri", "time": "4:45pm"}, {"days": "Sat", "time": "10:45am"}, {"days": "Sun", "time": "Closed"}], "id": "6306500004", "name": "USPS COLLECTION BOX - PO LOBBY", "address": {"city": "MAPAVILLE", "state": "MO", "street": "3823 STATE ROAD Z", "postcode": "63065"}}},
{"geometry": {"type": "Point", "coordinates": [-90.4789589559, 38.2521308651]}, "type": "Feature", "properties": {"collection_times": [{"days": "Mon-Fri", "time": "4:45pm"}, {"days": "Sat", "time": "10:45am"}, {"days": "Sun", "time": "Closed"}], "id": "6306500005", "name": "USPS COLLECTION BOX - PO LOBBY", "address": {"city": "MAPAVILLE", "state": "MO", "street": "3823 STATE ROAD Z", "postcode": "63065"}}},
{"geometry": {"type": "Point", "coordinates": [-90.6529991549, 38.2766031378]}, "type": "Feature", "properties": {"collection_times": [{"days": "Mon-Sat", "time": "11:00am"}, {"days": "Sun", "time": "Closed"}], "id": "6306600002", "name": "USPS COLLECTION BOX - BLUE BOX", "address": {"city": "MORSE MILL", "state": "MO", "street": "8415 STATE ROAD EE", "postcode": "63066"}}},
{"geometry": {"type": "Point", "coordinates": [-90.6529991549, 38.2766031378]}, "type": "Feature", "properties": {"collection_times": [{"days": "Mon-Sat", "time": "11:00am"}, {"days": "Sun", "time": "Closed"}], "id": "6306600003", "name": "USPS COLLECTION BOX - PO LOBBY", "address": {"city": "MORSE MILL", "state": "MO", "street": "8415 STATE ROAD EE", "postcode": "63066"}}},
{"geometry": {"type": "Point", "coordinates": [-91.213788698, 38.6142431296]}, "type": "Feature", "properties": {"collection_times": [{"days": "Mon-Fri", "time": "1:45pm"}, {"days": "Sat", "time": "11:15am"}, {"days": "Sun", "time": "Closed"}], "id": "6306800001", "name": "USPS COLLECTION BOX - BLUE BOX", "address": {"city": "NEW HAVEN", "state": "MO", "street": "1103 MILLER ST", "postcode": "63068"}}},
{"geometry": {"type": "Point", "coordinates": [-91.2184943731, 38.6009360973]}, "type": "Feature", "properties": {"collection_times": [{"days": "Mon-Sat", "time": "1:00pm"}, {"days": "Sun", "time": "Closed"}], "id": "6306800002", "name": "USPS COLLECTION BOX - BLUE BOX", "address": {"city": "NEW HAVEN", "state": "MO", "street": "100 CIRCLE DR", "postcode": "63068"}}},
{"geometry": {"type": "Point", "coordinates": [-91.2119987464, 38.600607853]}, "type": "Feature", "properties": {"collection_times": [{"days": "Mon-Fri", "time": "2:15pm"}, {"days": "Sat", "time": "12:30pm"}, {"days": "Sun", "time": "Closed"}], "id": "6306800003", "name": "USPS COLLECTION BOX - BLUE BOX", "address": {"city": "NEW HAVEN", "state": "MO", "street": "101 FRANKLIN COUNTY", "postcode": "63068"}}},
{"geometry": {"type": "Point", "coordinates": [-91.213788698, 38.6142431296]}, "type": "Feature", "properties": {"collection_times": [{"days": "Mon-Fri", "time": "1:45pm"}, {"days": "Sat", "time": "11:15am"}, {"days": "Sun", "time": "Closed"}], "id": "6306800004", "name": "USPS COLLECTION BOX - PO LOBBY", "address": {"city": "NEW HAVEN", "state": "MO", "street": "1103 MILLER ST", "postcode": "63068"}}},
{"geometry": {"type": "Point", "coordinates": [-91.2191770244, 38.566111731]}, "type": "Feature", "properties": {"collection_times": [{"days": "Mon-Sat", "time": "1:00pm"}, {"days": "Sun", "time": "Closed"}], "id": "6306800006", "name": "USPS COLLECTION BOX - BLUE BOX", "address": {"city": "NEW HAVEN", "state": "MO", "street": "515 HAROLD MEYER DR", "postcode": "63068"}}},
{"geometry": {"type": "Point", "coordinates": [-90.7442552945, 38.4820287647]}, "type": "Feature", "properties": {"collection_times": [{"days": "Mon-Fri", "time": "4:00pm"}, {"days": "Sat", "time": "3:30pm"}, {"days": "Sun", "time": "Closed"}], "id": "6306900002", "name": "USPS COLLECTION BOX - BLUE BOX", "address": {"city": "PACIFIC", "state": "MO", "street": "324 W SAINT LOUIS ST", "postcode": "63069"}}},
{"geometry": {"type": "Point", "coordinates": [-90.7413265706, 38.4821226284]}, "type": "Feature", "properties": {"collection_times": [{"days": "Mon-Sat", "time": "2:00pm"}, {"days": "Sun", "time": "Closed"}], "id": "6306900005", "name": "USPS COLLECTION BOX - BLUE BOX", "address": {"city": "PACIFIC", "state": "MO", "street": "101 E SAINT LOUIS ST", "postcode": "63069"}}},
{"geometry": {"type": "Point", "coordinates": [-90.7454813257, 38.4841571719]}, "type": "Feature", "properties": {"collection_times": [{"days": "Mon-Sat", "time": "11:30am"}, {"days": "Sun", "time": "Closed"}], "id": "6306900007", "name": "USPS COLLECTION BOX - BLUE BOX", "address": {"city": "PACIFIC", "state": "MO", "street": "421 W OSAGE ST", "postcode": "63069"}}},
{"geometry": {"type": "Point", "coordinates": [-90.7442552945, 38.4820287647]}, "type": "Feature", "properties": {"collection_times": [{"days": "Mon-Fri", "time": "4:00pm"}, {"days": "Sat", "time": "3:30pm"}, {"days": "Sun", "time": "Closed"}], "id": "6306900017", "name": "USPS COLLECTION BOX - BLUE BOX", "address": {"city": "PACIFIC", "state": "MO", "street": "324 W SAINT LOUIS ST", "postcode": "63069"}}},
{"geometry": {"type": "Point", "coordinates": [-90.7442552945, 38.4820287647]}, "type": "Feature", "properties": {"collection_times": [{"days": "Mon-Sat", "time": "3:30pm"}, {"days": "Sun", "time": "Closed"}], "id": "6306900019", "name": "USPS COLLECTION BOX - PO LOBBY", "address": {"city": "PACIFIC", "state": "MO", "street": "324 W SAINT LOUIS ST", "postcode": "63069"}}},
{"geometry": {"type": "Point", "coordinates": [-90.7663598441, 38.4845199739]}, "type": "Feature", "properties": {"collection_times": [{"days": "Mon-Sat", "time": "10:00am"}, {"days": "Sun", "time": "Closed"}], "id": "6306900021", "name": "USPS COLLECTION BOX - BLUE BOX", "address": {"city": "PACIFIC", "state": "MO", "street": "1999 W OSAGE ST", "postcode": "63069"}}},
{"geometry": {"type": "Point", "coordinates": [-90.3944497326, 38.2840752258]}, "type": "Feature", "properties": {"collection_times": [{"days": "Mon-Fri", "time": "3:00pm"}, {"days": "Sat", "time": "10:00am"}, {"days": "Sun", "time": "Closed"}], "id": "6307000002", "name": "USPS COLLECTION BOX - BLUE BOX", "address": {"city": "PEVELY", "state": "MO", "street": "305 MAIN ST", "postcode": "63070"}}},
{"geometry": {"type": "Point", "coordinates": [-90.3944497326, 38.2840752258]}, "type": "Feature", "properties": {"collection_times": [{"days": "Mon-Fri", "time": "3:00pm"}, {"days": "Sat", "time": "10:00am"}, {"days": "Sun", "time": "Closed"}], "id": "6307000003", "name": "USPS COLLECTION BOX - BLUE BOX", "address": {"city": "PEVELY", "state": "MO", "street": "305 MAIN ST", "postcode": "63070"}}},
{"geometry": {"type": "Point", "coordinates": [-90.3972919192, 38.2774070502]}, "type": "Feature", "properties": {"collection_times": [{"days": "Mon-Sat", "time": "9:45am"}, {"days": "Sun", "time": "Closed"}], "id": "6307000006", "name": "USPS COLLECTION BOX - BLUE BOX", "address": {"city": "PEVELY", "state": "MO", "street": "1 PEVELY SQUARE DR", "postcode": "63070"}}},
{"geometry": {"type": "Point", "coordinates": [-90.4051270881, 38.2868733345]}, "type": "Feature", "properties": {"collection_times": [{"days": "Mon-Sat", "time": "9:30am"}, {"days": "Sun", "time": "Closed"}], "id": "6307000007", "name": "USPS COLLECTION BOX - BLUE BOX", "address": {"city": "PEVELY", "state": "MO", "street": "1707 HIGHWAY Z", "postcode": "63070"}}},
{"geometry": {"type": "Point", "coordinates": [-90.3944497326, 38.2840752258]}, "type": "Feature", "properties": {"collection_times": [{"days": "Mon-Fri", "time": "3:00pm"}, {"days": "Sat", "time": "10:00am"}, {"days": "Sun", "time": "Closed"}], "id": "6307000008", "name": "USPS COLLECTION BOX - PO LOBBY", "address": {"city": "PEVELY", "state": "MO", "street": "305 MAIN ST", "postcode": "63070"}}},
{"geometry": {"type": "Point", "coordinates": [-90.8208964403, 38.1610616283]}, "type": "Feature", "properties": {"collection_times": [{"days": "Mon-Fri", "time": "1:15pm"}, {"days": "Sat", "time": "11:00am"}, {"days": "Sun", "time": "Closed"}], "id": "6307100001", "name": "USPS COLLECTION BOX - BLUE BOX", "address": {"city": "RICHWOODS", "state": "MO", "street": "11218 STATE HIGHWAY A", "postcode": "63071"}}},
{"geometry": {"type": "Point", "coordinates": [-90.8208964403, 38.1610616283]}, "type": "Feature", "properties": {"collection_times": [{"days": "Mon-Fri", "time": "1:15pm"}, {"days": "Sat", "time": "10:45am"}, {"days": "Sun", "time": "Closed"}], "id": "6307100002", "name": "USPS COLLECTION BOX - PO LOBBY", "address": {"city": "RICHWOODS", "state": "MO", "street": "11218 STATE HIGHWAY A", "postcode": "63071"}}},
{"geometry": {"type": "Point", "coordinates": [-90.8098688357, 38.4151480237]}, "type": "Feature", "properties": {"collection_times": [{"days": "Mon-Fri", "time": "11:45am"}, {"days": "Sat", "time": "10:15am"}, {"days": "Sun", "time": "Closed"}], "id": "6307200001", "name": "USPS COLLECTION BOX - BLUE BOX", "address": {"city": "ROBERTSVILLE", "state": "MO", "street": "7292 HIGHWAY O", "postcode": "63072"}}},
{"geometry": {"type": "Point", "coordinates": [-90.8098688357, 38.4151480237]}, "type": "Feature", "properties": {"collection_times": [{"days": "Mon-Fri", "time": "11:45am"}, {"days": "Sat", "time": "10:15am"}, {"days": "Sun", "time": "Closed"}], "id": "6307200002", "name": "USPS COLLECTION BOX - PO LOBBY", "address": {"city": "ROBERTSVILLE", "state": "MO", "street": "7292 HIGHWAY O", "postcode": "63072"}}},
{"geometry": {"type": "Point", "coordinates": [-90.7722942296, 38.5796530678]}, "type": "Feature", "properties": {"collection_times": [{"days": "Mon-Fri", "time": "4:00pm"}, {"days": "Sat", "time": "9:30am"}, {"days": "Sun", "time": "Closed"}], "id": "6307300001", "name": "USPS COLLECTION BOX - BLUE BOX", "address": {"city": "SAINT ALBANS", "state": "MO", "street": "3451 SAINT ALBANS RD", "postcode": "63073"}}},
{"geometry": {"type": "Point", "coordinates": [-90.3826307896, 38.7314537449]}, "type": "Feature", "properties": {"collection_times": [{"days": "Mon-Fri", "time": "5:00pm"}, {"days": "Sat", "time": "2:30pm"}, {"days": "Sun", "time": "Closed"}], "id": "6307400002", "name": "USPS COLLECTION BOX - BLUE BOX", "address": {"city": "SAINT ANN", "state": "MO", "street": "10401 INTERNATIONAL PLZ", "postcode": "63074"}}},
{"geometry": {"type": "Point", "coordinates": [-90.3826307896, 38.7314537449]}, "type": "Feature", "properties": {"collection_times": [{"days": "Mon-Fri", "time": "5:00pm"}, {"days": "Sat", "time": "2:30pm"}, {"days": "Sun", "time": "Closed"}], "id": "6307400003", "name": "USPS COLLECTION BOX - BLUE BOX", "address": {"city": "SAINT ANN", "state": "MO", "street": "10401 INTERNATIONAL PLZ", "postcode": "63074"}}},
{"geometry": {"type": "Point", "coordinates": [-90.3877251262, 38.7313056182]}, "type": "Feature", "properties": {"collection_times": [{"days": "Mon-Sat", "time": "3:15pm"}, {"days": "Sun", "time": "Closed"}], "id": "6307400013", "name": "USPS COLLECTION BOX - BLUE BOX", "address": {"city": "SAINT ANN", "state": "MO", "street": "10585 ST CHARLES ROCK RD", "postcode": "63074"}}},
{"geometry": {"type": "Point", "coordinates": [-90.3883285858, 38.7315076784]}, "type": "Feature", "properties": {"collection_times": [{"days": "Mon-Sat", "time": "3:15pm"}, {"days": "Sun", "time": "Closed"}], "id": "6307400014", "name": "USPS COLLECTION BOX - BLUE BOX", "address": {"city": "SAINT ANN", "state": "MO", "street": "10634 ST CHARLES ROCK RD", "postcode": "63074"}}},
{"geometry": {"type": "Point", "coordinates": [-90.3968205492, 38.7317191051]}, "type": "Feature", "properties": {"collection_times": [{"days": "Mon-Sat", "time": "10:25am"}, {"days": "Sun", "time": "Closed"}], "id": "6307400031", "name": "USPS COLLECTION BOX - BLUE BOX", "address": {"city": "SAINT ANN", "state": "MO", "street": "500 NORTHWEST PLZ", "postcode": "63074"}}},
{"geometry": {"type": "Point", "coordinates": [-90.3732324785, 38.7229714486]}, "type": "Feature", "properties": {"collection_times": [{"days": "Mon-Sat", "time": "3:15pm"}, {"days": "Sun", "time": "Closed"}], "id": "6307400033", "name": "USPS COLLECTION BOX - BLUE BOX", "address": {"city": "SAINT ANN", "state": "MO", "street": "9850 ST CHARLES ROCK RD", "postcode": "63074"}}},
{"geometry": {"type": "Point", "coordinates": [-90.3874996715, 38.7225183186]}, "type": "Feature", "properties": {"collection_times": [{"days": "Mon-Sat", "time": "3:15pm"}, {"days": "Sun", "time": "Closed"}], "id": "6307400047", "name": "USPS COLLECTION BOX - BLUE BOX", "address": {"city": "SAINT ANN", "state": "MO", "street": "3461 ASHBY RD", "postcode": "63074"}}},
{"geometry": {"type": "Point", "coordinates": [-90.3826307896, 38.7314537449]}, "type": "Feature", "properties": {"collection_times": [{"days": "Mon-Fri", "time": "5:00pm"}, {"days": "Sat", "time": "2:30pm"}, {"days": "Sun", "time": "Closed"}], "id": "6307400050", "name": "USPS COLLECTION BOX - PO LOBBY", "address": {"city": "SAINT ANN", "state": "MO", "street": "10401 INTERNATIONAL PLZ", "postcode": "63074"}}},
{"geometry": {"type": "Point", "coordinates": [-90.978695507, 38.355573673]}, "type": "Feature", "properties": {"collection_times": [{"days": "Mon-Fri", "time": "5:00pm"}, {"days": "Sat", "time": "1:00pm"}, {"days": "Sun", "time": "Closed"}], "id": "6307700002", "name": "USPS COLLECTION BOX - BLUE BOX", "address": {"city": "SAINT CLAIR", "state": "MO", "street": "1020 PLAZA CT S", "postcode": "63077"}}},
{"geometry": {"type": "Point", "coordinates": [-90.978695507, 38.355573673]}, "type": "Feature", "properties": {"collection_times": [{"days": "Mon-Fri", "time": "5:00pm"}, {"days": "Sat", "time": "1:00pm"}, {"days": "Sun", "time": "Closed"}], "id": "6307700003", "name": "USPS COLLECTION BOX - BLUE BOX", "address": {"city": "SAINT CLAIR", "state": "MO", "street": "1020 PLAZA CT S", "postcode": "63077"}}},
{"geometry": {"type": "Point", "coordinates": [-90.977695512, 38.3543259963]}, "type": "Feature", "properties": {"collection_times": [{"days": "Mon-Sat", "time": "12:00pm"}, {"days": "Sun", "time": "Closed"}], "id": "6307700014", "name": "USPS COLLECTION BOX - BLUE BOX", "address": {"city": "SAINT CLAIR", "state": "MO", "street": "845 N COMMERCIAL AVE", "postcode": "63077"}}},
{"geometry": {"type": "Point", "coordinates": [-90.9868447737, 38.3542264132]}, "type": "Feature", "properties": {"collection_times": [{"days": "Mon-Fri", "time": "12:00pm"}, {"days": "Sat", "time": "10:00am"}, {"days": "Sun", "time": "Closed"}], "id": "6307700015", "name": "USPS COLLECTION BOX - BLUE BOX", "address": {"city": "SAINT CLAIR", "state": "MO", "street": "100 SAINT CLAIR INDUSTRIAL PARK", "postcode": "63077"}}},
{"geometry": {"type": "Point", "coordinates": [-90.988158451, 38.3381206169]}, "type": "Feature", "properties": {"collection_times": [{"days": "Mon-Sat", "time": "10:00am"}, {"days": "Sun", "time": "Closed"}], "id": "6307700019", "name": "USPS COLLECTION BOX - BLUE BOX", "address": {"city": "SAINT CLAIR", "state": "MO", "street": "136 KATIE LN", "postcode": "63077"}}},
{"geometry": {"type": "Point", "coordinates": [-90.978695507, 38.355573673]}, "type": "Feature", "properties": {"collection_times": [{"days": "Mon-Fri", "time": "5:00pm"}, {"days": "Sat", "time": "1:00pm"}, {"days": "Sun", "time": "Closed"}], "id": "6307700024", "name": "USPS COLLECTION BOX - PO LOBBY", "address": {"city": "SAINT CLAIR", "state": "MO", "street": "1020 PLAZA CT S", "postcode": "63077"}}},
{"geometry": {"type": "Point", "coordinates": [-90.9809236029, 38.3442864683]}, "type": "Feature", "properties": {"collection_times": [{"days": "Mon-Sat", "time": "12:00pm"}, {"days": "Sun", "time": "Closed"}], "id": "6307700026", "name": "USPS COLLECTION BOX - BLUE BOX", "address": {"city": "SAINT CLAIR", "state": "MO", "street": "530 S MAIN ST", "postcode": "63077"}}},
{"geometry": {"type": "Point", "coordinates": [-90.9873917872, 38.3423076078]}, "type": "Feature", "properties": {"collection_times": [{"days": "Mon-Sat", "time": "12:00pm"}, {"days": "Sun", "time": "Closed"}], "id": "6307700027", "name": "USPS COLLECTION BOX - BLUE BOX", "address": {"city": "SAINT CLAIR", "state": "MO", "street": "215 W GRAVOIS AVE", "postcode": "63077"}}},
{"geometry": {"type": "Point", "coordinates": [-90.978695507, 38.355573673]}, "type": "Feature", "properties": {"collection_times": [{"days": "Mon-Fri", "time": "5:00pm"}, {"days": "Sat", "time": "1:00pm"}, {"days": "Sun", "time": "Closed"}], "id": "6307700028", "name": "USPS COLLECTION BOX - BLUE BOX", "address": {"city": "SAINT CLAIR", "state": "MO", "street": "1020 PLAZA CT S", "postcode": "63077"}}},
{"geometry": {"type": "Point", "coordinates": [-91.104371469, 38.2743718337]}, "type": "Feature", "properties": {"collection_times": [{"days": "Mon-Fri", "time": "11:15am"}, {"days": "Sat", "time": "8:45am"}, {"days": "Sun", "time": "Closed"}], "id": "6307900001", "name": "USPS COLLECTION BOX - BLUE BOX", "address": {"city": "STANTON", "state": "MO", "street": "51 HIGHWAY W", "postcode": "63079"}}},
{"geometry": {"type": "Point", "coordinates": [-91.104371469, 38.2743718337]}, "type": "Feature", "properties": {"collection_times": [{"days": "Mon-Fri", "time": "11:15am"}, {"days": "Sat", "time": "8:45am"}, {"days": "Sun", "time": "Closed"}], "id": "6307900002", "name": "USPS COLLECTION BOX - PO LOBBY", "address": {"city": "STANTON", "state": "MO", "street": "51 HIGHWAY W", "postcode": "63079"}}},
{"geometry": {"type": "Point", "coordinates": [-91.1584378833, 38.2093782196]}, "type": "Feature", "properties": {"collection_times": [{"days": "Mon-Fri", "time": "4:45pm"}, {"days": "Sat", "time": "3:30pm"}, {"days": "Sun", "time": "Closed"}], "id": "6308000001", "name": "USPS COLLECTION BOX - BLUE BOX", "address": {"city": "SULLIVAN", "state": "MO", "street": "33 W VINE ST", "postcode": "63080"}}},
{"geometry": {"type": "Point", "coordinates": [-91.1584378833, 38.2093782196]}, "type": "Feature", "properties": {"collection_times": [{"days": "Mon-Fri", "time": "4:45pm"}, {"days": "Sat", "time": "3:30pm"}, {"days": "Sun", "time": "Closed"}], "id": "6308000003", "name": "USPS COLLECTION BOX - BLUE BOX", "address": {"city": "SULLIVAN", "state": "MO", "street": "33 W VINE ST", "postcode": "63080"}}},
{"geometry": {"type": "Point", "coordinates": [-91.1687890957, 38.2138586147]}, "type": "Feature", "properties": {"collection_times": [{"days": "Mon-Fri", "time": "10:00am"}, {"days": "Sat", "time": "10:15am"}, {"days": "Sun", "time": "Closed"}], "id": "6308000007", "name": "USPS COLLECTION BOX - BLUE BOX", "address": {"city": "SULLIVAN", "state": "MO", "street": "665 FISHER DR", "postcode": "63080"}}},
{"geometry": {"type": "Point", "coordinates": [-91.1604244363, 38.2099538848]}, "type": "Feature", "properties": {"collection_times": [{"days": "Mon-Sat", "time": "3:30pm"}, {"days": "Sun", "time": "Closed"}], "id": "6308000008", "name": "USPS COLLECTION BOX - BLUE BOX", "address": {"city": "SULLIVAN", "state": "MO", "street": "65 N CLARK ST", "postcode": "63080"}}},
{"geometry": {"type": "Point", "coordinates": [-91.1584378833, 38.2093782196]}, "type": "Feature", "properties": {"collection_times": [{"days": "Mon-Fri", "time": "5:00pm"}, {"days": "Sat", "time": "4:00pm"}, {"days": "Sun", "time": "Closed"}], "id": "6308000011", "name": "USPS COLLECTION BOX - PO LOBBY", "address": {"city": "SULLIVAN", "state": "MO", "street": "33 W VINE ST", "postcode": "63080"}}},
{"geometry": {"type": "Point", "coordinates": [-91.1584378833, 38.2093782196]}, "type": "Feature", "properties": {"collection_times": [{"days": "Mon-Fri", "time": "4:45pm"}, {"days": "Sat", "time": "3:30pm"}, {"days": "Sun", "time": "Closed"}], "id": "6308000012", "name": "USPS COLLECTION BOX - BLUE BOX", "address": {"city": "SULLIVAN", "state": "MO", "street": "33 W VINE ST", "postcode": "63080"}}},
{"geometry": {"type": "Point", "coordinates": [-91.127686551, 38.2406907042]}, "type": "Feature", "properties": {"collection_times": [{"days": "Mon-Sat", "time": "11:15am"}, {"days": "Sun", "time": "Closed"}], "id": "6308000013", "name": "USPS COLLECTION BOX - BLUE BOX", "address": {"city": "SULLIVAN", "state": "MO", "street": "825 HIGHWAY AF", "postcode": "63080"}}},
{"geometry": {"type": "Point", "coordinates": [-91.1565570899, 38.2219464512]}, "type": "Feature", "properties": {"collection_times": [{"days": "Mon-Sat", "time": "10:00am"}, {"days": "Sun", "time": "Closed"}], "id": "6308000014", "name": "USPS COLLECTION BOX - BLUE BOX", "address": {"city": "SULLIVAN", "state": "MO", "street": "350 PARK RIDGE RD", "postcode": "63080"}}},
{"geometry": {"type": "Point", "coordinates": [-91.1774504842, 38.2082527839]}, "type": "Feature", "properties": {"collection_times": [{"days": "Mon-Sat", "time": "3:30pm"}, {"days": "Sun", "time": "Closed"}], "id": "6308000015", "name": "USPS COLLECTION BOX - BLUE BOX", "address": {"city": "SULLIVAN", "state": "MO", "street": "900 ELMONT RD", "postcode": "63080"}}},
{"geometry": {"type": "Point", "coordinates": [-91.0046818487, 38.4447193094]}, "type": "Feature", "properties": {"collection_times": [{"days": "Mon-Sat", "time": "2:45pm"}, {"days": "Sun", "time": "Closed"}], "id": "6308400003", "name": "USPS COLLECTION BOX - BLUE BOX", "address": {"city": "UNION", "state": "MO", "street": "500 E LOCUST ST", "postcode": "63084"}}},
{"geometry": {"type": "Point", "coordinates": [-91.0065811202, 38.4440779325]}, "type": "Feature", "properties": {"collection_times": [{"days": "Mon-Sat", "time": "12:15pm"}, {"days": "Sun", "time": "Closed"}], "id": "6308400005", "name": "USPS COLLECTION BOX - BLUE BOX", "address": {"city": "UNION", "state": "MO", "street": "201 S OAK ST", "postcode": "63084"}}},
{"geometry": {"type": "Point", "coordinates": [-91.019305303, 38.4391437166]}, "type": "Feature", "properties": {"collection_times": [{"days": "Mon-Fri", "time": "1:30pm"}, {"days": "Sat", "time": "10:15am"}, {"days": "Sun", "time": "Closed"}], "id": "6308400006", "name": "USPS COLLECTION BOX - BLUE BOX", "address": {"city": "UNION", "state": "MO", "street": "210 US HIGHWAY 50 W", "postcode": "63084"}}},
{"geometry": {"type": "Point", "coordinates": [-91.008538021, 38.4455498857]}, "type": "Feature", "properties": {"collection_times": [{"days": "Mon-Sat", "time": "11:30am"}, {"days": "Sun", "time": "Closed"}], "id": "6308400009", "name": "USPS COLLECTION BOX - BLUE BOX", "address": {"city": "UNION", "state": "MO", "street": "15 E MAIN ST", "postcode": "63084"}}},
{"geometry": {"type": "Point", "coordinates": [-91.0039187874, 38.4585653958]}, "type": "Feature", "properties": {"collection_times": [{"days": "Mon-Fri", "time": "5:00pm"}, {"days": "Sat", "time": "4:00pm"}, {"days": "Sun", "time": "Closed"}], "id": "6308400021", "name": "USPS COLLECTION BOX - PO LOBBY", "address": {"city": "UNION", "state": "MO", "street": "1276 N HIGHWAY 47", "postcode": "63084"}}},
{"geometry": {"type": "Point", "coordinates": [-91.0039187874, 38.4585653958]}, "type": "Feature", "properties": {"collection_times": [{"days": "Mon-Fri", "time": "5:00pm"}, {"days": "Sat", "time": "4:00pm"}, {"days": "Sun", "time": "Closed"}], "id": "6308400022", "name": "USPS COLLECTION BOX - PO LOBBY", "address": {"city": "UNION", "state": "MO", "street": "1276 N HIGHWAY 47", "postcode": "63084"}}},
{"geometry": {"type": "Point", "coordinates": [-91.0039187874, 38.4585653958]}, "type": "Feature", "properties": {"collection_times": [{"days": "Mon-Fri", "time": "5:00pm"}, {"days": "Sat", "time": "4:00pm"}, {"days": "Sun", "time": "Closed"}], "id": "6308400023", "name": "USPS COLLECTION BOX - BLUE BOX", "address": {"city": "UNION", "state": "MO", "street": "1276 N HIGHWAY 47", "postcode": "63084"}}},
{"geometry": {"type": "Point", "coordinates": [-91.0039187874, 38.4585653958]}, "type": "Feature", "properties": {"collection_times": [{"days": "Mon-Fri", "time": "5:00pm"}, {"days": "Sat", "time": "4:00pm"}, {"days": "Sun", "time": "Closed"}], "id": "6308400024", "name": "USPS COLLECTION BOX - BLUE BOX", "address": {"city": "UNION", "state": "MO", "street": "1276 N HIGHWAY 47", "postcode": "63084"}}},
{"geometry": {"type": "Point", "coordinates": [-91.0085867863, 38.4447361268]}, "type": "Feature", "properties": {"collection_times": [{"days": "Mon-Sat", "time": "2:45pm"}, {"days": "Sun", "time": "Closed"}], "id": "6308400025", "name": "USPS COLLECTION BOX - BLUE BOX", "address": {"city": "UNION", "state": "MO", "street": "10 E LOCUST ST", "postcode": "63084"}}},
{"geometry": {"type": "Point", "coordinates": [-91.0039187874, 38.4585653958]}, "type": "Feature", "properties": {"collection_times": [{"days": "Mon-Fri", "time": "5:00pm"}, {"days": "Sat", "time": "4:00pm"}, {"days": "Sun", "time": "Closed"}], "id": "6308400027", "name": "USPS COLLECTION BOX - PO LOBBY", "address": {"city": "UNION", "state": "MO", "street": "1276 N HIGHWAY 47", "postcode": "63084"}}},
{"geometry": {"type": "Point", "coordinates": [-90.493088152, 38.042293155]}, "type": "Feature", "properties": {"collection_times": [{"days": "Mon-Fri", "time": "3:00pm"}, {"days": "Sat", "time": "10:15am"}, {"days": "Sun", "time": "Closed"}], "id": "6308700001", "name": "USPS COLLECTION BOX - BLUE BOX", "address": {"city": "VALLES MINES", "state": "MO", "street": "3225 STATE RD V", "postcode": "63087"}}},
{"geometry": {"type": "Point", "coordinates": [-90.493088152, 38.042293155]}, "type": "Feature", "properties": {"collection_times": [{"days": "Mon-Fri", "time": "3:00pm"}, {"days": "Sat", "time": "10:15am"}, {"days": "Sun", "time": "Closed"}], "id": "6308700002", "name": "USPS COLLECTION BOX - PO LOBBY", "address": {"city": "VALLES MINES", "state": "MO", "street": "3225 STATE RD V", "postcode": "63087"}}},
{"geometry": {"type": "Point", "coordinates": [-90.487234885, 38.55062303]}, "type": "Feature", "properties": {"collection_times": [{"days": "Mon-Fri", "time": "4:30pm"}, {"days": "Sat", "time": "11:45am"}, {"days": "Sun", "time": "Closed"}], "id": "6308800002", "name": "USPS COLLECTION BOX - BLUE BOX", "address": {"city": "VALLEY PARK", "state": "MO", "street": "305 SAINT LOUIS AVE", "postcode": "63088"}}},
{"geometry": {"type": "Point", "coordinates": [-90.487234885, 38.55062303]}, "type": "Feature", "properties": {"collection_times": [{"days": "Mon-Fri", "time": "4:30pm"}, {"days": "Sat", "time": "3:30pm"}, {"days": "Sun", "time": "Closed"}], "id": "6308800003", "name": "USPS COLLECTION BOX - BLUE BOX", "address": {"city": "VALLEY PARK", "state": "MO", "street": "305 SAINT LOUIS AVE", "postcode": "63088"}}},
{"geometry": {"type": "Point", "coordinates": [-90.487234885, 38.55062303]}, "type": "Feature", "properties": {"collection_times": [{"days": "Mon-Fri", "time": "4:30pm"}, {"days": "Sat", "time": "3:30pm"}, {"days": "Sun", "time": "Closed"}], "id": "6308800005", "name": "USPS COLLECTION BOX - BLUE BOX", "address": {"city": "VALLEY PARK", "state": "MO", "street": "305 SAINT LOUIS AVE", "postcode": "63088"}}},
{"geometry": {"type": "Point", "coordinates": [-90.5089951502, 38.5600509243]}, "type": "Feature", "properties": {"collection_times": [{"days": "Mon-Sat", "time": "12:00pm"}, {"days": "Sun", "time": "Closed"}], "id": "6308800008", "name": "USPS COLLECTION BOX - BLUE BOX", "address": {"city": "VALLEY PARK", "state": "MO", "street": "1212 CLIFFRIDGE LN", "postcode": "63088"}}},
{"geometry": {"type": "Point", "coordinates": [-90.49617154, 38.564458365]}, "type": "Feature", "properties": {"collection_times": [{"days": "Mon-Sat", "time": "11:00am"}, {"days": "Sun", "time": "Closed"}], "id": "6308800009", "name": "USPS COLLECTION BOX - BLUE BOX", "address": {"city": "VALLEY PARK", "state": "MO", "street": "101 FOREST PKWY", "postcode": "63088"}}},
{"geometry": {"type": "Point", "coordinates": [-90.494243226, 38.567273291]}, "type": "Feature", "properties": {"collection_times": [{"days": "Mon-Sat", "time": "12:30pm"}, {"days": "Sun", "time": "Closed"}], "id": "6308800010", "name": "USPS COLLECTION BOX - BLUE BOX", "address": {"city": "VALLEY PARK", "state": "MO", "street": "1002 STONEY MEADOWS DR", "postcode": "63088"}}},
{"geometry": {"type": "Point", "coordinates": [-90.487234885, 38.55062303]}, "type": "Feature", "properties": {"collection_times": [{"days": "Mon-Fri", "time": "5:00pm"}, {"days": "Sat", "time": "12:00pm"}, {"days": "Sun", "time": "Closed"}], "id": "6308800012", "name": "USPS COLLECTION BOX - PO LOBBY", "address": {"city": "VALLEY PARK", "state": "MO", "street": "305 SAINT LOUIS AVE", "postcode": "63088"}}},
{"geometry": {"type": "Point", "coordinates": [-90.484516065, 38.562339365]}, "type": "Feature", "properties": {"collection_times": [{"days": "Mon-Sat", "time": "1:00pm"}, {"days": "Sun", "time": "Closed"}], "id": "6308800017", "name": "USPS COLLECTION BOX - BLUE BOX", "address": {"city": "VALLEY PARK", "state": "MO", "street": "600 PARK COMMONS CT", "postcode": "63088"}}},
{"geometry": {"type": "Point", "coordinates": [-90.8869939642, 38.471469924]}, "type": "Feature", "properties": {"collection_times": [{"days": "Mon-Fri", "time": "4:30pm"}, {"days": "Sat", "time": "11:00am"}, {"days": "Sun", "time": "Closed"}], "id": "6308900001", "name": "USPS COLLECTION BOX - BLUE BOX", "address": {"city": "VILLA RIDGE", "state": "MO", "street": "461 HIGHWAY M", "postcode": "63089"}}},
{"geometry": {"type": "Point", "coordinates": [-90.8509592236, 38.479637427]}, "type": "Feature", "properties": {"collection_times": [{"days": "Mon-Sat", "time": "11:00am"}, {"days": "Sun", "time": "Closed"}], "id": "6308900003", "name": "USPS COLLECTION BOX - BLUE BOX", "address": {"city": "VILLA RIDGE", "state": "MO", "street": "3324 HIGHWAY 100", "postcode": "63089"}}},
{"geometry": {"type": "Point", "coordinates": [-90.8869939642, 38.471469924]}, "type": "Feature", "properties": {"collection_times": [{"days": "Mon-Fri", "time": "4:45pm"}, {"days": "Sat", "time": "11:00am"}, {"days": "Sun", "time": "Closed"}], "id": "6308900005", "name": "USPS COLLECTION BOX - PO LOBBY", "address": {"city": "VILLA RIDGE", "state": "MO", "street": "461 HIGHWAY M", "postcode": "63089"}}},
{"geometry": {"type": "Point", "coordinates": [-91.0082464577, 38.5380966363]}, "type": "Feature", "properties": {"collection_times": [{"days": "Mon-Fri", "time": "5:00pm"}, {"days": "Sat", "time": "4:00pm"}, {"days": "Sun", "time": "Closed"}], "id": "6309000001", "name": "USPS COLLECTION BOX - BLUE BOX", "address": {"city": "WASHINGTON", "state": "MO", "street": "1777 WASHINGTON XING", "postcode": "63090"}}},
{"geometry": {"type": "Point", "coordinates": [-91.0167580236, 38.545238181]}, "type": "Feature", "properties": {"collection_times": [{"days": "Mon-Sat", "time": "10:00am"}, {"days": "Sun", "time": "Closed"}], "id": "6309000003", "name": "USPS COLLECTION BOX - BLUE BOX", "address": {"city": "WASHINGTON", "state": "MO", "street": "1 E 14TH ST", "postcode": "63090"}}},
{"geometry": {"type": "Point", "coordinates": [-91.0116824183, 38.5597875356]}, "type": "Feature", "properties": {"collection_times": [{"days": "Mon-Fri", "time": "5:00pm"}, {"days": "Sat", "time": "11:45am"}, {"days": "Sun", "time": "Closed"}], "id": "6309000006", "name": "USPS COLLECTION BOX - BLUE BOX", "address": {"city": "WASHINGTON", "state": "MO", "street": "123 LAFAYETTE ST", "postcode": "63090"}}},
{"geometry": {"type": "Point", "coordinates": [-91.0023213597, 38.5498308111]}, "type": "Feature", "properties": {"collection_times": [{"days": "Mon-Sat", "time": "9:30am"}, {"days": "Sun", "time": "Closed"}], "id": "6309000018", "name": "USPS COLLECTION BOX - BLUE BOX", "address": {"city": "WASHINGTON", "state": "MO", "street": "900 E 8TH ST", "postcode": "63090"}}},
{"geometry": {"type": "Point", "coordinates": [-91.0175668527, 38.5416766393]}, "type": "Feature", "properties": {"collection_times": [{"days": "Mon-Sat", "time": "9:15am"}, {"days": "Sun", "time": "Closed"}], "id": "6309000023", "name": "USPS COLLECTION BOX - BLUE BOX", "address": {"city": "WASHINGTON", "state": "MO", "street": "1816 HIGHWAY A", "postcode": "63090"}}},
{"geometry": {"type": "Point", "coordinates": [-91.0131660065, 38.5607323834]}, "type": "Feature", "properties": {"collection_times": [{"days": "Mon-Sat", "time": "10:00am"}, {"days": "Sun", "time": "Closed"}], "id": "6309000024", "name": "USPS COLLECTION BOX - BLUE BOX", "address": {"city": "WASHINGTON", "state": "MO", "street": "104 ELM ST", "postcode": "63090"}}},
{"geometry": {"type": "Point", "coordinates": [-91.0019470819, 38.5522332037]}, "type": "Feature", "properties": {"collection_times": [{"days": "Mon-Sat", "time": "11:00am"}, {"days": "Sun", "time": "Closed"}], "id": "6309000026", "name": "USPS COLLECTION BOX - BLUE BOX", "address": {"city": "WASHINGTON", "state": "MO", "street": "901 E 5TH ST", "postcode": "63090"}}},
{"geometry": {"type": "Point", "coordinates": [-91.0082464577, 38.5380966363]}, "type": "Feature", "properties": {"collection_times": [{"days": "Mon-Fri", "time": "5:00pm"}, {"days": "Sat", "time": "4:00pm"}, {"days": "Sun", "time": "Closed"}], "id": "6309000032", "name": "USPS COLLECTION BOX - BLUE BOX", "address": {"city": "WASHINGTON", "state": "MO", "street": "1777 WASHINGTON XING", "postcode": "63090"}}},
{"geometry": {"type": "Point", "coordinates": [-91.0082464577, 38.5380966363]}, "type": "Feature", "properties": {"collection_times": [{"days": "Mon-Fri", "time": "5:00pm"}, {"days": "Sat", "time": "4:00pm"}, {"days": "Sun", "time": "Closed"}], "id": "6309000034", "name": "USPS COLLECTION BOX - PO LOBBY", "address": {"city": "WASHINGTON", "state": "MO", "street": "1777 WASHINGTON XING", "postcode": "63090"}}},
{"geometry": {"type": "Point", "coordinates": [-91.0082464577, 38.5380966363]}, "type": "Feature", "properties": {"collection_times": [{"days": "Mon-Fri", "time": "5:00pm"}, {"days": "Sat", "time": "4:00pm"}, {"days": "Sun", "time": "Closed"}], "id": "6309000035", "name": "USPS COLLECTION BOX - PO LOBBY", "address": {"city": "WASHINGTON", "state": "MO", "street": "1777 WASHINGTON XING", "postcode": "63090"}}},
{"geometry": {"type": "Point", "coordinates": [-91.0026259888, 38.5525232104]}, "type": "Feature", "properties": {"collection_times": [{"days": "Mon-Sat", "time": "10:15am"}, {"days": "Sun", "time": "Closed"}], "id": "6309000036", "name": "USPS COLLECTION BOX - BLUE BOX", "address": {"city": "WASHINGTON", "state": "MO", "street": "851 E 5TH ST", "postcode": "63090"}}},
{"geometry": {"type": "Point", "coordinates": [-91.0123930783, 38.5602427294]}, "type": "Feature", "properties": {"collection_times": [{"days": "Mon-Sat", "time": "10:00am"}, {"days": "Sun", "time": "Closed"}], "id": "6309000040", "name": "USPS COLLECTION BOX - BLUE BOX", "address": {"city": "WASHINGTON", "state": "MO", "street": "114 OAK ST", "postcode": "63090"}}},
{"geometry": {"type": "Point", "coordinates": [-91.0082464577, 38.5380966363]}, "type": "Feature", "properties": {"collection_times": [{"days": "Mon-Fri", "time": "5:00pm"}, {"days": "Sat", "time": "4:00pm"}, {"days": "Sun", "time": "Closed"}], "id": "6309000041", "name": "USPS COLLECTION BOX - PO LOBBY", "address": {"city": "WASHINGTON", "state": "MO", "street": "1777 WASHINGTON XING", "postcode": "63090"}}},
{"geometry": {"type": "Point", "coordinates": [-91.0267621877, 38.5236201871]}, "type": "Feature", "properties": {"collection_times": [{"days": "Mon-Fri", "time": "9:45am"}, {"days": "Sat-Sun", "time": "Closed"}], "id": "6309000042", "name": "USPS COLLECTION BOX - BLUE BOX", "address": {"city": "WASHINGTON", "state": "MO", "street": "3017 HIGHWAY A", "postcode": "63090"}}},
{"geometry": {"type": "Point", "coordinates": [-91.0038019996, 38.547834199]}, "type": "Feature", "properties": {"collection_times": [{"days": "Mon-Sat", "time": "9:15am"}, {"days": "Sun", "time": "Closed"}], "id": "6309000043", "name": "USPS COLLECTION BOX - BLUE BOX", "address": {"city": "WASHINGTON", "state": "MO", "street": "901 PATIENTS FIRST DR", "postcode": "63090"}}},
{"geometry": {"type": "Point", "coordinates": [-91.403561702, 38.3871813647]}, "type": "Feature", "properties": {"collection_times": [{"days": "Mon-Fri", "time": "11:15am"}, {"days": "Sat", "time": "9:15am"}, {"days": "Sun", "time": "Closed"}], "id": "6309100001", "name": "USPS COLLECTION BOX - BLUE BOX", "address": {"city": "ROSEBUD", "state": "MO", "street": "257 HIGHWAY 50", "postcode": "63091"}}},
{"geometry": {"type": "Point", "coordinates": [-91.403561702, 38.3871813647]}, "type": "Feature", "properties": {"collection_times": [{"days": "Mon-Fri", "time": "11:15am"}, {"days": "Sat", "time": "9:15am"}, {"days": "Sun", "time": "Closed"}], "id": "6309100002", "name": "USPS COLLECTION BOX - PO LOBBY", "address": {"city": "ROSEBUD", "state": "MO", "street": "257 HIGHWAY 50", "postcode": "63091"}}}
]}
