{"type": "FeatureCollection", "features": [
{"geometry": {"type": "Point", "coordinates": [-90.4762927486, 38.7935780179]}, "type": "Feature", "properties": {"collection_times": [{"days": "Mon-Sat", "time": "1:00pm"}, {"days": "Sun", "time": "Closed"}], "id": "6330100013", "name": "USPS COLLECTION BOX - BLUE BOX", "address": {"city": "SAINT CHARLES", "state": "MO", "street": "1520 N 2ND ST", "postcode": "63301"}}},
{"geometry": {"type": "Point", "coordinates": [-90.4818136181, 38.7828876178]}, "type": "Feature", "properties": {"collection_times": [{"days": "Mon-Sat", "time": "12:00pm"}, {"days": "Sun", "time": "Closed"}], "id": "6330100024", "name": "USPS COLLECTION BOX - BLUE BOX", "address": {"city": "SAINT CHARLES", "state": "MO", "street": "200 N 2ND ST", "postcode": "63301"}}},
{"geometry": {"type": "Point", "coordinates": [-90.52387609, 38.7852973052]}, "type": "Feature", "properties": {"collection_times": [{"days": "Mon-Sat", "time": "12:00pm"}, {"days": "Sun", "time": "Closed"}], "id": "6330100030", "name": "USPS COLLECTION BOX - BLUE BOX", "address": {"city": "SAINT CHARLES", "state": "MO", "street": "2745 W CLAY ST", "postcode": "63301"}}},
{"geometry": {"type": "Point", "coordinates": [-90.4740158097, 38.8135569258]}, "type": "Feature", "properties": {"collection_times": [{"days": "Mon-Sat", "time": "12:00pm"}, {"days": "Sun", "time": "Closed"}], "id": "6330100031", "name": "USPS COLLECTION BOX - BLUE BOX", "address": {"city": "SAINT CHARLES", "state": "MO", "street": "2871 N HIGHWAY 94", "postcode": "63301"}}},
{"geometry": {"type": "Point", "coordinates": [-90.4816222738, 38.7833733316]}, "type": "Feature", "properties": {"collection_times": [{"days": "Mon-Sat", "time": "12:00pm"}, {"days": "Sun", "time": "Closed"}], "id": "6330100035", "name": "USPS COLLECTION BOX - BLUE BOX", "address": {"city": "SAINT CHARLES", "state": "MO", "street": "301 N 2ND ST", "postcode": "63301"}}},
{"geometry": {"type": "Point", "coordinates": [-90.5383275077, 38.7880253757]}, "type": "Feature", "properties": {"collection_times": [{"days": "Mon-Sat", "time": "10:00am"}, {"days": "Sun", "time": "Closed"}], "id": "6330100038", "name": "USPS COLLECTION BOX - BLUE BOX", "address": {"city": "SAINT CHARLES", "state": "MO", "street": "3130 W CLAY ST", "postcode": "63301"}}},
{"geometry": {"type": "Point", "coordinates": [-90.5607801572, 38.7971427063]}, "type": "Feature", "properties": {"collection_times": [{"days": "Mon-Sat", "time": "1:00pm"}, {"days": "Sun", "time": "Closed"}], "id": "6330100039", "name": "USPS COLLECTION BOX - BLUE BOX", "address": {"city": "SAINT CHARLES", "state": "MO", "street": "3737 HARRY S TRUMAN BLVD", "postcode": "63301"}}},
{"geometry": {"type": "Point", "coordinates": [-90.4880182379, 38.7790157931]}, "type": "Feature", "properties": {"collection_times": [{"days": "Mon-Sat", "time": "1:00pm"}, {"days": "Sun", "time": "Closed"}], "id": "6330100043", "name": "USPS COLLECTION BOX - BLUE BOX", "address": {"city": "SAINT CHARLES", "state": "MO", "street": "500 S 5TH ST", "postcode": "63301"}}},
{"geometry": {"type": "Point", "coordinates": [-90.489992318, 38.7821843306]}, "type": "Feature", "properties": {"collection_times": [{"days": "Mon-Sat", "time": "1:00pm"}, {"days": "Sun", "time": "Closed"}], "id": "6330100046", "name": "USPS COLLECTION BOX - BLUE BOX", "address": {"city": "SAINT CHARLES", "state": "MO", "street": "666 1ST CAPITOL DR", "postcode": "63301"}}},
{"geometry": {"type": "Point", "coordinates": [-90.4904693288, 38.7883091187]}, "type": "Feature", "properties": {"collection_times": [{"days": "Mon-Sat", "time": "1:30pm"}, {"days": "Sun", "time": "Closed"}], "id": "6330100050", "name": "USPS COLLECTION BOX - BLUE BOX", "address": {"city": "SAINT CHARLES", "state": "MO", "street": "901 CLARK ST", "postcode": "63301"}}},
{"geometry": {"type": "Point", "coordinates": [-90.4909886097, 38.7756474333]}, "type": "Feature", "properties": {"collection_times": [{"days": "Mon-Sat", "time": "12:00pm"}, {"days": "Sun", "time": "Closed"}], "id": "6330100058", "name": "USPS COLLECTION BOX - BLUE BOX", "address": {"city": "SAINT CHARLES", "state": "MO", "street": "1020 S BENTON AVE", "postcode": "63301"}}},
{"geometry": {"type": "Point", "coordinates": [-90.4976226817, 38.7808008782]}, "type": "Feature", "properties": {"collection_times": [{"days": "Mon-Sat", "time": "12:00pm"}, {"days": "Sun", "time": "Closed"}], "id": "6330100059", "name": "USPS COLLECTION BOX - BLUE BOX", "address": {"city": "SAINT CHARLES", "state": "MO", "street": "1102 PERRY ST", "postcode": "63301"}}},
{"geometry": {"type": "Point", "coordinates": [-90.4813321538, 38.7813036357]}, "type": "Feature", "properties": {"collection_times": [{"days": "Mon-Sat", "time": "12:00pm"}, {"days": "Sun", "time": "Closed"}], "id": "6330100071", "name": "USPS COLLECTION BOX - BLUE BOX", "address": {"city": "SAINT CHARLES", "state": "MO", "street": "100 N MAIN ST", "postcode": "63301"}}},
{"geometry": {"type": "Point", "coordinates": [-90.4805159121, 38.7828166402]}, "type": "Feature", "properties": {"collection_times": [{"days": "Mon-Sat", "time": "12:00pm"}, {"days": "Sun", "time": "Closed"}], "id": "6330100072", "name": "USPS COLLECTION BOX - BLUE BOX", "address": {"city": "SAINT CHARLES", "state": "MO", "street": "229 N MAIN ST", "postcode": "63301"}}},
{"geometry": {"type": "Point", "coordinates": [-90.5155678493, 38.7871221445]}, "type": "Feature", "properties": {"collection_times": [{"days": "Mon-Fri", "time": "1:00pm"}, {"days": "Sat", "time": "12:45pm"}, {"days": "Sun", "time": "Closed"}], "id": "6330100080", "name": "USPS COLLECTION BOX - BLUE BOX", "address": {"city": "SAINT CHARLES", "state": "MO", "street": "1047 S DUCHESNE DR", "postcode": "63301"}}},
{"geometry": {"type": "Point", "coordinates": [-90.5107315577, 38.7840274283]}, "type": "Feature", "properties": {"collection_times": [{"days": "Mon-Sat", "time": "12:00pm"}, {"days": "Sun", "time": "Closed"}], "id": "6330100084", "name": "USPS COLLECTION BOX - BLUE BOX", "address": {"city": "SAINT CHARLES", "state": "MO", "street": "2426 W CLAY ST", "postcode": "63301"}}},
{"geometry": {"type": "Point", "coordinates": [-90.4926997727, 38.7711866721]}, "type": "Feature", "properties": {"collection_times": [{"days": "Mon-Sat", "time": "12:00pm"}, {"days": "Sun", "time": "Closed"}], "id": "6330100085", "name": "USPS COLLECTION BOX - BLUE BOX", "address": {"city": "SAINT CHARLES", "state": "MO", "street": "1348 S 5TH ST", "postcode": "63301"}}},
{"geometry": {"type": "Point", "coordinates": [-90.4733923202, 38.8532053309]}, "type": "Feature", "properties": {"collection_times": [{"days": "Mon-Sat", "time": "12:00pm"}, {"days": "Sun", "time": "Closed"}], "id": "6330100087", "name": "USPS COLLECTION BOX - BLUE BOX", "address": {"city": "SAINT CHARLES", "state": "MO", "street": "1200 N RANDOLPH", "postcode": "63301"}}},
{"geometry": {"type": "Point", "coordinates": [-90.5159948277, 38.7925537367]}, "type": "Feature", "properties": {"collection_times": [{"days": "Mon-Sat", "time": "12:00pm"}, {"days": "Sun", "time": "Closed"}], "id": "6330100092", "name": "USPS COLLECTION BOX - BLUE BOX", "address": {"city": "SAINT CHARLES", "state": "MO", "street": "2702 DROSTE RD", "postcode": "63301"}}},
{"geometry": {"type": "Point", "coordinates": [-90.5137553797, 38.8120614126]}, "type": "Feature", "properties": {"collection_times": [{"days": "Mon-Sat", "time": "1:00pm"}, {"days": "Sun", "time": "Closed"}], "id": "6330100093", "name": "USPS COLLECTION BOX - BLUE BOX", "address": {"city": "SAINT CHARLES", "state": "MO", "street": "121 COLE BLVD", "postcode": "63301"}}},
{"geometry": {"type": "Point", "coordinates": [-90.4863396191, 38.7822783939]}, "type": "Feature", "properties": {"collection_times": [{"days": "Mon-Fri", "time": "5:30pm"}, {"days": "Sat", "time": "3:00pm"}, {"days": "Sun", "time": "Closed"}], "id": "6330100098", "name": "USPS COLLECTION BOX - BLUE BOX", "address": {"city": "SAINT CHARLES", "state": "MO", "street": "112 S 5TH ST", "postcode": "63301"}}},
{"geometry": {"type": "Point", "coordinates": [-90.4863396191, 38.7822783939]}, "type": "Feature", "properties": {"collection_times": [{"days": "Mon-Fri", "time": "5:30pm"}, {"days": "Sat", "time": "3:00pm"}, {"days": "Sun", "time": "Closed"}], "id": "6330100099", "name": "USPS COLLECTION BOX - BLUE BOX", "address": {"city": "SAINT CHARLES", "state": "MO", "street": "112 S 5TH ST", "postcode": "63301"}}},
{"geometry": {"type": "Point", "coordinates": [-90.4863396191, 38.7822783939]}, "type": "Feature", "properties": {"collection_times": [{"days": "Mon-Fri", "time": "5:30pm"}, {"days": "Sat", "time": "3:00pm"}, {"days": "Sun", "time": "Closed"}], "id": "6330100100", "name": "USPS COLLECTION BOX - BLUE BOX", "address": {"city": "SAINT CHARLES", "state": "MO", "street": "112 S 5TH ST", "postcode": "63301"}}},
{"geometry": {"type": "Point", "coordinates": [-90.4863396191, 38.7822783939]}, "type": "Feature", "properties": {"collection_times": [{"days": "Mon-Fri", "time": "5:30pm"}, {"days": "Sat", "time": "3:00pm"}, {"days": "Sun", "time": "Closed"}], "id": "6330100101", "name": "USPS COLLECTION BOX - BLUE BOX", "address": {"city": "SAINT CHARLES", "state": "MO", "street": "112 S 5TH ST", "postcode": "63301"}}},
{"geometry": {"type": "Point", "coordinates": [-90.5570947607, 38.7940133468]}, "type": "Feature", "properties": {"collection_times": [{"days": "Mon-Sat", "time": "12:00pm"}, {"days": "Sun", "time": "Closed"}], "id": "6330100103", "name": "USPS COLLECTION BOX - BLUE BOX", "address": {"city": "SAINT CHARLES", "state": "MO", "street": "110 POINT WEST BLVD", "postcode": "63301"}}},
{"geometry": {"type": "Point", "coordinates": [-90.5173815003, 38.7842677509]}, "type": "Feature", "properties": {"collection_times": [{"days": "Mon-Sat", "time": "1:00pm"}, {"days": "Sun", "time": "Closed"}], "id": "6330100104", "name": "USPS COLLECTION BOX - BLUE BOX", "address": {"city": "SAINT CHARLES", "state": "MO", "street": "2 WESTBURY DR", "postcode": "63301"}}},
{"geometry": {"type": "Point", "coordinates": [-90.4863396191, 38.7822783939]}, "type": "Feature", "properties": {"collection_times": [{"days": "Mon-Fri", "time": "5:30pm"}, {"days": "Sat", "time": "3:00pm"}, {"days": "Sun", "time": "Closed"}], "id": "6330100111", "name": "USPS COLLECTION BOX - PO LOBBY", "address": {"city": "SAINT CHARLES", "state": "MO", "street": "112 S 5TH ST", "postcode": "63301"}}},
{"geometry": {"type": "Point", "coordinates": [-90.4860040688, 38.8111225415]}, "type": "Feature", "properties": {"collection_times": [{"days": "Mon-Sat", "time": "1:30pm"}, {"days": "Sun", "time": "Closed"}], "id": "6330100118", "name": "USPS COLLECTION BOX - BLUE BOX", "address": {"city": "SAINT CHARLES", "state": "MO", "street": "20 CORPORATE HILLS DR", "postcode": "63301"}}},
{"geometry": {"type": "Point", "coordinates": [-90.5030974868, 38.8226103508]}, "type": "Feature", "properties": {"collection_times": [{"days": "Mon-Sat", "time": "12:00pm"}, {"days": "Sun", "time": "Closed"}], "id": "6330100119", "name": "USPS COLLECTION BOX - BLUE BOX", "address": {"city": "SAINT CHARLES", "state": "MO", "street": "3733 MUELLER RD", "postcode": "63301"}}},
{"geometry": {"type": "Point", "coordinates": [-90.5205948955, 38.8279555114]}, "type": "Feature", "properties": {"collection_times": [{"days": "Mon-Sat", "time": "1:00pm"}, {"days": "Sun", "time": "Closed"}], "id": "6330100121", "name": "USPS COLLECTION BOX - BLUE BOX", "address": {"city": "SAINT CHARLES", "state": "MO", "street": "3861 FOUNTAIN LAKES PKWY E", "postcode": "63301"}}},
{"geometry": {"type": "Point", "coordinates": [-90.4942264065, 38.7901119482]}, "type": "Feature", "properties": {"collection_times": [{"days": "Mon-Sat", "time": "1:30pm"}, {"days": "Sun", "time": "Closed"}], "id": "6330100122", "name": "USPS COLLECTION BOX - BLUE BOX", "address": {"city": "SAINT CHARLES", "state": "MO", "street": "1728 W ADAMS ST", "postcode": "63301"}}},
{"geometry": {"type": "Point", "coordinates": [-90.4989062919, 38.7945717525]}, "type": "Feature", "properties": {"collection_times": [{"days": "Mon-Sat", "time": "1:00pm"}, {"days": "Sun", "time": "Closed"}], "id": "6330100123", "name": "USPS COLLECTION BOX - BLUE BOX", "address": {"city": "SAINT CHARLES", "state": "MO", "street": "305 HAWTHORN AVE", "postcode": "63301"}}},
{"geometry": {"type": "Point", "coordinates": [-90.4863396191, 38.7822783939]}, "type": "Feature", "properties": {"collection_times": [{"days": "Mon-Fri", "time": "5:30pm"}, {"days": "Sat", "time": "3:00pm"}, {"days": "Sun", "time": "Closed"}], "id": "6330100128", "name": "USPS COLLECTION BOX - BLUE BOX", "address": {"city": "SAINT CHARLES", "state": "MO", "street": "112 S 5TH ST", "postcode": "63301"}}},
{"geometry": {"type": "Point", "coordinates": [-90.4863396191, 38.7822783939]}, "type": "Feature", "properties": {"collection_times": [{"days": "Mon-Fri", "time": "5:30pm"}, {"days": "Sat", "time": "3:00pm"}, {"days": "Sun", "time": "Closed"}], "id": "6330100129", "name": "USPS COLLECTION BOX - APC", "address": {"city": "SAINT CHARLES", "state": "MO", "street": "112 S 5TH ST", "postcode": "63301"}}},
{"geometry": {"type": "Point", "coordinates": [-90.4970645826, 38.7853204444]}, "type": "Feature", "properties": {"collection_times": [{"days": "Mon-Fri", "time": "10:00am"}, {"days": "Sat-Sun", "time": "Closed"}], "id": "6330100130", "name": "USPS COLLECTION BOX - BLUE BOX", "address": {"city": "SAINT CHARLES", "state": "MO", "street": "209 S KINGSHIGHWAY ST", "postcode": "63301"}}},
{"geometry": {"type": "Point", "coordinates": [-90.5326593927, 38.7832135656]}, "type": "Feature", "properties": {"collection_times": [{"days": "Mon-Fri", "time": "2:30pm"}, {"days": "Sat", "time": "2:15pm"}, {"days": "Sun", "time": "Closed"}], "id": "6330300000", "name": "USPS COLLECTION BOX - BLUE BOX", "address": {"city": "SAINT CHARLES", "state": "MO", "street": "2021 ZUMBEHL RD", "postcode": "63303"}}},
{"geometry": {"type": "Point", "coordinates": [-90.5207643688, 38.7708178377]}, "type": "Feature", "properties": {"collection_times": [{"days": "Mon-Sat", "time": "12:00pm"}, {"days": "Sun", "time": "Closed"}], "id": "6330300004", "name": "USPS COLLECTION BOX - BLUE BOX", "address": {"city": "SAINT CHARLES", "state": "MO", "street": "1550 COUNTRY CLUB PLAZA DR", "postcode": "63303"}}},
{"geometry": {"type": "Point", "coordinates": [-90.5347571105, 38.7581435742]}, "type": "Feature", "properties": {"collection_times": [{"days": "Mon-Sat", "time": "12:00pm"}, {"days": "Sun", "time": "Closed"}], "id": "6330300010", "name": "USPS COLLECTION BOX - BLUE BOX", "address": {"city": "SAINT CHARLES", "state": "MO", "street": "2172 BLUESTONE DR", "postcode": "63303"}}},
{"geometry": {"type": "Point", "coordinates": [-90.6268403757, 38.7389411683]}, "type": "Feature", "properties": {"collection_times": [{"days": "Mon-Fri", "time": "12:45pm"}, {"days": "Sat", "time": "12:00pm"}, {"days": "Sun", "time": "Closed"}], "id": "6330300014", "name": "USPS COLLECTION BOX - BLUE BOX", "address": {"city": "SAINT CHARLES", "state": "MO", "street": "4646 S HIGHWAY 94", "postcode": "63303"}}},
{"geometry": {"type": "Point", "coordinates": [-90.5824322706, 38.7442555775]}, "type": "Feature", "properties": {"collection_times": [{"days": "Mon-Sat", "time": "12:00pm"}, {"days": "Sun", "time": "Closed"}], "id": "6330300016", "name": "USPS COLLECTION BOX - BLUE BOX", "address": {"city": "SAINT CHARLES", "state": "MO", "street": "4207 S HIGHWAY 94", "postcode": "63303"}}},
{"geometry": {"type": "Point", "coordinates": [-90.6349145724, 38.7468183658]}, "type": "Feature", "properties": {"collection_times": [{"days": "Mon-Sat", "time": "12:00pm"}, {"days": "Sun", "time": "Closed"}], "id": "6330300018", "name": "USPS COLLECTION BOX - BLUE BOX", "address": {"city": "SAINT CHARLES", "state": "MO", "street": "5988 MID RIVERS MALL DR", "postcode": "63303"}}},
{"geometry": {"type": "Point", "coordinates": [-90.6341423456, 38.7406333991]}, "type": "Feature", "properties": {"collection_times": [{"days": "Mon-Sat", "time": "12:00pm"}, {"days": "Sun", "time": "Closed"}], "id": "6330300019", "name": "USPS COLLECTION BOX - BLUE BOX", "address": {"city": "SAINT CHARLES", "state": "MO", "street": "6211 MID RIVERS MALL DR", "postcode": "63303"}}},
{"geometry": {"type": "Point", "coordinates": [-90.5330381072, 38.7615281107]}, "type": "Feature", "properties": {"collection_times": [{"days": "Mon-Sat", "time": "2:15pm"}, {"days": "Sun", "time": "Closed"}], "id": "6330300023", "name": "USPS COLLECTION BOX - BLUE BOX", "address": {"city": "SAINT CHARLES", "state": "MO", "street": "2050 S OLD HIGHWAY 94", "postcode": "63303"}}},
{"geometry": {"type": "Point", "coordinates": [-90.530483823, 38.779128014]}, "type": "Feature", "properties": {"collection_times": [{"days": "Mon-Sat", "time": "2:00pm"}, {"days": "Sun", "time": "Closed"}], "id": "6330300032", "name": "USPS COLLECTION BOX - BLUE BOX", "address": {"city": "SAINT CHARLES", "state": "MO", "street": "1950 ZUMBEHL RD", "postcode": "63303"}}},
{"geometry": {"type": "Point", "coordinates": [-90.5859338508, 38.744833049]}, "type": "Feature", "properties": {"collection_times": [{"days": "Mon-Fri", "time": "4:45pm"}, {"days": "Sat", "time": "3:00pm"}, {"days": "Sun", "time": "Closed"}], "id": "6330300033", "name": "USPS COLLECTION BOX - BLUE BOX", "address": {"city": "SAINT CHARLES", "state": "MO", "street": "1600 WOODSTONE DR", "postcode": "63303"}}},
{"geometry": {"type": "Point", "coordinates": [-90.5859338508, 38.744833049]}, "type": "Feature", "properties": {"collection_times": [{"days": "Mon-Fri", "time": "4:45pm"}, {"days": "Sat", "time": "3:00pm"}, {"days": "Sun", "time": "Closed"}], "id": "6330300034", "name": "USPS COLLECTION BOX - BLUE BOX", "address": {"city": "SAINT CHARLES", "state": "MO", "street": "1600 WOODSTONE DR", "postcode": "63303"}}},
{"geometry": {"type": "Point", "coordinates": [-90.5462293023, 38.75679721]}, "type": "Feature", "properties": {"collection_times": [{"days": "Mon-Sat", "time": "12:00pm"}, {"days": "Sun", "time": "Closed"}], "id": "6330300037", "name": "USPS COLLECTION BOX - BLUE BOX", "address": {"city": "SAINT CHARLES", "state": "MO", "street": "2480 EXECUTIVE DR", "postcode": "63303"}}},
{"geometry": {"type": "Point", "coordinates": [-90.5566787377, 38.7167275642]}, "type": "Feature", "properties": {"collection_times": [{"days": "Mon-Sat", "time": "12:00pm"}, {"days": "Sun", "time": "Closed"}], "id": "6330300041", "name": "USPS COLLECTION BOX - BLUE BOX", "address": {"city": "SAINT CHARLES", "state": "MO", "street": "1003 WOLFRUM RD", "postcode": "63303"}}},
{"geometry": {"type": "Point", "coordinates": [-90.5247313693, 38.7795055381]}, "type": "Feature", "properties": {"collection_times": [{"days": "Mon-Fri", "time": "2:30pm"}, {"days": "Sat-Sun", "time": "Closed"}], "id": "6330300043", "name": "USPS COLLECTION BOX - BLUE BOX", "address": {"city": "SAINT CHARLES", "state": "MO", "street": "1550 WALL ST", "postcode": "63303"}}},
{"geometry": {"type": "Point", "coordinates": [-90.5406566205, 38.760411687]}, "type": "Feature", "properties": {"collection_times": [{"days": "Mon-Sat", "time": "2:15pm"}, {"days": "Sun", "time": "Closed"}], "id": "6330300045", "name": "USPS COLLECTION BOX - BLUE BOX", "address": {"city": "SAINT CHARLES", "state": "MO", "street": "1600 HERITAGE LNDG", "postcode": "63303"}}},
{"geometry": {"type": "Point", "coordinates": [-90.5860186148, 38.7448198618]}, "type": "Feature", "properties": {"collection_times": [{"days": "Mon-Fri", "time": "4:45pm"}, {"days": "Sat", "time": "1:30pm"}, {"days": "Sun", "time": "Closed"}], "id": "6330300051", "name": "USPS COLLECTION BOX - PO LOBBY", "address": {"city": "SAINT CHARLES", "state": "MO", "street": "1600 WOODSTONE DR", "postcode": "63303"}}},
{"geometry": {"type": "Point", "coordinates": [-90.8824163343, 38.5730509859]}, "type": "Feature", "properties": {"collection_times": [{"days": "Mon-Fri", "time": "11:45am"}, {"days": "Sat", "time": "8:45am"}, {"days": "Sun", "time": "Closed"}], "id": "6333200001", "name": "USPS COLLECTION BOX - BLUE BOX", "address": {"city": "AUGUSTA", "state": "MO", "street": "237 FERRY ST", "postcode": "63332"}}},
{"geometry": {"type": "Point", "coordinates": [-90.8824163343, 38.5730509859]}, "type": "Feature", "properties": {"collection_times": [{"days": "Mon-Fri", "time": "11:45am"}, {"days": "Sat", "time": "8:45am"}, {"days": "Sun", "time": "Closed"}], "id": "6333200002", "name": "USPS COLLECTION BOX - PO LOBBY", "address": {"city": "AUGUSTA", "state": "MO", "street": "237 FERRY ST", "postcode": "63332"}}},
{"geometry": {"type": "Point", "coordinates": [-91.3547480472, 39.0067942826]}, "type": "Feature", "properties": {"collection_times": [{"days": "Mon-Fri", "time": "11:45am"}, {"days": "Sat", "time": "9:30am"}, {"days": "Sun", "time": "Closed"}], "id": "6333300001", "name": "USPS COLLECTION BOX - BLUE BOX", "address": {"city": "BELLFLOWER", "state": "MO", "street": "119 S MAIN ST", "postcode": "63333"}}},
{"geometry": {"type": "Point", "coordinates": [-91.3547480472, 39.0067942826]}, "type": "Feature", "properties": {"collection_times": [{"days": "Mon-Fri", "time": "11:45am"}, {"days": "Sat", "time": "9:15am"}, {"days": "Sun", "time": "Closed"}], "id": "6333300002", "name": "USPS COLLECTION BOX - PO LOBBY", "address": {"city": "BELLFLOWER", "state": "MO", "street": "119 S MAIN ST", "postcode": "63333"}}},
{"geometry": {"type": "Point", "coordinates": [-91.1886538567, 39.2966536451]}, "type": "Feature", "properties": {"collection_times": [{"days": "Mon-Fri", "time": "5:00pm"}, {"days": "Sat", "time": "10:00am"}, {"days": "Sun", "time": "Closed"}], "id": "6333400001", "name": "USPS COLLECTION BOX - BLUE BOX", "address": {"city": "BOWLING GREEN", "state": "MO", "street": "3 TOWN CENTER DR", "postcode": "63334"}}},
{"geometry": {"type": "Point", "coordinates": [-91.1933866251, 39.3428876595]}, "type": "Feature", "properties": {"collection_times": [{"days": "Mon-Fri", "time": "5:00pm"}, {"days": "Sat", "time": "10:00am"}, {"days": "Sun", "time": "Closed"}], "id": "6333400002", "name": "USPS COLLECTION BOX - PO LOBBY", "address": {"city": "BOWLING GREEN", "state": "MO", "street": "17 W CHURCH ST", "postcode": "63334"}}},
{"geometry": {"type": "Point", "coordinates": [-91.2118401162, 39.342720914]}, "type": "Feature", "properties": {"collection_times": [{"days": "Mon-Sat", "time": "9:45am"}, {"days": "Sun", "time": "Closed"}], "id": "6333400004", "name": "USPS COLLECTION BOX - BLUE BOX", "address": {"city": "BOWLING GREEN", "state": "MO", "street": "1800 W CHURCH ST", "postcode": "63334"}}},
{"geometry": {"type": "Point", "coordinates": [-91.2029380335, 39.340402975]}, "type": "Feature", "properties": {"collection_times": [{"days": "Mon-Sat", "time": "9:30am"}, {"days": "Sun", "time": "Closed"}], "id": "6333400005", "name": "USPS COLLECTION BOX - BLUE BOX", "address": {"city": "BOWLING GREEN", "state": "MO", "street": "201 S BUSINESS HIGHWAY 61", "postcode": "63334"}}},
{"geometry": {"type": "Point", "coordinates": [-91.204284431, 39.339635167]}, "type": "Feature", "properties": {"collection_times": [{"days": "Mon-Sat", "time": "9:15am"}, {"days": "Sun", "time": "Closed"}], "id": "6333400006", "name": "USPS COLLECTION BOX - BLUE BOX", "address": {"city": "BOWLING GREEN", "state": "MO", "street": "300 S 11TH ST", "postcode": "63334"}}},
{"geometry": {"type": "Point", "coordinates": [-91.2088039513, 39.3395809545]}, "type": "Feature", "properties": {"collection_times": [{"days": "Mon-Sat", "time": "9:45am"}, {"days": "Sun", "time": "Closed"}], "id": "6333400007", "name": "USPS COLLECTION BOX - BLUE BOX", "address": {"city": "BOWLING GREEN", "state": "MO", "street": "305 S 15TH ST", "postcode": "63334"}}},
{"geometry": {"type": "Point", "coordinates": [-91.1986198834, 39.3392043347]}, "type": "Feature", "properties": {"collection_times": [{"days": "Mon-Sat", "time": "9:30am"}, {"days": "Sun", "time": "Closed"}], "id": "6333400008", "name": "USPS COLLECTION BOX - BLUE BOX", "address": {"city": "BOWLING GREEN", "state": "MO", "street": "320 S HIGH ST", "postcode": "63334"}}},
{"geometry": {"type": "Point", "coordinates": [-91.1975726818, 39.3436686174]}, "type": "Feature", "properties": {"collection_times": [{"days": "Mon-Sat", "time": "9:45am"}, {"days": "Sun", "time": "Closed"}], "id": "6333400009", "name": "USPS COLLECTION BOX - BLUE BOX", "address": {"city": "BOWLING GREEN", "state": "MO", "street": "405 W CENTENNIAL AVE", "postcode": "63334"}}},
{"geometry": {"type": "Point", "coordinates": [-91.1997951962, 39.3444228456]}, "type": "Feature", "properties": {"collection_times": [{"days": "Mon-Sat", "time": "9:30am"}, {"days": "Sun", "time": "Closed"}], "id": "6333400010", "name": "USPS COLLECTION BOX - BLUE BOX", "address": {"city": "BOWLING GREEN", "state": "MO", "street": "615 W LOCUST ST", "postcode": "63334"}}},
{"geometry": {"type": "Point", "coordinates": [-91.1886538567, 39.2966536451]}, "type": "Feature", "properties": {"collection_times": [{"days": "Mon-Sat", "time": "9:30am"}, {"days": "Sun", "time": "Closed"}], "id": "6333400011", "name": "USPS COLLECTION BOX - BLUE BOX", "address": {"city": "BOWLING GREEN", "state": "MO", "street": "18048 S BUSINESS 161", "postcode": "63334"}}},
{"geometry": {"type": "Point", "coordinates": [-91.191018028, 39.3420951744]}, "type": "Feature", "properties": {"collection_times": [{"days": "Mon-Sat", "time": "9:30am"}, {"days": "Sun", "time": "Closed"}], "id": "6333400012", "name": "USPS COLLECTION BOX - BLUE BOX", "address": {"city": "BOWLING GREEN", "state": "MO", "street": "221 E MAIN ST", "postcode": "63334"}}},
{"geometry": {"type": "Point", "coordinates": [-91.1952168146, 39.3422693853]}, "type": "Feature", "properties": {"collection_times": [{"days": "Mon-Sat", "time": "9:30am"}, {"days": "Sun", "time": "Closed"}], "id": "6333400013", "name": "USPS COLLECTION BOX - BLUE BOX", "address": {"city": "BOWLING GREEN", "state": "MO", "street": "30 N COURT ST", "postcode": "63334"}}},
{"geometry": {"type": "Point", "coordinates": [-91.193864471, 39.3363460252]}, "type": "Feature", "properties": {"collection_times": [{"days": "Mon-Sat", "time": "9:30am"}, {"days": "Sun", "time": "Closed"}], "id": "6333400014", "name": "USPS COLLECTION BOX - BLUE BOX", "address": {"city": "BOWLING GREEN", "state": "MO", "street": "120 JEFFERSON DR", "postcode": "63334"}}},
{"geometry": {"type": "Point", "coordinates": [-91.1945330474, 39.3419720869]}, "type": "Feature", "properties": {"collection_times": [{"days": "Mon-Sat", "time": "9:30am"}, {"days": "Sun", "time": "Closed"}], "id": "6333400015", "name": "USPS COLLECTION BOX - BLUE BOX", "address": {"city": "BOWLING GREEN", "state": "MO", "street": "124 W MAIN ST", "postcode": "63334"}}},
{"geometry": {"type": "Point", "coordinates": [-91.1929397952, 39.3411638881]}, "type": "Feature", "properties": {"collection_times": [{"days": "Mon-Sat", "time": "9:30am"}, {"days": "Sun", "time": "Closed"}], "id": "6333400016", "name": "USPS COLLECTION BOX - BLUE BOX", "address": {"city": "BOWLING GREEN", "state": "MO", "street": "20 E CHAMP CLARK DR", "postcode": "63334"}}},
{"geometry": {"type": "Point", "coordinates": [-91.2067369725, 39.3436466629]}, "type": "Feature", "properties": {"collection_times": [{"days": "Mon-Sat", "time": "9:45am"}, {"days": "Sun", "time": "Closed"}], "id": "6333400017", "name": "USPS COLLECTION BOX - BLUE BOX", "address": {"city": "BOWLING GREEN", "state": "MO", "street": "1301 W CENTENNIAL AVE", "postcode": "63334"}}},
{"geometry": {"type": "Point", "coordinates": [-91.198661371, 39.3444353012]}, "type": "Feature", "properties": {"collection_times": [{"days": "Mon-Sat", "time": "9:30am"}, {"days": "Sun", "time": "Closed"}], "id": "6333400018", "name": "USPS COLLECTION BOX - BLUE BOX", "address": {"city": "BOWLING GREEN", "state": "MO", "street": "505 W LOCUST ST", "postcode": "63334"}}},
{"geometry": {"type": "Point", "coordinates": [-91.207803014, 39.3419282786]}, "type": "Feature", "properties": {"collection_times": [{"days": "Mon-Sat", "time": "9:45am"}, {"days": "Sun", "time": "Closed"}], "id": "6333400019", "name": "USPS COLLECTION BOX - BLUE BOX", "address": {"city": "BOWLING GREEN", "state": "MO", "street": "1406 W MAIN ST", "postcode": "63334"}}},
{"geometry": {"type": "Point", "coordinates": [-91.1986714301, 39.3419364128]}, "type": "Feature", "properties": {"collection_times": [{"days": "Mon-Sat", "time": "9:30am"}, {"days": "Sun", "time": "Closed"}], "id": "6333400020", "name": "USPS COLLECTION BOX - BLUE BOX", "address": {"city": "BOWLING GREEN", "state": "MO", "street": "506 W MAIN ST", "postcode": "63334"}}},
{"geometry": {"type": "Point", "coordinates": [-91.1963758015, 39.3419497906]}, "type": "Feature", "properties": {"collection_times": [{"days": "Mon-Sat", "time": "9:30am"}, {"days": "Sun", "time": "Closed"}], "id": "6333400021", "name": "USPS COLLECTION BOX - BLUE BOX", "address": {"city": "BOWLING GREEN", "state": "MO", "street": "300 W MAIN ST", "postcode": "63334"}}},
{"geometry": {"type": "Point", "coordinates": [-91.1933866251, 39.3428876595]}, "type": "Feature", "properties": {"collection_times": [{"days": "Mon-Fri", "time": "5:00pm"}, {"days": "Sat", "time": "10:00am"}, {"days": "Sun", "time": "Closed"}], "id": "6333400022", "name": "USPS COLLECTION BOX - BLUE BOX", "address": {"city": "BOWLING GREEN", "state": "MO", "street": "17 W CHURCH ST", "postcode": "63334"}}},
{"geometry": {"type": "Point", "coordinates": [-90.9030754255, 39.3697638293]}, "type": "Feature", "properties": {"collection_times": [{"days": "Mon-Fri", "time": "2:45pm"}, {"days": "Sat", "time": "2:30pm"}, {"days": "Sun", "time": "Closed"}], "id": "6333600001", "name": "USPS COLLECTION BOX - BLUE BOX", "address": {"city": "CLARKSVILLE", "state": "MO", "street": "309 S 1ST ST", "postcode": "63336"}}},
{"geometry": {"type": "Point", "coordinates": [-90.944689992, 39.3433810749]}, "type": "Feature", "properties": {"collection_times": [{"days": "Mon-Fri", "time": "2:45pm"}, {"days": "Sat-Sun", "time": "Closed"}], "id": "6333600002", "name": "USPS COLLECTION BOX - PO LOBBY", "address": {"city": "CLARKSVILLE", "state": "MO", "street": "309 S 1ST ST", "postcode": "63336"}}},
{"geometry": {"type": "Point", "coordinates": [-90.90008818, 39.2617392696]}, "type": "Feature", "properties": {"collection_times": [{"days": "Mon-Sat", "time": "9:45am"}, {"days": "Sun", "time": "Closed"}], "id": "6333600004", "name": "USPS COLLECTION BOX - BLUE BOX", "address": {"city": "CLARKSVILLE", "state": "MO", "street": "105 N WATER ST", "postcode": "63336"}}},
{"geometry": {"type": "Point", "coordinates": [-90.65303068, 38.74583984]}, "type": "Feature", "properties": {"collection_times": [{"days": "Mon-Fri", "time": "11:15am"}, {"days": "Sat", "time": "9:15am"}, {"days": "Sun", "time": "Closed"}], "id": "6333800001", "name": "USPS COLLECTION BOX - BLUE BOX", "address": {"city": "COTTLEVILLE", "state": "MO", "street": "5323 HIGHWAY N", "postcode": "63338"}}},
{"geometry": {"type": "Point", "coordinates": [-90.65303068, 38.74583984]}, "type": "Feature", "properties": {"collection_times": [{"days": "Mon-Fri", "time": "11:15am"}, {"days": "Sat", "time": "9:15am"}, {"days": "Sun", "time": "Closed"}], "id": "6333800002", "name": "USPS COLLECTION BOX - PO LOBBY", "address": {"city": "COTTLEVILLE", "state": "MO", "street": "5323 HIGHWAY N", "postcode": "63338"}}},
{"geometry": {"type": "Point", "coordinates": [-90.6530306797, 38.7458398396]}, "type": "Feature", "properties": {"collection_times": [{"days": "Mon-Fri", "time": "4:45pm"}, {"days": "Sat", "time": "12:45pm"}, {"days": "Sun", "time": "Closed"}], "id": "6333800003", "name": "USPS COLLECTION BOX - PO LOBBY", "address": {"city": "COTTLEVILLE", "state": "MO", "street": "5323 HIGHWAY N", "postcode": "63338"}}},
{"geometry": {"type": "Point", "coordinates": [-91.3416586212, 39.345381781]}, "type": "Feature", "properties": {"collection_times": [{"days": "Mon-Fri", "time": "11:15am"}, {"days": "Sat", "time": "9:15am"}, {"days": "Sun", "time": "Closed"}], "id": "6333900001", "name": "USPS COLLECTION BOX - PO LOBBY", "address": {"city": "CURRYVILLE", "state": "MO", "street": "104 E MAIN ST", "postcode": "63339"}}},
{"geometry": {"type": "Point", "coordinates": [-91.3416586212, 39.345381781]}, "type": "Feature", "properties": {"collection_times": [{"days": "Mon-Fri", "time": "11:15am"}, {"days": "Sat", "time": "8:45am"}, {"days": "Sun", "time": "Closed"}], "id": "6333900002", "name": "USPS COLLECTION BOX - BLUE BOX", "address": {"city": "CURRYVILLE", "state": "MO", "street": "104 E MAIN ST", "postcode": "63339"}}},
{"geometry": {"type": "Point", "coordinates": [-90.7811958106, 38.6281622308]}, "type": "Feature", "properties": {"collection_times": [{"days": "Mon-Fri", "time": "4:00pm"}, {"days": "Sat", "time": "10:45am"}, {"days": "Sun", "time": "Closed"}], "id": "6334100001", "name": "USPS COLLECTION BOX - BLUE BOX", "address": {"city": "DEFIANCE", "state": "MO", "street": "2959 S HIGHWAY 94", "postcode": "63341"}}},
{"geometry": {"type": "Point", "coordinates": [-90.8059763144, 38.6948257865]}, "type": "Feature", "properties": {"collection_times": [{"days": "Mon-Sat", "time": "11:00am"}, {"days": "Sun", "time": "Closed"}], "id": "6334100002", "name": "USPS COLLECTION BOX - BLUE BOX", "address": {"city": "DEFIANCE", "state": "MO", "street": "1300 HIGHWAY DD", "postcode": "63341"}}},
{"geometry": {"type": "Point", "coordinates": [-90.7811958106, 38.6281622308]}, "type": "Feature", "properties": {"collection_times": [{"days": "Mon-Fri", "time": "4:00pm"}, {"days": "Sat", "time": "10:45am"}, {"days": "Sun", "time": "Closed"}], "id": "6334100003", "name": "USPS COLLECTION BOX - PO LOBBY", "address": {"city": "DEFIANCE", "state": "MO", "street": "2959 S HIGHWAY 94", "postcode": "63341"}}},
{"geometry": {"type": "Point", "coordinates": [-90.9950520078, 38.605471573]}, "type": "Feature", "properties": {"collection_times": [{"days": "Mon-Fri", "time": "3:45pm"}, {"days": "Sat", "time": "10:45am"}, {"days": "Sun", "time": "Closed"}], "id": "6334200001", "name": "USPS COLLECTION BOX - BLUE BOX", "address": {"city": "DUTZOW", "state": "MO", "street": "11715 BLUFF RD", "postcode": "63342"}}},
{"geometry": {"type": "Point", "coordinates": [-90.9950520078, 38.605471573]}, "type": "Feature", "properties": {"collection_times": [{"days": "Mon-Fri", "time": "3:30pm"}, {"days": "Sat", "time": "10:30am"}, {"days": "Sun", "time": "Closed"}], "id": "6334200002", "name": "USPS COLLECTION BOX - PO LOBBY", "address": {"city": "DUTZOW", "state": "MO", "street": "11715 BLUFF RD", "postcode": "63342"}}},
{"geometry": {"type": "Point", "coordinates": [-90.7831783292, 39.1662739717]}, "type": "Feature", "properties": {"collection_times": [{"days": "Mon-Fri", "time": "4:15pm"}, {"days": "Sat", "time": "11:45am"}, {"days": "Sun", "time": "Closed"}], "id": "6334300001", "name": "USPS COLLECTION BOX - BLUE BOX", "address": {"city": "ELSBERRY", "state": "MO", "street": "110 N 3RD ST", "postcode": "63343"}}},
{"geometry": {"type": "Point", "coordinates": [-90.7809569126, 39.1663763151]}, "type": "Feature", "properties": {"collection_times": [{"days": "Mon-Sat", "time": "10:00am"}, {"days": "Sun", "time": "Closed"}], "id": "6334300005", "name": "USPS COLLECTION BOX - BLUE BOX", "address": {"city": "ELSBERRY", "state": "MO", "street": "108 BROADWAY ST", "postcode": "63343"}}},
{"geometry": {"type": "Point", "coordinates": [-90.7831783292, 39.1662739717]}, "type": "Feature", "properties": {"collection_times": [{"days": "Mon-Fri", "time": "4:15pm"}, {"days": "Sat", "time": "11:45am"}, {"days": "Sun", "time": "Closed"}], "id": "6334300011", "name": "USPS COLLECTION BOX - PO LOBBY", "address": {"city": "ELSBERRY", "state": "MO", "street": "110 N 3RD ST", "postcode": "63343"}}},
{"geometry": {"type": "Point", "coordinates": [-90.7831783292, 39.1662739717]}, "type": "Feature", "properties": {"collection_times": [{"days": "Mon-Fri", "time": "4:15pm"}, {"days": "Sat", "time": "11:45am"}, {"days": "Sun", "time": "Closed"}], "id": "6334300012", "name": "USPS COLLECTION BOX - BLUE BOX", "address": {"city": "ELSBERRY", "state": "MO", "street": "110 N 3RD ST", "postcode": "63343"}}},
{"geometry": {"type": "Point", "coordinates": [-91.0094336857, 39.2321671936]}, "type": "Feature", "properties": {"collection_times": [{"days": "Mon-Fri", "time": "3:15pm"}, {"days": "Sat", "time": "2:45pm"}, {"days": "Sun", "time": "Closed"}], "id": "6334400001", "name": "USPS COLLECTION BOX - BLUE BOX", "address": {"city": "EOLIA", "state": "MO", "street": "107 GREEN ST", "postcode": "63344"}}},
{"geometry": {"type": "Point", "coordinates": [-91.0094336857, 39.2321671936]}, "type": "Feature", "properties": {"collection_times": [{"days": "Mon-Fri", "time": "2:45pm"}, {"days": "Sat", "time": "8:45am"}, {"days": "Sun", "time": "Closed"}], "id": "6334400002", "name": "USPS COLLECTION BOX - PO LOBBY", "address": {"city": "EOLIA", "state": "MO", "street": "107 GREEN ST", "postcode": "63344"}}},
{"geometry": {"type": "Point", "coordinates": [-91.0129766256, 39.2326311308]}, "type": "Feature", "properties": {"collection_times": [{"days": "Mon-Sat", "time": "12:30pm"}, {"days": "Sun", "time": "Closed"}], "id": "6334400004", "name": "USPS COLLECTION BOX - BLUE BOX", "address": {"city": "EOLIA", "state": "MO", "street": "121 W OUTER RD", "postcode": "63344"}}},
{"geometry": {"type": "Point", "coordinates": [-91.5909207173, 39.2705907648]}, "type": "Feature", "properties": {"collection_times": [{"days": "Mon-Fri", "time": "4:00pm"}, {"days": "Sat", "time": "9:15am"}, {"days": "Sun", "time": "Closed"}], "id": "6334500001", "name": "USPS COLLECTION BOX - BLUE BOX", "address": {"city": "FARBER", "state": "MO", "street": "101 W FRONT ST", "postcode": "63345"}}},
{"geometry": {"type": "Point", "coordinates": [-91.5909207173, 39.2705907648]}, "type": "Feature", "properties": {"collection_times": [{"days": "Mon-Fri", "time": "3:45pm"}, {"days": "Sat", "time": "9:30am"}, {"days": "Sun", "time": "Closed"}], "id": "6334500002", "name": "USPS COLLECTION BOX - PO LOBBY", "address": {"city": "FARBER", "state": "MO", "street": "101 W FRONT ST", "postcode": "63345"}}},
{"geometry": {"type": "Point", "coordinates": [-90.8621379898, 38.8550945307]}, "type": "Feature", "properties": {"collection_times": [{"days": "Mon-Sat", "time": "10:00am"}, {"days": "Sun", "time": "Closed"}], "id": "6334600001", "name": "USPS COLLECTION BOX - BLUE BOX", "address": {"city": "FLINTHILL", "state": "MO", "street": "5025 STATE ROAD P", "postcode": "63346"}}},
{"geometry": {"type": "Point", "coordinates": [-90.8007399598, 39.0571408026]}, "type": "Feature", "properties": {"collection_times": [{"days": "Mon-Fri", "time": "4:30pm"}, {"days": "Sat", "time": "10:00am"}, {"days": "Sun", "time": "Closed"}], "id": "6334700001", "name": "USPS COLLECTION BOX - BLUE BOX", "address": {"city": "FOLEY", "state": "MO", "street": "467 ADDISON ST", "postcode": "63347"}}},
{"geometry": {"type": "Point", "coordinates": [-90.8007399598, 39.0571408026]}, "type": "Feature", "properties": {"collection_times": [{"days": "Mon-Fri", "time": "4:30pm"}, {"days": "Sat", "time": "10:00am"}, {"days": "Sun", "time": "Closed"}], "id": "6334700002", "name": "USPS COLLECTION BOX - PO LOBBY", "address": {"city": "FOLEY", "state": "MO", "street": "467 ADDISON ST", "postcode": "63347"}}},
{"geometry": {"type": "Point", "coordinates": [-90.9551018897, 38.8064902696]}, "type": "Feature", "properties": {"collection_times": [{"days": "Mon-Fri", "time": "4:00pm"}, {"days": "Sat", "time": "11:00am"}, {"days": "Sun", "time": "Closed"}], "id": "6334800001", "name": "USPS COLLECTION BOX - BLUE BOX", "address": {"city": "FORISTELL", "state": "MO", "street": "100 TOWN CENTRE CT", "postcode": "63348"}}},
{"geometry": {"type": "Point", "coordinates": [-90.9551018897, 38.8064902696]}, "type": "Feature", "properties": {"collection_times": [{"days": "Mon-Fri", "time": "4:00pm"}, {"days": "Sat", "time": "11:00am"}, {"days": "Sun", "time": "Closed"}], "id": "6334800002", "name": "USPS COLLECTION BOX - BLUE BOX", "address": {"city": "FORISTELL", "state": "MO", "street": "100 TOWN CENTRE CT", "postcode": "63348"}}},
{"geometry": {"type": "Point", "coordinates": [-90.957727109, 38.8175919995]}, "type": "Feature", "properties": {"collection_times": [{"days": "Mon-Sat", "time": "10:00am"}, {"days": "Sun", "time": "Closed"}], "id": "6334800005", "name": "USPS COLLECTION BOX - BLUE BOX", "address": {"city": "FORISTELL", "state": "MO", "street": "3265 N SERVICE RD E", "postcode": "63348"}}},
{"geometry": {"type": "Point", "coordinates": [-90.9525394042, 38.8178315459]}, "type": "Feature", "properties": {"collection_times": [{"days": "Mon-Sat", "time": "10:00am"}, {"days": "Sun", "time": "Closed"}], "id": "6334800006", "name": "USPS COLLECTION BOX - BLUE BOX", "address": {"city": "FORISTELL", "state": "MO", "street": "11 HIGHWAY W", "postcode": "63348"}}},
{"geometry": {"type": "Point", "coordinates": [-90.9551018897, 38.8064902696]}, "type": "Feature", "properties": {"collection_times": [{"days": "Mon-Fri", "time": "4:00pm"}, {"days": "Sat", "time": "11:00am"}, {"days": "Sun", "time": "Closed"}], "id": "6334800007", "name": "USPS COLLECTION BOX - PO LOBBY", "address": {"city": "FORISTELL", "state": "MO", "street": "100 TOWN CENTRE CT", "postcode": "63348"}}},
{"geometry": {"type": "Point", "coordinates": [-90.9551018897, 38.8064902696]}, "type": "Feature", "properties": {"collection_times": [{"days": "Mon-Fri", "time": "4:00pm"}, {"days": "Sat", "time": "11:00am"}, {"days": "Sun", "time": "Closed"}], "id": "6334800008", "name": "USPS COLLECTION BOX - PO LOBBY", "address": {"city": "FORISTELL", "state": "MO", "street": "100 TOWN CENTRE CT", "postcode": "63348"}}},
{"geometry": {"type": "Point", "coordinates": [-90.9551018897, 38.8064902696]}, "type": "Feature", "properties": {"collection_times": [{"days": "Mon-Fri", "time": "4:00pm"}, {"days": "Sat", "time": "11:00am"}, {"days": "Sun", "time": "Closed"}], "id": "6334800009", "name": "USPS COLLECTION BOX - PO LOBBY", "address": {"city": "FORISTELL", "state": "MO", "street": "100 TOWN CENTRE CT", "postcode": "63348"}}},
{"geometry": {"type": "Point", "coordinates": [-91.1311859294, 38.9703665034]}, "type": "Feature", "properties": {"collection_times": [{"days": "Mon-Fri", "time": "4:45pm"}, {"days": "Sat", "time": "12:30pm"}, {"days": "Sun", "time": "Closed"}], "id": "6334900001", "name": "USPS COLLECTION BOX - BLUE BOX", "address": {"city": "HAWK POINT", "state": "MO", "street": "441 MAIN ST", "postcode": "63349"}}},
{"geometry": {"type": "Point", "coordinates": [-91.1311859294, 38.9703665034]}, "type": "Feature", "properties": {"collection_times": [{"days": "Mon-Fri", "time": "4:45pm"}, {"days": "Sat", "time": "12:30pm"}, {"days": "Sun", "time": "Closed"}], "id": "6334900002", "name": "USPS COLLECTION BOX - PO LOBBY", "address": {"city": "HAWK POINT", "state": "MO", "street": "441 MAIN ST", "postcode": "63349"}}},
{"geometry": {"type": "Point", "coordinates": [-91.3814795063, 38.8776714694]}, "type": "Feature", "properties": {"collection_times": [{"days": "Mon-Fri", "time": "4:45pm"}, {"days": "Sat", "time": "9:00am"}, {"days": "Sun", "time": "Closed"}], "id": "6335000000", "name": "USPS COLLECTION BOX - BLUE BOX", "address": {"city": "HIGH HILL", "state": "MO", "street": "879 BOONESLICK RD", "postcode": "63350"}}},
{"geometry": {"type": "Point", "coordinates": [-91.3814795063, 38.8776714694]}, "type": "Feature", "properties": {"collection_times": [{"days": "Mon-Fri", "time": "4:45pm"}, {"days": "Sat", "time": "10:45am"}, {"days": "Sun", "time": "Closed"}], "id": "6335000002", "name": "USPS COLLECTION BOX - PO LOBBY", "address": {"city": "HIGH HILL", "state": "MO", "street": "879 BOONESLICK RD", "postcode": "63350"}}},
{"geometry": {"type": "Point", "coordinates": [-91.3019415705, 38.8900363408]}, "type": "Feature", "properties": {"collection_times": [{"days": "Mon-Fri", "time": "3:45pm"}, {"days": "Sat", "time": "9:30am"}, {"days": "Sun", "time": "Closed"}], "id": "6335100001", "name": "USPS COLLECTION BOX - BLUE BOX", "address": {"city": "JONESBURG", "state": "MO", "street": "116 E LION ST", "postcode": "63351"}}},
{"geometry": {"type": "Point", "coordinates": [-91.3019415705, 38.8900363408]}, "type": "Feature", "properties": {"collection_times": [{"days": "Mon-Fri", "time": "4:15pm"}, {"days": "Sat", "time": "10:15am"}, {"days": "Sun", "time": "Closed"}], "id": "6335100003", "name": "USPS COLLECTION BOX - PO LOBBY", "address": {"city": "JONESBURG", "state": "MO", "street": "116 E LION ST", "postcode": "63351"}}},
{"geometry": {"type": "Point", "coordinates": [-91.6437446456, 39.2416431294]}, "type": "Feature", "properties": {"collection_times": [{"days": "Mon-Fri", "time": "4:00pm"}, {"days": "Sat", "time": "9:30am"}, {"days": "Sun", "time": "Closed"}], "id": "6335200001", "name": "USPS COLLECTION BOX - BLUE BOX", "address": {"city": "LADDONIA", "state": "MO", "street": "501 E 2ND ST", "postcode": "63352"}}},
{"geometry": {"type": "Point", "coordinates": [-91.6437446456, 39.2416431294]}, "type": "Feature", "properties": {"collection_times": [{"days": "Mon-Fri", "time": "2:45pm"}, {"days": "Sat", "time": "9:30am"}, {"days": "Sun", "time": "Closed"}], "id": "6335200002", "name": "USPS COLLECTION BOX - PO LOBBY", "address": {"city": "LADDONIA", "state": "MO", "street": "501 E 2ND ST", "postcode": "63352"}}},
{"geometry": {"type": "Point", "coordinates": [-91.0494971999, 39.448951482]}, "type": "Feature", "properties": {"collection_times": [{"days": "Mon-Fri", "time": "4:15pm"}, {"days": "Sat", "time": "3:30pm"}, {"days": "Sun", "time": "Closed"}], "id": "6335300001", "name": "USPS COLLECTION BOX - BLUE BOX", "address": {"city": "LOUISIANA", "state": "MO", "street": "522 GEORGIA ST", "postcode": "63353"}}},
{"geometry": {"type": "Point", "coordinates": [-91.0494971999, 39.448951482]}, "type": "Feature", "properties": {"collection_times": [{"days": "Mon-Fri", "time": "4:15pm"}, {"days": "Sat", "time": "3:30pm"}, {"days": "Sun", "time": "Closed"}], "id": "6335300019", "name": "USPS COLLECTION BOX - BLUE BOX", "address": {"city": "LOUISIANA", "state": "MO", "street": "522 GEORGIA ST", "postcode": "63353"}}},
{"geometry": {"type": "Point", "coordinates": [-91.0494971999, 39.448951482]}, "type": "Feature", "properties": {"collection_times": [{"days": "Mon-Fri", "time": "4:15pm"}, {"days": "Sat", "time": "3:30pm"}, {"days": "Sun", "time": "Closed"}], "id": "6335300023", "name": "USPS COLLECTION BOX - PO LOBBY", "address": {"city": "LOUISIANA", "state": "MO", "street": "522 GEORGIA ST", "postcode": "63353"}}},
{"geometry": {"type": "Point", "coordinates": [-91.0602960606, 38.6275391155]}, "type": "Feature", "properties": {"collection_times": [{"days": "Mon-Fri", "time": "4:30pm"}, {"days": "Sat", "time": "11:15am"}, {"days": "Sun", "time": "Closed"}], "id": "6335700001", "name": "USPS COLLECTION BOX - BLUE BOX", "address": {"city": "MARTHASVILLE", "state": "MO", "street": "105 DEPOT ST", "postcode": "63357"}}},
{"geometry": {"type": "Point", "coordinates": [-91.0800746245, 38.6514495968]}, "type": "Feature", "properties": {"collection_times": [{"days": "Mon-Sat", "time": "11:00am"}, {"days": "Sun", "time": "Closed"}], "id": "6335700002", "name": "USPS COLLECTION BOX - BLUE BOX", "address": {"city": "MARTHASVILLE", "state": "MO", "street": "1 NOTTINGHAM CT", "postcode": "63357"}}},
{"geometry": {"type": "Point", "coordinates": [-91.0602960606, 38.6275391155]}, "type": "Feature", "properties": {"collection_times": [{"days": "Mon-Fri", "time": "4:15pm"}, {"days": "Sat", "time": "11:15am"}, {"days": "Sun", "time": "Closed"}], "id": "6335700003", "name": "USPS COLLECTION BOX - PO LOBBY", "address": {"city": "MARTHASVILLE", "state": "MO", "street": "105 DEPOT ST", "postcode": "63357"}}},
{"geometry": {"type": "Point", "coordinates": [-91.4152270849, 39.1268645174]}, "type": "Feature", "properties": {"collection_times": [{"days": "Mon-Fri", "time": "4:15pm"}, {"days": "Sat", "time": "9:45am"}, {"days": "Sun", "time": "Closed"}], "id": "6335900001", "name": "USPS COLLECTION BOX - BLUE BOX", "address": {"city": "MIDDLETOWN", "state": "MO", "street": "112 MAIN ST", "postcode": "63359"}}},
{"geometry": {"type": "Point", "coordinates": [-91.4152270849, 39.1268645174]}, "type": "Feature", "properties": {"collection_times": [{"days": "Mon-Fri", "time": "4:15pm"}, {"days": "Sat-Sun", "time": "Closed"}], "id": "6335900002", "name": "USPS COLLECTION BOX - PO LOBBY", "address": {"city": "MIDDLETOWN", "state": "MO", "street": "112 MAIN ST", "postcode": "63359"}}},
{"geometry": {"type": "Point", "coordinates": [-91.5064748765, 38.9792518058]}, "type": "Feature", "properties": {"collection_times": [{"days": "Mon-Fri", "time": "4:00pm"}, {"days": "Sat", "time": "8:00am"}, {"days": "Sun", "time": "Closed"}], "id": "6336100001", "name": "USPS COLLECTION BOX - BLUE BOX", "address": {"city": "MONTGOMERY CITY", "state": "MO", "street": "404 N STURGEON ST", "postcode": "63361"}}},
{"geometry": {"type": "Point", "coordinates": [-91.5064748765, 38.9792518058]}, "type": "Feature", "properties": {"collection_times": [{"days": "Mon-Fri", "time": "4:00pm"}, {"days": "Sat", "time": "8:00am"}, {"days": "Sun", "time": "Closed"}], "id": "6336100002", "name": "USPS COLLECTION BOX - BLUE BOX", "address": {"city": "MONTGOMERY CITY", "state": "MO", "street": "404 N STURGEON ST", "postcode": "63361"}}},
{"geometry": {"type": "Point", "coordinates": [-91.5064748765, 38.9792518058]}, "type": "Feature", "properties": {"collection_times": [{"days": "Mon-Fri", "time": "4:00pm"}, {"days": "Sat", "time": "8:00am"}, {"days": "Sun", "time": "Closed"}], "id": "6336100010", "name": "USPS COLLECTION BOX - PO LOBBY", "address": {"city": "MONTGOMERY CITY", "state": "MO", "street": "404 N STURGEON ST", "postcode": "63361"}}},
{"geometry": {"type": "Point", "coordinates": [-91.5064748765, 38.9792518058]}, "type": "Feature", "properties": {"collection_times": [{"days": "Mon-Fri", "time": "4:00pm"}, {"days": "Sat", "time": "8:00am"}, {"days": "Sun", "time": "Closed"}], "id": "6336100011", "name": "USPS COLLECTION BOX - PO LOBBY", "address": {"city": "MONTGOMERY CITY", "state": "MO", "street": "404 N STURGEON ST", "postcode": "63361"}}},
{"geometry": {"type": "Point", "coordinates": [-90.9172769563, 38.9482919383]}, "type": "Feature", "properties": {"collection_times": [{"days": "Mon-Fri", "time": "3:30pm"}, {"days": "Sat", "time": "10:00am"}, {"days": "Sun", "time": "Closed"}], "id": "6336200001", "name": "USPS COLLECTION BOX - BLUE BOX", "address": {"city": "MOSCOW MILLS", "state": "MO", "street": "150 W 3RD ST", "postcode": "63362"}}},
{"geometry": {"type": "Point", "coordinates": [-90.9172769563, 38.9482919383]}, "type": "Feature", "properties": {"collection_times": [{"days": "Mon-Fri", "time": "3:30pm"}, {"days": "Sat", "time": "10:00am"}, {"days": "Sun", "time": "Closed"}], "id": "6336200003", "name": "USPS COLLECTION BOX - PO LOBBY", "address": {"city": "MOSCOW MILLS", "state": "MO", "street": "150 W 3RD ST", "postcode": "63362"}}},
{"geometry": {"type": "Point", "coordinates": [-91.4527384501, 38.8857737857]}, "type": "Feature", "properties": {"collection_times": [{"days": "Mon-Fri", "time": "4:45pm"}, {"days": "Sat", "time": "11:00am"}, {"days": "Sun", "time": "Closed"}], "id": "6336300001", "name": "USPS COLLECTION BOX - PO LOBBY", "address": {"city": "NEW FLORENCE", "state": "MO", "street": "119 S MAIN ST", "postcode": "63363"}}},
{"geometry": {"type": "Point", "coordinates": [-91.4527384501, 38.8857737857]}, "type": "Feature", "properties": {"collection_times": [{"days": "Mon-Fri", "time": "4:30pm"}, {"days": "Sat", "time": "2:00pm"}, {"days": "Sun", "time": "Closed"}], "id": "6336300002", "name": "USPS COLLECTION BOX - BLUE BOX", "address": {"city": "NEW FLORENCE", "state": "MO", "street": "119 S MAIN ST", "postcode": "63363"}}},
{"geometry": {"type": "Point", "coordinates": [-90.8806549003, 38.7096110474]}, "type": "Feature", "properties": {"collection_times": [{"days": "Mon-Fri", "time": "4:00pm"}, {"days": "Sat", "time": "11:45am"}, {"days": "Sun", "time": "Closed"}], "id": "6336500001", "name": "USPS COLLECTION BOX - BLUE BOX", "address": {"city": "NEW MELLE", "state": "MO", "street": "30 W HIGHWAY D STE 107", "postcode": "63365"}}},
{"geometry": {"type": "Point", "coordinates": [-90.8806549003, 38.7096110474]}, "type": "Feature", "properties": {"collection_times": [{"days": "Mon-Fri", "time": "4:15pm"}, {"days": "Sat", "time": "11:45am"}, {"days": "Sun", "time": "Closed"}], "id": "6336500002", "name": "USPS COLLECTION BOX - PO LOBBY", "address": {"city": "NEW MELLE", "state": "MO", "street": "30 W HIGHWAY D STE 107", "postcode": "63365"}}},
{"geometry": {"type": "Point", "coordinates": [-90.7051740151, 38.8087293564]}, "type": "Feature", "properties": {"collection_times": [{"days": "Mon-Fri", "time": "5:15pm"}, {"days": "Sat", "time": "2:15pm"}, {"days": "Sun", "time": "Closed"}], "id": "6336600001", "name": "USPS COLLECTION BOX - BLUE BOX", "address": {"city": "O FALLON", "state": "MO", "street": "401 CHURCH ST", "postcode": "63366"}}},
{"geometry": {"type": "Point", "coordinates": [-90.7051740151, 38.8087293564]}, "type": "Feature", "properties": {"collection_times": [{"days": "Mon-Fri", "time": "5:15pm"}, {"days": "Sat", "time": "2:15pm"}, {"days": "Sun", "time": "Closed"}], "id": "6336600003", "name": "USPS COLLECTION BOX - BLUE BOX", "address": {"city": "O FALLON", "state": "MO", "street": "401 CHURCH ST", "postcode": "63366"}}},
{"geometry": {"type": "Point", "coordinates": [-90.7153534286, 38.8597665161]}, "type": "Feature", "properties": {"collection_times": [{"days": "Mon-Sat", "time": "10:30am"}, {"days": "Sun", "time": "Closed"}], "id": "6336600005", "name": "USPS COLLECTION BOX - BLUE BOX", "address": {"city": "O FALLON", "state": "MO", "street": "1000 LAKE SAINT LOUIS BLVD", "postcode": "63366"}}},
{"geometry": {"type": "Point", "coordinates": [-90.7031201741, 38.7990415727]}, "type": "Feature", "properties": {"collection_times": [{"days": "Mon-Sat", "time": "11:00am"}, {"days": "Sun", "time": "Closed"}], "id": "6336600007", "name": "USPS COLLECTION BOX - BLUE BOX", "address": {"city": "O FALLON", "state": "MO", "street": "8660 VETERANS MEMORIAL PKWY", "postcode": "63366"}}},
{"geometry": {"type": "Point", "coordinates": [-90.7531344045, 38.7995120508]}, "type": "Feature", "properties": {"collection_times": [{"days": "Mon-Sat", "time": "1:00pm"}, {"days": "Sun", "time": "Closed"}], "id": "6336600015", "name": "USPS COLLECTION BOX - BLUE BOX", "address": {"city": "O FALLON", "state": "MO", "street": "15 CEDAR CIRCLE DR", "postcode": "63366"}}},
{"geometry": {"type": "Point", "coordinates": [-90.7002028326, 38.8012373902]}, "type": "Feature", "properties": {"collection_times": [{"days": "Mon-Sat", "time": "10:00am"}, {"days": "Sun", "time": "Closed"}], "id": "6336600024", "name": "USPS COLLECTION BOX - BLUE BOX", "address": {"city": "O FALLON", "state": "MO", "street": "1 OFALLON SQ", "postcode": "63366"}}},
{"geometry": {"type": "Point", "coordinates": [-90.6951060458, 38.8077914564]}, "type": "Feature", "properties": {"collection_times": [{"days": "Mon-Sat", "time": "11:00am"}, {"days": "Sun", "time": "Closed"}], "id": "6336600025", "name": "USPS COLLECTION BOX - BLUE BOX", "address": {"city": "O FALLON", "state": "MO", "street": "330 SONDEREN ST", "postcode": "63366"}}},
{"geometry": {"type": "Point", "coordinates": [-90.7153534286, 38.8597665161]}, "type": "Feature", "properties": {"collection_times": [{"days": "Mon-Sat", "time": "11:00am"}, {"days": "Sun", "time": "Closed"}], "id": "6336600026", "name": "USPS COLLECTION BOX - BLUE BOX", "address": {"city": "O FALLON", "state": "MO", "street": "100 MEDICAL PLZ", "postcode": "63366"}}},
{"geometry": {"type": "Point", "coordinates": [-90.726960253, 38.8032416515]}, "type": "Feature", "properties": {"collection_times": [{"days": "Mon-Sat", "time": "11:30am"}, {"days": "Sun", "time": "Closed"}], "id": "6336600027", "name": "USPS COLLECTION BOX - BLUE BOX", "address": {"city": "O FALLON", "state": "MO", "street": "1 N CENTRAL DR", "postcode": "63366"}}},
{"geometry": {"type": "Point", "coordinates": [-90.7332194663, 38.8044930497]}, "type": "Feature", "properties": {"collection_times": [{"days": "Mon-Sat", "time": "10:30am"}, {"days": "Sun", "time": "Closed"}], "id": "6336600028", "name": "USPS COLLECTION BOX - BLUE BOX", "address": {"city": "O FALLON", "state": "MO", "street": "955 BRYAN RD", "postcode": "63366"}}},
{"geometry": {"type": "Point", "coordinates": [-90.7051740151, 38.8087293564]}, "type": "Feature", "properties": {"collection_times": [{"days": "Mon-Fri", "time": "5:15pm"}, {"days": "Sat", "time": "2:15pm"}, {"days": "Sun", "time": "Closed"}], "id": "6336600035", "name": "USPS COLLECTION BOX - BLUE BOX", "address": {"city": "O FALLON", "state": "MO", "street": "401 CHURCH ST", "postcode": "63366"}}},
{"geometry": {"type": "Point", "coordinates": [-90.7051740151, 38.8087293564]}, "type": "Feature", "properties": {"collection_times": [{"days": "Mon-Fri", "time": "5:15pm"}, {"days": "Sat", "time": "2:15pm"}, {"days": "Sun", "time": "Closed"}], "id": "6336600038", "name": "USPS COLLECTION BOX - PO LOBBY", "address": {"city": "O FALLON", "state": "MO", "street": "401 CHURCH ST", "postcode": "63366"}}},
{"geometry": {"type": "Point", "coordinates": [-90.7000352121, 38.775403129]}, "type": "Feature", "properties": {"collection_times": [{"days": "Mon-Sat", "time": "11:00am"}, {"days": "Sun", "time": "Closed"}], "id": "6336600040", "name": "USPS COLLECTION BOX - BLUE BOX", "address": {"city": "O FALLON", "state": "MO", "street": "2435 HIGHWAY K", "postcode": "63366"}}},
{"geometry": {"type": "Point", "coordinates": [-90.7426888174, 38.8574983628]}, "type": "Feature", "properties": {"collection_times": [{"days": "Mon-Sat", "time": "12:30pm"}, {"days": "Sun", "time": "Closed"}], "id": "6336600041", "name": "USPS COLLECTION BOX - BLUE BOX", "address": {"city": "O FALLON", "state": "MO", "street": "2281 SAINT PAUL RD", "postcode": "63366"}}},
{"geometry": {"type": "Point", "coordinates": [-90.7002844787, 38.7580130723]}, "type": "Feature", "properties": {"collection_times": [{"days": "Mon-Fri", "time": "4:15pm"}, {"days": "Sat", "time": "2:00pm"}, {"days": "Sun", "time": "Closed"}], "id": "6336600044", "name": "USPS COLLECTION BOX - BLUE BOX", "address": {"city": "O FALLON", "state": "MO", "street": "2979 HIGHWAY K", "postcode": "63366"}}},
{"geometry": {"type": "Point", "coordinates": [-90.7153534286, 38.8597665161]}, "type": "Feature", "properties": {"collection_times": [{"days": "Mon-Sat", "time": "12:00pm"}, {"days": "Sun", "time": "Closed"}], "id": "6336600047", "name": "USPS COLLECTION BOX - BLUE BOX", "address": {"city": "O FALLON", "state": "MO", "street": "7320 VILLAGE CENTER DR", "postcode": "63366"}}},
{"geometry": {"type": "Point", "coordinates": [-90.7153534286, 38.8597665161]}, "type": "Feature", "properties": {"collection_times": [{"days": "Mon-Sat", "time": "11:00am"}, {"days": "Sun", "time": "Closed"}], "id": "6336600048", "name": "USPS COLLECTION BOX - BLUE BOX", "address": {"city": "O FALLON", "state": "MO", "street": "101 CIVIC CENTER DR", "postcode": "63366"}}},
{"geometry": {"type": "Point", "coordinates": [-90.7153534286, 38.8597665161]}, "type": "Feature", "properties": {"collection_times": [{"days": "Mon-Fri", "time": "1:45pm"}, {"days": "Sat", "time": "1:15pm"}, {"days": "Sun", "time": "Closed"}], "id": "6336600049", "name": "USPS COLLECTION BOX - BLUE BOX", "address": {"city": "O FALLON", "state": "MO", "street": "1200 LAK ST LOUIS BLVD", "postcode": "63366"}}},
{"geometry": {"type": "Point", "coordinates": [-90.7153534286, 38.8597665161]}, "type": "Feature", "properties": {"collection_times": [{"days": "Mon-Sat", "time": "11:30am"}, {"days": "Sun", "time": "Closed"}], "id": "6336600050", "name": "USPS COLLECTION BOX - BLUE BOX", "address": {"city": "O FALLON", "state": "MO", "street": "7422 HWY N", "postcode": "63366"}}},
{"geometry": {"type": "Point", "coordinates": [-90.7051740151, 38.8087293564]}, "type": "Feature", "properties": {"collection_times": [{"days": "Mon-Fri", "time": "5:15pm"}, {"days": "Sat", "time": "2:15pm"}, {"days": "Sun", "time": "Closed"}], "id": "6336600051", "name": "USPS COLLECTION BOX - APC", "address": {"city": "O FALLON", "state": "MO", "street": "401 CHURCH ST", "postcode": "63366"}}},
{"geometry": {"type": "Point", "coordinates": [-90.7508296998, 38.9293945499]}, "type": "Feature", "properties": {"collection_times": [{"days": "Mon-Fri", "time": "4:15pm"}, {"days": "Sat", "time": "10:00am"}, {"days": "Sun", "time": "Closed"}], "id": "6336900001", "name": "USPS COLLECTION BOX - BLUE BOX", "address": {"city": "OLD MONROE", "state": "MO", "street": "104 SYCAMORE ST", "postcode": "63369"}}},
{"geometry": {"type": "Point", "coordinates": [-90.7508296998, 38.9293945499]}, "type": "Feature", "properties": {"collection_times": [{"days": "Mon-Fri", "time": "4:15pm"}, {"days": "Sat", "time": "10:00am"}, {"days": "Sun", "time": "Closed"}], "id": "6336900003", "name": "USPS COLLECTION BOX - PO LOBBY", "address": {"city": "OLD MONROE", "state": "MO", "street": "104 SYCAMORE ST", "postcode": "63369"}}},
{"geometry": {"type": "Point", "coordinates": [-90.3422127572, 38.924976948]}, "type": "Feature", "properties": {"collection_times": [{"days": "Mon-Fri", "time": "4:45pm"}, {"days": "Sat", "time": "9:45am"}, {"days": "Sun", "time": "Closed"}], "id": "6337300001", "name": "USPS COLLECTION BOX - BLUE BOX", "address": {"city": "PRTG DE SIOUX", "state": "MO", "street": "1375 CLARK ST", "postcode": "63373"}}},
{"geometry": {"type": "Point", "coordinates": [-90.3422127572, 38.924976948]}, "type": "Feature", "properties": {"collection_times": [{"days": "Mon-Fri", "time": "10:45am"}, {"days": "Sat", "time": "9:30am"}, {"days": "Sun", "time": "Closed"}], "id": "6337300002", "name": "USPS COLLECTION BOX - PO LOBBY", "address": {"city": "PRTG DE SIOUX", "state": "MO", "street": "1375 CLARK ST", "postcode": "63373"}}},
{"geometry": {"type": "Point", "coordinates": [-90.6250557532, 38.788300838]}, "type": "Feature", "properties": {"collection_times": [{"days": "Mon-Fri", "time": "5:00pm"}, {"days": "Sat", "time": "2:30pm"}, {"days": "Sun", "time": "Closed"}], "id": "6337600003", "name": "USPS COLLECTION BOX - PO LOBBY", "address": {"city": "SAINT PETERS", "state": "MO", "street": "7055 MEXICO RD", "postcode": "63376"}}},
{"geometry": {"type": "Point", "coordinates": [-90.6250557532, 38.788300838]}, "type": "Feature", "properties": {"collection_times": [{"days": "Mon-Fri", "time": "5:00pm"}, {"days": "Sat", "time": "2:30pm"}, {"days": "Sun", "time": "Closed"}], "id": "6337600004", "name": "USPS COLLECTION BOX - BLUE BOX", "address": {"city": "SAINT PETERS", "state": "MO", "street": "7055 MEXICO RD", "postcode": "63376"}}},
{"geometry": {"type": "Point", "coordinates": [-90.6248423194, 38.7903867424]}, "type": "Feature", "properties": {"collection_times": [{"days": "Mon-Fri", "time": "12:00pm"}, {"days": "Sat", "time": "11:00am"}, {"days": "Sun", "time": "Closed"}], "id": "6337600007", "name": "USPS COLLECTION BOX - BLUE BOX", "address": {"city": "SAINT PETERS", "state": "MO", "street": "1 SAINT PETERS CENTRE BLVD", "postcode": "63376"}}},
{"geometry": {"type": "Point", "coordinates": [-90.6248423194, 38.7903867424]}, "type": "Feature", "properties": {"collection_times": [{"days": "Mon-Sat", "time": "12:00pm"}, {"days": "Sun", "time": "Closed"}], "id": "6337600009", "name": "USPS COLLECTION BOX - BLUE BOX", "address": {"city": "SAINT PETERS", "state": "MO", "street": "1053 CAVE SPRINGS BLVD", "postcode": "63376"}}},
{"geometry": {"type": "Point", "coordinates": [-90.620619409, 38.8016195537]}, "type": "Feature", "properties": {"collection_times": [{"days": "Mon-Sat", "time": "12:15pm"}, {"days": "Sun", "time": "Closed"}], "id": "6337600014", "name": "USPS COLLECTION BOX - BLUE BOX", "address": {"city": "SAINT PETERS", "state": "MO", "street": "391 MAIN ST", "postcode": "63376"}}},
{"geometry": {"type": "Point", "coordinates": [-90.5783166622, 38.7934606929]}, "type": "Feature", "properties": {"collection_times": [{"days": "Mon-Fri", "time": "1:30pm"}, {"days": "Sat", "time": "11:00am"}, {"days": "Sun", "time": "Closed"}], "id": "6337600020", "name": "USPS COLLECTION BOX - BLUE BOX", "address": {"city": "SAINT PETERS", "state": "MO", "street": "6 JUNGERMANN CIR", "postcode": "63376"}}},
{"geometry": {"type": "Point", "coordinates": [-90.5793840735, 38.7945610568]}, "type": "Feature", "properties": {"collection_times": [{"days": "Mon-Fri", "time": "1:45pm"}, {"days": "Sat", "time": "11:00am"}, {"days": "Sun", "time": "Closed"}], "id": "6337600021", "name": "USPS COLLECTION BOX - BLUE BOX", "address": {"city": "SAINT PETERS", "state": "MO", "street": "70 JUNGERMANN CIR", "postcode": "63376"}}},
{"geometry": {"type": "Point", "coordinates": [-90.6209957722, 38.7784000097]}, "type": "Feature", "properties": {"collection_times": [{"days": "Mon-Sat", "time": "12:00pm"}, {"days": "Sun", "time": "Closed"}], "id": "6337600032", "name": "USPS COLLECTION BOX - BLUE BOX", "address": {"city": "SAINT PETERS", "state": "MO", "street": "48 PLAZA 94", "postcode": "63376"}}},
{"geometry": {"type": "Point", "coordinates": [-90.581804369, 38.7799961795]}, "type": "Feature", "properties": {"collection_times": [{"days": "Mon-Sat", "time": "12:00pm"}, {"days": "Sun", "time": "Closed"}], "id": "6337600034", "name": "USPS COLLECTION BOX - BLUE BOX", "address": {"city": "SAINT PETERS", "state": "MO", "street": "98 SUTTERS MILL RD", "postcode": "63376"}}},
{"geometry": {"type": "Point", "coordinates": [-90.6250557532, 38.788300838]}, "type": "Feature", "properties": {"collection_times": [{"days": "Mon-Fri", "time": "5:00pm"}, {"days": "Sat", "time": "2:30pm"}, {"days": "Sun", "time": "Closed"}], "id": "6337600046", "name": "USPS COLLECTION BOX - BLUE BOX", "address": {"city": "SAINT PETERS", "state": "MO", "street": "7055 MEXICO RD", "postcode": "63376"}}},
{"geometry": {"type": "Point", "coordinates": [-90.5978524289, 38.7927736058]}, "type": "Feature", "properties": {"collection_times": [{"days": "Mon-Fri", "time": "3:30pm"}, {"days": "Sat", "time": "11:00am"}, {"days": "Sun", "time": "Closed"}], "id": "6337600048", "name": "USPS COLLECTION BOX - BLUE BOX", "address": {"city": "SAINT PETERS", "state": "MO", "street": "5600 MEXICO RD", "postcode": "63376"}}},
{"geometry": {"type": "Point", "coordinates": [-90.5725986209, 38.7911316588]}, "type": "Feature", "properties": {"collection_times": [{"days": "Mon-Sat", "time": "11:30am"}, {"days": "Sun", "time": "Closed"}], "id": "6337600049", "name": "USPS COLLECTION BOX - BLUE BOX", "address": {"city": "SAINT PETERS", "state": "MO", "street": "4101 MEXICO RD", "postcode": "63376"}}},
{"geometry": {"type": "Point", "coordinates": [-90.624758616, 38.791582077]}, "type": "Feature", "properties": {"collection_times": [{"days": "Mon-Sat", "time": "2:00pm"}, {"days": "Sun", "time": "Closed"}], "id": "6337600059", "name": "USPS COLLECTION BOX - BLUE BOX", "address": {"city": "SAINT PETERS", "state": "MO", "street": "577 MID RIVERS MALL DR", "postcode": "63376"}}},
{"geometry": {"type": "Point", "coordinates": [-90.6209957722, 38.7784000097]}, "type": "Feature", "properties": {"collection_times": [{"days": "Mon-Sat", "time": "10:30am"}, {"days": "Sun", "time": "Closed"}], "id": "6337600060", "name": "USPS COLLECTION BOX - BLUE BOX", "address": {"city": "SAINT PETERS", "state": "MO", "street": "1 MID RIVERS MALL DR", "postcode": "63376"}}},
{"geometry": {"type": "Point", "coordinates": [-90.5882006667, 38.7936679228]}, "type": "Feature", "properties": {"collection_times": [{"days": "Mon-Fri", "time": "2:30pm"}, {"days": "Sat", "time": "11:00am"}, {"days": "Sun", "time": "Closed"}], "id": "6337600062", "name": "USPS COLLECTION BOX - BLUE BOX", "address": {"city": "SAINT PETERS", "state": "MO", "street": "112 PIPER HILL DR", "postcode": "63376"}}},
{"geometry": {"type": "Point", "coordinates": [-90.6250557532, 38.788300838]}, "type": "Feature", "properties": {"collection_times": [{"days": "Mon-Fri", "time": "5:00pm"}, {"days": "Sat", "time": "2:30pm"}, {"days": "Sun", "time": "Closed"}], "id": "6337600064", "name": "USPS COLLECTION BOX - APC", "address": {"city": "SAINT PETERS", "state": "MO", "street": "7055 MEXICO RD", "postcode": "63376"}}},
{"geometry": {"type": "Point", "coordinates": [-91.05956013, 39.129191757]}, "type": "Feature", "properties": {"collection_times": [{"days": "Mon-Fri", "time": "2:45pm"}, {"days": "Sat", "time": "3:00pm"}, {"days": "Sun", "time": "Closed"}], "id": "6337700002", "name": "USPS COLLECTION BOX - BLUE BOX", "address": {"city": "SILEX", "state": "MO", "street": "52 DUNCAN MANSION DR", "postcode": "63377"}}},
{"geometry": {"type": "Point", "coordinates": [-91.05956013, 39.129191757]}, "type": "Feature", "properties": {"collection_times": [{"days": "Mon-Fri", "time": "2:45pm"}, {"days": "Sat", "time": "8:15am"}, {"days": "Sun", "time": "Closed"}], "id": "6337700003", "name": "USPS COLLECTION BOX - PO LOBBY", "address": {"city": "SILEX", "state": "MO", "street": "52 DUNCAN MANSION DR", "postcode": "63377"}}},
{"geometry": {"type": "Point", "coordinates": [-90.9793527892, 38.9801021513]}, "type": "Feature", "properties": {"collection_times": [{"days": "Mon-Fri", "time": "5:00pm"}, {"days": "Sat", "time": "2:15pm"}, {"days": "Sun", "time": "Closed"}], "id": "6337900002", "name": "USPS COLLECTION BOX - PO LOBBY", "address": {"city": "TROY", "state": "MO", "street": "350 E CHERRY ST", "postcode": "63379"}}},
{"geometry": {"type": "Point", "coordinates": [-90.9793527892, 38.9801021513]}, "type": "Feature", "properties": {"collection_times": [{"days": "Mon-Fri", "time": "5:00pm"}, {"days": "Sat", "time": "2:15pm"}, {"days": "Sun", "time": "Closed"}], "id": "6337900003", "name": "USPS COLLECTION BOX - BLUE BOX", "address": {"city": "TROY", "state": "MO", "street": "350 E CHERRY ST", "postcode": "63379"}}},
{"geometry": {"type": "Point", "coordinates": [-90.9793527892, 38.9801021513]}, "type": "Feature", "properties": {"collection_times": [{"days": "Mon-Fri", "time": "5:00pm"}, {"days": "Sat", "time": "2:15pm"}, {"days": "Sun", "time": "Closed"}], "id": "6337900004", "name": "USPS COLLECTION BOX - BLUE BOX", "address": {"city": "TROY", "state": "MO", "street": "350 E CHERRY ST", "postcode": "63379"}}},
{"geometry": {"type": "Point", "coordinates": [-90.9793527892, 38.9801021513]}, "type": "Feature", "properties": {"collection_times": [{"days": "Mon-Fri", "time": "5:00pm"}, {"days": "Sat", "time": "2:15pm"}, {"days": "Sun", "time": "Closed"}], "id": "6337900005", "name": "USPS COLLECTION BOX - BLUE BOX", "address": {"city": "TROY", "state": "MO", "street": "350 E CHERRY ST", "postcode": "63379"}}},
{"geometry": {"type": "Point", "coordinates": [-90.9743614072, 38.9886802919]}, "type": "Feature", "properties": {"collection_times": [{"days": "Mon-Sat", "time": "2:00pm"}, {"days": "Sun", "time": "Closed"}], "id": "6337900007", "name": "USPS COLLECTION BOX - BLUE BOX", "address": {"city": "TROY", "state": "MO", "street": "15 TROY SQ", "postcode": "63379"}}},
{"geometry": {"type": "Point", "coordinates": [-90.9645571854, 38.9865712392]}, "type": "Feature", "properties": {"collection_times": [{"days": "Mon-Sat", "time": "2:00pm"}, {"days": "Sun", "time": "Closed"}], "id": "6337900008", "name": "USPS COLLECTION BOX - BLUE BOX", "address": {"city": "TROY", "state": "MO", "street": "101 HIGHWAY 47 E", "postcode": "63379"}}},
{"geometry": {"type": "Point", "coordinates": [-90.9701271443, 38.9861482257]}, "type": "Feature", "properties": {"collection_times": [{"days": "Mon-Sat", "time": "2:00pm"}, {"days": "Sun", "time": "Closed"}], "id": "6337900009", "name": "USPS COLLECTION BOX - BLUE BOX", "address": {"city": "TROY", "state": "MO", "street": "7 LINCOLN CTR", "postcode": "63379"}}},
{"geometry": {"type": "Point", "coordinates": [-90.9730707115, 38.9869676086]}, "type": "Feature", "properties": {"collection_times": [{"days": "Mon-Sat", "time": "2:00pm"}, {"days": "Sun", "time": "Closed"}], "id": "6337900012", "name": "USPS COLLECTION BOX - BLUE BOX", "address": {"city": "TROY", "state": "MO", "street": "25 THE PLZ", "postcode": "63379"}}},
{"geometry": {"type": "Point", "coordinates": [-91.2416641375, 39.0032708607]}, "type": "Feature", "properties": {"collection_times": [{"days": "Mon-Fri", "time": "11:45am"}, {"days": "Sat", "time": "9:45am"}, {"days": "Sun", "time": "Closed"}], "id": "6338100001", "name": "USPS COLLECTION BOX - BLUE BOX", "address": {"city": "TRUXTON", "state": "MO", "street": "199 MAIN ST", "postcode": "63381"}}},
{"geometry": {"type": "Point", "coordinates": [-91.2416641375, 39.0032708607]}, "type": "Feature", "properties": {"collection_times": [{"days": "Mon-Fri", "time": "11:45am"}, {"days": "Sat", "time": "9:45am"}, {"days": "Sun", "time": "Closed"}], "id": "6338100002", "name": "USPS COLLECTION BOX - PO LOBBY", "address": {"city": "TRUXTON", "state": "MO", "street": "199 MAIN ST", "postcode": "63381"}}},
{"geometry": {"type": "Point", "coordinates": [-91.4854602101, 39.3066073204]}, "type": "Feature", "properties": {"collection_times": [{"days": "Mon-Fri", "time": "3:45pm"}, {"days": "Sat", "time": "1:00pm"}, {"days": "Sun", "time": "Closed"}], "id": "6338200001", "name": "USPS COLLECTION BOX - BLUE BOX", "address": {"city": "VANDALIA", "state": "MO", "street": "401 S MAIN ST", "postcode": "63382"}}},
{"geometry": {"type": "Point", "coordinates": [-91.4869656121, 39.3090065135]}, "type": "Feature", "properties": {"collection_times": [{"days": "Mon-Sat", "time": "9:00am"}, {"days": "Sun", "time": "Closed"}], "id": "6338200002", "name": "USPS COLLECTION BOX - BLUE BOX", "address": {"city": "VANDALIA", "state": "MO", "street": "112 N MAIN ST", "postcode": "63382"}}},
{"geometry": {"type": "Point", "coordinates": [-91.4868970502, 39.3008783923]}, "type": "Feature", "properties": {"collection_times": [{"days": "Mon-Sat", "time": "12:00pm"}, {"days": "Sun", "time": "Closed"}], "id": "6338200003", "name": "USPS COLLECTION BOX - BLUE BOX", "address": {"city": "VANDALIA", "state": "MO", "street": "1001 S MAPLE ST", "postcode": "63382"}}},
{"geometry": {"type": "Point", "coordinates": [-91.4854602101, 39.3066073204]}, "type": "Feature", "properties": {"collection_times": [{"days": "Mon-Fri", "time": "3:45pm"}, {"days": "Sat", "time": "1:00pm"}, {"days": "Sun", "time": "Closed"}], "id": "6338200006", "name": "USPS COLLECTION BOX - BLUE BOX", "address": {"city": "VANDALIA", "state": "MO", "street": "401 S MAIN ST", "postcode": "63382"}}},
{"geometry": {"type": "Point", "coordinates": [-91.4828648942, 39.3057182941]}, "type": "Feature", "properties": {"collection_times": [{"days": "Mon-Sat", "time": "9:00am"}, {"days": "Sun", "time": "Closed"}], "id": "6338200011", "name": "USPS COLLECTION BOX - BLUE BOX", "address": {"city": "VANDALIA", "state": "MO", "street": "301 E WALSH BLVD", "postcode": "63382"}}},
{"geometry": {"type": "Point", "coordinates": [-91.4854602101, 39.3066073204]}, "type": "Feature", "properties": {"collection_times": [{"days": "Mon-Fri", "time": "3:45pm"}, {"days": "Sat", "time": "1:00pm"}, {"days": "Sun", "time": "Closed"}], "id": "6338200019", "name": "USPS COLLECTION BOX - PO LOBBY", "address": {"city": "VANDALIA", "state": "MO", "street": "401 S MAIN ST", "postcode": "63382"}}},
{"geometry": {"type": "Point", "coordinates": [-91.1386073166, 38.8116075921]}, "type": "Feature", "properties": {"collection_times": [{"days": "Mon-Fri", "time": "5:00pm"}, {"days": "Sat", "time": "4:00pm"}, {"days": "Sun", "time": "Closed"}], "id": "6338300002", "name": "USPS COLLECTION BOX - BLUE BOX", "address": {"city": "WARRENTON", "state": "MO", "street": "501 E BOONESLICK RD", "postcode": "63383"}}},
{"geometry": {"type": "Point", "coordinates": [-91.1386073166, 38.8116075921]}, "type": "Feature", "properties": {"collection_times": [{"days": "Mon-Fri", "time": "5:00pm"}, {"days": "Sat", "time": "4:00pm"}, {"days": "Sun", "time": "Closed"}], "id": "6338300004", "name": "USPS COLLECTION BOX - BLUE BOX", "address": {"city": "WARRENTON", "state": "MO", "street": "501 E BOONESLICK RD", "postcode": "63383"}}},
{"geometry": {"type": "Point", "coordinates": [-91.1383210744, 38.8229362469]}, "type": "Feature", "properties": {"collection_times": [{"days": "Mon-Sat", "time": "11:00am"}, {"days": "Sun", "time": "Closed"}], "id": "6338300005", "name": "USPS COLLECTION BOX - BLUE BOX", "address": {"city": "WARRENTON", "state": "MO", "street": "1022 N HIGHWAY 47", "postcode": "63383"}}},
{"geometry": {"type": "Point", "coordinates": [-91.2229217704, 38.7917407505]}, "type": "Feature", "properties": {"collection_times": [{"days": "Mon-Sat", "time": "10:00am"}, {"days": "Sun", "time": "Closed"}], "id": "6338300014", "name": "USPS COLLECTION BOX - BLUE BOX", "address": {"city": "WARRENTON", "state": "MO", "street": "24004 W VETERANS MEMORIAL PKWY", "postcode": "63383"}}},
{"geometry": {"type": "Point", "coordinates": [-91.1361758712, 38.8059693161]}, "type": "Feature", "properties": {"collection_times": [{"days": "Mon-Sat", "time": "12:00pm"}, {"days": "Sun", "time": "Closed"}], "id": "6338300018", "name": "USPS COLLECTION BOX - BLUE BOX", "address": {"city": "WARRENTON", "state": "MO", "street": "500 WARREN COUNTY SHOPPING CTR", "postcode": "63383"}}},
{"geometry": {"type": "Point", "coordinates": [-91.1386073166, 38.8116075921]}, "type": "Feature", "properties": {"collection_times": [{"days": "Mon-Fri", "time": "5:00pm"}, {"days": "Sat", "time": "4:00pm"}, {"days": "Sun", "time": "Closed"}], "id": "6338300020", "name": "USPS COLLECTION BOX - PO LOBBY", "address": {"city": "WARRENTON", "state": "MO", "street": "501 E BOONESLICK RD", "postcode": "63383"}}},
{"geometry": {"type": "Point", "coordinates": [-91.1386073166, 38.8116075921]}, "type": "Feature", "properties": {"collection_times": [{"days": "Mon-Fri", "time": "5:00pm"}, {"days": "Sat", "time": "4:00pm"}, {"days": "Sun", "time": "Closed"}], "id": "6338300022", "name": "USPS COLLECTION BOX - PO LOBBY", "address": {"city": "WARRENTON", "state": "MO", "street": "501 E BOONESLICK RD", "postcode": "63383"}}},
{"geometry": {"type": "Point", "coordinates": [-91.1556922301, 38.8120461762]}, "type": "Feature", "properties": {"collection_times": [{"days": "Mon-Sat", "time": "11:00am"}, {"days": "Sun", "time": "Closed"}], "id": "6338300023", "name": "USPS COLLECTION BOX - BLUE BOX", "address": {"city": "WARRENTON", "state": "MO", "street": "109 PINCKNEY RD", "postcode": "63383"}}},
{"geometry": {"type": "Point", "coordinates": [-91.1336675763, 38.8224149065]}, "type": "Feature", "properties": {"collection_times": [{"days": "Mon-Sat", "time": "12:00pm"}, {"days": "Sun", "time": "Closed"}], "id": "6338300024", "name": "USPS COLLECTION BOX - BLUE BOX", "address": {"city": "WARRENTON", "state": "MO", "street": "1035 ARMORY RD", "postcode": "63383"}}},
{"geometry": {"type": "Point", "coordinates": [-91.5686336476, 39.0711150685]}, "type": "Feature", "properties": {"collection_times": [{"days": "Mon-Fri", "time": "4:30pm"}, {"days": "Sat", "time": "8:00am"}, {"days": "Sun", "time": "Closed"}], "id": "6338400012", "name": "USPS COLLECTION BOX - BLUE BOX", "address": {"city": "WELLSVILLE", "state": "MO", "street": "115 E HUDSON ST", "postcode": "63384"}}},
{"geometry": {"type": "Point", "coordinates": [-91.5686336476, 39.0711150685]}, "type": "Feature", "properties": {"collection_times": [{"days": "Mon-Fri", "time": "4:15pm"}, {"days": "Sat-Sun", "time": "Closed"}], "id": "6338400013", "name": "USPS COLLECTION BOX - PO LOBBY", "address": {"city": "WELLSVILLE", "state": "MO", "street": "115 E HUDSON ST", "postcode": "63384"}}},
{"geometry": {"type": "Point", "coordinates": [-90.8513794624, 38.8117695609]}, "type": "Feature", "properties": {"collection_times": [{"days": "Mon-Fri", "time": "5:00pm"}, {"days": "Sat", "time": "2:00pm"}, {"days": "Sun", "time": "Closed"}], "id": "6338500001", "name": "USPS COLLECTION BOX - BLUE BOX", "address": {"city": "WENTZVILLE", "state": "MO", "street": "201 E ALLEN ST", "postcode": "63385"}}},
{"geometry": {"type": "Point", "coordinates": [-90.8778542269, 38.8196376308]}, "type": "Feature", "properties": {"collection_times": [{"days": "Mon-Fri", "time": "11:00am"}, {"days": "Sat", "time": "10:30am"}, {"days": "Sun", "time": "Closed"}], "id": "6338500004", "name": "USPS COLLECTION BOX - BLUE BOX", "address": {"city": "WENTZVILLE", "state": "MO", "street": "1820 WENTZVILLE PKWY", "postcode": "63385"}}},
{"geometry": {"type": "Point", "coordinates": [-90.8188110766, 38.801273721]}, "type": "Feature", "properties": {"collection_times": [{"days": "Mon-Fri", "time": "12:00pm"}, {"days": "Sat", "time": "1:00pm"}, {"days": "Sun", "time": "Closed"}], "id": "6338500006", "name": "USPS COLLECTION BOX - BLUE BOX", "address": {"city": "WENTZVILLE", "state": "MO", "street": "1200 CORPORATE PKWY", "postcode": "63385"}}},
{"geometry": {"type": "Point", "coordinates": [-90.8756516549, 38.8142987946]}, "type": "Feature", "properties": {"collection_times": [{"days": "Mon-Sat", "time": "10:30am"}, {"days": "Sun", "time": "Closed"}], "id": "6338500009", "name": "USPS COLLECTION BOX - BLUE BOX", "address": {"city": "WENTZVILLE", "state": "MO", "street": "1976 WENTZVILLE PKWY", "postcode": "63385"}}},
{"geometry": {"type": "Point", "coordinates": [-90.8613562759, 38.8102655021]}, "type": "Feature", "properties": {"collection_times": [{"days": "Mon-Sat", "time": "10:30am"}, {"days": "Sun", "time": "Closed"}], "id": "6338500012", "name": "USPS COLLECTION BOX - BLUE BOX", "address": {"city": "WENTZVILLE", "state": "MO", "street": "608 W PEARCE BLVD", "postcode": "63385"}}},
{"geometry": {"type": "Point", "coordinates": [-90.8769611797, 38.8171259363]}, "type": "Feature", "properties": {"collection_times": [{"days": "Mon-Sat", "time": "10:30am"}, {"days": "Sun", "time": "Closed"}], "id": "6338500014", "name": "USPS COLLECTION BOX - BLUE BOX", "address": {"city": "WENTZVILLE", "state": "MO", "street": "1993 WENTZVILLE PKWY", "postcode": "63385"}}},
{"geometry": {"type": "Point", "coordinates": [-90.8513794624, 38.8117695609]}, "type": "Feature", "properties": {"collection_times": [{"days": "Mon-Fri", "time": "5:00pm"}, {"days": "Sat", "time": "2:00pm"}, {"days": "Sun", "time": "Closed"}], "id": "6338500015", "name": "USPS COLLECTION BOX - BLUE BOX", "address": {"city": "WENTZVILLE", "state": "MO", "street": "201 E ALLEN ST", "postcode": "63385"}}},
{"geometry": {"type": "Point", "coordinates": [-90.8513794624, 38.8117695609]}, "type": "Feature", "properties": {"collection_times": [{"days": "Mon-Fri", "time": "5:00pm"}, {"days": "Sat", "time": "2:00pm"}, {"days": "Sun", "time": "Closed"}], "id": "6338500018", "name": "USPS COLLECTION BOX - PO LOBBY", "address": {"city": "WENTZVILLE", "state": "MO", "street": "201 E ALLEN ST", "postcode": "63385"}}},
{"geometry": {"type": "Point", "coordinates": [-90.8578240666, 38.7973713215]}, "type": "Feature", "properties": {"collection_times": [{"days": "Mon-Sat", "time": "12:00pm"}, {"days": "Sun", "time": "Closed"}], "id": "6338500019", "name": "USPS COLLECTION BOX - BLUE BOX", "address": {"city": "WENTZVILLE", "state": "MO", "street": "30 MUHM CTR", "postcode": "63385"}}},
{"geometry": {"type": "Point", "coordinates": [-90.2237631753, 38.860713224]}, "type": "Feature", "properties": {"collection_times": [{"days": "Mon-Fri", "time": "4:30pm"}, {"days": "Sat", "time": "11:00am"}, {"days": "Sun", "time": "Closed"}], "id": "6338600001", "name": "USPS COLLECTION BOX - BLUE BOX", "address": {"city": "WEST ALTON", "state": "MO", "street": "14000 US HIGHWAY 67", "postcode": "63386"}}},
{"geometry": {"type": "Point", "coordinates": [-90.2237631753, 38.860713224]}, "type": "Feature", "properties": {"collection_times": [{"days": "Mon-Fri", "time": "4:30pm"}, {"days": "Sat", "time": "11:00am"}, {"days": "Sun", "time": "Closed"}], "id": "6338600002", "name": "USPS COLLECTION BOX - PO LOBBY", "address": {"city": "WEST ALTON", "state": "MO", "street": "14000 US HIGHWAY 67", "postcode": "63386"}}},
{"geometry": {"type": "Point", "coordinates": [-91.0179735324, 39.1847242018]}, "type": "Feature", "properties": {"collection_times": [{"days": "Mon-Fri", "time": "3:15pm"}, {"days": "Sat", "time": "10:00am"}, {"days": "Sun", "time": "Closed"}], "id": "6338700001", "name": "USPS COLLECTION BOX - BLUE BOX", "address": {"city": "WHITESIDE", "state": "MO", "street": "120 PRAIRIE ST", "postcode": "63387"}}},
{"geometry": {"type": "Point", "coordinates": [-91.0179735324, 39.1847242018]}, "type": "Feature", "properties": {"collection_times": [{"days": "Mon-Fri", "time": "3:15pm"}, {"days": "Sat", "time": "1:00pm"}, {"days": "Sun", "time": "Closed"}], "id": "6338700002", "name": "USPS COLLECTION BOX - PO LOBBY", "address": {"city": "WHITESIDE", "state": "MO", "street": "120 PRAIRIE ST", "postcode": "63387"}}},
{"geometry": {"type": "Point", "coordinates": [-91.6947998969, 38.9498295374]}, "type": "Feature", "properties": {"collection_times": [{"days": "Mon-Fri", "time": "11:15am"}, {"days": "Sat", "time": "9:15am"}, {"days": "Sun", "time": "Closed"}], "id": "6338800001", "name": "USPS COLLECTION BOX - BLUE BOX", "address": {"city": "WILLIAMSBURG", "state": "MO", "street": "3828 COUNTY ROAD 1005", "postcode": "63388"}}},
{"geometry": {"type": "Point", "coordinates": [-91.6947998969, 38.9498295374]}, "type": "Feature", "properties": {"collection_times": [{"days": "Mon-Fri", "time": "11:15am"}, {"days": "Sat", "time": "9:15am"}, {"days": "Sun", "time": "Closed"}], "id": "6338800002", "name": "USPS COLLECTION BOX - PO LOBBY", "address": {"city": "WILLIAMSBURG", "state": "MO", "street": "3828 COUNTY ROAD 1005", "postcode": "63388"}}},
{"geometry": {"type": "Point", "coordinates": [-91.6947998969, 38.9498295374]}, "type": "Feature", "properties": {"collection_times": [{"days": "Mon-Fri", "time": "11:15am"}, {"days": "Sat", "time": "9:15am"}, {"days": "Sun", "time": "Closed"}], "id": "6338800003", "name": "USPS COLLECTION BOX - PO LOBBY", "address": {"city": "WILLIAMSBURG", "state": "MO", "street": "3828 COUNTY ROAD 1005", "postcode": "63388"}}},
{"geometry": {"type": "Point", "coordinates": [-90.7404639705, 38.9971074884]}, "type": "Feature", "properties": {"collection_times": [{"days": "Mon-Fri", "time": "4:00pm"}, {"days": "Sat", "time": "10:45am"}, {"days": "Sun", "time": "Closed"}], "id": "6338900001", "name": "USPS COLLECTION BOX - BLUE BOX", "address": {"city": "WINFIELD", "state": "MO", "street": "298 W CHERRY ST", "postcode": "63389"}}},
{"geometry": {"type": "Point", "coordinates": [-90.7404639705, 38.9971074884]}, "type": "Feature", "properties": {"collection_times": [{"days": "Mon-Fri", "time": "4:00pm"}, {"days": "Sat", "time": "10:45am"}, {"days": "Sun", "time": "Closed"}], "id": "6338900002", "name": "USPS COLLECTION BOX - PO LOBBY", "address": {"city": "WINFIELD", "state": "MO", "street": "298 W CHERRY ST", "postcode": "63389"}}},
{"geometry": {"type": "Point", "coordinates": [-91.0379838685, 38.8047537204]}, "type": "Feature", "properties": {"collection_times": [{"days": "Mon-Fri", "time": "3:00pm"}, {"days": "Sat", "time": "9:30am"}, {"days": "Sun", "time": "Closed"}], "id": "6339000002", "name": "USPS COLLECTION BOX - BLUE BOX", "address": {"city": "WRIGHT CITY", "state": "MO", "street": "206 W N 2ND ST", "postcode": "63390"}}},
{"geometry": {"type": "Point", "coordinates": [-91.0379838685, 38.8047537204]}, "type": "Feature", "properties": {"collection_times": [{"days": "Mon-Fri", "time": "3:00pm"}, {"days": "Sat", "time": "9:30am"}, {"days": "Sun", "time": "Closed"}], "id": "6339000005", "name": "USPS COLLECTION BOX - PO LOBBY", "address": {"city": "WRIGHT CITY", "state": "MO", "street": "206 W N 2ND ST", "postcode": "63390"}}},
{"geometry": {"type": "Point", "coordinates": [-91.0405659199, 38.8301498938]}, "type": "Feature", "properties": {"collection_times": [{"days": "Mon-Fri", "time": "1:00pm"}, {"days": "Sat", "time": "11:00am"}, {"days": "Sun", "time": "Closed"}], "id": "6339000007", "name": "USPS COLLECTION BOX - BLUE BOX", "address": {"city": "WRIGHT CITY", "state": "MO", "street": "20 WILDCAT DR", "postcode": "63390"}}}
]}
