{"type": "FeatureCollection", "features": [
{"geometry": {"type": "Point", "coordinates": [-91.3625582977, 39.7067612948]}, "type": "Feature", "properties": {"collection_times": [{"days": "Mon-Fri", "time": "4:10pm"}, {"days": "Sat", "time": "4:00pm"}, {"days": "Sun", "time": "Closed"}], "id": "6340100001", "name": "USPS COLLECTION BOX - BLUE BOX", "address": {"city": "HANNIBAL", "state": "MO", "street": "801 BROADWAY", "postcode": "63401"}}},
{"geometry": {"type": "Point", "coordinates": [-91.355844268, 39.709929628]}, "type": "Feature", "properties": {"collection_times": [{"days": "Mon-Fri", "time": "3:00pm"}, {"days": "Sat", "time": "2:00pm"}, {"days": "Sun", "time": "Closed"}], "id": "6340100002", "name": "USPS COLLECTION BOX - BLUE BOX", "address": {"city": "HANNIBAL", "state": "MO", "street": "100 N MAIN ST", "postcode": "63401"}}},
{"geometry": {"type": "Point", "coordinates": [-91.3561034952, 39.7095883491]}, "type": "Feature", "properties": {"collection_times": [{"days": "Mon-Fri", "time": "3:00pm"}, {"days": "Sat", "time": "2:00pm"}, {"days": "Sun", "time": "Closed"}], "id": "6340100012", "name": "USPS COLLECTION BOX - BLUE BOX", "address": {"city": "HANNIBAL", "state": "MO", "street": "228 BROADWAY", "postcode": "63401"}}},
{"geometry": {"type": "Point", "coordinates": [-91.3886996298, 39.7058285555]}, "type": "Feature", "properties": {"collection_times": [{"days": "Mon-Fri", "time": "3:00pm"}, {"days": "Sat", "time": "2:00pm"}, {"days": "Sun", "time": "Closed"}], "id": "6340100013", "name": "USPS COLLECTION BOX - BLUE BOX", "address": {"city": "HANNIBAL", "state": "MO", "street": "2860 JAMES RD", "postcode": "63401"}}},
{"geometry": {"type": "Point", "coordinates": [-91.3865109543, 39.7063330139]}, "type": "Feature", "properties": {"collection_times": [{"days": "Mon-Fri", "time": "3:00pm"}, {"days": "Sat", "time": "2:00pm"}, {"days": "Sun", "time": "Closed"}], "id": "6340100014", "name": "USPS COLLECTION BOX - BLUE BOX", "address": {"city": "HANNIBAL", "state": "MO", "street": "2900 SAINT MARYS AVE", "postcode": "63401"}}},
{"geometry": {"type": "Point", "coordinates": [-91.3893425101, 39.7259726512]}, "type": "Feature", "properties": {"collection_times": [{"days": "Mon-Fri", "time": "3:00pm"}, {"days": "Sat", "time": "2:00pm"}, {"days": "Sun", "time": "Closed"}], "id": "6340100015", "name": "USPS COLLECTION BOX - BLUE BOX", "address": {"city": "HANNIBAL", "state": "MO", "street": "2959 PALMYRA RD", "postcode": "63401"}}},
{"geometry": {"type": "Point", "coordinates": [-91.3884409641, 39.7256799907]}, "type": "Feature", "properties": {"collection_times": [{"days": "Mon-Fri", "time": "3:00pm"}, {"days": "Sat", "time": "2:00pm"}, {"days": "Sun", "time": "Closed"}], "id": "6340100024", "name": "USPS COLLECTION BOX - BLUE BOX", "address": {"city": "HANNIBAL", "state": "MO", "street": "2800 PALMYRA RD", "postcode": "63401"}}},
{"geometry": {"type": "Point", "coordinates": [-91.3625582977, 39.7067612948]}, "type": "Feature", "properties": {"collection_times": [{"days": "Mon-Fri", "time": "4:10pm"}, {"days": "Sat", "time": "4:00pm"}, {"days": "Sun", "time": "Closed"}], "id": "6340100026", "name": "USPS COLLECTION BOX - BLUE BOX", "address": {"city": "HANNIBAL", "state": "MO", "street": "801 BROADWAY", "postcode": "63401"}}},
{"geometry": {"type": "Point", "coordinates": [-91.3625582977, 39.7067612948]}, "type": "Feature", "properties": {"collection_times": [{"days": "Mon-Fri", "time": "4:10pm"}, {"days": "Sat", "time": "4:00pm"}, {"days": "Sun", "time": "Closed"}], "id": "6340100027", "name": "USPS COLLECTION BOX - BLUE BOX", "address": {"city": "HANNIBAL", "state": "MO", "street": "801 BROADWAY", "postcode": "63401"}}},
{"geometry": {"type": "Point", "coordinates": [-91.3625582977, 39.7067612948]}, "type": "Feature", "properties": {"collection_times": [{"days": "Mon-Fri", "time": "4:10pm"}, {"days": "Sat", "time": "4:00pm"}, {"days": "Sun", "time": "Closed"}], "id": "6340100031", "name": "USPS COLLECTION BOX - BLUE BOX", "address": {"city": "HANNIBAL", "state": "MO", "street": "801 BROADWAY", "postcode": "63401"}}},
{"geometry": {"type": "Point", "coordinates": [-91.3625582977, 39.7067612948]}, "type": "Feature", "properties": {"collection_times": [{"days": "Mon-Fri", "time": "4:10pm"}, {"days": "Sat", "time": "4:00pm"}, {"days": "Sun", "time": "Closed"}], "id": "6340100033", "name": "USPS COLLECTION BOX - PO LOBBY", "address": {"city": "HANNIBAL", "state": "MO", "street": "801 BROADWAY", "postcode": "63401"}}},
{"geometry": {"type": "Point", "coordinates": [-91.3625582977, 39.7067612948]}, "type": "Feature", "properties": {"collection_times": [{"days": "Mon-Fri", "time": "4:10pm"}, {"days": "Sat", "time": "4:00pm"}, {"days": "Sun", "time": "Closed"}], "id": "6340100034", "name": "USPS COLLECTION BOX - PO LOBBY", "address": {"city": "HANNIBAL", "state": "MO", "street": "801 BROADWAY", "postcode": "63401"}}},
{"geometry": {"type": "Point", "coordinates": [-91.3574043338, 39.7100770438]}, "type": "Feature", "properties": {"collection_times": [{"days": "Mon-Fri", "time": "3:00pm"}, {"days": "Sat", "time": "2:00pm"}, {"days": "Sun", "time": "Closed"}], "id": "6340100035", "name": "USPS COLLECTION BOX - BLUE BOX", "address": {"city": "HANNIBAL", "state": "MO", "street": "200 N 3RD ST", "postcode": "63401"}}},
{"geometry": {"type": "Point", "coordinates": [-91.3938680808, 39.7227406516]}, "type": "Feature", "properties": {"collection_times": [{"days": "Mon-Fri", "time": "3:00pm"}, {"days": "Sat", "time": "2:00pm"}, {"days": "Sun", "time": "Closed"}], "id": "6340100038", "name": "USPS COLLECTION BOX - BLUE BOX", "address": {"city": "HANNIBAL", "state": "MO", "street": "3650 STARDUST DR", "postcode": "63401"}}},
{"geometry": {"type": "Point", "coordinates": [-91.3932004857, 39.7244693707]}, "type": "Feature", "properties": {"collection_times": [{"days": "Mon-Fri", "time": "3:00pm"}, {"days": "Sat", "time": "2:00pm"}, {"days": "Sun", "time": "Closed"}], "id": "6340100039", "name": "USPS COLLECTION BOX - BLUE BOX", "address": {"city": "HANNIBAL", "state": "MO", "street": "200 HUCK FINN SHOPPING CTR", "postcode": "63401"}}},
{"geometry": {"type": "Point", "coordinates": [-91.4024016576, 39.6854841277]}, "type": "Feature", "properties": {"collection_times": [{"days": "Mon-Sat", "time": "10:00am"}, {"days": "Sun", "time": "Closed"}], "id": "6340100040", "name": "USPS COLLECTION BOX - BLUE BOX", "address": {"city": "HANNIBAL", "state": "MO", "street": "4070 MARKET ST", "postcode": "63401"}}},
{"geometry": {"type": "Point", "coordinates": [-91.4608937417, 40.3594502635]}, "type": "Feature", "properties": {"collection_times": [{"days": "Mon-Fri", "time": "1:10pm"}, {"days": "Sat", "time": "10:30am"}, {"days": "Sun", "time": "Closed"}], "id": "6343000002", "name": "USPS COLLECTION BOX - PO LOBBY", "address": {"city": "ALEXANDRIA", "state": "MO", "street": "303 MARKET ST", "postcode": "63430"}}},
{"geometry": {"type": "Point", "coordinates": [-91.459785, 40.359406]}, "type": "Feature", "properties": {"collection_times": [{"days": "Mon-Fri", "time": "1:10pm"}, {"days": "Sat", "time": "9:00am"}, {"days": "Sun", "time": "Closed"}], "id": "6343000003", "name": "USPS COLLECTION BOX - BLUE BOX", "address": {"city": "ALEXANDRIA", "state": "MO", "street": "303 MARKET ST", "postcode": "63430"}}},
{"geometry": {"type": "Point", "coordinates": [-91.5201438892, 40.1303185019]}, "type": "Feature", "properties": {"collection_times": [{"days": "Mon-Fri", "time": "2:20pm"}, {"days": "Sat", "time": "8:00am"}, {"days": "Sun", "time": "Closed"}], "id": "6343500001", "name": "USPS COLLECTION BOX - PO LOBBY", "address": {"city": "CANTON", "state": "MO", "street": "500 LEWIS ST", "postcode": "63435"}}},
{"geometry": {"type": "Point", "coordinates": [-91.5201438892, 40.1303185019]}, "type": "Feature", "properties": {"collection_times": [{"days": "Mon-Fri", "time": "2:20pm"}, {"days": "Sat", "time": "8:00am"}, {"days": "Sun", "time": "Closed"}], "id": "6343500002", "name": "USPS COLLECTION BOX - BLUE BOX", "address": {"city": "CANTON", "state": "MO", "street": "500 LEWIS ST", "postcode": "63435"}}},
{"geometry": {"type": "Point", "coordinates": [-91.529200851, 39.5091838168]}, "type": "Feature", "properties": {"collection_times": [{"days": "Mon-Fri", "time": "1:45pm"}, {"days": "Sat", "time": "9:00am"}, {"days": "Sun", "time": "Closed"}], "id": "6343600001", "name": "USPS COLLECTION BOX - BLUE BOX", "address": {"city": "CENTER", "state": "MO", "street": "112 N PUBLIC ST", "postcode": "63436"}}},
{"geometry": {"type": "Point", "coordinates": [-91.529200851, 39.5091838168]}, "type": "Feature", "properties": {"collection_times": [{"days": "Mon-Fri", "time": "1:45pm"}, {"days": "Sat", "time": "9:00am"}, {"days": "Sun", "time": "Closed"}], "id": "6343600002", "name": "USPS COLLECTION BOX - PO LOBBY", "address": {"city": "CENTER", "state": "MO", "street": "112 N PUBLIC ST", "postcode": "63436"}}},
{"geometry": {"type": "Point", "coordinates": [-92.2626214442, 39.7425407108]}, "type": "Feature", "properties": {"collection_times": [{"days": "Mon-Fri", "time": "1:20pm"}, {"days": "Sat", "time": "9:45am"}, {"days": "Sun", "time": "Closed"}], "id": "6343700003", "name": "USPS COLLECTION BOX - PO LOBBY", "address": {"city": "CLARENCE", "state": "MO", "street": "101 N GRAND ST", "postcode": "63437"}}},
{"geometry": {"type": "Point", "coordinates": [-91.8622618396, 39.7965231607]}, "type": "Feature", "properties": {"collection_times": [{"days": "Mon-Sat", "time": "12:30pm"}, {"days": "Sun", "time": "Closed"}], "id": "6343900001", "name": "USPS COLLECTION BOX - BLUE BOX", "address": {"city": "EMDEN", "state": "MO", "street": "9191 HIGHWAY 168", "postcode": "63439"}}},
{"geometry": {"type": "Point", "coordinates": [-91.8622618396, 39.7965231607]}, "type": "Feature", "properties": {"collection_times": [{"days": "Mon-Sat", "time": "12:30pm"}, {"days": "Sun", "time": "Closed"}], "id": "6343900002", "name": "USPS COLLECTION BOX - PO LOBBY", "address": {"city": "EMDEN", "state": "MO", "street": "9191 HIGHWAY 168", "postcode": "63439"}}},
{"geometry": {"type": "Point", "coordinates": [-91.8622618396, 39.7965231607]}, "type": "Feature", "properties": {"collection_times": [{"days": "Mon-Sat", "time": "12:30pm"}, {"days": "Sun", "time": "Closed"}], "id": "6343900003", "name": "USPS COLLECTION BOX - PO LOBBY", "address": {"city": "EMDEN", "state": "MO", "street": "9191 HIGHWAY 168", "postcode": "63439"}}},
{"geometry": {"type": "Point", "coordinates": [-91.7239587635, 39.9982585961]}, "type": "Feature", "properties": {"collection_times": [{"days": "Mon-Fri", "time": "2:20pm"}, {"days": "Sat", "time": "8:45am"}, {"days": "Sun", "time": "Closed"}], "id": "6344000001", "name": "USPS COLLECTION BOX - BLUE BOX", "address": {"city": "EWING", "state": "MO", "street": "106 S GILEAD ST", "postcode": "63440"}}},
{"geometry": {"type": "Point", "coordinates": [-91.7239587635, 39.9982585961]}, "type": "Feature", "properties": {"collection_times": [{"days": "Mon-Fri", "time": "2:20pm"}, {"days": "Sat", "time": "8:45am"}, {"days": "Sun", "time": "Closed"}], "id": "6344000002", "name": "USPS COLLECTION BOX - PO LOBBY", "address": {"city": "EWING", "state": "MO", "street": "106 S GILEAD ST", "postcode": "63440"}}},
{"geometry": {"type": "Point", "coordinates": [-91.3190547153, 39.4929119769]}, "type": "Feature", "properties": {"collection_times": [{"days": "Mon-Fri", "time": "10:45am"}, {"days": "Sat", "time": "8:30am"}, {"days": "Sun", "time": "Closed"}], "id": "6344100001", "name": "USPS COLLECTION BOX - BLUE BOX", "address": {"city": "FRANKFORD", "state": "MO", "street": "201 MAIN ST", "postcode": "63441"}}},
{"geometry": {"type": "Point", "coordinates": [-91.3190547153, 39.4929119769]}, "type": "Feature", "properties": {"collection_times": [{"days": "Mon-Fri", "time": "10:45am"}, {"days": "Sat", "time": "8:30am"}, {"days": "Sun", "time": "Closed"}], "id": "6344100003", "name": "USPS COLLECTION BOX - PO LOBBY", "address": {"city": "FRANKFORD", "state": "MO", "street": "201 MAIN ST", "postcode": "63441"}}},
{"geometry": {"type": "Point", "coordinates": [-91.86012551, 39.6669907026]}, "type": "Feature", "properties": {"collection_times": [{"days": "Mon-Fri", "time": "12:45pm"}, {"days": "Sat", "time": "10:45am"}, {"days": "Sun", "time": "Closed"}], "id": "6344300001", "name": "USPS COLLECTION BOX - BLUE BOX", "address": {"city": "HUNNEWELL", "state": "MO", "street": "106 E MAPLE ST", "postcode": "63443"}}},
{"geometry": {"type": "Point", "coordinates": [-91.86012551, 39.6669907026]}, "type": "Feature", "properties": {"collection_times": [{"days": "Mon-Fri", "time": "12:45pm"}, {"days": "Sat", "time": "10:45am"}, {"days": "Sun", "time": "Closed"}], "id": "6344300002", "name": "USPS COLLECTION BOX - PO LOBBY", "address": {"city": "HUNNEWELL", "state": "MO", "street": "106 E MAPLE ST", "postcode": "63443"}}},
{"geometry": {"type": "Point", "coordinates": [-91.7202118092, 40.4214185202]}, "type": "Feature", "properties": {"collection_times": [{"days": "Mon-Fri", "time": "1:40pm"}, {"days": "Sat", "time": "11:00am"}, {"days": "Sun", "time": "Closed"}], "id": "6344500001", "name": "USPS COLLECTION BOX - BLUE BOX", "address": {"city": "KAHOKA", "state": "MO", "street": "111 W COMMERCIAL ST", "postcode": "63445"}}},
{"geometry": {"type": "Point", "coordinates": [-91.7202118092, 40.4214185202]}, "type": "Feature", "properties": {"collection_times": [{"days": "Mon-Fri", "time": "1:40pm"}, {"days": "Sat", "time": "11:00am"}, {"days": "Sun", "time": "Closed"}], "id": "6344500002", "name": "USPS COLLECTION BOX - PO LOBBY", "address": {"city": "KAHOKA", "state": "MO", "street": "111 W COMMERCIAL ST", "postcode": "63445"}}},
{"geometry": {"type": "Point", "coordinates": [-92.0112680038, 40.1440995481]}, "type": "Feature", "properties": {"collection_times": [{"days": "Mon-Fri", "time": "11:30am"}, {"days": "Sat", "time": "8:45am"}, {"days": "Sun", "time": "Closed"}], "id": "6344600001", "name": "USPS COLLECTION BOX - BLUE BOX", "address": {"city": "KNOX CITY", "state": "MO", "street": "103 W MAIN ST", "postcode": "63446"}}},
{"geometry": {"type": "Point", "coordinates": [-92.0112680038, 40.1440995481]}, "type": "Feature", "properties": {"collection_times": [{"days": "Mon-Fri", "time": "11:30am"}, {"days": "Sat", "time": "8:45am"}, {"days": "Sun", "time": "Closed"}], "id": "6344600002", "name": "USPS COLLECTION BOX - PO LOBBY", "address": {"city": "KNOX CITY", "state": "MO", "street": "103 W MAIN ST", "postcode": "63446"}}},
{"geometry": {"type": "Point", "coordinates": [-91.9115462825, 40.1142510185]}, "type": "Feature", "properties": {"collection_times": [{"days": "Mon-Fri", "time": "11:45am"}, {"days": "Sat", "time": "8:30am"}, {"days": "Sun", "time": "Closed"}], "id": "6344700001", "name": "USPS COLLECTION BOX - BLUE BOX", "address": {"city": "LA BELLE", "state": "MO", "street": "109 N 3RD ST", "postcode": "63447"}}},
{"geometry": {"type": "Point", "coordinates": [-91.9115462825, 40.1142510185]}, "type": "Feature", "properties": {"collection_times": [{"days": "Mon-Fri", "time": "11:45am"}, {"days": "Sat", "time": "9:00am"}, {"days": "Sun", "time": "Closed"}], "id": "6344700002", "name": "USPS COLLECTION BOX - PO LOBBY", "address": {"city": "LA BELLE", "state": "MO", "street": "109 N 3RD ST", "postcode": "63447"}}},
{"geometry": {"type": "Point", "coordinates": [-91.530096928, 40.0344324747]}, "type": "Feature", "properties": {"collection_times": [{"days": "Mon-Fri", "time": "2:35pm"}, {"days": "Sat", "time": "8:45am"}, {"days": "Sun", "time": "Closed"}], "id": "6344800001", "name": "USPS COLLECTION BOX - BLUE BOX", "address": {"city": "LA GRANGE", "state": "MO", "street": "202 N MAIN ST", "postcode": "63448"}}},
{"geometry": {"type": "Point", "coordinates": [-91.530096928, 40.0344324747]}, "type": "Feature", "properties": {"collection_times": [{"days": "Mon-Fri", "time": "2:35pm"}, {"days": "Sat", "time": "9:00am"}, {"days": "Sun", "time": "Closed"}], "id": "6344800004", "name": "USPS COLLECTION BOX - PO LOBBY", "address": {"city": "LA GRANGE", "state": "MO", "street": "202 N MAIN ST", "postcode": "63448"}}},
{"geometry": {"type": "Point", "coordinates": [-92.1783307625, 39.8970128253]}, "type": "Feature", "properties": {"collection_times": [{"days": "Mon-Fri", "time": "11:15am"}, {"days": "Sat", "time": "9:00am"}, {"days": "Sun", "time": "Closed"}], "id": "6345100001", "name": "USPS COLLECTION BOX - BLUE BOX", "address": {"city": "LEONARD", "state": "MO", "street": "142 E HIGHWAY 151", "postcode": "63451"}}},
{"geometry": {"type": "Point", "coordinates": [-92.1783307625, 39.8970128253]}, "type": "Feature", "properties": {"collection_times": [{"days": "Mon-Fri", "time": "11:15am"}, {"days": "Sat", "time": "9:00am"}, {"days": "Sun", "time": "Closed"}], "id": "6345100002", "name": "USPS COLLECTION BOX - PO LOBBY", "address": {"city": "LEONARD", "state": "MO", "street": "142 E HIGHWAY 151", "postcode": "63451"}}},
{"geometry": {"type": "Point", "coordinates": [-91.8140634971, 40.0859889651]}, "type": "Feature", "properties": {"collection_times": [{"days": "Mon-Fri", "time": "2:05pm"}, {"days": "Sat", "time": "9:00am"}, {"days": "Sun", "time": "Closed"}], "id": "6345200002", "name": "USPS COLLECTION BOX - BLUE BOX", "address": {"city": "LEWISTOWN", "state": "MO", "street": "118 W MAIN ST", "postcode": "63452"}}},
{"geometry": {"type": "Point", "coordinates": [-91.8140634971, 40.0859889651]}, "type": "Feature", "properties": {"collection_times": [{"days": "Mon-Fri", "time": "2:05pm"}, {"days": "Sat", "time": "9:00am"}, {"days": "Sun", "time": "Closed"}], "id": "6345200003", "name": "USPS COLLECTION BOX - PO LOBBY", "address": {"city": "LEWISTOWN", "state": "MO", "street": "118 W MAIN ST", "postcode": "63452"}}},
{"geometry": {"type": "Point", "coordinates": [-91.5998457299, 39.9541566942]}, "type": "Feature", "properties": {"collection_times": [{"days": "Mon-Fri", "time": "2:40pm"}, {"days": "Sat", "time": "8:30am"}, {"days": "Sun", "time": "Closed"}], "id": "6345400001", "name": "USPS COLLECTION BOX - BLUE BOX", "address": {"city": "MAYWOOD", "state": "MO", "street": "28925 STATE HIGHWAY V", "postcode": "63454"}}},
{"geometry": {"type": "Point", "coordinates": [-91.5998457299, 39.9541566942]}, "type": "Feature", "properties": {"collection_times": [{"days": "Mon-Fri", "time": "2:40pm"}, {"days": "Sat", "time": "10:45am"}, {"days": "Sun", "time": "Closed"}], "id": "6345400002", "name": "USPS COLLECTION BOX - PO LOBBY", "address": {"city": "MAYWOOD", "state": "MO", "street": "28925 STATE HIGHWAY V", "postcode": "63454"}}},
{"geometry": {"type": "Point", "coordinates": [-91.734520053, 39.6554314746]}, "type": "Feature", "properties": {"collection_times": [{"days": "Mon-Fri", "time": "2:30pm"}, {"days": "Sat", "time": "10:45am"}, {"days": "Sun", "time": "Closed"}], "id": "6345600001", "name": "USPS COLLECTION BOX - BLUE BOX", "address": {"city": "MONROE CITY", "state": "MO", "street": "416 N MAIN ST", "postcode": "63456"}}},
{"geometry": {"type": "Point", "coordinates": [-91.7345811329, 39.6505699965]}, "type": "Feature", "properties": {"collection_times": [{"days": "Mon-Fri", "time": "11:00am"}, {"days": "Sat", "time": "10:45am"}, {"days": "Sun", "time": "Closed"}], "id": "6345600003", "name": "USPS COLLECTION BOX - BLUE BOX", "address": {"city": "MONROE CITY", "state": "MO", "street": "314 S MAIN ST", "postcode": "63456"}}},
{"geometry": {"type": "Point", "coordinates": [-91.734520053, 39.6554314746]}, "type": "Feature", "properties": {"collection_times": [{"days": "Mon-Fri", "time": "2:30pm"}, {"days": "Sat", "time": "10:45am"}, {"days": "Sun", "time": "Closed"}], "id": "6345600006", "name": "USPS COLLECTION BOX - PO LOBBY", "address": {"city": "MONROE CITY", "state": "MO", "street": "416 N MAIN ST", "postcode": "63456"}}},
{"geometry": {"type": "Point", "coordinates": [-91.7121455832, 40.1186452353]}, "type": "Feature", "properties": {"collection_times": [{"days": "Mon-Fri", "time": "1:10pm"}, {"days": "Sat", "time": "9:45am"}, {"days": "Sun", "time": "Closed"}], "id": "6345700002", "name": "USPS COLLECTION BOX - PO LOBBY", "address": {"city": "MONTICELLO", "state": "MO", "street": "101 E LAFAYETTE ST", "postcode": "63457"}}},
{"geometry": {"type": "Point", "coordinates": [-91.7121455832, 40.1186452353]}, "type": "Feature", "properties": {"collection_times": [{"days": "Mon-Fri", "time": "1:10pm"}, {"days": "Sat", "time": "9:00am"}, {"days": "Sun", "time": "Closed"}], "id": "6345700004", "name": "USPS COLLECTION BOX - BLUE BOX", "address": {"city": "MONTICELLO", "state": "MO", "street": "101 E LAFAYETTE ST", "postcode": "63457"}}},
{"geometry": {"type": "Point", "coordinates": [-91.9727647952, 39.9927385944]}, "type": "Feature", "properties": {"collection_times": [{"days": "Mon-Fri", "time": "12:45pm"}, {"days": "Sat", "time": "10:00am"}, {"days": "Sun", "time": "Closed"}], "id": "6345800001", "name": "USPS COLLECTION BOX - BLUE BOX", "address": {"city": "NEWARK", "state": "MO", "street": "106 S MAIN ST", "postcode": "63458"}}},
{"geometry": {"type": "Point", "coordinates": [-91.9727647952, 39.9927385944]}, "type": "Feature", "properties": {"collection_times": [{"days": "Mon-Fri", "time": "12:45pm"}, {"days": "Sat", "time": "10:15am"}, {"days": "Sun", "time": "Closed"}], "id": "6345800002", "name": "USPS COLLECTION BOX - PO LOBBY", "address": {"city": "NEWARK", "state": "MO", "street": "106 S MAIN ST", "postcode": "63458"}}},
{"geometry": {"type": "Point", "coordinates": [-91.9727647952, 39.9927385944]}, "type": "Feature", "properties": {"collection_times": [{"days": "Mon-Fri", "time": "12:45pm"}, {"days": "Sat", "time": "10:00am"}, {"days": "Sun", "time": "Closed"}], "id": "6345800003", "name": "USPS COLLECTION BOX - PO LOBBY", "address": {"city": "NEWARK", "state": "MO", "street": "106 S MAIN ST", "postcode": "63458"}}},
{"geometry": {"type": "Point", "coordinates": [-91.4013099203, 39.5863777119]}, "type": "Feature", "properties": {"collection_times": [{"days": "Mon-Fri", "time": "3:30pm"}, {"days": "Sat", "time": "9:00am"}, {"days": "Sun", "time": "Closed"}], "id": "6345900001", "name": "USPS COLLECTION BOX - BLUE BOX", "address": {"city": "NEW LONDON", "state": "MO", "street": "312 S MAIN ST", "postcode": "63459"}}},
{"geometry": {"type": "Point", "coordinates": [-91.4013099203, 39.5863777119]}, "type": "Feature", "properties": {"collection_times": [{"days": "Mon-Fri", "time": "3:30pm"}, {"days": "Sat", "time": "9:00am"}, {"days": "Sun", "time": "Closed"}], "id": "6345900002", "name": "USPS COLLECTION BOX - PO LOBBY", "address": {"city": "NEW LONDON", "state": "MO", "street": "312 S MAIN ST", "postcode": "63459"}}},
{"geometry": {"type": "Point", "coordinates": [-92.2070662829, 40.0135260769]}, "type": "Feature", "properties": {"collection_times": [{"days": "Mon-Fri", "time": "11:45am"}, {"days": "Sat", "time": "8:00am"}, {"days": "Sun", "time": "Closed"}], "id": "6346000001", "name": "USPS COLLECTION BOX - BLUE BOX", "address": {"city": "NOVELTY", "state": "MO", "street": "220 MAIN ST", "postcode": "63460"}}},
{"geometry": {"type": "Point", "coordinates": [-92.2070662829, 40.0135260769]}, "type": "Feature", "properties": {"collection_times": [{"days": "Mon-Fri", "time": "11:45am"}, {"days": "Sat", "time": "9:00am"}, {"days": "Sun", "time": "Closed"}], "id": "6346000002", "name": "USPS COLLECTION BOX - PO LOBBY", "address": {"city": "NOVELTY", "state": "MO", "street": "220 MAIN ST", "postcode": "63460"}}},
{"geometry": {"type": "Point", "coordinates": [-91.5231352301, 39.7976334773]}, "type": "Feature", "properties": {"collection_times": [{"days": "Mon-Fri", "time": "3:10pm"}, {"days": "Sat", "time": "9:15am"}, {"days": "Sun", "time": "Closed"}], "id": "6346100001", "name": "USPS COLLECTION BOX - BLUE BOX", "address": {"city": "PALMYRA", "state": "MO", "street": "323 S MAIN ST", "postcode": "63461"}}},
{"geometry": {"type": "Point", "coordinates": [-91.5231352301, 39.7976334773]}, "type": "Feature", "properties": {"collection_times": [{"days": "Mon-Fri", "time": "3:10pm"}, {"days": "Sat", "time": "9:15am"}, {"days": "Sun", "time": "Closed"}], "id": "6346100002", "name": "USPS COLLECTION BOX - BLUE BOX", "address": {"city": "PALMYRA", "state": "MO", "street": "323 S MAIN ST", "postcode": "63461"}}},
{"geometry": {"type": "Point", "coordinates": [-91.5231352301, 39.7976334773]}, "type": "Feature", "properties": {"collection_times": [{"days": "Mon-Fri", "time": "3:10pm"}, {"days": "Sat", "time": "9:15am"}, {"days": "Sun", "time": "Closed"}], "id": "6346100006", "name": "USPS COLLECTION BOX - PO LOBBY", "address": {"city": "PALMYRA", "state": "MO", "street": "323 S MAIN ST", "postcode": "63461"}}},
{"geometry": {"type": "Point", "coordinates": [-91.5231352301, 39.7976334773]}, "type": "Feature", "properties": {"collection_times": [{"days": "Mon-Fri", "time": "3:10pm"}, {"days": "Sat", "time": "9:15am"}, {"days": "Sun", "time": "Closed"}], "id": "6346100008", "name": "USPS COLLECTION BOX - PO LOBBY", "address": {"city": "PALMYRA", "state": "MO", "street": "323 S MAIN ST", "postcode": "63461"}}},
{"geometry": {"type": "Point", "coordinates": [-91.674818351, 39.4311921036]}, "type": "Feature", "properties": {"collection_times": [{"days": "Mon-Fri", "time": "2:20pm"}, {"days": "Sat", "time": "9:00am"}, {"days": "Sun", "time": "Closed"}], "id": "6346200001", "name": "USPS COLLECTION BOX - BLUE BOX", "address": {"city": "PERRY", "state": "MO", "street": "108 E MAIN ST", "postcode": "63462"}}},
{"geometry": {"type": "Point", "coordinates": [-91.674818351, 39.4311921036]}, "type": "Feature", "properties": {"collection_times": [{"days": "Mon-Fri", "time": "2:20pm"}, {"days": "Sat", "time": "9:00am"}, {"days": "Sun", "time": "Closed"}], "id": "6346200003", "name": "USPS COLLECTION BOX - PO LOBBY", "address": {"city": "PERRY", "state": "MO", "street": "108 E MAIN ST", "postcode": "63462"}}},
{"geometry": {"type": "Point", "coordinates": [-91.7643033747, 39.8656183696]}, "type": "Feature", "properties": {"collection_times": [{"days": "Mon-Fri", "time": "10:45am"}, {"days": "Sat", "time": "8:30am"}, {"days": "Sun", "time": "Closed"}], "id": "6346300001", "name": "USPS COLLECTION BOX - BLUE BOX", "address": {"city": "PHILADELPHIA", "state": "MO", "street": "2990 COUNTY ROAD 13", "postcode": "63463"}}},
{"geometry": {"type": "Point", "coordinates": [-91.7643033747, 39.8656183696]}, "type": "Feature", "properties": {"collection_times": [{"days": "Mon-Fri", "time": "10:45am"}, {"days": "Sat", "time": "8:30am"}, {"days": "Sun", "time": "Closed"}], "id": "6346300002", "name": "USPS COLLECTION BOX - PO LOBBY", "address": {"city": "PHILADELPHIA", "state": "MO", "street": "2990 COUNTY ROAD 13", "postcode": "63463"}}},
{"geometry": {"type": "Point", "coordinates": [-91.6794022653, 40.499001247]}, "type": "Feature", "properties": {"collection_times": [{"days": "Mon-Fri", "time": "12:50pm"}, {"days": "Sat", "time": "11:00am"}, {"days": "Sun", "time": "Closed"}], "id": "6346500001", "name": "USPS COLLECTION BOX - BLUE BOX", "address": {"city": "REVERE", "state": "MO", "street": "201 MAIN ST", "postcode": "63465"}}},
{"geometry": {"type": "Point", "coordinates": [-91.6794022653, 40.499001247]}, "type": "Feature", "properties": {"collection_times": [{"days": "Mon-Fri", "time": "12:50pm"}, {"days": "Sat", "time": "11:00am"}, {"days": "Sun", "time": "Closed"}], "id": "6346500002", "name": "USPS COLLECTION BOX - PO LOBBY", "address": {"city": "REVERE", "state": "MO", "street": "201 MAIN ST", "postcode": "63465"}}},
{"geometry": {"type": "Point", "coordinates": [-91.6280223412, 40.2619949468]}, "type": "Feature", "properties": {"collection_times": [{"days": "Mon-Sat", "time": "9:00am"}, {"days": "Sun", "time": "Closed"}], "id": "6346600001", "name": "USPS COLLECTION BOX - BLUE BOX", "address": {"city": "SAINT PATRICK", "state": "MO", "street": "2 ERIN CIR", "postcode": "63466"}}},
{"geometry": {"type": "Point", "coordinates": [-91.6280223412, 40.2619949468]}, "type": "Feature", "properties": {"collection_times": [{"days": "Mon-Fri", "time": "11:45am"}, {"days": "Sat", "time": "12:45pm"}, {"days": "Sun", "time": "Closed"}], "id": "6346600002", "name": "USPS COLLECTION BOX - PO LOBBY", "address": {"city": "SAINT PATRICK", "state": "MO", "street": "2 ERIN CIR", "postcode": "63466"}}},
{"geometry": {"type": "Point", "coordinates": [-91.2653407278, 39.6411286545]}, "type": "Feature", "properties": {"collection_times": [{"days": "Mon-Sat", "time": "9:00am"}, {"days": "Sun", "time": "Closed"}], "id": "6346700001", "name": "USPS COLLECTION BOX - BLUE BOX", "address": {"city": "SAVERTON", "state": "MO", "street": "12600 SAVERTON DR", "postcode": "63467"}}},
{"geometry": {"type": "Point", "coordinates": [-91.2653407278, 39.6411286545]}, "type": "Feature", "properties": {"collection_times": [{"days": "Mon-Sat", "time": "9:00am"}, {"days": "Sun", "time": "Closed"}], "id": "6346700002", "name": "USPS COLLECTION BOX - PO LOBBY", "address": {"city": "SAVERTON", "state": "MO", "street": "12600 SAVERTON DR", "postcode": "63467"}}},
{"geometry": {"type": "Point", "coordinates": [-92.0403585414, 39.6929332796]}, "type": "Feature", "properties": {"collection_times": [{"days": "Mon-Fri", "time": "1:50pm"}, {"days": "Sat", "time": "10:00am"}, {"days": "Sun", "time": "Closed"}], "id": "6346800001", "name": "USPS COLLECTION BOX - BLUE BOX", "address": {"city": "SHELBINA", "state": "MO", "street": "107 E CHESTNUT ST", "postcode": "63468"}}},
{"geometry": {"type": "Point", "coordinates": [-92.0403585414, 39.6929332796]}, "type": "Feature", "properties": {"collection_times": [{"days": "Mon-Fri", "time": "1:50pm"}, {"days": "Sat", "time": "10:00am"}, {"days": "Sun", "time": "Closed"}], "id": "6346800002", "name": "USPS COLLECTION BOX - PO LOBBY", "address": {"city": "SHELBINA", "state": "MO", "street": "107 E CHESTNUT ST", "postcode": "63468"}}},
{"geometry": {"type": "Point", "coordinates": [-92.0457491457, 39.8225439364]}, "type": "Feature", "properties": {"collection_times": [{"days": "Mon-Fri", "time": "2:00pm"}, {"days": "Sat", "time": "9:15am"}, {"days": "Sun", "time": "Closed"}], "id": "6346900001", "name": "USPS COLLECTION BOX - BLUE BOX", "address": {"city": "SHELBYVILLE", "state": "MO", "street": "108 E 3RD ST", "postcode": "63469"}}},
{"geometry": {"type": "Point", "coordinates": [-92.0457491457, 39.8225439364]}, "type": "Feature", "properties": {"collection_times": [{"days": "Mon-Fri", "time": "2:00pm"}, {"days": "Sat", "time": "9:15am"}, {"days": "Sun", "time": "Closed"}], "id": "6346900002", "name": "USPS COLLECTION BOX - PO LOBBY", "address": {"city": "SHELBYVILLE", "state": "MO", "street": "108 E 3RD ST", "postcode": "63469"}}},
{"geometry": {"type": "Point", "coordinates": [-91.525456052, 39.9420083684]}, "type": "Feature", "properties": {"collection_times": [{"days": "Mon-Fri", "time": "2:15pm"}, {"days": "Sat", "time": "8:45am"}, {"days": "Sun", "time": "Closed"}], "id": "6347100001", "name": "USPS COLLECTION BOX - BLUE BOX", "address": {"city": "TAYLOR", "state": "MO", "street": "250 COUNTY ROAD 313", "postcode": "63471"}}},
{"geometry": {"type": "Point", "coordinates": [-91.525456052, 39.9420083684]}, "type": "Feature", "properties": {"collection_times": [{"days": "Mon-Fri", "time": "11:15am"}, {"days": "Sat", "time": "8:45am"}, {"days": "Sun", "time": "Closed"}], "id": "6347100002", "name": "USPS COLLECTION BOX - PO LOBBY", "address": {"city": "TAYLOR", "state": "MO", "street": "250 COUNTY ROAD 313", "postcode": "63471"}}},
{"geometry": {"type": "Point", "coordinates": [-91.5817479163, 40.3946309394]}, "type": "Feature", "properties": {"collection_times": [{"days": "Mon-Fri", "time": "1:25pm"}, {"days": "Sat", "time": "9:15am"}, {"days": "Sun", "time": "Closed"}], "id": "6347200001", "name": "USPS COLLECTION BOX - BLUE BOX", "address": {"city": "WAYLAND", "state": "MO", "street": "113 E DES MOINES ST", "postcode": "63472"}}},
{"geometry": {"type": "Point", "coordinates": [-91.5817479163, 40.3946309394]}, "type": "Feature", "properties": {"collection_times": [{"days": "Mon-Fri", "time": "1:30pm"}, {"days": "Sat", "time": "10:30am"}, {"days": "Sun", "time": "Closed"}], "id": "6347200002", "name": "USPS COLLECTION BOX - PO LOBBY", "address": {"city": "WAYLAND", "state": "MO", "street": "113 E DES MOINES ST", "postcode": "63472"}}},
{"geometry": {"type": "Point", "coordinates": [-91.9273104707, 40.3902420852]}, "type": "Feature", "properties": {"collection_times": [{"days": "Mon-Fri", "time": "1:10pm"}, {"days": "Sat", "time": "9:00am"}, {"days": "Sun", "time": "Closed"}], "id": "6347400001", "name": "USPS COLLECTION BOX - BLUE BOX", "address": {"city": "WYACONDA", "state": "MO", "street": "118 MAIN ST", "postcode": "63474"}}},
{"geometry": {"type": "Point", "coordinates": [-91.9273104707, 40.3902420852]}, "type": "Feature", "properties": {"collection_times": [{"days": "Mon-Fri", "time": "1:10pm"}, {"days": "Sat", "time": "9:15am"}, {"days": "Sun", "time": "Closed"}], "id": "6347400002", "name": "USPS COLLECTION BOX - PO LOBBY", "address": {"city": "WYACONDA", "state": "MO", "street": "118 MAIN ST", "postcode": "63474"}}}
]}
