{"type": "FeatureCollection", "features": [
{"geometry": {"type": "Point", "coordinates": [-92.5809793546, 40.1922424325]}, "type": "Feature", "properties": {"collection_times": [{"days": "Mon-Fri", "time": "4:40pm"}, {"days": "Sat", "time": "12:00pm"}, {"days": "Sun", "time": "Closed"}], "id": "6350100001", "name": "USPS COLLECTION BOX - BLUE BOX", "address": {"city": "KIRKSVILLE", "state": "MO", "street": "400 S HIGH ST", "postcode": "63501"}}},
{"geometry": {"type": "Point", "coordinates": [-92.5843329971, 40.1955756136]}, "type": "Feature", "properties": {"collection_times": [{"days": "Mon-Fri", "time": "4:30pm"}, {"days": "Sat", "time": "12:00pm"}, {"days": "Sun", "time": "Closed"}], "id": "6350100011", "name": "USPS COLLECTION BOX - BLUE BOX", "address": {"city": "KIRKSVILLE", "state": "MO", "street": "201 N ELSON ST", "postcode": "63501"}}},
{"geometry": {"type": "Point", "coordinates": [-92.5832114011, 40.1937340212]}, "type": "Feature", "properties": {"collection_times": [{"days": "Mon-Fri", "time": "4:30pm"}, {"days": "Sat", "time": "12:00pm"}, {"days": "Sun", "time": "Closed"}], "id": "6350100014", "name": "USPS COLLECTION BOX - BLUE BOX", "address": {"city": "KIRKSVILLE", "state": "MO", "street": "214 S FRANKLIN ST", "postcode": "63501"}}},
{"geometry": {"type": "Point", "coordinates": [-92.5819036504, 40.2137109298]}, "type": "Feature", "properties": {"collection_times": [{"days": "Mon-Sat", "time": "11:30am"}, {"days": "Sun", "time": "Closed"}], "id": "6350100016", "name": "USPS COLLECTION BOX - BLUE BOX", "address": {"city": "KIRKSVILLE", "state": "MO", "street": "2200 N BALTIMORE ST", "postcode": "63501"}}},
{"geometry": {"type": "Point", "coordinates": [-92.5819222464, 40.1929716421]}, "type": "Feature", "properties": {"collection_times": [{"days": "Mon-Fri", "time": "4:40pm"}, {"days": "Sat", "time": "12:00pm"}, {"days": "Sun", "time": "Closed"}], "id": "6350100033", "name": "USPS COLLECTION BOX - PO LOBBY", "address": {"city": "KIRKSVILLE", "state": "MO", "street": "210 E JEFFERSON ST", "postcode": "63501"}}},
{"geometry": {"type": "Point", "coordinates": [-92.5819222464, 40.1929716421]}, "type": "Feature", "properties": {"collection_times": [{"days": "Mon-Fri", "time": "4:40pm"}, {"days": "Sat", "time": "12:00pm"}, {"days": "Sun", "time": "Closed"}], "id": "6350100034", "name": "USPS COLLECTION BOX - PO LOBBY", "address": {"city": "KIRKSVILLE", "state": "MO", "street": "210 E JEFFERSON ST", "postcode": "63501"}}},
{"geometry": {"type": "Point", "coordinates": [-92.4794060101, 39.8986600567]}, "type": "Feature", "properties": {"collection_times": [{"days": "Mon-Fri", "time": "11:15am"}, {"days": "Sat", "time": "9:00am"}, {"days": "Sun", "time": "Closed"}], "id": "6353000001", "name": "USPS COLLECTION BOX - BLUE BOX", "address": {"city": "ATLANTA", "state": "MO", "street": "101 W MAIN ST", "postcode": "63530"}}},
{"geometry": {"type": "Point", "coordinates": [-92.4794060101, 39.8986600567]}, "type": "Feature", "properties": {"collection_times": [{"days": "Mon-Fri", "time": "11:15am"}, {"days": "Sat", "time": "9:00am"}, {"days": "Sun", "time": "Closed"}], "id": "6353000002", "name": "USPS COLLECTION BOX - PO LOBBY", "address": {"city": "ATLANTA", "state": "MO", "street": "101 W MAIN ST", "postcode": "63530"}}},
{"geometry": {"type": "Point", "coordinates": [-92.2040966892, 40.2428630926]}, "type": "Feature", "properties": {"collection_times": [{"days": "Mon-Fri", "time": "11:15am"}, {"days": "Sat", "time": "8:30am"}, {"days": "Sun", "time": "Closed"}], "id": "6353100001", "name": "USPS COLLECTION BOX - BLUE BOX", "address": {"city": "BARING", "state": "MO", "street": "400 MAIN ST", "postcode": "63531"}}},
{"geometry": {"type": "Point", "coordinates": [-92.2040966892, 40.2428630926]}, "type": "Feature", "properties": {"collection_times": [{"days": "Mon-Fri", "time": "11:15am"}, {"days": "Sat", "time": "8:30am"}, {"days": "Sun", "time": "Closed"}], "id": "6353100002", "name": "USPS COLLECTION BOX - PO LOBBY", "address": {"city": "BARING", "state": "MO", "street": "400 MAIN ST", "postcode": "63531"}}},
{"geometry": {"type": "Point", "coordinates": [-92.5645388402, 39.747527774]}, "type": "Feature", "properties": {"collection_times": [{"days": "Mon-Fri", "time": "11:15am"}, {"days": "Sat", "time": "9:00am"}, {"days": "Sun", "time": "Closed"}], "id": "6353200001", "name": "USPS COLLECTION BOX - BLUE BOX", "address": {"city": "BEVIER", "state": "MO", "street": "108 N MACON ST", "postcode": "63532"}}},
{"geometry": {"type": "Point", "coordinates": [-92.5645388402, 39.747527774]}, "type": "Feature", "properties": {"collection_times": [{"days": "Mon-Fri", "time": "11:15am"}, {"days": "Sat", "time": "9:30am"}, {"days": "Sun", "time": "Closed"}], "id": "6353200002", "name": "USPS COLLECTION BOX - PO LOBBY", "address": {"city": "BEVIER", "state": "MO", "street": "108 N MACON ST", "postcode": "63532"}}},
{"geometry": {"type": "Point", "coordinates": [-92.5704780799, 39.7485137327]}, "type": "Feature", "properties": {"collection_times": [{"days": "Mon-Sat", "time": "1:30pm"}, {"days": "Sun", "time": "Closed"}], "id": "6353200004", "name": "USPS COLLECTION BOX - BLUE BOX", "address": {"city": "BEVIER", "state": "MO", "street": "1003 STATE HIGHWAY C", "postcode": "63532"}}},
{"geometry": {"type": "Point", "coordinates": [-92.3791569909, 40.1474323475]}, "type": "Feature", "properties": {"collection_times": [{"days": "Mon-Fri", "time": "10:45am"}, {"days": "Sat", "time": "8:45am"}, {"days": "Sun", "time": "Closed"}], "id": "6353300002", "name": "USPS COLLECTION BOX - PO LOBBY", "address": {"city": "BRASHEAR", "state": "MO", "street": "201 S KING ST", "postcode": "63533"}}},
{"geometry": {"type": "Point", "coordinates": [-92.3791569909, 40.1474323475]}, "type": "Feature", "properties": {"collection_times": [{"days": "Mon-Fri", "time": "10:45am"}, {"days": "Sat", "time": "8:45am"}, {"days": "Sun", "time": "Closed"}], "id": "6353300003", "name": "USPS COLLECTION BOX - BLUE BOX", "address": {"city": "BRASHEAR", "state": "MO", "street": "201 S KING ST", "postcode": "63533"}}},
{"geometry": {"type": "Point", "coordinates": [-92.6248940709, 39.7609659901]}, "type": "Feature", "properties": {"collection_times": [{"days": "Mon-Fri", "time": "11:15am"}, {"days": "Sat", "time": "8:15am"}, {"days": "Sun", "time": "Closed"}], "id": "6353400001", "name": "USPS COLLECTION BOX - BLUE BOX", "address": {"city": "CALLAO", "state": "MO", "street": "109 MARKET ST", "postcode": "63534"}}},
{"geometry": {"type": "Point", "coordinates": [-92.6248940709, 39.7609659901]}, "type": "Feature", "properties": {"collection_times": [{"days": "Mon-Fri", "time": "11:15am"}, {"days": "Sat", "time": "8:15am"}, {"days": "Sun", "time": "Closed"}], "id": "6353400002", "name": "USPS COLLECTION BOX - PO LOBBY", "address": {"city": "CALLAO", "state": "MO", "street": "109 MARKET ST", "postcode": "63534"}}},
{"geometry": {"type": "Point", "coordinates": [-92.3671571976, 40.4863919315]}, "type": "Feature", "properties": {"collection_times": [{"days": "Mon-Fri", "time": "11:15am"}, {"days": "Sat", "time": "8:30am"}, {"days": "Sun", "time": "Closed"}], "id": "6353600001", "name": "USPS COLLECTION BOX - BLUE BOX", "address": {"city": "DOWNING", "state": "MO", "street": "101 W PRIME ST", "postcode": "63536"}}},
{"geometry": {"type": "Point", "coordinates": [-92.3671571976, 40.4863919315]}, "type": "Feature", "properties": {"collection_times": [{"days": "Mon-Fri", "time": "11:15am"}, {"days": "Sat", "time": "8:30am"}, {"days": "Sun", "time": "Closed"}], "id": "6353600002", "name": "USPS COLLECTION BOX - PO LOBBY", "address": {"city": "DOWNING", "state": "MO", "street": "101 W PRIME ST", "postcode": "63536"}}},
{"geometry": {"type": "Point", "coordinates": [-92.1739876203, 40.1674648878]}, "type": "Feature", "properties": {"collection_times": [{"days": "Mon-Fri", "time": "3:25pm"}, {"days": "Sat", "time": "9:15am"}, {"days": "Sun", "time": "Closed"}], "id": "6353700001", "name": "USPS COLLECTION BOX - BLUE BOX", "address": {"city": "EDINA", "state": "MO", "street": "107 S 2ND ST", "postcode": "63537"}}},
{"geometry": {"type": "Point", "coordinates": [-92.1726156828, 40.1677485888]}, "type": "Feature", "properties": {"collection_times": [{"days": "Mon-Fri", "time": "12:00pm"}, {"days": "Sat-Sun", "time": "Closed"}], "id": "6353700002", "name": "USPS COLLECTION BOX - BLUE BOX", "address": {"city": "EDINA", "state": "MO", "street": "120 N MAIN ST", "postcode": "63537"}}},
{"geometry": {"type": "Point", "coordinates": [-92.1739876203, 40.1674648878]}, "type": "Feature", "properties": {"collection_times": [{"days": "Mon-Fri", "time": "3:25pm"}, {"days": "Sat", "time": "9:15am"}, {"days": "Sun", "time": "Closed"}], "id": "6353700003", "name": "USPS COLLECTION BOX - PO LOBBY", "address": {"city": "EDINA", "state": "MO", "street": "107 S 2ND ST", "postcode": "63537"}}},
{"geometry": {"type": "Point", "coordinates": [-92.6507737593, 39.9573208009]}, "type": "Feature", "properties": {"collection_times": [{"days": "Mon-Sat", "time": "10:15am"}, {"days": "Sun", "time": "Closed"}], "id": "6353800001", "name": "USPS COLLECTION BOX - BLUE BOX", "address": {"city": "ELMER", "state": "MO", "street": "105 N SANTA FE ST", "postcode": "63538"}}},
{"geometry": {"type": "Point", "coordinates": [-92.6507737593, 39.9573208009]}, "type": "Feature", "properties": {"collection_times": [{"days": "Mon-Fri", "time": "10:45am"}, {"days": "Sat", "time": "11:45am"}, {"days": "Sun", "time": "Closed"}], "id": "6353800002", "name": "USPS COLLECTION BOX - PO LOBBY", "address": {"city": "ELMER", "state": "MO", "street": "105 N SANTA FE ST", "postcode": "63538"}}},
{"geometry": {"type": "Point", "coordinates": [-92.7403629631, 39.8944154548]}, "type": "Feature", "properties": {"collection_times": [{"days": "Mon-Fri", "time": "12:45pm"}, {"days": "Sat", "time": "9:30am"}, {"days": "Sun", "time": "Closed"}], "id": "6353900001", "name": "USPS COLLECTION BOX - BLUE BOX", "address": {"city": "ETHEL", "state": "MO", "street": "102 W MAIN ST", "postcode": "63539"}}},
{"geometry": {"type": "Point", "coordinates": [-92.7615888022, 39.9036826154]}, "type": "Feature", "properties": {"collection_times": [{"days": "Mon-Fri", "time": "2:15pm"}, {"days": "Sat", "time": "10:45am"}, {"days": "Sun", "time": "Closed"}], "id": "6353900002", "name": "USPS COLLECTION BOX - PO LOBBY", "address": {"city": "ETHEL", "state": "MO", "street": "102 W MAIN ST", "postcode": "63539"}}},
{"geometry": {"type": "Point", "coordinates": [-92.5656715489, 40.520112008]}, "type": "Feature", "properties": {"collection_times": [{"days": "Mon-Fri", "time": "12:30pm"}, {"days": "Sat", "time": "11:15am"}, {"days": "Sun", "time": "Closed"}], "id": "6354100001", "name": "USPS COLLECTION BOX - BLUE BOX", "address": {"city": "GLENWOOD", "state": "MO", "street": "404 MAIN ST", "postcode": "63541"}}},
{"geometry": {"type": "Point", "coordinates": [-92.5656715489, 40.520112008]}, "type": "Feature", "properties": {"collection_times": [{"days": "Mon-Fri", "time": "1:15pm"}, {"days": "Sat", "time": "11:15am"}, {"days": "Sun", "time": "Closed"}], "id": "6354100002", "name": "USPS COLLECTION BOX - PO LOBBY", "address": {"city": "GLENWOOD", "state": "MO", "street": "404 MAIN ST", "postcode": "63541"}}},
{"geometry": {"type": "Point", "coordinates": [-92.8753515441, 40.2619900052]}, "type": "Feature", "properties": {"collection_times": [{"days": "Mon-Fri", "time": "11:15am"}, {"days": "Sat", "time": "9:00am"}, {"days": "Sun", "time": "Closed"}], "id": "6354400001", "name": "USPS COLLECTION BOX - BLUE BOX", "address": {"city": "GREEN CASTLE", "state": "MO", "street": "405 STATE HIGHWAY 6", "postcode": "63544"}}},
{"geometry": {"type": "Point", "coordinates": [-92.8753515441, 40.2619900052]}, "type": "Feature", "properties": {"collection_times": [{"days": "Mon-Fri", "time": "11:15am"}, {"days": "Sat", "time": "9:00am"}, {"days": "Sun", "time": "Closed"}], "id": "6354400002", "name": "USPS COLLECTION BOX - PO LOBBY", "address": {"city": "GREEN CASTLE", "state": "MO", "street": "405 STATE HIGHWAY 6", "postcode": "63544"}}},
{"geometry": {"type": "Point", "coordinates": [-92.9532390782, 40.2677928257]}, "type": "Feature", "properties": {"collection_times": [{"days": "Mon-Fri", "time": "11:15am"}, {"days": "Sat", "time": "9:15am"}, {"days": "Sun", "time": "Closed"}], "id": "6354500001", "name": "USPS COLLECTION BOX - BLUE BOX", "address": {"city": "GREEN CITY", "state": "MO", "street": "2 W 3RD ST", "postcode": "63545"}}},
{"geometry": {"type": "Point", "coordinates": [-92.9532390782, 40.2677928257]}, "type": "Feature", "properties": {"collection_times": [{"days": "Mon-Fri", "time": "11:15am"}, {"days": "Sat", "time": "9:15am"}, {"days": "Sun", "time": "Closed"}], "id": "6354500003", "name": "USPS COLLECTION BOX - PO LOBBY", "address": {"city": "GREEN CITY", "state": "MO", "street": "2 W 3RD ST", "postcode": "63545"}}},
{"geometry": {"type": "Point", "coordinates": [-92.5664081531, 40.3572438693]}, "type": "Feature", "properties": {"collection_times": [{"days": "Mon-Fri", "time": "11:15am"}, {"days": "Sat", "time": "8:30am"}, {"days": "Sun", "time": "Closed"}], "id": "6354600001", "name": "USPS COLLECTION BOX - BLUE BOX", "address": {"city": "GREENTOP", "state": "MO", "street": "868 MAIN ST", "postcode": "63546"}}},
{"geometry": {"type": "Point", "coordinates": [-92.5664081531, 40.3572438693]}, "type": "Feature", "properties": {"collection_times": [{"days": "Mon-Fri", "time": "11:15am"}, {"days": "Sat", "time": "8:30am"}, {"days": "Sun", "time": "Closed"}], "id": "6354600002", "name": "USPS COLLECTION BOX - PO LOBBY", "address": {"city": "GREENTOP", "state": "MO", "street": "868 MAIN ST", "postcode": "63546"}}},
{"geometry": {"type": "Point", "coordinates": [-92.2611732054, 40.1706438624]}, "type": "Feature", "properties": {"collection_times": [{"days": "Mon-Fri", "time": "11:15am"}, {"days": "Sat", "time": "8:45am"}, {"days": "Sun", "time": "Closed"}], "id": "6354700001", "name": "USPS COLLECTION BOX - BLUE BOX", "address": {"city": "HURDLAND", "state": "MO", "street": "404 N 3RD ST", "postcode": "63547"}}},
{"geometry": {"type": "Point", "coordinates": [-92.2611732054, 40.1706438624]}, "type": "Feature", "properties": {"collection_times": [{"days": "Mon-Fri", "time": "11:15am"}, {"days": "Sat", "time": "8:45am"}, {"days": "Sun", "time": "Closed"}], "id": "6354700002", "name": "USPS COLLECTION BOX - PO LOBBY", "address": {"city": "HURDLAND", "state": "MO", "street": "404 N 3RD ST", "postcode": "63547"}}},
{"geometry": {"type": "Point", "coordinates": [-92.526930033, 40.5164106273]}, "type": "Feature", "properties": {"collection_times": [{"days": "Mon-Fri", "time": "3:10pm"}, {"days": "Sat", "time": "9:15am"}, {"days": "Sun", "time": "Closed"}], "id": "6354800001", "name": "USPS COLLECTION BOX - BLUE BOX", "address": {"city": "LANCASTER", "state": "MO", "street": "100 N GREEN ST", "postcode": "63548"}}},
{"geometry": {"type": "Point", "coordinates": [-92.526930033, 40.5164106273]}, "type": "Feature", "properties": {"collection_times": [{"days": "Mon-Fri", "time": "3:10pm"}, {"days": "Sat", "time": "9:15am"}, {"days": "Sun", "time": "Closed"}], "id": "6354800002", "name": "USPS COLLECTION BOX - PO LOBBY", "address": {"city": "LANCASTER", "state": "MO", "street": "100 N GREEN ST", "postcode": "63548"}}},
{"geometry": {"type": "Point", "coordinates": [-92.4915603533, 40.0221828584]}, "type": "Feature", "properties": {"collection_times": [{"days": "Mon-Fri", "time": "3:45pm"}, {"days": "Sat", "time": "8:45am"}, {"days": "Sun", "time": "Closed"}], "id": "6354900001", "name": "USPS COLLECTION BOX - BLUE BOX", "address": {"city": "LA PLATA", "state": "MO", "street": "102 E SANDERS ST", "postcode": "63549"}}},
{"geometry": {"type": "Point", "coordinates": [-92.4915603533, 40.0221828584]}, "type": "Feature", "properties": {"collection_times": [{"days": "Mon-Fri", "time": "3:45pm"}, {"days": "Sat", "time": "8:45am"}, {"days": "Sun", "time": "Closed"}], "id": "6354900003", "name": "USPS COLLECTION BOX - PO LOBBY", "address": {"city": "LA PLATA", "state": "MO", "street": "102 E SANDERS ST", "postcode": "63549"}}},
{"geometry": {"type": "Point", "coordinates": [-92.4915603533, 40.0221828584]}, "type": "Feature", "properties": {"collection_times": [{"days": "Mon-Fri", "time": "3:45pm"}, {"days": "Sat", "time": "8:45am"}, {"days": "Sun", "time": "Closed"}], "id": "6354900006", "name": "USPS COLLECTION BOX - PO LOBBY", "address": {"city": "LA PLATA", "state": "MO", "street": "102 E SANDERS ST", "postcode": "63549"}}},
{"geometry": {"type": "Point", "coordinates": [-92.7386919442, 40.5254493997]}, "type": "Feature", "properties": {"collection_times": [{"days": "Mon-Fri", "time": "12:45pm"}, {"days": "Sat", "time": "11:30am"}, {"days": "Sun", "time": "Closed"}], "id": "6355100001", "name": "USPS COLLECTION BOX - BLUE BOX", "address": {"city": "LIVONIA", "state": "MO", "street": "204 E D AVE", "postcode": "63551"}}},
{"geometry": {"type": "Point", "coordinates": [-92.7386919442, 40.5254493997]}, "type": "Feature", "properties": {"collection_times": [{"days": "Mon-Fri", "time": "12:45pm"}, {"days": "Sat", "time": "11:30am"}, {"days": "Sun", "time": "Closed"}], "id": "6355100002", "name": "USPS COLLECTION BOX - PO LOBBY", "address": {"city": "LIVONIA", "state": "MO", "street": "204 E D AVE", "postcode": "63551"}}},
{"geometry": {"type": "Point", "coordinates": [-92.4730402373, 39.7387392782]}, "type": "Feature", "properties": {"collection_times": [{"days": "Mon-Fri", "time": "3:05pm"}, {"days": "Sat", "time": "11:30am"}, {"days": "Sun", "time": "Closed"}], "id": "6355200004", "name": "USPS COLLECTION BOX - BLUE BOX", "address": {"city": "MACON", "state": "MO", "street": "119 N ROLLINS ST", "postcode": "63552"}}},
{"geometry": {"type": "Point", "coordinates": [-92.4698312264, 39.7520488323]}, "type": "Feature", "properties": {"collection_times": [{"days": "Mon-Fri", "time": "3:05pm"}, {"days": "Sat", "time": "11:30am"}, {"days": "Sun", "time": "Closed"}], "id": "6355200007", "name": "USPS COLLECTION BOX - BLUE BOX", "address": {"city": "MACON", "state": "MO", "street": "402 E BRIGGS DR", "postcode": "63552"}}},
{"geometry": {"type": "Point", "coordinates": [-92.4658231142, 39.7521542435]}, "type": "Feature", "properties": {"collection_times": [{"days": "Mon-Fri", "time": "3:05pm"}, {"days": "Sat", "time": "11:30am"}, {"days": "Sun", "time": "Closed"}], "id": "6355200013", "name": "USPS COLLECTION BOX - BLUE BOX", "address": {"city": "MACON", "state": "MO", "street": "705 E BRIGGS DR", "postcode": "63552"}}},
{"geometry": {"type": "Point", "coordinates": [-92.4755954639, 39.7377455978]}, "type": "Feature", "properties": {"collection_times": [{"days": "Mon-Fri", "time": "3:05pm"}, {"days": "Sat", "time": "11:30am"}, {"days": "Sun", "time": "Closed"}], "id": "6355200014", "name": "USPS COLLECTION BOX - BLUE BOX", "address": {"city": "MACON", "state": "MO", "street": "105 DUFF ST", "postcode": "63552"}}},
{"geometry": {"type": "Point", "coordinates": [-92.4755954639, 39.7377455978]}, "type": "Feature", "properties": {"collection_times": [{"days": "Mon-Fri", "time": "3:05pm"}, {"days": "Sat", "time": "11:30am"}, {"days": "Sun", "time": "Closed"}], "id": "6355200015", "name": "USPS COLLECTION BOX - PO LOBBY", "address": {"city": "MACON", "state": "MO", "street": "105 DUFF ST", "postcode": "63552"}}},
{"geometry": {"type": "Point", "coordinates": [-92.1692437896, 40.4592411814]}, "type": "Feature", "properties": {"collection_times": [{"days": "Mon-Fri", "time": "2:30pm"}, {"days": "Sat", "time": "9:30am"}, {"days": "Sun", "time": "Closed"}], "id": "6355500001", "name": "USPS COLLECTION BOX - BLUE BOX", "address": {"city": "MEMPHIS", "state": "MO", "street": "128 N MARKET ST", "postcode": "63555"}}},
{"geometry": {"type": "Point", "coordinates": [-92.1692437896, 40.4592411814]}, "type": "Feature", "properties": {"collection_times": [{"days": "Mon-Fri", "time": "2:30pm"}, {"days": "Sat", "time": "9:30am"}, {"days": "Sun", "time": "Closed"}], "id": "6355500006", "name": "USPS COLLECTION BOX - PO LOBBY", "address": {"city": "MEMPHIS", "state": "MO", "street": "128 N MARKET ST", "postcode": "63555"}}},
{"geometry": {"type": "Point", "coordinates": [-93.1244301602, 40.2012058765]}, "type": "Feature", "properties": {"collection_times": [{"days": "Mon-Fri", "time": "2:55pm"}, {"days": "Sat", "time": "10:00am"}, {"days": "Sun", "time": "Closed"}], "id": "6355600001", "name": "USPS COLLECTION BOX - BLUE BOX", "address": {"city": "MILAN", "state": "MO", "street": "100 E 4TH ST", "postcode": "63556"}}},
{"geometry": {"type": "Point", "coordinates": [-93.1244907704, 40.2022116682]}, "type": "Feature", "properties": {"collection_times": [{"days": "Mon-Fri", "time": "3:00pm"}, {"days": "Sat", "time": "10:00am"}, {"days": "Sun", "time": "Closed"}], "id": "6355600006", "name": "USPS COLLECTION BOX - BLUE BOX", "address": {"city": "MILAN", "state": "MO", "street": "101 E 3RD ST", "postcode": "63556"}}},
{"geometry": {"type": "Point", "coordinates": [-93.1244301602, 40.2012058765]}, "type": "Feature", "properties": {"collection_times": [{"days": "Mon-Fri", "time": "2:55pm"}, {"days": "Sat", "time": "10:00am"}, {"days": "Sun", "time": "Closed"}], "id": "6355600007", "name": "USPS COLLECTION BOX - PO LOBBY", "address": {"city": "MILAN", "state": "MO", "street": "100 E 4TH ST", "postcode": "63556"}}},
{"geometry": {"type": "Point", "coordinates": [-92.8581606757, 39.9459175608]}, "type": "Feature", "properties": {"collection_times": [{"days": "Mon-Fri", "time": "12:15pm"}, {"days": "Sat", "time": "9:15am"}, {"days": "Sun", "time": "Closed"}], "id": "6355700001", "name": "USPS COLLECTION BOX - BLUE BOX", "address": {"city": "NEW BOSTON", "state": "MO", "street": "15832 HIGHWAY 129", "postcode": "63557"}}},
{"geometry": {"type": "Point", "coordinates": [-92.8581606757, 39.9459175608]}, "type": "Feature", "properties": {"collection_times": [{"days": "Mon-Fri", "time": "12:15pm"}, {"days": "Sat", "time": "10:00am"}, {"days": "Sun", "time": "Closed"}], "id": "6355700002", "name": "USPS COLLECTION BOX - PO LOBBY", "address": {"city": "NEW BOSTON", "state": "MO", "street": "15832 HIGHWAY 129", "postcode": "63557"}}},
{"geometry": {"type": "Point", "coordinates": [-92.750465313, 39.7753558564]}, "type": "Feature", "properties": {"collection_times": [{"days": "Mon-Fri", "time": "11:15am"}, {"days": "Sat", "time": "9:00am"}, {"days": "Sun", "time": "Closed"}], "id": "6355800001", "name": "USPS COLLECTION BOX - BLUE BOX", "address": {"city": "NEW CAMBRIA", "state": "MO", "street": "108 N MAIN ST", "postcode": "63558"}}},
{"geometry": {"type": "Point", "coordinates": [-92.750465313, 39.7753558564]}, "type": "Feature", "properties": {"collection_times": [{"days": "Mon-Fri", "time": "11:15am"}, {"days": "Sat", "time": "9:00am"}, {"days": "Sun", "time": "Closed"}], "id": "6355800002", "name": "USPS COLLECTION BOX - PO LOBBY", "address": {"city": "NEW CAMBRIA", "state": "MO", "street": "108 N MAIN ST", "postcode": "63558"}}},
{"geometry": {"type": "Point", "coordinates": [-92.708442232, 40.2325488671]}, "type": "Feature", "properties": {"collection_times": [{"days": "Mon-Fri", "time": "11:15am"}, {"days": "Sat", "time": "9:00am"}, {"days": "Sun", "time": "Closed"}], "id": "6355900001", "name": "USPS COLLECTION BOX - BLUE BOX", "address": {"city": "NOVINGER", "state": "MO", "street": "214 S FRANKFORD AVE", "postcode": "63559"}}},
{"geometry": {"type": "Point", "coordinates": [-92.708442232, 40.2325488671]}, "type": "Feature", "properties": {"collection_times": [{"days": "Mon-Fri", "time": "11:15am"}, {"days": "Sat", "time": "9:00am"}, {"days": "Sun", "time": "Closed"}], "id": "6355900002", "name": "USPS COLLECTION BOX - PO LOBBY", "address": {"city": "NOVINGER", "state": "MO", "street": "214 S FRANKFORD AVE", "postcode": "63559"}}},
{"geometry": {"type": "Point", "coordinates": [-93.0838805094, 40.3591954312]}, "type": "Feature", "properties": {"collection_times": [{"days": "Mon-Fri", "time": "1:00pm"}, {"days": "Sat", "time": "11:45am"}, {"days": "Sun", "time": "Closed"}], "id": "6356000001", "name": "USPS COLLECTION BOX - BLUE BOX", "address": {"city": "POLLOCK", "state": "MO", "street": "506 C ST", "postcode": "63560"}}},
{"geometry": {"type": "Point", "coordinates": [-93.0838805094, 40.3591954312]}, "type": "Feature", "properties": {"collection_times": [{"days": "Mon-Fri", "time": "1:00pm"}, {"days": "Sat", "time": "11:45am"}, {"days": "Sun", "time": "Closed"}], "id": "6356000002", "name": "USPS COLLECTION BOX - PO LOBBY", "address": {"city": "POLLOCK", "state": "MO", "street": "506 C ST", "postcode": "63560"}}},
{"geometry": {"type": "Point", "coordinates": [-92.567156542, 40.4053998515]}, "type": "Feature", "properties": {"collection_times": [{"days": "Mon-Fri", "time": "2:15pm"}, {"days": "Sat", "time": "8:30am"}, {"days": "Sun", "time": "Closed"}], "id": "6356100001", "name": "USPS COLLECTION BOX - BLUE BOX", "address": {"city": "QUEEN CITY", "state": "MO", "street": "520 CEDAR ST", "postcode": "63561"}}},
{"geometry": {"type": "Point", "coordinates": [-92.567156542, 40.4053998515]}, "type": "Feature", "properties": {"collection_times": [{"days": "Mon-Fri", "time": "2:15pm"}, {"days": "Sat", "time": "8:45am"}, {"days": "Sun", "time": "Closed"}], "id": "6356100002", "name": "USPS COLLECTION BOX - PO LOBBY", "address": {"city": "QUEEN CITY", "state": "MO", "street": "520 CEDAR ST", "postcode": "63561"}}},
{"geometry": {"type": "Point", "coordinates": [-92.0883259899, 40.3143370925]}, "type": "Feature", "properties": {"collection_times": [{"days": "Mon-Fri", "time": "11:45am"}, {"days": "Sat", "time": "8:45am"}, {"days": "Sun", "time": "Closed"}], "id": "6356300001", "name": "USPS COLLECTION BOX - BLUE BOX", "address": {"city": "RUTLEDGE", "state": "MO", "street": "55 MAIN ST", "postcode": "63563"}}},
{"geometry": {"type": "Point", "coordinates": [-92.0883259899, 40.3143370925]}, "type": "Feature", "properties": {"collection_times": [{"days": "Mon-Fri", "time": "11:45am"}, {"days": "Sat", "time": "8:45am"}, {"days": "Sun", "time": "Closed"}], "id": "6356300002", "name": "USPS COLLECTION BOX - PO LOBBY", "address": {"city": "RUTLEDGE", "state": "MO", "street": "55 MAIN ST", "postcode": "63563"}}},
{"geometry": {"type": "Point", "coordinates": [-92.0883259899, 40.3143370925]}, "type": "Feature", "properties": {"collection_times": [{"days": "Mon-Fri", "time": "11:45am"}, {"days": "Sat", "time": "8:45am"}, {"days": "Sun", "time": "Closed"}], "id": "6356300003", "name": "USPS COLLECTION BOX - PO LOBBY", "address": {"city": "RUTLEDGE", "state": "MO", "street": "55 MAIN ST", "postcode": "63563"}}},
{"geometry": {"type": "Point", "coordinates": [-93.0019743599, 40.4760871109]}, "type": "Feature", "properties": {"collection_times": [{"days": "Mon-Fri", "time": "2:20pm"}, {"days": "Sat", "time": "10:00am"}, {"days": "Sun", "time": "Closed"}], "id": "6356500001", "name": "USPS COLLECTION BOX - BLUE BOX", "address": {"city": "UNIONVILLE", "state": "MO", "street": "1603 GRANT ST", "postcode": "63565"}}},
{"geometry": {"type": "Point", "coordinates": [-93.003164685, 40.4770553755]}, "type": "Feature", "properties": {"collection_times": [{"days": "Mon-Fri", "time": "2:20pm"}, {"days": "Sat-Sun", "time": "Closed"}], "id": "6356500002", "name": "USPS COLLECTION BOX - BLUE BOX", "address": {"city": "UNIONVILLE", "state": "MO", "street": "103 N 17TH ST", "postcode": "63565"}}},
{"geometry": {"type": "Point", "coordinates": [-93.0129959395, 40.476859507]}, "type": "Feature", "properties": {"collection_times": [{"days": "Mon-Fri", "time": "2:20pm"}, {"days": "Sat-Sun", "time": "Closed"}], "id": "6356500003", "name": "USPS COLLECTION BOX - BLUE BOX", "address": {"city": "UNIONVILLE", "state": "MO", "street": "2521 MAIN ST", "postcode": "63565"}}},
{"geometry": {"type": "Point", "coordinates": [-93.0019743599, 40.4760871109]}, "type": "Feature", "properties": {"collection_times": [{"days": "Mon-Fri", "time": "2:20pm"}, {"days": "Sat", "time": "10:00am"}, {"days": "Sun", "time": "Closed"}], "id": "6356500004", "name": "USPS COLLECTION BOX - PO LOBBY", "address": {"city": "UNIONVILLE", "state": "MO", "street": "1603 GRANT ST", "postcode": "63565"}}},
{"geometry": {"type": "Point", "coordinates": [-92.9033506271, 40.0438549152]}, "type": "Feature", "properties": {"collection_times": [{"days": "Mon-Sat", "time": "11:30am"}, {"days": "Sun", "time": "Closed"}], "id": "6356600001", "name": "USPS COLLECTION BOX - BLUE BOX", "address": {"city": "WINIGAN", "state": "MO", "street": "33314 MAIN ST", "postcode": "63566"}}},
{"geometry": {"type": "Point", "coordinates": [-92.9033506271, 40.0438549152]}, "type": "Feature", "properties": {"collection_times": [{"days": "Mon-Sat", "time": "11:30am"}, {"days": "Sun", "time": "Closed"}], "id": "6356600002", "name": "USPS COLLECTION BOX - PO LOBBY", "address": {"city": "WINIGAN", "state": "MO", "street": "33314 MAIN ST", "postcode": "63566"}}}
]}
