{"type": "FeatureCollection", "features": [
{"geometry": {"type": "Point", "coordinates": [-90.5216466488, 37.8514070631]}, "type": "Feature", "properties": {"collection_times": [{"days": "Mon-Sat", "time": "11:30am"}, {"days": "Sun", "time": "Closed"}], "id": "6360100000", "name": "USPS COLLECTION BOX - BLUE BOX", "address": {"city": "PARK HILLS", "state": "MO", "street": "302 T J STEWART DR", "postcode": "63601"}}},
{"geometry": {"type": "Point", "coordinates": [-90.5216466488, 37.8514070631]}, "type": "Feature", "properties": {"collection_times": [{"days": "Mon-Sat", "time": "11:30am"}, {"days": "Sun", "time": "Closed"}], "id": "6360100001", "name": "USPS COLLECTION BOX - BLUE BOX", "address": {"city": "PARK HILLS", "state": "MO", "street": "302 T J STEWART DR", "postcode": "63601"}}},
{"geometry": {"type": "Point", "coordinates": [-90.5271618485, 37.8728497236]}, "type": "Feature", "properties": {"collection_times": [{"days": "Mon-Sat", "time": "10:30am"}, {"days": "Sun", "time": "Closed"}], "id": "6360100002", "name": "USPS COLLECTION BOX - BLUE BOX", "address": {"city": "PARK HILLS", "state": "MO", "street": "301 N DESLOGE DR", "postcode": "63601"}}},
{"geometry": {"type": "Point", "coordinates": [-90.5271618485, 37.8728497236]}, "type": "Feature", "properties": {"collection_times": [{"days": "Mon-Sat", "time": "10:30am"}, {"days": "Sun", "time": "Closed"}], "id": "6360100003", "name": "USPS COLLECTION BOX - BLUE BOX", "address": {"city": "PARK HILLS", "state": "MO", "street": "301 N DESLOGE DR", "postcode": "63601"}}},
{"geometry": {"type": "Point", "coordinates": [-90.5216466488, 37.8514070631]}, "type": "Feature", "properties": {"collection_times": [{"days": "Mon-Sat", "time": "11:30am"}, {"days": "Sun", "time": "Closed"}], "id": "6360100016", "name": "USPS COLLECTION BOX - PO LOBBY", "address": {"city": "PARK HILLS", "state": "MO", "street": "302 T J STEWART DR", "postcode": "63601"}}},
{"geometry": {"type": "Point", "coordinates": [-90.5271618485, 37.8728497236]}, "type": "Feature", "properties": {"collection_times": [{"days": "Mon-Fri", "time": "10:30am"}, {"days": "Sat-Sun", "time": "Closed"}], "id": "6360100019", "name": "USPS COLLECTION BOX - PO LOBBY", "address": {"city": "PARK HILLS", "state": "MO", "street": "301 N DESLOGE DR", "postcode": "63601"}}},
{"geometry": {"type": "Point", "coordinates": [-90.6952317443, 37.3603958736]}, "type": "Feature", "properties": {"collection_times": [{"days": "Mon-Sat", "time": "8:45am"}, {"days": "Sun", "time": "Closed"}], "id": "6362000000", "name": "USPS COLLECTION BOX - BLUE BOX", "address": {"city": "ANNAPOLIS", "state": "MO", "street": "303 E 2ND ST", "postcode": "63620"}}},
{"geometry": {"type": "Point", "coordinates": [-90.6952317443, 37.3603958736]}, "type": "Feature", "properties": {"collection_times": [{"days": "Mon-Sat", "time": "8:45am"}, {"days": "Sun", "time": "Closed"}], "id": "6362000002", "name": "USPS COLLECTION BOX - PO LOBBY", "address": {"city": "ANNAPOLIS", "state": "MO", "street": "303 E 2ND ST", "postcode": "63620"}}},
{"geometry": {"type": "Point", "coordinates": [-90.8735862555, 37.7976657839]}, "type": "Feature", "properties": {"collection_times": [{"days": "Mon-Sat", "time": "10:00am"}, {"days": "Sun", "time": "Closed"}], "id": "6362200000", "name": "USPS COLLECTION BOX - BLUE BOX", "address": {"city": "BELGRADE", "state": "MO", "street": "14135 STATE HIGHWAY C", "postcode": "63622"}}},
{"geometry": {"type": "Point", "coordinates": [-90.8735862555, 37.7976657839]}, "type": "Feature", "properties": {"collection_times": [{"days": "Mon-Fri", "time": "10:00am"}, {"days": "Sat", "time": "9:00am"}, {"days": "Sun", "time": "Closed"}], "id": "6362200001", "name": "USPS COLLECTION BOX - PO LOBBY", "address": {"city": "BELGRADE", "state": "MO", "street": "14135 STATE HIGHWAY C", "postcode": "63622"}}},
{"geometry": {"type": "Point", "coordinates": [-90.6243067742, 37.7682781551]}, "type": "Feature", "properties": {"collection_times": [{"days": "Mon-Sat", "time": "11:00am"}, {"days": "Sun", "time": "Closed"}], "id": "6362400000", "name": "USPS COLLECTION BOX - BLUE BOX", "address": {"city": "BISMARCK", "state": "MO", "street": "911 WALNUT ST", "postcode": "63624"}}},
{"geometry": {"type": "Point", "coordinates": [-90.6242282724, 37.7682436359]}, "type": "Feature", "properties": {"collection_times": [{"days": "Mon-Fri", "time": "11:00am"}, {"days": "Sat", "time": "9:30am"}, {"days": "Sun", "time": "Closed"}], "id": "6362400003", "name": "USPS COLLECTION BOX - PO LOBBY", "address": {"city": "BISMARCK", "state": "MO", "street": "911 WALNUT ST", "postcode": "63624"}}},
{"geometry": {"type": "Point", "coordinates": [-90.9841758985, 37.5497956307]}, "type": "Feature", "properties": {"collection_times": [{"days": "Mon-Sat", "time": "10:30am"}, {"days": "Sun", "time": "Closed"}], "id": "6362500000", "name": "USPS COLLECTION BOX - BLUE BOX", "address": {"city": "BLACK", "state": "MO", "street": "24634 HIGHWAY 49", "postcode": "63625"}}},
{"geometry": {"type": "Point", "coordinates": [-90.9841758985, 37.5497956307]}, "type": "Feature", "properties": {"collection_times": [{"days": "Mon-Sat", "time": "10:30am"}, {"days": "Sun", "time": "Closed"}], "id": "6362500001", "name": "USPS COLLECTION BOX - PO LOBBY", "address": {"city": "BLACK", "state": "MO", "street": "24634 HIGHWAY 49", "postcode": "63625"}}},
{"geometry": {"type": "Point", "coordinates": [-90.2619880351, 38.0350178658]}, "type": "Feature", "properties": {"collection_times": [{"days": "Mon-Sat", "time": "11:15am"}, {"days": "Sun", "time": "Closed"}], "id": "6362700000", "name": "USPS COLLECTION BOX - BLUE BOX", "address": {"city": "BLOOMSDALE", "state": "MO", "street": "54 MILL HILL RD", "postcode": "63627"}}},
{"geometry": {"type": "Point", "coordinates": [-90.5535102059, 37.9201911016]}, "type": "Feature", "properties": {"collection_times": [{"days": "Mon-Sat", "time": "11:00am"}, {"days": "Sun", "time": "Closed"}], "id": "6362800000", "name": "USPS COLLECTION BOX - BLUE BOX", "address": {"city": "BONNE TERRE", "state": "MO", "street": "103 NE MAIN ST", "postcode": "63628"}}},
{"geometry": {"type": "Point", "coordinates": [-90.5535102059, 37.9201911016]}, "type": "Feature", "properties": {"collection_times": [{"days": "Mon-Sat", "time": "11:00am"}, {"days": "Sun", "time": "Closed"}], "id": "6362800001", "name": "USPS COLLECTION BOX - BLUE BOX", "address": {"city": "BONNE TERRE", "state": "MO", "street": "103 NE MAIN ST", "postcode": "63628"}}},
{"geometry": {"type": "Point", "coordinates": [-90.5535102059, 37.9201911016]}, "type": "Feature", "properties": {"collection_times": [{"days": "Mon-Sat", "time": "11:00am"}, {"days": "Sun", "time": "Closed"}], "id": "6362800013", "name": "USPS COLLECTION BOX - PO LOBBY", "address": {"city": "BONNE TERRE", "state": "MO", "street": "103 NE MAIN ST", "postcode": "63628"}}},
{"geometry": {"type": "Point", "coordinates": [-91.1402136125, 37.5013113421]}, "type": "Feature", "properties": {"collection_times": [{"days": "Mon-Sat", "time": "9:00am"}, {"days": "Sun", "time": "Closed"}], "id": "6362900000", "name": "USPS COLLECTION BOX - BLUE BOX", "address": {"city": "BUNKER", "state": "MO", "street": "400 OAK ST", "postcode": "63629"}}},
{"geometry": {"type": "Point", "coordinates": [-91.1402136125, 37.5013113421]}, "type": "Feature", "properties": {"collection_times": [{"days": "Mon-Sat", "time": "9:00am"}, {"days": "Sun", "time": "Closed"}], "id": "6362900001", "name": "USPS COLLECTION BOX - PO LOBBY", "address": {"city": "BUNKER", "state": "MO", "street": "400 OAK ST", "postcode": "63629"}}},
{"geometry": {"type": "Point", "coordinates": [-90.7254410022, 38.0106982887]}, "type": "Feature", "properties": {"collection_times": [{"days": "Mon-Sat", "time": "10:15am"}, {"days": "Sun", "time": "Closed"}], "id": "6363000000", "name": "USPS COLLECTION BOX - BLUE BOX", "address": {"city": "CADET", "state": "MO", "street": "15026 E STATE HIGHWAY 47", "postcode": "63630"}}},
{"geometry": {"type": "Point", "coordinates": [-90.7254410022, 38.0106982887]}, "type": "Feature", "properties": {"collection_times": [{"days": "Mon-Fri", "time": "10:15am"}, {"days": "Sat", "time": "10:00am"}, {"days": "Sun", "time": "Closed"}], "id": "6363000001", "name": "USPS COLLECTION BOX - PO LOBBY", "address": {"city": "CADET", "state": "MO", "street": "15026 E STATE HIGHWAY 47", "postcode": "63630"}}},
{"geometry": {"type": "Point", "coordinates": [-90.7441683695, 37.766657151]}, "type": "Feature", "properties": {"collection_times": [{"days": "Mon-Sat", "time": "10:00am"}, {"days": "Sun", "time": "Closed"}], "id": "6363100000", "name": "USPS COLLECTION BOX - BLUE BOX", "address": {"city": "CALEDONIA", "state": "MO", "street": "3 VALLEY CTR", "postcode": "63631"}}},
{"geometry": {"type": "Point", "coordinates": [-90.9958291772, 37.4422194727]}, "type": "Feature", "properties": {"collection_times": [{"days": "Mon-Sat", "time": "10:00am"}, {"days": "Sun", "time": "Closed"}], "id": "6363300000", "name": "USPS COLLECTION BOX - BLUE BOX", "address": {"city": "CENTERVILLE", "state": "MO", "street": "2312 GREEN ST", "postcode": "63633"}}},
{"geometry": {"type": "Point", "coordinates": [-90.9958291772, 37.4422194727]}, "type": "Feature", "properties": {"collection_times": [{"days": "Mon-Sat", "time": "10:00am"}, {"days": "Sun", "time": "Closed"}], "id": "6363300001", "name": "USPS COLLECTION BOX - PO LOBBY", "address": {"city": "CENTERVILLE", "state": "MO", "street": "2312 GREEN ST", "postcode": "63633"}}},
{"geometry": {"type": "Point", "coordinates": [-90.6136024892, 37.307611459]}, "type": "Feature", "properties": {"collection_times": [{"days": "Mon-Sat", "time": "9:00am"}, {"days": "Sun", "time": "Closed"}], "id": "6363600000", "name": "USPS COLLECTION BOX - BLUE BOX", "address": {"city": "DES ARC", "state": "MO", "street": "226 N FRONT ST", "postcode": "63636"}}},
{"geometry": {"type": "Point", "coordinates": [-90.6136024892, 37.307611459]}, "type": "Feature", "properties": {"collection_times": [{"days": "Mon-Fri", "time": "9:00am"}, {"days": "Sat-Sun", "time": "Closed"}], "id": "6363600001", "name": "USPS COLLECTION BOX - PO LOBBY", "address": {"city": "DES ARC", "state": "MO", "street": "226 N FRONT ST", "postcode": "63636"}}},
{"geometry": {"type": "Point", "coordinates": [-90.4960374188, 37.743921715]}, "type": "Feature", "properties": {"collection_times": [{"days": "Mon-Sat", "time": "11:00am"}, {"days": "Sun", "time": "Closed"}], "id": "6363700000", "name": "USPS COLLECTION BOX - BLUE BOX", "address": {"city": "DOE RUN", "state": "MO", "street": "3229 HIGHWAY 221", "postcode": "63637"}}},
{"geometry": {"type": "Point", "coordinates": [-90.9689548631, 37.2393662386]}, "type": "Feature", "properties": {"collection_times": [{"days": "Mon-Sat", "time": "9:30am"}, {"days": "Sun", "time": "Closed"}], "id": "6363800000", "name": "USPS COLLECTION BOX - BLUE BOX", "address": {"city": "ELLINGTON", "state": "MO", "street": "301 2ND ST", "postcode": "63638"}}},
{"geometry": {"type": "Point", "coordinates": [-90.9689548631, 37.2393662386]}, "type": "Feature", "properties": {"collection_times": [{"days": "Mon-Sat", "time": "9:30am"}, {"days": "Sun", "time": "Closed"}], "id": "6363800002", "name": "USPS COLLECTION BOX - PO LOBBY", "address": {"city": "ELLINGTON", "state": "MO", "street": "301 2ND ST", "postcode": "63638"}}},
{"geometry": {"type": "Point", "coordinates": [-90.4198998077, 37.7803472823]}, "type": "Feature", "properties": {"collection_times": [{"days": "Mon-Sat", "time": "11:30am"}, {"days": "Sun", "time": "Closed"}], "id": "6364000001", "name": "USPS COLLECTION BOX - BLUE BOX", "address": {"city": "FARMINGTON", "state": "MO", "street": "102 E COLUMBIA ST", "postcode": "63640"}}},
{"geometry": {"type": "Point", "coordinates": [-90.4228230351, 37.7877272518]}, "type": "Feature", "properties": {"collection_times": [{"days": "Mon-Sat", "time": "10:30am"}, {"days": "Sun", "time": "Closed"}], "id": "6364000012", "name": "USPS COLLECTION BOX - BLUE BOX", "address": {"city": "FARMINGTON", "state": "MO", "street": "125 W KARSCH BLVD", "postcode": "63640"}}},
{"geometry": {"type": "Point", "coordinates": [-90.4358143258, 37.7869778633]}, "type": "Feature", "properties": {"collection_times": [{"days": "Mon-Sat", "time": "10:30am"}, {"days": "Sun", "time": "Closed"}], "id": "6364000013", "name": "USPS COLLECTION BOX - BLUE BOX", "address": {"city": "FARMINGTON", "state": "MO", "street": "707 WALTON DR", "postcode": "63640"}}},
{"geometry": {"type": "Point", "coordinates": [-90.437869546, 37.7918485045]}, "type": "Feature", "properties": {"collection_times": [{"days": "Mon-Sat", "time": "9:30am"}, {"days": "Sun", "time": "Closed"}], "id": "6364000014", "name": "USPS COLLECTION BOX - BLUE BOX", "address": {"city": "FARMINGTON", "state": "MO", "street": "752 MAPLE VALLEY DR", "postcode": "63640"}}},
{"geometry": {"type": "Point", "coordinates": [-90.4198998077, 37.7803472823]}, "type": "Feature", "properties": {"collection_times": [{"days": "Mon-Sat", "time": "11:30am"}, {"days": "Sun", "time": "Closed"}], "id": "6364000026", "name": "USPS COLLECTION BOX - PO LOBBY", "address": {"city": "FARMINGTON", "state": "MO", "street": "102 E COLUMBIA ST", "postcode": "63640"}}},
{"geometry": {"type": "Point", "coordinates": [-90.2945404144, 37.5587377812]}, "type": "Feature", "properties": {"collection_times": [{"days": "Mon-Sat", "time": "12:15pm"}, {"days": "Sun", "time": "Closed"}], "id": "6364500000", "name": "USPS COLLECTION BOX - BLUE BOX", "address": {"city": "FREDERICKTOWN", "state": "MO", "street": "155 S MAIN ST", "postcode": "63645"}}},
{"geometry": {"type": "Point", "coordinates": [-90.2945404144, 37.5587377812]}, "type": "Feature", "properties": {"collection_times": [{"days": "Mon-Sat", "time": "12:15pm"}, {"days": "Sun", "time": "Closed"}], "id": "6364500014", "name": "USPS COLLECTION BOX - PO LOBBY", "address": {"city": "FREDERICKTOWN", "state": "MO", "street": "155 S MAIN ST", "postcode": "63645"}}},
{"geometry": {"type": "Point", "coordinates": [-90.6776783464, 37.835106387]}, "type": "Feature", "properties": {"collection_times": [{"days": "Mon-Sat", "time": "9:45am"}, {"days": "Sun", "time": "Closed"}], "id": "6364800000", "name": "USPS COLLECTION BOX - BLUE BOX", "address": {"city": "IRONDALE", "state": "MO", "street": "111 S HICKORY ST", "postcode": "63648"}}},
{"geometry": {"type": "Point", "coordinates": [-90.6776783464, 37.835106387]}, "type": "Feature", "properties": {"collection_times": [{"days": "Mon-Sat", "time": "9:45am"}, {"days": "Sun", "time": "Closed"}], "id": "6364800001", "name": "USPS COLLECTION BOX - PO LOBBY", "address": {"city": "IRONDALE", "state": "MO", "street": "111 S HICKORY ST", "postcode": "63648"}}},
{"geometry": {"type": "Point", "coordinates": [-90.6277384548, 37.5973567592]}, "type": "Feature", "properties": {"collection_times": [{"days": "Mon-Fri", "time": "11:15am"}, {"days": "Sat", "time": "10:30am"}, {"days": "Sun", "time": "Closed"}], "id": "6365000003", "name": "USPS COLLECTION BOX - PO LOBBY", "address": {"city": "IRONTON", "state": "MO", "street": "118 W RUSSELL ST", "postcode": "63650"}}},
{"geometry": {"type": "Point", "coordinates": [-90.6277384548, 37.5973567592]}, "type": "Feature", "properties": {"collection_times": [{"days": "Mon-Fri", "time": "11:15am"}, {"days": "Sat", "time": "10:30am"}, {"days": "Sun", "time": "Closed"}], "id": "6365000005", "name": "USPS COLLECTION BOX - BLUE BOX", "address": {"city": "IRONTON", "state": "MO", "street": "118 W RUSSELL ST", "postcode": "63650"}}},
{"geometry": {"type": "Point", "coordinates": [-90.3668533353, 37.6759386072]}, "type": "Feature", "properties": {"collection_times": [{"days": "Mon-Sat", "time": "10:00am"}, {"days": "Sun", "time": "Closed"}], "id": "6365100000", "name": "USPS COLLECTION BOX - BLUE BOX", "address": {"city": "KNOB LICK", "state": "MO", "street": "5961 STATE ROUTE DD", "postcode": "63651"}}},
{"geometry": {"type": "Point", "coordinates": [-90.3668533353, 37.6759386072]}, "type": "Feature", "properties": {"collection_times": [{"days": "Mon-Sat", "time": "10:00am"}, {"days": "Sun", "time": "Closed"}], "id": "6365100001", "name": "USPS COLLECTION BOX - PO LOBBY", "address": {"city": "KNOB LICK", "state": "MO", "street": "5961 STATE ROUTE DD", "postcode": "63651"}}},
{"geometry": {"type": "Point", "coordinates": [-90.8384589525, 37.4607510218]}, "type": "Feature", "properties": {"collection_times": [{"days": "Mon-Sat", "time": "10:45am"}, {"days": "Sun", "time": "Closed"}], "id": "6365400000", "name": "USPS COLLECTION BOX - BLUE BOX", "address": {"city": "LESTERVILLE", "state": "MO", "street": "33010 HIGHWAY 21", "postcode": "63654"}}},
{"geometry": {"type": "Point", "coordinates": [-90.8384589525, 37.4607510218]}, "type": "Feature", "properties": {"collection_times": [{"days": "Mon-Fri", "time": "10:45am"}, {"days": "Sat", "time": "9:00am"}, {"days": "Sun", "time": "Closed"}], "id": "6365400002", "name": "USPS COLLECTION BOX - PO LOBBY", "address": {"city": "LESTERVILLE", "state": "MO", "street": "33010 HIGHWAY 21", "postcode": "63654"}}},
{"geometry": {"type": "Point", "coordinates": [-90.1682365817, 37.4291385798]}, "type": "Feature", "properties": {"collection_times": [{"days": "Mon-Sat", "time": "11:15am"}, {"days": "Sun", "time": "Closed"}], "id": "6365500000", "name": "USPS COLLECTION BOX - BLUE BOX", "address": {"city": "MARQUAND", "state": "MO", "street": "105 WHITENER ST", "postcode": "63655"}}},
{"geometry": {"type": "Point", "coordinates": [-90.1682365817, 37.4291385798]}, "type": "Feature", "properties": {"collection_times": [{"days": "Mon-Fri", "time": "11:15am"}, {"days": "Sat", "time": "9:30am"}, {"days": "Sun", "time": "Closed"}], "id": "6365500001", "name": "USPS COLLECTION BOX - PO LOBBY", "address": {"city": "MARQUAND", "state": "MO", "street": "105 WHITENER ST", "postcode": "63655"}}},
{"geometry": {"type": "Point", "coordinates": [-90.7243994289, 37.9434375801]}, "type": "Feature", "properties": {"collection_times": [{"days": "Mon-Sat", "time": "10:00am"}, {"days": "Sun", "time": "Closed"}], "id": "6366000000", "name": "USPS COLLECTION BOX - BLUE BOX", "address": {"city": "MINERAL POINT", "state": "MO", "street": "102 5TH ST", "postcode": "63660"}}},
{"geometry": {"type": "Point", "coordinates": [-90.7243994289, 37.9434375801]}, "type": "Feature", "properties": {"collection_times": [{"days": "Mon-Fri", "time": "10:00am"}, {"days": "Sat", "time": "8:45am"}, {"days": "Sun", "time": "Closed"}], "id": "6366000001", "name": "USPS COLLECTION BOX - PO LOBBY", "address": {"city": "MINERAL POINT", "state": "MO", "street": "102 5TH ST", "postcode": "63660"}}},
{"geometry": {"type": "Point", "coordinates": [-90.108494947, 37.3989750392]}, "type": "Feature", "properties": {"collection_times": [{"days": "Mon-Sat", "time": "11:15am"}, {"days": "Sun", "time": "Closed"}], "id": "6366200000", "name": "USPS COLLECTION BOX - BLUE BOX", "address": {"city": "PATTON", "state": "MO", "street": "1000 STATE ROUTE 51", "postcode": "63662"}}},
{"geometry": {"type": "Point", "coordinates": [-90.0719087372, 37.4720827962]}, "type": "Feature", "properties": {"collection_times": [{"days": "Mon-Fri", "time": "11:15am"}, {"days": "Sat", "time": "9:15am"}, {"days": "Sun", "time": "Closed"}], "id": "6366200001", "name": "USPS COLLECTION BOX - PO LOBBY", "address": {"city": "PATTON", "state": "MO", "street": "1000 STATE ROUTE 51", "postcode": "63662"}}},
{"geometry": {"type": "Point", "coordinates": [-90.0716784518, 37.4716378457]}, "type": "Feature", "properties": {"collection_times": [{"days": "Mon-Sat", "time": "9:00am"}, {"days": "Sun", "time": "Closed"}], "id": "6366200002", "name": "USPS COLLECTION BOX - BLUE BOX", "address": {"city": "PATTON", "state": "MO", "street": "RR 5 BOX 1225", "postcode": "63662"}}},
{"geometry": {"type": "Point", "coordinates": [-90.6416940838, 37.6206641769]}, "type": "Feature", "properties": {"collection_times": [{"days": "Mon-Fri", "time": "11:30am"}, {"days": "Sat", "time": "8:45am"}, {"days": "Sun", "time": "Closed"}], "id": "6366300000", "name": "USPS COLLECTION BOX - BLUE BOX", "address": {"city": "PILOT KNOB", "state": "MO", "street": "201 W MAPLE ST", "postcode": "63663"}}},
{"geometry": {"type": "Point", "coordinates": [-90.6416940838, 37.6206641769]}, "type": "Feature", "properties": {"collection_times": [{"days": "Mon-Fri", "time": "11:30am"}, {"days": "Sat", "time": "8:45am"}, {"days": "Sun", "time": "Closed"}], "id": "6366300001", "name": "USPS COLLECTION BOX - PO LOBBY", "address": {"city": "PILOT KNOB", "state": "MO", "street": "201 W MAPLE ST", "postcode": "63663"}}},
{"geometry": {"type": "Point", "coordinates": [-90.7855406885, 37.9384333694]}, "type": "Feature", "properties": {"collection_times": [{"days": "Mon-Sat", "time": "10:15am"}, {"days": "Sun", "time": "Closed"}], "id": "6366400004", "name": "USPS COLLECTION BOX - BLUE BOX", "address": {"city": "POTOSI", "state": "MO", "street": "103 LAUREL ST", "postcode": "63664"}}},
{"geometry": {"type": "Point", "coordinates": [-90.7855406885, 37.9384333694]}, "type": "Feature", "properties": {"collection_times": [{"days": "Mon-Sat", "time": "10:15am"}, {"days": "Sun", "time": "Closed"}], "id": "6366400009", "name": "USPS COLLECTION BOX - PO LOBBY", "address": {"city": "POTOSI", "state": "MO", "street": "103 LAUREL ST", "postcode": "63664"}}},
{"geometry": {"type": "Point", "coordinates": [-90.9171944099, 37.3154172519]}, "type": "Feature", "properties": {"collection_times": [{"days": "Mon-Sat", "time": "9:30am"}, {"days": "Sun", "time": "Closed"}], "id": "6366500000", "name": "USPS COLLECTION BOX - BLUE BOX", "address": {"city": "REDFORD", "state": "MO", "street": "150 REDFORD LOOP", "postcode": "63665"}}},
{"geometry": {"type": "Point", "coordinates": [-90.9171944099, 37.3154172519]}, "type": "Feature", "properties": {"collection_times": [{"days": "Mon-Sat", "time": "9:30am"}, {"days": "Sun", "time": "Closed"}], "id": "6366500001", "name": "USPS COLLECTION BOX - PO LOBBY", "address": {"city": "REDFORD", "state": "MO", "street": "150 REDFORD LOOP", "postcode": "63665"}}},
{"geometry": {"type": "Point", "coordinates": [-90.0436842885, 37.9802370658]}, "type": "Feature", "properties": {"collection_times": [{"days": "Mon-Sat", "time": "11:45am"}, {"days": "Sun", "time": "Closed"}], "id": "6367000000", "name": "USPS COLLECTION BOX - BLUE BOX", "address": {"city": "STE GENEVIEVE", "state": "MO", "street": "135 MERCHANT ST", "postcode": "63670"}}},
{"geometry": {"type": "Point", "coordinates": [-90.0489727887, 37.9696446975]}, "type": "Feature", "properties": {"collection_times": [{"days": "Mon-Sat", "time": "9:30am"}, {"days": "Sun", "time": "Closed"}], "id": "6367000004", "name": "USPS COLLECTION BOX - BLUE BOX", "address": {"city": "STE GENEVIEVE", "state": "MO", "street": "600 CENTER DR", "postcode": "63670"}}},
{"geometry": {"type": "Point", "coordinates": [-90.1582565213, 37.8865742477]}, "type": "Feature", "properties": {"collection_times": [{"days": "Mon-Sat", "time": "9:30am"}, {"days": "Sun", "time": "Closed"}], "id": "6367000005", "name": "USPS COLLECTION BOX - BLUE BOX", "address": {"city": "STE GENEVIEVE", "state": "MO", "street": "600 STE GENEVIEVE DR", "postcode": "63670"}}},
{"geometry": {"type": "Point", "coordinates": [-90.0436842885, 37.9802370658]}, "type": "Feature", "properties": {"collection_times": [{"days": "Mon-Sat", "time": "11:45am"}, {"days": "Sun", "time": "Closed"}], "id": "6367000014", "name": "USPS COLLECTION BOX - BLUE BOX", "address": {"city": "STE GENEVIEVE", "state": "MO", "street": "135 MERCHANT ST", "postcode": "63670"}}},
{"geometry": {"type": "Point", "coordinates": [-90.0436842885, 37.9802370658]}, "type": "Feature", "properties": {"collection_times": [{"days": "Mon-Sat", "time": "11:45am"}, {"days": "Sun", "time": "Closed"}], "id": "6367000015", "name": "USPS COLLECTION BOX - PO LOBBY", "address": {"city": "STE GENEVIEVE", "state": "MO", "street": "135 MERCHANT ST", "postcode": "63670"}}},
{"geometry": {"type": "Point", "coordinates": [-90.0500130273, 37.9676853267]}, "type": "Feature", "properties": {"collection_times": [{"days": "Mon-Sat", "time": "11:00am"}, {"days": "Sun", "time": "Closed"}], "id": "6367000019", "name": "USPS COLLECTION BOX - BLUE BOX", "address": {"city": "STE GENEVIEVE", "state": "MO", "street": "195 PLAZA DR", "postcode": "63670"}}}
]}
