{"type": "FeatureCollection", "features": [
{"geometry": {"type": "Point", "coordinates": [-89.5380066879, 37.3109583589]}, "type": "Feature", "properties": {"collection_times": [{"days": "Mon-Fri", "time": "12:45pm"}, {"days": "Sat", "time": "2:00pm"}, {"days": "Sun", "time": "Closed"}], "id": "6370100003", "name": "USPS COLLECTION BOX - BLUE BOX", "address": {"city": "CAPE GIRARDEAU", "state": "MO", "street": "1701 LACEY ST", "postcode": "63701"}}},
{"geometry": {"type": "Point", "coordinates": [-89.5590182067, 37.3222720062]}, "type": "Feature", "properties": {"collection_times": [{"days": "Mon-Fri", "time": "12:15pm"}, {"days": "Sat", "time": "1:00pm"}, {"days": "Sun", "time": "Closed"}], "id": "6370100004", "name": "USPS COLLECTION BOX - BLUE BOX", "address": {"city": "CAPE GIRARDEAU", "state": "MO", "street": "1120 N KINGS HIGHWAY ST", "postcode": "63701"}}},
{"geometry": {"type": "Point", "coordinates": [-89.552230316, 37.3108939952]}, "type": "Feature", "properties": {"collection_times": [{"days": "Mon-Fri", "time": "12:00pm"}, {"days": "Sat", "time": "2:00pm"}, {"days": "Sun", "time": "Closed"}], "id": "6370100006", "name": "USPS COLLECTION BOX - BLUE BOX", "address": {"city": "CAPE GIRARDEAU", "state": "MO", "street": "325 N KINGS HIGHWAY ST", "postcode": "63701"}}},
{"geometry": {"type": "Point", "coordinates": [-89.5462079192, 37.3128892417]}, "type": "Feature", "properties": {"collection_times": [{"days": "Mon-Fri", "time": "12:45pm"}, {"days": "Sat-Sun", "time": "Closed"}], "id": "6370100016", "name": "USPS COLLECTION BOX - BLUE BOX", "address": {"city": "CAPE GIRARDEAU", "state": "MO", "street": "2027 BROADWAY ST", "postcode": "63701"}}},
{"geometry": {"type": "Point", "coordinates": [-89.524834928, 37.3081611789]}, "type": "Feature", "properties": {"collection_times": [{"days": "Mon-Fri", "time": "12:30pm"}, {"days": "Sat", "time": "2:00pm"}, {"days": "Sun", "time": "Closed"}], "id": "6370100017", "name": "USPS COLLECTION BOX - BLUE BOX", "address": {"city": "CAPE GIRARDEAU", "state": "MO", "street": "320 N FREDERICK ST", "postcode": "63701"}}},
{"geometry": {"type": "Point", "coordinates": [-89.564988812, 37.3281898603]}, "type": "Feature", "properties": {"collection_times": [{"days": "Mon-Fri", "time": "12:15pm"}, {"days": "Sat", "time": "2:00pm"}, {"days": "Sun", "time": "Closed"}], "id": "6370100022", "name": "USPS COLLECTION BOX - BLUE BOX", "address": {"city": "CAPE GIRARDEAU", "state": "MO", "street": "1401 KURRE LN", "postcode": "63701"}}},
{"geometry": {"type": "Point", "coordinates": [-89.5574979795, 37.3206039707]}, "type": "Feature", "properties": {"collection_times": [{"days": "Mon-Fri", "time": "12:00pm"}, {"days": "Sat", "time": "2:00pm"}, {"days": "Sun", "time": "Closed"}], "id": "6370100024", "name": "USPS COLLECTION BOX - BLUE BOX", "address": {"city": "CAPE GIRARDEAU", "state": "MO", "street": "1020 N KINGS HIGHWAY ST", "postcode": "63701"}}},
{"geometry": {"type": "Point", "coordinates": [-89.5797725625, 37.2916427316]}, "type": "Feature", "properties": {"collection_times": [{"days": "Mon-Sat", "time": "4:00pm"}, {"days": "Sun", "time": "Closed"}], "id": "6370100026", "name": "USPS COLLECTION BOX - BLUE BOX", "address": {"city": "CAPE GIRARDEAU", "state": "MO", "street": "475 KELL FARM DR", "postcode": "63701"}}},
{"geometry": {"type": "Point", "coordinates": [-89.5580770768, 37.3290104551]}, "type": "Feature", "properties": {"collection_times": [{"days": "Mon-Sat", "time": "4:00pm"}, {"days": "Sun", "time": "Closed"}], "id": "6370100028", "name": "USPS COLLECTION BOX - EXPRESS", "address": {"city": "CAPE GIRARDEAU", "state": "MO", "street": "475 KELL FARM DR", "postcode": "63701"}}},
{"geometry": {"type": "Point", "coordinates": [-89.5815642286, 37.3028331847]}, "type": "Feature", "properties": {"collection_times": [{"days": "Mon-Sat", "time": "12:00pm"}, {"days": "Sun", "time": "Closed"}], "id": "6370100033", "name": "USPS COLLECTION BOX - BLUE BOX", "address": {"city": "CAPE GIRARDEAU", "state": "MO", "street": "3439 WILLIAM ST", "postcode": "63701"}}},
{"geometry": {"type": "Point", "coordinates": [-89.5727904428, 37.3253666404]}, "type": "Feature", "properties": {"collection_times": [{"days": "Mon-Fri", "time": "12:30pm"}, {"days": "Sat-Sun", "time": "Closed"}], "id": "6370100037", "name": "USPS COLLECTION BOX - BLUE BOX", "address": {"city": "CAPE GIRARDEAU", "state": "MO", "street": "2906 BRECKENRIDGE DR", "postcode": "63701"}}},
{"geometry": {"type": "Point", "coordinates": [-89.524834928, 37.3081611789]}, "type": "Feature", "properties": {"collection_times": [{"days": "Mon-Fri", "time": "12:30pm"}, {"days": "Sat", "time": "12:00pm"}, {"days": "Sun", "time": "Closed"}], "id": "6370100041", "name": "USPS COLLECTION BOX - PO LOBBY", "address": {"city": "CAPE GIRARDEAU", "state": "MO", "street": "320 N FREDERICK ST", "postcode": "63701"}}},
{"geometry": {"type": "Point", "coordinates": [-89.5222755485, 37.3065084074]}, "type": "Feature", "properties": {"collection_times": [{"days": "Mon-Fri", "time": "12:30pm"}, {"days": "Sat-Sun", "time": "Closed"}], "id": "6370100044", "name": "USPS COLLECTION BOX - BLUE BOX", "address": {"city": "CAPE GIRARDEAU", "state": "MO", "street": "221 N FOUNTAIN ST", "postcode": "63701"}}},
{"geometry": {"type": "Point", "coordinates": [-89.5518656258, 37.3062607873]}, "type": "Feature", "properties": {"collection_times": [{"days": "Mon-Sat", "time": "9:30am"}, {"days": "Sun", "time": "Closed"}], "id": "6370300002", "name": "USPS COLLECTION BOX - BLUE BOX", "address": {"city": "CAPE GIRARDEAU", "state": "MO", "street": "19 S KINGSHIGHWAY ST", "postcode": "63703"}}},
{"geometry": {"type": "Point", "coordinates": [-89.5467967666, 37.3028400948]}, "type": "Feature", "properties": {"collection_times": [{"days": "Mon-Fri", "time": "1:00pm"}, {"days": "Sat", "time": "10:00am"}, {"days": "Sun", "time": "Closed"}], "id": "6370300004", "name": "USPS COLLECTION BOX - BLUE BOX", "address": {"city": "CAPE GIRARDEAU", "state": "MO", "street": "2130 WILLIAM ST", "postcode": "63703"}}},
{"geometry": {"type": "Point", "coordinates": [-89.5434257182, 37.29738316]}, "type": "Feature", "properties": {"collection_times": [{"days": "Mon-Fri", "time": "1:30pm"}, {"days": "Sat-Sun", "time": "Closed"}], "id": "6370300006", "name": "USPS COLLECTION BOX - BLUE BOX", "address": {"city": "CAPE GIRARDEAU", "state": "MO", "street": "21 DOCTORS PARK", "postcode": "63703"}}},
{"geometry": {"type": "Point", "coordinates": [-89.5568393679, 37.3043285347]}, "type": "Feature", "properties": {"collection_times": [{"days": "Mon-Fri", "time": "1:15pm"}, {"days": "Sat", "time": "10:00am"}, {"days": "Sun", "time": "Closed"}], "id": "6370300012", "name": "USPS COLLECTION BOX - BLUE BOX", "address": {"city": "CAPE GIRARDEAU", "state": "MO", "street": "160 S BROADVIEW ST", "postcode": "63703"}}},
{"geometry": {"type": "Point", "coordinates": [-89.5737642303, 37.308127321]}, "type": "Feature", "properties": {"collection_times": [{"days": "Mon-Fri", "time": "12:30pm"}, {"days": "Sat", "time": "12:00pm"}, {"days": "Sun", "time": "Closed"}], "id": "6370300013", "name": "USPS COLLECTION BOX - BLUE BOX", "address": {"city": "CAPE GIRARDEAU", "state": "MO", "street": "2 S MOUNT AUBURN RD", "postcode": "63703"}}},
{"geometry": {"type": "Point", "coordinates": [-89.5742945968, 37.3044232438]}, "type": "Feature", "properties": {"collection_times": [{"days": "Mon-Fri", "time": "12:45pm"}, {"days": "Sat-Sun", "time": "Closed"}], "id": "6370300015", "name": "USPS COLLECTION BOX - BLUE BOX", "address": {"city": "CAPE GIRARDEAU", "state": "MO", "street": "101 S MOUNT AUBURN RD", "postcode": "63703"}}},
{"geometry": {"type": "Point", "coordinates": [-89.5658250787, 37.2888846173]}, "type": "Feature", "properties": {"collection_times": [{"days": "Mon-Fri", "time": "1:00pm"}, {"days": "Sat", "time": "11:00am"}, {"days": "Sun", "time": "Closed"}], "id": "6370300018", "name": "USPS COLLECTION BOX - BLUE BOX", "address": {"city": "CAPE GIRARDEAU", "state": "MO", "street": "354 S SILVER SPRINGS RD", "postcode": "63703"}}},
{"geometry": {"type": "Point", "coordinates": [-89.5710570178, 37.3011412275]}, "type": "Feature", "properties": {"collection_times": [{"days": "Mon-Fri", "time": "1:15pm"}, {"days": "Sat-Sun", "time": "Closed"}], "id": "6370300019", "name": "USPS COLLECTION BOX - BLUE BOX", "address": {"city": "CAPE GIRARDEAU", "state": "MO", "street": "3060 WILLIAM ST", "postcode": "63703"}}},
{"geometry": {"type": "Point", "coordinates": [-89.5455427861, 37.301649405]}, "type": "Feature", "properties": {"collection_times": [{"days": "Mon-Fri", "time": "1:15pm"}, {"days": "Sat", "time": "2:00pm"}, {"days": "Sun", "time": "Closed"}], "id": "6370300020", "name": "USPS COLLECTION BOX - BLUE BOX", "address": {"city": "CAPE GIRARDEAU", "state": "MO", "street": "2000 GOOD HOPE", "postcode": "63703"}}},
{"geometry": {"type": "Point", "coordinates": [-89.5532900803, 37.299544978]}, "type": "Feature", "properties": {"collection_times": [{"days": "Mon-Fri", "time": "1:00pm"}, {"days": "Sat-Sun", "time": "Closed"}], "id": "6370300031", "name": "USPS COLLECTION BOX - BLUE BOX", "address": {"city": "CAPE GIRARDEAU", "state": "MO", "street": "358 S KINGSHIGHWAY ST", "postcode": "63703"}}},
{"geometry": {"type": "Point", "coordinates": [-89.5646544052, 37.282586499]}, "type": "Feature", "properties": {"collection_times": [{"days": "Mon-Sat", "time": "12:30pm"}, {"days": "Sun", "time": "Closed"}], "id": "6370300032", "name": "USPS COLLECTION BOX - BLUE BOX", "address": {"city": "CAPE GIRARDEAU", "state": "MO", "street": "606 S SILVER SPRINGS RD", "postcode": "63703"}}},
{"geometry": {"type": "Point", "coordinates": [-89.5713886067, 37.3009901261]}, "type": "Feature", "properties": {"collection_times": [{"days": "Mon-Fri", "time": "1:15pm"}, {"days": "Sat-Sun", "time": "Closed"}], "id": "6370300036", "name": "USPS COLLECTION BOX - BLUE BOX", "address": {"city": "CAPE GIRARDEAU", "state": "MO", "street": "3065 WILLIAM ST", "postcode": "63703"}}},
{"geometry": {"type": "Point", "coordinates": [-89.5389607499, 37.2872382488]}, "type": "Feature", "properties": {"collection_times": [{"days": "Mon-Fri", "time": "12:30pm"}, {"days": "Sat", "time": "1:30pm"}, {"days": "Sun", "time": "Closed"}], "id": "6370300041", "name": "USPS COLLECTION BOX - BLUE BOX", "address": {"city": "CAPE GIRARDEAU", "state": "MO", "street": "1400 SW END BLVD", "postcode": "63703"}}},
{"geometry": {"type": "Point", "coordinates": [-89.5711124891, 37.3009109295]}, "type": "Feature", "properties": {"collection_times": [{"days": "Mon-Fri", "time": "1:15pm"}, {"days": "Sat", "time": "9:00am"}, {"days": "Sun", "time": "Closed"}], "id": "6370300044", "name": "USPS COLLECTION BOX - BLUE BOX", "address": {"city": "CAPE GIRARDEAU", "state": "MO", "street": "3049 WILLIAM ST", "postcode": "63703"}}},
{"geometry": {"type": "Point", "coordinates": [-89.5250167622, 37.3039387934]}, "type": "Feature", "properties": {"collection_times": [{"days": "Mon-Fri", "time": "12:15pm"}, {"days": "Sat", "time": "2:00pm"}, {"days": "Sun", "time": "Closed"}], "id": "6370300045", "name": "USPS COLLECTION BOX - BLUE BOX", "address": {"city": "CAPE GIRARDEAU", "state": "MO", "street": "555 INDEPENDENCE ST", "postcode": "63703"}}},
{"geometry": {"type": "Point", "coordinates": [-89.9126442175, 37.1040572464]}, "type": "Feature", "properties": {"collection_times": [{"days": "Mon-Sat", "time": "11:00am"}, {"days": "Sun", "time": "Closed"}], "id": "6373000000", "name": "USPS COLLECTION BOX - BLUE BOX", "address": {"city": "ADVANCE", "state": "MO", "street": "502 W GABRIEL ST", "postcode": "63730"}}},
{"geometry": {"type": "Point", "coordinates": [-89.9126442175, 37.1040572464]}, "type": "Feature", "properties": {"collection_times": [{"days": "Mon-Sat", "time": "11:00am"}, {"days": "Sun", "time": "Closed"}], "id": "6373000001", "name": "USPS COLLECTION BOX - PO LOBBY", "address": {"city": "ADVANCE", "state": "MO", "street": "502 W GABRIEL ST", "postcode": "63730"}}},
{"geometry": {"type": "Point", "coordinates": [-89.5708045422, 37.6123130128]}, "type": "Feature", "properties": {"collection_times": [{"days": "Mon-Sat", "time": "11:30am"}, {"days": "Sun", "time": "Closed"}], "id": "6373200000", "name": "USPS COLLECTION BOX - BLUE BOX", "address": {"city": "ALTENBURG", "state": "MO", "street": "51 POPLAR ST", "postcode": "63732"}}},
{"geometry": {"type": "Point", "coordinates": [-89.5708045422, 37.6123130128]}, "type": "Feature", "properties": {"collection_times": [{"days": "Mon-Fri", "time": "11:30am"}, {"days": "Sat", "time": "10:00am"}, {"days": "Sun", "time": "Closed"}], "id": "6373200001", "name": "USPS COLLECTION BOX - PO LOBBY", "address": {"city": "ALTENBURG", "state": "MO", "street": "51 POPLAR ST", "postcode": "63732"}}},
{"geometry": {"type": "Point", "coordinates": [-89.8237577832, 37.0218201453]}, "type": "Feature", "properties": {"collection_times": [{"days": "Mon-Sat", "time": "11:30am"}, {"days": "Sun", "time": "Closed"}], "id": "6373500000", "name": "USPS COLLECTION BOX - BLUE BOX", "address": {"city": "BELL CITY", "state": "MO", "street": "25233 WALNUT ST", "postcode": "63735"}}},
{"geometry": {"type": "Point", "coordinates": [-89.8237577832, 37.0218201453]}, "type": "Feature", "properties": {"collection_times": [{"days": "Mon-Sat", "time": "11:30am"}, {"days": "Sun", "time": "Closed"}], "id": "6373500002", "name": "USPS COLLECTION BOX - PO LOBBY", "address": {"city": "BELL CITY", "state": "MO", "street": "25233 WALNUT ST", "postcode": "63735"}}},
{"geometry": {"type": "Point", "coordinates": [-89.5627666848, 37.0975743453]}, "type": "Feature", "properties": {"collection_times": [{"days": "Mon-Fri", "time": "12:00pm"}, {"days": "Sat", "time": "10:00am"}, {"days": "Sun", "time": "Closed"}], "id": "6373600001", "name": "USPS COLLECTION BOX - PO LOBBY", "address": {"city": "BENTON", "state": "MO", "street": "112 S WINCHESTER", "postcode": "63736"}}},
{"geometry": {"type": "Point", "coordinates": [-89.5627666848, 37.0975743453]}, "type": "Feature", "properties": {"collection_times": [{"days": "Mon-Sat", "time": "12:00pm"}, {"days": "Sun", "time": "Closed"}], "id": "6373600002", "name": "USPS COLLECTION BOX - BLUE BOX", "address": {"city": "BENTON", "state": "MO", "street": "112 S WINCHESTER", "postcode": "63736"}}},
{"geometry": {"type": "Point", "coordinates": [-89.9555190247, 37.0804222524]}, "type": "Feature", "properties": {"collection_times": [{"days": "Mon-Sat", "time": "10:45am"}, {"days": "Sun", "time": "Closed"}], "id": "6373800000", "name": "USPS COLLECTION BOX - BLUE BOX", "address": {"city": "BROWNWOOD", "state": "MO", "street": "31927 CENTER ST", "postcode": "63738"}}},
{"geometry": {"type": "Point", "coordinates": [-89.9555190247, 37.0804222524]}, "type": "Feature", "properties": {"collection_times": [{"days": "Mon-Sat", "time": "10:45am"}, {"days": "Sun", "time": "Closed"}], "id": "6373800001", "name": "USPS COLLECTION BOX - PO LOBBY", "address": {"city": "BROWNWOOD", "state": "MO", "street": "31927 CENTER ST", "postcode": "63738"}}},
{"geometry": {"type": "Point", "coordinates": [-89.6557797941, 37.1789507051]}, "type": "Feature", "properties": {"collection_times": [{"days": "Mon-Fri", "time": "12:30pm"}, {"days": "Sat", "time": "10:45am"}, {"days": "Sun", "time": "Closed"}], "id": "6374000002", "name": "USPS COLLECTION BOX - PO LOBBY", "address": {"city": "CHAFFEE", "state": "MO", "street": "217 S MAIN ST", "postcode": "63740"}}},
{"geometry": {"type": "Point", "coordinates": [-89.6557797941, 37.1789507051]}, "type": "Feature", "properties": {"collection_times": [{"days": "Mon-Sat", "time": "12:30pm"}, {"days": "Sun", "time": "Closed"}], "id": "6374000003", "name": "USPS COLLECTION BOX - BLUE BOX", "address": {"city": "CHAFFEE", "state": "MO", "street": "217 S MAIN ST", "postcode": "63740"}}},
{"geometry": {"type": "Point", "coordinates": [-89.7937535257, 37.5232107641]}, "type": "Feature", "properties": {"collection_times": [{"days": "Mon-Sat", "time": "9:45am"}, {"days": "Sun", "time": "Closed"}], "id": "6374300000", "name": "USPS COLLECTION BOX - BLUE BOX", "address": {"city": "DAISY", "state": "MO", "street": "146 MAIN DAISY ST", "postcode": "63743"}}},
{"geometry": {"type": "Point", "coordinates": [-89.7348595591, 37.1966993891]}, "type": "Feature", "properties": {"collection_times": [{"days": "Mon-Sat", "time": "12:30pm"}, {"days": "Sun", "time": "Closed"}], "id": "6374400000", "name": "USPS COLLECTION BOX - BLUE BOX", "address": {"city": "DELTA", "state": "MO", "street": "114 S JACKSON ST", "postcode": "63744"}}},
{"geometry": {"type": "Point", "coordinates": [-89.7348595591, 37.1966993891]}, "type": "Feature", "properties": {"collection_times": [{"days": "Mon-Fri", "time": "12:30pm"}, {"days": "Sat-Sun", "time": "Closed"}], "id": "6374400001", "name": "USPS COLLECTION BOX - PO LOBBY", "address": {"city": "DELTA", "state": "MO", "street": "114 S JACKSON ST", "postcode": "63744"}}},
{"geometry": {"type": "Point", "coordinates": [-89.6301308412, 37.6837728158]}, "type": "Feature", "properties": {"collection_times": [{"days": "Mon-Sat", "time": "11:30am"}, {"days": "Sun", "time": "Closed"}], "id": "6374800000", "name": "USPS COLLECTION BOX - BLUE BOX", "address": {"city": "FROHNA", "state": "MO", "street": "7 BALL PARK DR", "postcode": "63748"}}},
{"geometry": {"type": "Point", "coordinates": [-89.6301308412, 37.6837728158]}, "type": "Feature", "properties": {"collection_times": [{"days": "Mon-Fri", "time": "11:30am"}, {"days": "Sat", "time": "10:45am"}, {"days": "Sun", "time": "Closed"}], "id": "6374800001", "name": "USPS COLLECTION BOX - PO LOBBY", "address": {"city": "FROHNA", "state": "MO", "street": "7 BALL PARK DR", "postcode": "63748"}}},
{"geometry": {"type": "Point", "coordinates": [-90.197230075, 37.1314710579]}, "type": "Feature", "properties": {"collection_times": [{"days": "Mon-Sat", "time": "9:00am"}, {"days": "Sun", "time": "Closed"}], "id": "6375000000", "name": "USPS COLLECTION BOX - BLUE BOX", "address": {"city": "GIPSY", "state": "MO", "street": "100 STATE ROUTE E", "postcode": "63750"}}},
{"geometry": {"type": "Point", "coordinates": [-90.197230075, 37.1314710579]}, "type": "Feature", "properties": {"collection_times": [{"days": "Mon-Sat", "time": "9:00am"}, {"days": "Sun", "time": "Closed"}], "id": "6375000001", "name": "USPS COLLECTION BOX - PO LOBBY", "address": {"city": "GIPSY", "state": "MO", "street": "100 STATE ROUTE E", "postcode": "63750"}}},
{"geometry": {"type": "Point", "coordinates": [-90.0281493994, 37.3150691316]}, "type": "Feature", "properties": {"collection_times": [{"days": "Mon-Sat", "time": "11:00am"}, {"days": "Sun", "time": "Closed"}], "id": "6375100000", "name": "USPS COLLECTION BOX - BLUE BOX", "address": {"city": "GLENALLEN", "state": "MO", "street": "1 SHORT ST", "postcode": "63751"}}},
{"geometry": {"type": "Point", "coordinates": [-90.0281493994, 37.3150691316]}, "type": "Feature", "properties": {"collection_times": [{"days": "Mon-Fri", "time": "11:00am"}, {"days": "Sat", "time": "10:00am"}, {"days": "Sun", "time": "Closed"}], "id": "6375100001", "name": "USPS COLLECTION BOX - PO LOBBY", "address": {"city": "GLENALLEN", "state": "MO", "street": "1 SHORT ST", "postcode": "63751"}}},
{"geometry": {"type": "Point", "coordinates": [-89.6668627906, 37.3117233429]}, "type": "Feature", "properties": {"collection_times": [{"days": "Mon-Sat", "time": "12:30pm"}, {"days": "Sun", "time": "Closed"}], "id": "6375200000", "name": "USPS COLLECTION BOX - BLUE BOX", "address": {"city": "GORDONVILLE", "state": "MO", "street": "5850 STATE HIGHWAY 25", "postcode": "63752"}}},
{"geometry": {"type": "Point", "coordinates": [-89.6668627906, 37.3117233429]}, "type": "Feature", "properties": {"collection_times": [{"days": "Mon-Fri", "time": "12:30pm"}, {"days": "Sat", "time": "9:45am"}, {"days": "Sun", "time": "Closed"}], "id": "6375200001", "name": "USPS COLLECTION BOX - PO LOBBY", "address": {"city": "GORDONVILLE", "state": "MO", "street": "5850 STATE HIGHWAY 25", "postcode": "63752"}}},
{"geometry": {"type": "Point", "coordinates": [-89.6663440308, 37.3823832528]}, "type": "Feature", "properties": {"collection_times": [{"days": "Mon-Sat", "time": "1:00pm"}, {"days": "Sun", "time": "Closed"}], "id": "6375500000", "name": "USPS COLLECTION BOX - BLUE BOX", "address": {"city": "JACKSON", "state": "MO", "street": "210 E MAIN ST", "postcode": "63755"}}},
{"geometry": {"type": "Point", "coordinates": [-89.6663440308, 37.3823832528]}, "type": "Feature", "properties": {"collection_times": [{"days": "Mon-Sat", "time": "1:00pm"}, {"days": "Sun", "time": "Closed"}], "id": "6375500001", "name": "USPS COLLECTION BOX - BLUE BOX", "address": {"city": "JACKSON", "state": "MO", "street": "210 E MAIN ST", "postcode": "63755"}}},
{"geometry": {"type": "Point", "coordinates": [-89.6385333637, 37.4421683244]}, "type": "Feature", "properties": {"collection_times": [{"days": "Mon-Sat", "time": "10:00am"}, {"days": "Sun", "time": "Closed"}], "id": "6375500010", "name": "USPS COLLECTION BOX - BLUE BOX", "address": {"city": "JACKSON", "state": "MO", "street": "4531 N HIGH ST", "postcode": "63755"}}},
{"geometry": {"type": "Point", "coordinates": [-89.6663440308, 37.3823832528]}, "type": "Feature", "properties": {"collection_times": [{"days": "Mon-Sat", "time": "1:00pm"}, {"days": "Sun", "time": "Closed"}], "id": "6375500014", "name": "USPS COLLECTION BOX - BLUE BOX", "address": {"city": "JACKSON", "state": "MO", "street": "210 E MAIN ST", "postcode": "63755"}}},
{"geometry": {"type": "Point", "coordinates": [-89.6663440308, 37.3823832528]}, "type": "Feature", "properties": {"collection_times": [{"days": "Mon-Sat", "time": "1:00pm"}, {"days": "Sun", "time": "Closed"}], "id": "6375500015", "name": "USPS COLLECTION BOX - PO LOBBY", "address": {"city": "JACKSON", "state": "MO", "street": "210 E MAIN ST", "postcode": "63755"}}},
{"geometry": {"type": "Point", "coordinates": [-89.6470840734, 37.3708265876]}, "type": "Feature", "properties": {"collection_times": [{"days": "Mon-Sat", "time": "10:00am"}, {"days": "Sun", "time": "Closed"}], "id": "6375500020", "name": "USPS COLLECTION BOX - BLUE BOX", "address": {"city": "JACKSON", "state": "MO", "street": "2025 E JACKSON BLVD", "postcode": "63755"}}},
{"geometry": {"type": "Point", "coordinates": [-89.6383014933, 37.3667707181]}, "type": "Feature", "properties": {"collection_times": [{"days": "Mon-Sat", "time": "10:00am"}, {"days": "Sun", "time": "Closed"}], "id": "6375500021", "name": "USPS COLLECTION BOX - BLUE BOX", "address": {"city": "JACKSON", "state": "MO", "street": "3010 E JACKSON BLVD", "postcode": "63755"}}},
{"geometry": {"type": "Point", "coordinates": [-89.6470840734, 37.3708265876]}, "type": "Feature", "properties": {"collection_times": [{"days": "Mon-Sat", "time": "10:00am"}, {"days": "Sun", "time": "Closed"}], "id": "6375500022", "name": "USPS COLLECTION BOX - BLUE BOX", "address": {"city": "JACKSON", "state": "MO", "street": "2025 E JACKSON BLVD", "postcode": "63755"}}},
{"geometry": {"type": "Point", "coordinates": [-89.5501306995, 37.1894987593]}, "type": "Feature", "properties": {"collection_times": [{"days": "Mon-Sat", "time": "12:45pm"}, {"days": "Sun", "time": "Closed"}], "id": "6375800000", "name": "USPS COLLECTION BOX - BLUE BOX", "address": {"city": "KELSO", "state": "MO", "street": "140 S MESSMER ST", "postcode": "63758"}}},
{"geometry": {"type": "Point", "coordinates": [-89.5501306995, 37.1894987593]}, "type": "Feature", "properties": {"collection_times": [{"days": "Mon-Fri", "time": "12:45pm"}, {"days": "Sat", "time": "9:00am"}, {"days": "Sun", "time": "Closed"}], "id": "6375800001", "name": "USPS COLLECTION BOX - PO LOBBY", "address": {"city": "KELSO", "state": "MO", "street": "140 S MESSMER ST", "postcode": "63758"}}},
{"geometry": {"type": "Point", "coordinates": [-89.9108523855, 37.2643585009]}, "type": "Feature", "properties": {"collection_times": [{"days": "Mon-Sat", "time": "11:15am"}, {"days": "Sun", "time": "Closed"}], "id": "6376000000", "name": "USPS COLLECTION BOX - BLUE BOX", "address": {"city": "LEOPOLD", "state": "MO", "street": "105 W MAIN ST", "postcode": "63760"}}},
{"geometry": {"type": "Point", "coordinates": [-89.9108523855, 37.2643585009]}, "type": "Feature", "properties": {"collection_times": [{"days": "Mon-Fri", "time": "10:00am"}, {"days": "Sat", "time": "9:15am"}, {"days": "Sun", "time": "Closed"}], "id": "6376000001", "name": "USPS COLLECTION BOX - PO LOBBY", "address": {"city": "LEOPOLD", "state": "MO", "street": "105 W MAIN ST", "postcode": "63760"}}},
{"geometry": {"type": "Point", "coordinates": [-89.981514879, 37.3002280285]}, "type": "Feature", "properties": {"collection_times": [{"days": "Mon-Sat", "time": "11:00am"}, {"days": "Sun", "time": "Closed"}], "id": "6376400002", "name": "USPS COLLECTION BOX - BLUE BOX", "address": {"city": "MARBLE HILL", "state": "MO", "street": "200 STATE HIGHWAY 34 W", "postcode": "63764"}}},
{"geometry": {"type": "Point", "coordinates": [-89.981514879, 37.3002280285]}, "type": "Feature", "properties": {"collection_times": [{"days": "Mon-Fri", "time": "11:00am"}, {"days": "Sat", "time": "10:30am"}, {"days": "Sun", "time": "Closed"}], "id": "6376400004", "name": "USPS COLLECTION BOX - PO LOBBY", "address": {"city": "MARBLE HILL", "state": "MO", "street": "200 STATE HIGHWAY 34 W", "postcode": "63764"}}},
{"geometry": {"type": "Point", "coordinates": [-89.981514879, 37.3002280285]}, "type": "Feature", "properties": {"collection_times": [{"days": "Mon-Fri", "time": "11:00am"}, {"days": "Sat", "time": "10:30am"}, {"days": "Sun", "time": "Closed"}], "id": "6376400005", "name": "USPS COLLECTION BOX - PO LOBBY", "address": {"city": "MARBLE HILL", "state": "MO", "street": "200 STATE HIGHWAY 34 W", "postcode": "63764"}}},
{"geometry": {"type": "Point", "coordinates": [-89.7992166774, 37.4322712003]}, "type": "Feature", "properties": {"collection_times": [{"days": "Mon-Sat", "time": "11:30am"}, {"days": "Sun", "time": "Closed"}], "id": "6376600002", "name": "USPS COLLECTION BOX - BLUE BOX", "address": {"city": "MILLERSVILLE", "state": "MO", "street": "120 COUNTY ROAD 482", "postcode": "63766"}}},
{"geometry": {"type": "Point", "coordinates": [-89.7992166774, 37.4322712003]}, "type": "Feature", "properties": {"collection_times": [{"days": "Mon-Fri", "time": "11:30am"}, {"days": "Sat", "time": "10:15am"}, {"days": "Sun", "time": "Closed"}], "id": "6376600003", "name": "USPS COLLECTION BOX - PO LOBBY", "address": {"city": "MILLERSVILLE", "state": "MO", "street": "120 COUNTY ROAD 482", "postcode": "63766"}}},
{"geometry": {"type": "Point", "coordinates": [-89.6107186556, 37.043032874]}, "type": "Feature", "properties": {"collection_times": [{"days": "Mon-Sat", "time": "11:45am"}, {"days": "Sun", "time": "Closed"}], "id": "6376700000", "name": "USPS COLLECTION BOX - BLUE BOX", "address": {"city": "MORLEY", "state": "MO", "street": "104 N HARDING ST", "postcode": "63767"}}},
{"geometry": {"type": "Point", "coordinates": [-89.6107186556, 37.043032874]}, "type": "Feature", "properties": {"collection_times": [{"days": "Mon-Fri", "time": "11:45am"}, {"days": "Sat", "time": "9:15am"}, {"days": "Sun", "time": "Closed"}], "id": "6376700001", "name": "USPS COLLECTION BOX - PO LOBBY", "address": {"city": "MORLEY", "state": "MO", "street": "104 N HARDING ST", "postcode": "63767"}}},
{"geometry": {"type": "Point", "coordinates": [-89.7293236463, 37.5014495604]}, "type": "Feature", "properties": {"collection_times": [{"days": "Mon-Sat", "time": "12:15pm"}, {"days": "Sun", "time": "Closed"}], "id": "6376900000", "name": "USPS COLLECTION BOX - BLUE BOX", "address": {"city": "OAK RIDGE", "state": "MO", "street": "4042 STATE HWY E", "postcode": "63769"}}},
{"geometry": {"type": "Point", "coordinates": [-89.7293236463, 37.5014495604]}, "type": "Feature", "properties": {"collection_times": [{"days": "Mon-Fri", "time": "12:15pm"}, {"days": "Sat", "time": "9:00am"}, {"days": "Sun", "time": "Closed"}], "id": "6376900001", "name": "USPS COLLECTION BOX - PO LOBBY", "address": {"city": "OAK RIDGE", "state": "MO", "street": "4042 STATE HWY E", "postcode": "63769"}}},
{"geometry": {"type": "Point", "coordinates": [-89.7033509968, 37.5915723932]}, "type": "Feature", "properties": {"collection_times": [{"days": "Mon-Sat", "time": "12:00pm"}, {"days": "Sun", "time": "Closed"}], "id": "6377000000", "name": "USPS COLLECTION BOX - BLUE BOX", "address": {"city": "OLD APPLETON", "state": "MO", "street": "343 APPLETON MAIN ST", "postcode": "63770"}}},
{"geometry": {"type": "Point", "coordinates": [-89.7033509968, 37.5915723932]}, "type": "Feature", "properties": {"collection_times": [{"days": "Mon-Fri", "time": "10:30am"}, {"days": "Sat", "time": "8:30am"}, {"days": "Sun", "time": "Closed"}], "id": "6377000001", "name": "USPS COLLECTION BOX - PO LOBBY", "address": {"city": "OLD APPLETON", "state": "MO", "street": "343 APPLETON MAIN ST", "postcode": "63770"}}},
{"geometry": {"type": "Point", "coordinates": [-89.6555175156, 37.0853335777]}, "type": "Feature", "properties": {"collection_times": [{"days": "Mon-Sat", "time": "12:00pm"}, {"days": "Sun", "time": "Closed"}], "id": "6377100000", "name": "USPS COLLECTION BOX - BLUE BOX", "address": {"city": "ORAN", "state": "MO", "street": "111 N RAILROAD ST", "postcode": "63771"}}},
{"geometry": {"type": "Point", "coordinates": [-89.6555175156, 37.0853335777]}, "type": "Feature", "properties": {"collection_times": [{"days": "Mon-Fri", "time": "12:00pm"}, {"days": "Sat", "time": "9:15am"}, {"days": "Sun", "time": "Closed"}], "id": "6377100001", "name": "USPS COLLECTION BOX - PO LOBBY", "address": {"city": "ORAN", "state": "MO", "street": "111 N RAILROAD ST", "postcode": "63771"}}},
{"geometry": {"type": "Point", "coordinates": [-89.7751318972, 37.0947863888]}, "type": "Feature", "properties": {"collection_times": [{"days": "Mon-Sat", "time": "11:30am"}, {"days": "Sun", "time": "Closed"}], "id": "6377400000", "name": "USPS COLLECTION BOX - BLUE BOX", "address": {"city": "PERKINS", "state": "MO", "street": "622 HIGHWAY P", "postcode": "63774"}}},
{"geometry": {"type": "Point", "coordinates": [-89.7751318972, 37.0947863888]}, "type": "Feature", "properties": {"collection_times": [{"days": "Mon-Sat", "time": "11:30am"}, {"days": "Sun", "time": "Closed"}], "id": "6377400001", "name": "USPS COLLECTION BOX - PO LOBBY", "address": {"city": "PERKINS", "state": "MO", "street": "622 HIGHWAY P", "postcode": "63774"}}},
{"geometry": {"type": "Point", "coordinates": [-89.8837963765, 37.7152986144]}, "type": "Feature", "properties": {"collection_times": [{"days": "Mon-Sat", "time": "11:15am"}, {"days": "Sun", "time": "Closed"}], "id": "6377500011", "name": "USPS COLLECTION BOX - PO LOBBY", "address": {"city": "PERRYVILLE", "state": "MO", "street": "20 E SAINTE MARIE ST", "postcode": "63775"}}},
{"geometry": {"type": "Point", "coordinates": [-89.8837963765, 37.7152986144]}, "type": "Feature", "properties": {"collection_times": [{"days": "Mon-Sat", "time": "11:15am"}, {"days": "Sun", "time": "Closed"}], "id": "6377500014", "name": "USPS COLLECTION BOX - BLUE BOX", "address": {"city": "PERRYVILLE", "state": "MO", "street": "20 E SAINTE MARIE ST", "postcode": "63775"}}},
{"geometry": {"type": "Point", "coordinates": [-89.8878406538, 37.7177814346]}, "type": "Feature", "properties": {"collection_times": [{"days": "Mon-Sat", "time": "11:00am"}, {"days": "Sun", "time": "Closed"}], "id": "6377500015", "name": "USPS COLLECTION BOX - BLUE BOX", "address": {"city": "PERRYVILLE", "state": "MO", "street": "1015 S PERRYVILLE BLVD", "postcode": "63775"}}},
{"geometry": {"type": "Point", "coordinates": [-89.6396786779, 37.5006343081]}, "type": "Feature", "properties": {"collection_times": [{"days": "Mon-Sat", "time": "12:00pm"}, {"days": "Sun", "time": "Closed"}], "id": "6377900000", "name": "USPS COLLECTION BOX - BLUE BOX", "address": {"city": "POCAHONTAS", "state": "MO", "street": "131 POCAHONTAS MAIN ST", "postcode": "63779"}}},
{"geometry": {"type": "Point", "coordinates": [-89.6396786779, 37.5006343081]}, "type": "Feature", "properties": {"collection_times": [{"days": "Mon-Fri", "time": "12:00pm"}, {"days": "Sat", "time": "9:45am"}, {"days": "Sun", "time": "Closed"}], "id": "6377900001", "name": "USPS COLLECTION BOX - PO LOBBY", "address": {"city": "POCAHONTAS", "state": "MO", "street": "131 POCAHONTAS MAIN ST", "postcode": "63779"}}},
{"geometry": {"type": "Point", "coordinates": [-89.5071004637, 37.2152882473]}, "type": "Feature", "properties": {"collection_times": [{"days": "Mon-Sat", "time": "12:00pm"}, {"days": "Sun", "time": "Closed"}], "id": "6378000000", "name": "USPS COLLECTION BOX - BLUE BOX", "address": {"city": "SCOTT CITY", "state": "MO", "street": "605 2ND ST E", "postcode": "63780"}}},
{"geometry": {"type": "Point", "coordinates": [-89.5587644769, 37.2404244011]}, "type": "Feature", "properties": {"collection_times": [{"days": "Mon-Sat", "time": "9:15am"}, {"days": "Sun", "time": "Closed"}], "id": "6378000002", "name": "USPS COLLECTION BOX - BLUE BOX", "address": {"city": "SCOTT CITY", "state": "MO", "street": "3508 NASH RD", "postcode": "63780"}}},
{"geometry": {"type": "Point", "coordinates": [-89.5071004637, 37.2152882473]}, "type": "Feature", "properties": {"collection_times": [{"days": "Mon-Sat", "time": "12:00pm"}, {"days": "Sun", "time": "Closed"}], "id": "6378000003", "name": "USPS COLLECTION BOX - BLUE BOX", "address": {"city": "SCOTT CITY", "state": "MO", "street": "605 2ND ST E", "postcode": "63780"}}},
{"geometry": {"type": "Point", "coordinates": [-89.5071004637, 37.2152882473]}, "type": "Feature", "properties": {"collection_times": [{"days": "Mon-Fri", "time": "12:00pm"}, {"days": "Sat", "time": "9:15am"}, {"days": "Sun", "time": "Closed"}], "id": "6378000006", "name": "USPS COLLECTION BOX - PO LOBBY", "address": {"city": "SCOTT CITY", "state": "MO", "street": "605 2ND ST E", "postcode": "63780"}}},
{"geometry": {"type": "Point", "coordinates": [-89.9277625687, 37.5473405142]}, "type": "Feature", "properties": {"collection_times": [{"days": "Mon-Sat", "time": "11:30am"}, {"days": "Sun", "time": "Closed"}], "id": "6378100000", "name": "USPS COLLECTION BOX - BLUE BOX", "address": {"city": "SEDGEWICKVILLE", "state": "MO", "street": "7 STATE HWY W W", "postcode": "63781"}}},
{"geometry": {"type": "Point", "coordinates": [-89.9277625687, 37.5473405142]}, "type": "Feature", "properties": {"collection_times": [{"days": "Mon-Sat", "time": "11:30am"}, {"days": "Sun", "time": "Closed"}], "id": "6378100001", "name": "USPS COLLECTION BOX - PO LOBBY", "address": {"city": "SEDGEWICKVILLE", "state": "MO", "street": "7 STATE ROUTE WW", "postcode": "63781"}}},
{"geometry": {"type": "Point", "coordinates": [-90.01276718, 37.0497630581]}, "type": "Feature", "properties": {"collection_times": [{"days": "Mon-Sat", "time": "10:30am"}, {"days": "Sun", "time": "Closed"}], "id": "6378200000", "name": "USPS COLLECTION BOX - BLUE BOX", "address": {"city": "STURDIVANT", "state": "MO", "street": "100 COUNTY ROAD 636", "postcode": "63782"}}},
{"geometry": {"type": "Point", "coordinates": [-90.01276718, 37.0497630581]}, "type": "Feature", "properties": {"collection_times": [{"days": "Mon-Sat", "time": "10:30am"}, {"days": "Sun", "time": "Closed"}], "id": "6378200001", "name": "USPS COLLECTION BOX - PO LOBBY", "address": {"city": "STURDIVANT", "state": "MO", "street": "100 COUNTY ROAD 636", "postcode": "63782"}}},
{"geometry": {"type": "Point", "coordinates": [-89.6846812361, 36.9906796954]}, "type": "Feature", "properties": {"collection_times": [{"days": "Mon-Sat", "time": "11:30am"}, {"days": "Sun", "time": "Closed"}], "id": "6378400000", "name": "USPS COLLECTION BOX - BLUE BOX", "address": {"city": "VANDUSER", "state": "MO", "street": "902 VANDUSER ST", "postcode": "63784"}}},
{"geometry": {"type": "Point", "coordinates": [-89.6846812361, 36.9906796954]}, "type": "Feature", "properties": {"collection_times": [{"days": "Mon-Fri", "time": "11:30am"}, {"days": "Sat", "time": "9:15am"}, {"days": "Sun", "time": "Closed"}], "id": "6378400001", "name": "USPS COLLECTION BOX - PO LOBBY", "address": {"city": "VANDUSER", "state": "MO", "street": "902 VANDUSER ST", "postcode": "63784"}}},
{"geometry": {"type": "Point", "coordinates": [-89.7971112066, 37.2364122278]}, "type": "Feature", "properties": {"collection_times": [{"days": "Mon-Sat", "time": "11:30am"}, {"days": "Sun", "time": "Closed"}], "id": "6378500000", "name": "USPS COLLECTION BOX - BLUE BOX", "address": {"city": "WHITEWATER", "state": "MO", "street": "8742 STATE HIGHWAY A", "postcode": "63785"}}},
{"geometry": {"type": "Point", "coordinates": [-89.7971112066, 37.2364122278]}, "type": "Feature", "properties": {"collection_times": [{"days": "Mon-Fri", "time": "11:30am"}, {"days": "Sat", "time": "12:15am"}, {"days": "Sun", "time": "Closed"}], "id": "6378500001", "name": "USPS COLLECTION BOX - PO LOBBY", "address": {"city": "WHITEWATER", "state": "MO", "street": "8742 STATE HIGHWAY A", "postcode": "63785"}}},
{"geometry": {"type": "Point", "coordinates": [-90.0788160376, 37.1449659403]}, "type": "Feature", "properties": {"collection_times": [{"days": "Mon-Sat", "time": "9:45am"}, {"days": "Sun", "time": "Closed"}], "id": "6378700000", "name": "USPS COLLECTION BOX - BLUE BOX", "address": {"city": "ZALMA", "state": "MO", "street": "450 N MAIN ST", "postcode": "63787"}}},
{"geometry": {"type": "Point", "coordinates": [-90.0788160376, 37.1449659403]}, "type": "Feature", "properties": {"collection_times": [{"days": "Mon-Sat", "time": "9:45am"}, {"days": "Sun", "time": "Closed"}], "id": "6378700001", "name": "USPS COLLECTION BOX - PO LOBBY", "address": {"city": "ZALMA", "state": "MO", "street": "450 N MAIN ST", "postcode": "63787"}}}
]}
