{"type": "FeatureCollection", "features": [
{"geometry": {"type": "Point", "coordinates": [-89.5896962247, 36.8787739114]}, "type": "Feature", "properties": {"collection_times": [{"days": "Mon-Sat", "time": "12:15pm"}, {"days": "Sun", "time": "Closed"}], "id": "6380100000", "name": "USPS COLLECTION BOX - BLUE BOX", "address": {"city": "SIKESTON", "state": "MO", "street": "120 E NORTH ST", "postcode": "63801"}}},
{"geometry": {"type": "Point", "coordinates": [-89.581926812, 36.8868540054]}, "type": "Feature", "properties": {"collection_times": [{"days": "Mon-Sat", "time": "12:15pm"}, {"days": "Sun", "time": "Closed"}], "id": "6380100003", "name": "USPS COLLECTION BOX - EXPRESS", "address": {"city": "SIKESTON", "state": "MO", "street": "120 E NORTH ST", "postcode": "63801"}}},
{"geometry": {"type": "Point", "coordinates": [-89.6028745015, 36.9244982012]}, "type": "Feature", "properties": {"collection_times": [{"days": "Mon-Sat", "time": "11:30am"}, {"days": "Sun", "time": "Closed"}], "id": "6380100004", "name": "USPS COLLECTION BOX - BLUE BOX", "address": {"city": "SIKESTON", "state": "MO", "street": "103 STATE ROUTE H", "postcode": "63801"}}},
{"geometry": {"type": "Point", "coordinates": [-89.5497958829, 36.8877219542]}, "type": "Feature", "properties": {"collection_times": [{"days": "Mon-Sat", "time": "11:30am"}, {"days": "Sun", "time": "Closed"}], "id": "6380100006", "name": "USPS COLLECTION BOX - BLUE BOX", "address": {"city": "SIKESTON", "state": "MO", "street": "2201 E MALONE AVE", "postcode": "63801"}}},
{"geometry": {"type": "Point", "coordinates": [-89.5809253291, 36.8841694866]}, "type": "Feature", "properties": {"collection_times": [{"days": "Mon-Sat", "time": "11:30am"}, {"days": "Sun", "time": "Closed"}], "id": "6380100008", "name": "USPS COLLECTION BOX - BLUE BOX", "address": {"city": "SIKESTON", "state": "MO", "street": "625 N MAIN ST", "postcode": "63801"}}},
{"geometry": {"type": "Point", "coordinates": [-89.5809253291, 36.8841694866]}, "type": "Feature", "properties": {"collection_times": [{"days": "Mon-Sat", "time": "11:30am"}, {"days": "Sun", "time": "Closed"}], "id": "6380100009", "name": "USPS COLLECTION BOX - BLUE BOX", "address": {"city": "SIKESTON", "state": "MO", "street": "625 N MAIN ST", "postcode": "63801"}}},
{"geometry": {"type": "Point", "coordinates": [-89.5896962247, 36.8787739114]}, "type": "Feature", "properties": {"collection_times": [{"days": "Mon-Sat", "time": "12:15pm"}, {"days": "Sun", "time": "Closed"}], "id": "6380100024", "name": "USPS COLLECTION BOX - PO LOBBY", "address": {"city": "SIKESTON", "state": "MO", "street": "120 E NORTH ST", "postcode": "63801"}}},
{"geometry": {"type": "Point", "coordinates": [-89.5780107772, 36.8721001328]}, "type": "Feature", "properties": {"collection_times": [{"days": "Mon-Sat", "time": "11:30am"}, {"days": "Sun", "time": "Closed"}], "id": "6380100025", "name": "USPS COLLECTION BOX - BLUE BOX", "address": {"city": "SIKESTON", "state": "MO", "street": "750 S MAIN ST", "postcode": "63801"}}},
{"geometry": {"type": "Point", "coordinates": [-89.5816898587, 36.8656337917]}, "type": "Feature", "properties": {"collection_times": [{"days": "Mon-Sat", "time": "11:30am"}, {"days": "Sun", "time": "Closed"}], "id": "6380100027", "name": "USPS COLLECTION BOX - BLUE BOX", "address": {"city": "SIKESTON", "state": "MO", "street": "1205 S MAIN ST", "postcode": "63801"}}},
{"geometry": {"type": "Point", "coordinates": [-89.3281046256, 36.8249949436]}, "type": "Feature", "properties": {"collection_times": [{"days": "Mon-Sat", "time": "10:30am"}, {"days": "Sun", "time": "Closed"}], "id": "6382000000", "name": "USPS COLLECTION BOX - BLUE BOX", "address": {"city": "ANNISTON", "state": "MO", "street": "100 HIGHWAY 75 N", "postcode": "63820"}}},
{"geometry": {"type": "Point", "coordinates": [-89.3281046256, 36.8249949436]}, "type": "Feature", "properties": {"collection_times": [{"days": "Mon-Fri", "time": "10:30am"}, {"days": "Sat", "time": "8:00am"}, {"days": "Sun", "time": "Closed"}], "id": "6382000001", "name": "USPS COLLECTION BOX - PO LOBBY", "address": {"city": "ANNISTON", "state": "MO", "street": "100 HIGHWAY 75 N", "postcode": "63820"}}},
{"geometry": {"type": "Point", "coordinates": [-90.2238982097, 36.0438572892]}, "type": "Feature", "properties": {"collection_times": [{"days": "Mon-Sat", "time": "10:00am"}, {"days": "Sun", "time": "Closed"}], "id": "6382100000", "name": "USPS COLLECTION BOX - BLUE BOX", "address": {"city": "ARBYRD", "state": "MO", "street": "104 NE FRISCO ST", "postcode": "63821"}}},
{"geometry": {"type": "Point", "coordinates": [-90.2238982097, 36.0438572892]}, "type": "Feature", "properties": {"collection_times": [{"days": "Mon-Sat", "time": "10:00am"}, {"days": "Sun", "time": "Closed"}], "id": "6382100001", "name": "USPS COLLECTION BOX - PO LOBBY", "address": {"city": "ARBYRD", "state": "MO", "street": "104 NE FRISCO ST", "postcode": "63821"}}},
{"geometry": {"type": "Point", "coordinates": [-89.9684288396, 36.6684251506]}, "type": "Feature", "properties": {"collection_times": [{"days": "Mon-Sat", "time": "10:30am"}, {"days": "Sun", "time": "Closed"}], "id": "6382200000", "name": "USPS COLLECTION BOX - BLUE BOX", "address": {"city": "BERNIE", "state": "MO", "street": "115 WOODS AVE", "postcode": "63822"}}},
{"geometry": {"type": "Point", "coordinates": [-89.9684288396, 36.6684251506]}, "type": "Feature", "properties": {"collection_times": [{"days": "Mon-Fri", "time": "10:30am"}, {"days": "Sat", "time": "10:00am"}, {"days": "Sun", "time": "Closed"}], "id": "6382200004", "name": "USPS COLLECTION BOX - PO LOBBY", "address": {"city": "BERNIE", "state": "MO", "street": "115 WOODS AVE", "postcode": "63822"}}},
{"geometry": {"type": "Point", "coordinates": [-89.4524412221, 36.9093314974]}, "type": "Feature", "properties": {"collection_times": [{"days": "Mon-Sat", "time": "11:45am"}, {"days": "Sun", "time": "Closed"}], "id": "6382300000", "name": "USPS COLLECTION BOX - BLUE BOX", "address": {"city": "BERTRAND", "state": "MO", "street": "210 W CEDAR ST", "postcode": "63823"}}},
{"geometry": {"type": "Point", "coordinates": [-89.4524412221, 36.9093314974]}, "type": "Feature", "properties": {"collection_times": [{"days": "Mon-Fri", "time": "11:45am"}, {"days": "Sat", "time": "8:45am"}, {"days": "Sun", "time": "Closed"}], "id": "6382300002", "name": "USPS COLLECTION BOX - PO LOBBY", "address": {"city": "BERTRAND", "state": "MO", "street": "210 W CEDAR ST", "postcode": "63823"}}},
{"geometry": {"type": "Point", "coordinates": [-89.5253185276, 37.0065412383]}, "type": "Feature", "properties": {"collection_times": [{"days": "Mon-Sat", "time": "11:45am"}, {"days": "Sun", "time": "Closed"}], "id": "6382400000", "name": "USPS COLLECTION BOX - BLUE BOX", "address": {"city": "BLODGETT", "state": "MO", "street": "406 STATE HIGHWAY H", "postcode": "63824"}}},
{"geometry": {"type": "Point", "coordinates": [-89.5253185276, 37.0065412383]}, "type": "Feature", "properties": {"collection_times": [{"days": "Mon-Fri", "time": "11:45am"}, {"days": "Sat", "time": "9:15am"}, {"days": "Sun", "time": "Closed"}], "id": "6382400001", "name": "USPS COLLECTION BOX - PO LOBBY", "address": {"city": "BLODGETT", "state": "MO", "street": "406 STATE HIGHWAY H", "postcode": "63824"}}},
{"geometry": {"type": "Point", "coordinates": [-89.9289628141, 36.8872243441]}, "type": "Feature", "properties": {"collection_times": [{"days": "Mon-Sat", "time": "11:00am"}, {"days": "Sun", "time": "Closed"}], "id": "6382500000", "name": "USPS COLLECTION BOX - BLUE BOX", "address": {"city": "BLOOMFIELD", "state": "MO", "street": "301 N PRAIRIE PR", "postcode": "63825"}}},
{"geometry": {"type": "Point", "coordinates": [-89.9289628141, 36.8872243441]}, "type": "Feature", "properties": {"collection_times": [{"days": "Mon-Sat", "time": "11:00am"}, {"days": "Sun", "time": "Closed"}], "id": "6382500003", "name": "USPS COLLECTION BOX - PO LOBBY", "address": {"city": "BLOOMFIELD", "state": "MO", "street": "301 N PRAIRIE PR", "postcode": "63825"}}},
{"geometry": {"type": "Point", "coordinates": [-89.8294598745, 36.1754759712]}, "type": "Feature", "properties": {"collection_times": [{"days": "Mon-Sat", "time": "10:30am"}, {"days": "Sun", "time": "Closed"}], "id": "6382600000", "name": "USPS COLLECTION BOX - BLUE BOX", "address": {"city": "BRAGGADOCIO", "state": "MO", "street": "2064 STATE HIGHWAY Z", "postcode": "63826"}}},
{"geometry": {"type": "Point", "coordinates": [-89.8294598745, 36.1754759712]}, "type": "Feature", "properties": {"collection_times": [{"days": "Mon-Fri", "time": "10:30am"}, {"days": "Sat", "time": "8:45am"}, {"days": "Sun", "time": "Closed"}], "id": "6382600001", "name": "USPS COLLECTION BOX - PO LOBBY", "address": {"city": "BRAGGADOCIO", "state": "MO", "street": "2064 STATE HIGHWAY Z", "postcode": "63826"}}},
{"geometry": {"type": "Point", "coordinates": [-89.9111351213, 36.2678839604]}, "type": "Feature", "properties": {"collection_times": [{"days": "Mon-Sat", "time": "10:30am"}, {"days": "Sun", "time": "Closed"}], "id": "6382700000", "name": "USPS COLLECTION BOX - BLUE BOX", "address": {"city": "BRAGG CITY", "state": "MO", "street": "120 S MAIN ST", "postcode": "63827"}}},
{"geometry": {"type": "Point", "coordinates": [-89.9111351213, 36.2678839604]}, "type": "Feature", "properties": {"collection_times": [{"days": "Mon-Fri", "time": "10:30am"}, {"days": "Sat", "time": "8:45am"}, {"days": "Sun", "time": "Closed"}], "id": "6382700001", "name": "USPS COLLECTION BOX - PO LOBBY", "address": {"city": "BRAGG CITY", "state": "MO", "street": "120 S MAIN ST", "postcode": "63827"}}},
{"geometry": {"type": "Point", "coordinates": [-89.6868173216, 36.7544302352]}, "type": "Feature", "properties": {"collection_times": [{"days": "Mon-Sat", "time": "9:30am"}, {"days": "Sun", "time": "Closed"}], "id": "6382800000", "name": "USPS COLLECTION BOX - BLUE BOX", "address": {"city": "CANALOU", "state": "MO", "street": "235 MADISON ST", "postcode": "63828"}}},
{"geometry": {"type": "Point", "coordinates": [-90.293125043, 36.046577673]}, "type": "Feature", "properties": {"collection_times": [{"days": "Mon-Sat", "time": "10:00am"}, {"days": "Sun", "time": "Closed"}], "id": "6382900000", "name": "USPS COLLECTION BOX - BLUE BOX", "address": {"city": "CARDWELL", "state": "MO", "street": "107 S MAIN ST", "postcode": "63829"}}},
{"geometry": {"type": "Point", "coordinates": [-90.293125043, 36.046577673]}, "type": "Feature", "properties": {"collection_times": [{"days": "Mon-Sat", "time": "10:00am"}, {"days": "Sun", "time": "Closed"}], "id": "6382900001", "name": "USPS COLLECTION BOX - PO LOBBY", "address": {"city": "CARDWELL", "state": "MO", "street": "107 S MAIN ST", "postcode": "63829"}}},
{"geometry": {"type": "Point", "coordinates": [-89.65566663, 36.1932549952]}, "type": "Feature", "properties": {"collection_times": [{"days": "Mon-Sat", "time": "10:30am"}, {"days": "Sun", "time": "Closed"}], "id": "6383000000", "name": "USPS COLLECTION BOX - BLUE BOX", "address": {"city": "CARUTHERSVILLE", "state": "MO", "street": "300 CARLETON AVE", "postcode": "63830"}}},
{"geometry": {"type": "Point", "coordinates": [-89.65566663, 36.1932549952]}, "type": "Feature", "properties": {"collection_times": [{"days": "Mon-Sat", "time": "10:30am"}, {"days": "Sun", "time": "Closed"}], "id": "6383000001", "name": "USPS COLLECTION BOX - BLUE BOX", "address": {"city": "CARUTHERSVILLE", "state": "MO", "street": "300 CARLETON AVE", "postcode": "63830"}}},
{"geometry": {"type": "Point", "coordinates": [-89.65566663, 36.1932549952]}, "type": "Feature", "properties": {"collection_times": [{"days": "Mon-Sat", "time": "10:30am"}, {"days": "Sun", "time": "Closed"}], "id": "6383000019", "name": "USPS COLLECTION BOX - PO LOBBY", "address": {"city": "CARUTHERSVILLE", "state": "MO", "street": "300 CARLETON AVE", "postcode": "63830"}}},
{"geometry": {"type": "Point", "coordinates": [-89.6983599243, 36.6372638545]}, "type": "Feature", "properties": {"collection_times": [{"days": "Mon-Sat", "time": "9:30am"}, {"days": "Sun", "time": "Closed"}], "id": "6383300000", "name": "USPS COLLECTION BOX - BLUE BOX", "address": {"city": "CATRON", "state": "MO", "street": "3770 STATE HIGHWAY D", "postcode": "63833"}}},
{"geometry": {"type": "Point", "coordinates": [-89.6983599243, 36.6372638545]}, "type": "Feature", "properties": {"collection_times": [{"days": "Mon-Fri", "time": "9:30am"}, {"days": "Sat", "time": "9:15am"}, {"days": "Sun", "time": "Closed"}], "id": "6383300002", "name": "USPS COLLECTION BOX - PO LOBBY", "address": {"city": "CATRON", "state": "MO", "street": "3770 STATE HIGHWAY D", "postcode": "63833"}}},
{"geometry": {"type": "Point", "coordinates": [-89.3500088917, 36.9221084187]}, "type": "Feature", "properties": {"collection_times": [{"days": "Mon-Fri", "time": "11:30am"}, {"days": "Sat", "time": "11:00am"}, {"days": "Sun", "time": "Closed"}], "id": "6383400016", "name": "USPS COLLECTION BOX - PO LOBBY", "address": {"city": "CHARLESTON", "state": "MO", "street": "300 S MAIN ST", "postcode": "63834"}}},
{"geometry": {"type": "Point", "coordinates": [-89.3501415849, 36.9243941509]}, "type": "Feature", "properties": {"collection_times": [{"days": "Mon-Sat", "time": "11:00am"}, {"days": "Sun", "time": "Closed"}], "id": "6383400018", "name": "USPS COLLECTION BOX - BLUE BOX", "address": {"city": "CHARLESTON", "state": "MO", "street": "200 N MAIN ST", "postcode": "63834"}}},
{"geometry": {"type": "Point", "coordinates": [-89.3500773185, 36.9187941408]}, "type": "Feature", "properties": {"collection_times": [{"days": "Mon-Sat", "time": "11:30am"}, {"days": "Sun", "time": "Closed"}], "id": "6383400019", "name": "USPS COLLECTION BOX - BLUE BOX", "address": {"city": "CHARLESTON", "state": "MO", "street": "300 S MAIN ST", "postcode": "63834"}}},
{"geometry": {"type": "Point", "coordinates": [-89.9675255623, 36.4517827383]}, "type": "Feature", "properties": {"collection_times": [{"days": "Mon-Sat", "time": "10:30am"}, {"days": "Sun", "time": "Closed"}], "id": "6383700001", "name": "USPS COLLECTION BOX - BLUE BOX", "address": {"city": "CLARKTON", "state": "MO", "street": "109 N MAIN ST", "postcode": "63837"}}},
{"geometry": {"type": "Point", "coordinates": [-89.9675255623, 36.4517827383]}, "type": "Feature", "properties": {"collection_times": [{"days": "Mon-Fri", "time": "10:30am"}, {"days": "Sat", "time": "7:30am"}, {"days": "Sun", "time": "Closed"}], "id": "6383700002", "name": "USPS COLLECTION BOX - PO LOBBY", "address": {"city": "CLARKTON", "state": "MO", "street": "109 N MAIN ST", "postcode": "63837"}}},
{"geometry": {"type": "Point", "coordinates": [-89.8144470008, 36.0486026136]}, "type": "Feature", "properties": {"collection_times": [{"days": "Mon-Sat", "time": "9:30am"}, {"days": "Sun", "time": "Closed"}], "id": "6383900000", "name": "USPS COLLECTION BOX - BLUE BOX", "address": {"city": "COOTER", "state": "MO", "street": "102 MAIN ST", "postcode": "63839"}}},
{"geometry": {"type": "Point", "coordinates": [-89.8144470008, 36.0486026136]}, "type": "Feature", "properties": {"collection_times": [{"days": "Mon-Sat", "time": "9:30am"}, {"days": "Sun", "time": "Closed"}], "id": "6383900001", "name": "USPS COLLECTION BOX - PO LOBBY", "address": {"city": "COOTER", "state": "MO", "street": "102 MAIN ST", "postcode": "63839"}}},
{"geometry": {"type": "Point", "coordinates": [-89.8967255201, 36.1898415285]}, "type": "Feature", "properties": {"collection_times": [{"days": "Mon-Sat", "time": "10:30am"}, {"days": "Sun", "time": "Closed"}], "id": "6384000000", "name": "USPS COLLECTION BOX - BLUE BOX", "address": {"city": "DEERING", "state": "MO", "street": "6296 STATE HIGHWAY J", "postcode": "63840"}}},
{"geometry": {"type": "Point", "coordinates": [-89.8967255201, 36.1898415285]}, "type": "Feature", "properties": {"collection_times": [{"days": "Mon-Sat", "time": "10:30am"}, {"days": "Sun", "time": "Closed"}], "id": "6384000001", "name": "USPS COLLECTION BOX - PO LOBBY", "address": {"city": "DEERING", "state": "MO", "street": "6296 STATE HIGHWAY J", "postcode": "63840"}}},
{"geometry": {"type": "Point", "coordinates": [-89.9549898335, 36.7930943667]}, "type": "Feature", "properties": {"collection_times": [{"days": "Mon-Sat", "time": "11:30am"}, {"days": "Sun", "time": "Closed"}], "id": "6384100000", "name": "USPS COLLECTION BOX - BLUE BOX", "address": {"city": "DEXTER", "state": "MO", "street": "202 E STODDARD ST", "postcode": "63841"}}},
{"geometry": {"type": "Point", "coordinates": [-89.9749326312, 36.7716018428]}, "type": "Feature", "properties": {"collection_times": [{"days": "Mon-Sat", "time": "11:00am"}, {"days": "Sun", "time": "Closed"}], "id": "6384100011", "name": "USPS COLLECTION BOX - BLUE BOX", "address": {"city": "DEXTER", "state": "MO", "street": "1028 HWY BUS 60 WEST", "postcode": "63841"}}},
{"geometry": {"type": "Point", "coordinates": [-89.9549898335, 36.7930943667]}, "type": "Feature", "properties": {"collection_times": [{"days": "Mon-Sat", "time": "11:30am"}, {"days": "Sun", "time": "Closed"}], "id": "6384100013", "name": "USPS COLLECTION BOX - PO LOBBY", "address": {"city": "DEXTER", "state": "MO", "street": "202 E STODDARD ST", "postcode": "63841"}}},
{"geometry": {"type": "Point", "coordinates": [-89.3877425545, 36.7793998636]}, "type": "Feature", "properties": {"collection_times": [{"days": "Mon-Sat", "time": "11:00am"}, {"days": "Sun", "time": "Closed"}], "id": "6384500000", "name": "USPS COLLECTION BOX - BLUE BOX", "address": {"city": "EAST PRAIRIE", "state": "MO", "street": "122 W PINE ST", "postcode": "63845"}}},
{"geometry": {"type": "Point", "coordinates": [-89.3877425545, 36.7793998636]}, "type": "Feature", "properties": {"collection_times": [{"days": "Mon-Sat", "time": "11:00am"}, {"days": "Sun", "time": "Closed"}], "id": "6384500001", "name": "USPS COLLECTION BOX - BLUE BOX", "address": {"city": "EAST PRAIRIE", "state": "MO", "street": "122 W PINE ST", "postcode": "63845"}}},
{"geometry": {"type": "Point", "coordinates": [-89.3877425545, 36.7793998636]}, "type": "Feature", "properties": {"collection_times": [{"days": "Mon-Sat", "time": "11:00am"}, {"days": "Sun", "time": "Closed"}], "id": "6384500022", "name": "USPS COLLECTION BOX - PO LOBBY", "address": {"city": "EAST PRAIRIE", "state": "MO", "street": "122 W PINE ST", "postcode": "63845"}}},
{"geometry": {"type": "Point", "coordinates": [-89.8616201554, 36.8125642957]}, "type": "Feature", "properties": {"collection_times": [{"days": "Mon-Sat", "time": "10:00am"}, {"days": "Sun", "time": "Closed"}], "id": "6384600000", "name": "USPS COLLECTION BOX - BLUE BOX", "address": {"city": "ESSEX", "state": "MO", "street": "112 N CYPRESS ST", "postcode": "63846"}}},
{"geometry": {"type": "Point", "coordinates": [-90.0088240368, 36.4552683222]}, "type": "Feature", "properties": {"collection_times": [{"days": "Mon-Sat", "time": "10:00am"}, {"days": "Sun", "time": "Closed"}], "id": "6384700000", "name": "USPS COLLECTION BOX - BLUE BOX", "address": {"city": "GIBSON", "state": "MO", "street": "110 MAIN ST", "postcode": "63847"}}},
{"geometry": {"type": "Point", "coordinates": [-90.0088240368, 36.4552683222]}, "type": "Feature", "properties": {"collection_times": [{"days": "Mon-Sat", "time": "10:00am"}, {"days": "Sun", "time": "Closed"}], "id": "6384700001", "name": "USPS COLLECTION BOX - PO LOBBY", "address": {"city": "GIBSON", "state": "MO", "street": "110 MAIN ST", "postcode": "63847"}}},
{"geometry": {"type": "Point", "coordinates": [-89.9195694336, 36.4553778725]}, "type": "Feature", "properties": {"collection_times": [{"days": "Mon-Sat", "time": "10:30am"}, {"days": "Sun", "time": "Closed"}], "id": "6384800000", "name": "USPS COLLECTION BOX - BLUE BOX", "address": {"city": "GIDEON", "state": "MO", "street": "102 E 1ST ST", "postcode": "63848"}}},
{"geometry": {"type": "Point", "coordinates": [-89.9195694336, 36.4553778725]}, "type": "Feature", "properties": {"collection_times": [{"days": "Mon-Sat", "time": "10:30am"}, {"days": "Sun", "time": "Closed"}], "id": "6384800002", "name": "USPS COLLECTION BOX - PO LOBBY", "address": {"city": "GIDEON", "state": "MO", "street": "102 E 1ST ST", "postcode": "63848"}}},
{"geometry": {"type": "Point", "coordinates": [-89.9379261476, 36.1463912031]}, "type": "Feature", "properties": {"collection_times": [{"days": "Mon-Sat", "time": "10:30am"}, {"days": "Sun", "time": "Closed"}], "id": "6384900000", "name": "USPS COLLECTION BOX - BLUE BOX", "address": {"city": "GOBLER", "state": "MO", "street": "201 STATE ROUTE J", "postcode": "63849"}}},
{"geometry": {"type": "Point", "coordinates": [-89.9520111065, 36.1418928759]}, "type": "Feature", "properties": {"collection_times": [{"days": "Mon-Sat", "time": "10:30am"}, {"days": "Sun", "time": "Closed"}], "id": "6384900001", "name": "USPS COLLECTION BOX - PO LOBBY", "address": {"city": "GOBLER", "state": "MO", "street": "201 STATE RD", "postcode": "63849"}}},
{"geometry": {"type": "Point", "coordinates": [-89.782237243, 36.8216262623]}, "type": "Feature", "properties": {"collection_times": [{"days": "Mon-Sat", "time": "11:15am"}, {"days": "Sun", "time": "Closed"}], "id": "6385000000", "name": "USPS COLLECTION BOX - BLUE BOX", "address": {"city": "GRAYRIDGE", "state": "MO", "street": "14348 OAK ST", "postcode": "63850"}}},
{"geometry": {"type": "Point", "coordinates": [-89.782237243, 36.8216262623]}, "type": "Feature", "properties": {"collection_times": [{"days": "Mon-Sat", "time": "11:15am"}, {"days": "Sun", "time": "Closed"}], "id": "6385000001", "name": "USPS COLLECTION BOX - PO LOBBY", "address": {"city": "GRAYRIDGE", "state": "MO", "street": "14348 OAK ST", "postcode": "63850"}}},
{"geometry": {"type": "Point", "coordinates": [-89.7453084316, 36.2339568847]}, "type": "Feature", "properties": {"collection_times": [{"days": "Mon-Sat", "time": "10:15am"}, {"days": "Sun", "time": "Closed"}], "id": "6385100001", "name": "USPS COLLECTION BOX - BLUE BOX", "address": {"city": "HAYTI", "state": "MO", "street": "607 E WASHINGTON ST", "postcode": "63851"}}},
{"geometry": {"type": "Point", "coordinates": [-89.7453084316, 36.2339568847]}, "type": "Feature", "properties": {"collection_times": [{"days": "Mon-Sat", "time": "10:15am"}, {"days": "Sun", "time": "Closed"}], "id": "6385100003", "name": "USPS COLLECTION BOX - PO LOBBY", "address": {"city": "HAYTI", "state": "MO", "street": "607 E WASHINGTON ST", "postcode": "63851"}}},
{"geometry": {"type": "Point", "coordinates": [-90.023682043, 36.4050821526]}, "type": "Feature", "properties": {"collection_times": [{"days": "Mon-Sat", "time": "10:15am"}, {"days": "Sun", "time": "Closed"}], "id": "6385200000", "name": "USPS COLLECTION BOX - BLUE BOX", "address": {"city": "HOLCOMB", "state": "MO", "street": "205 CHURCH ST", "postcode": "63852"}}},
{"geometry": {"type": "Point", "coordinates": [-90.023682043, 36.4050821526]}, "type": "Feature", "properties": {"collection_times": [{"days": "Mon-Sat", "time": "10:15am"}, {"days": "Sun", "time": "Closed"}], "id": "6385200002", "name": "USPS COLLECTION BOX - PO LOBBY", "address": {"city": "HOLCOMB", "state": "MO", "street": "205 CHURCH ST", "postcode": "63852"}}},
{"geometry": {"type": "Point", "coordinates": [-89.8711248921, 36.0574278089]}, "type": "Feature", "properties": {"collection_times": [{"days": "Mon-Sat", "time": "9:30am"}, {"days": "Sun", "time": "Closed"}], "id": "6385300000", "name": "USPS COLLECTION BOX - BLUE BOX", "address": {"city": "HOLLAND", "state": "MO", "street": "208 WALNUT ST", "postcode": "63853"}}},
{"geometry": {"type": "Point", "coordinates": [-89.8711248921, 36.0574278089]}, "type": "Feature", "properties": {"collection_times": [{"days": "Mon-Sat", "time": "9:30am"}, {"days": "Sun", "time": "Closed"}], "id": "6385300001", "name": "USPS COLLECTION BOX - PO LOBBY", "address": {"city": "HOLLAND", "state": "MO", "street": "208 WALNUT ST", "postcode": "63853"}}},
{"geometry": {"type": "Point", "coordinates": [-90.1098617435, 36.0438349107]}, "type": "Feature", "properties": {"collection_times": [{"days": "Mon-Sat", "time": "10:00am"}, {"days": "Sun", "time": "Closed"}], "id": "6385500000", "name": "USPS COLLECTION BOX - BLUE BOX", "address": {"city": "HORNERSVILLE", "state": "MO", "street": "405 PECAN ST", "postcode": "63855"}}},
{"geometry": {"type": "Point", "coordinates": [-90.1098617435, 36.0438349107]}, "type": "Feature", "properties": {"collection_times": [{"days": "Mon-Sat", "time": "10:00am"}, {"days": "Sun", "time": "Closed"}], "id": "6385500002", "name": "USPS COLLECTION BOX - PO LOBBY", "address": {"city": "HORNERSVILLE", "state": "MO", "street": "405 PECAN ST", "postcode": "63855"}}},
{"geometry": {"type": "Point", "coordinates": [-90.0499577694, 36.2389137959]}, "type": "Feature", "properties": {"collection_times": [{"days": "Mon-Sat", "time": "11:15am"}, {"days": "Sun", "time": "Closed"}], "id": "6385700000", "name": "USPS COLLECTION BOX - BLUE BOX", "address": {"city": "KENNETT", "state": "MO", "street": "201 N MAIN ST", "postcode": "63857"}}},
{"geometry": {"type": "Point", "coordinates": [-90.0499577694, 36.2389137959]}, "type": "Feature", "properties": {"collection_times": [{"days": "Mon-Sat", "time": "11:15am"}, {"days": "Sun", "time": "Closed"}], "id": "6385700001", "name": "USPS COLLECTION BOX - BLUE BOX", "address": {"city": "KENNETT", "state": "MO", "street": "201 N MAIN ST", "postcode": "63857"}}},
{"geometry": {"type": "Point", "coordinates": [-90.0499577694, 36.2389137959]}, "type": "Feature", "properties": {"collection_times": [{"days": "Mon-Sat", "time": "11:15am"}, {"days": "Sun", "time": "Closed"}], "id": "6385700002", "name": "USPS COLLECTION BOX - BLUE BOX", "address": {"city": "KENNETT", "state": "MO", "street": "201 N MAIN ST", "postcode": "63857"}}},
{"geometry": {"type": "Point", "coordinates": [-90.0499577694, 36.2389137959]}, "type": "Feature", "properties": {"collection_times": [{"days": "Mon-Sat", "time": "11:15am"}, {"days": "Sun", "time": "Closed"}], "id": "6385700003", "name": "USPS COLLECTION BOX - BLUE BOX", "address": {"city": "KENNETT", "state": "MO", "street": "201 N MAIN ST", "postcode": "63857"}}},
{"geometry": {"type": "Point", "coordinates": [-90.0350515396, 36.2367961957]}, "type": "Feature", "properties": {"collection_times": [{"days": "Mon-Sat", "time": "10:30am"}, {"days": "Sun", "time": "Closed"}], "id": "6385700006", "name": "USPS COLLECTION BOX - BLUE BOX", "address": {"city": "KENNETT", "state": "MO", "street": "1756 1ST ST", "postcode": "63857"}}},
{"geometry": {"type": "Point", "coordinates": [-90.0569121421, 36.237129239]}, "type": "Feature", "properties": {"collection_times": [{"days": "Mon-Sat", "time": "11:15am"}, {"days": "Sun", "time": "Closed"}], "id": "6385700027", "name": "USPS COLLECTION BOX - PO LOBBY", "address": {"city": "KENNETT", "state": "MO", "street": "201 N MAIN ST", "postcode": "63857"}}},
{"geometry": {"type": "Point", "coordinates": [-90.0569121421, 36.237129239]}, "type": "Feature", "properties": {"collection_times": [{"days": "Mon-Sat", "time": "11:15am"}, {"days": "Sun", "time": "Closed"}], "id": "6385700028", "name": "USPS COLLECTION BOX - PO LOBBY", "address": {"city": "KENNETT", "state": "MO", "street": "201 N MAIN ST", "postcode": "63857"}}},
{"geometry": {"type": "Point", "coordinates": [-90.0569121421, 36.237129239]}, "type": "Feature", "properties": {"collection_times": [{"days": "Mon-Sat", "time": "11:15am"}, {"days": "Sun", "time": "Closed"}], "id": "6385700029", "name": "USPS COLLECTION BOX - PO LOBBY", "address": {"city": "KENNETT", "state": "MO", "street": "201 N MAIN ST", "postcode": "63857"}}},
{"geometry": {"type": "Point", "coordinates": [-89.5738578092, 36.6712503766]}, "type": "Feature", "properties": {"collection_times": [{"days": "Mon-Sat", "time": "10:15am"}, {"days": "Sun", "time": "Closed"}], "id": "6386000000", "name": "USPS COLLECTION BOX - BLUE BOX", "address": {"city": "KEWANEE", "state": "MO", "street": "517 STATE HWY W", "postcode": "63860"}}},
{"geometry": {"type": "Point", "coordinates": [-89.5738578092, 36.6712503766]}, "type": "Feature", "properties": {"collection_times": [{"days": "Mon-Sat", "time": "10:15am"}, {"days": "Sun", "time": "Closed"}], "id": "6386000001", "name": "USPS COLLECTION BOX - PO LOBBY", "address": {"city": "KEWANEE", "state": "MO", "street": "517 STATE HWY W", "postcode": "63860"}}},
{"geometry": {"type": "Point", "coordinates": [-89.6151245197, 36.5914479171]}, "type": "Feature", "properties": {"collection_times": [{"days": "Mon-Sat", "time": "9:30am"}, {"days": "Sun", "time": "Closed"}], "id": "6386200000", "name": "USPS COLLECTION BOX - BLUE BOX", "address": {"city": "LILBOURN", "state": "MO", "street": "201 N 3RD ST", "postcode": "63862"}}},
{"geometry": {"type": "Point", "coordinates": [-89.6151245197, 36.5914479171]}, "type": "Feature", "properties": {"collection_times": [{"days": "Mon-Sat", "time": "9:30am"}, {"days": "Sun", "time": "Closed"}], "id": "6386200001", "name": "USPS COLLECTION BOX - PO LOBBY", "address": {"city": "LILBOURN", "state": "MO", "street": "201 N 3RD ST", "postcode": "63862"}}},
{"geometry": {"type": "Point", "coordinates": [-89.9708212332, 36.5584598217]}, "type": "Feature", "properties": {"collection_times": [{"days": "Mon-Sat", "time": "10:30am"}, {"days": "Sun", "time": "Closed"}], "id": "6386300000", "name": "USPS COLLECTION BOX - BLUE BOX", "address": {"city": "MALDEN", "state": "MO", "street": "107 N DOUGLASS ST", "postcode": "63863"}}},
{"geometry": {"type": "Point", "coordinates": [-89.9708212332, 36.5584598217]}, "type": "Feature", "properties": {"collection_times": [{"days": "Mon-Sat", "time": "10:30am"}, {"days": "Sun", "time": "Closed"}], "id": "6386300008", "name": "USPS COLLECTION BOX - PO LOBBY", "address": {"city": "MALDEN", "state": "MO", "street": "107 N DOUGLASS ST", "postcode": "63863"}}},
{"geometry": {"type": "Point", "coordinates": [-89.5963174702, 36.5204831416]}, "type": "Feature", "properties": {"collection_times": [{"days": "Mon-Sat", "time": "9:30am"}, {"days": "Sun", "time": "Closed"}], "id": "6386600000", "name": "USPS COLLECTION BOX - BLUE BOX", "address": {"city": "MARSTON", "state": "MO", "street": "105 W MAIN ST", "postcode": "63866"}}},
{"geometry": {"type": "Point", "coordinates": [-89.5963174702, 36.5204831416]}, "type": "Feature", "properties": {"collection_times": [{"days": "Mon-Fri", "time": "9:30am"}, {"days": "Sat", "time": "8:30am"}, {"days": "Sun", "time": "Closed"}], "id": "6386600001", "name": "USPS COLLECTION BOX - PO LOBBY", "address": {"city": "MARSTON", "state": "MO", "street": "105 W MAIN ST", "postcode": "63866"}}},
{"geometry": {"type": "Point", "coordinates": [-89.5845600562, 36.758927926]}, "type": "Feature", "properties": {"collection_times": [{"days": "Mon-Sat", "time": "11:00am"}, {"days": "Sun", "time": "Closed"}], "id": "6386700000", "name": "USPS COLLECTION BOX - BLUE BOX", "address": {"city": "MATTHEWS", "state": "MO", "street": "106 MAIN ST", "postcode": "63867"}}},
{"geometry": {"type": "Point", "coordinates": [-89.5845600562, 36.758927926]}, "type": "Feature", "properties": {"collection_times": [{"days": "Mon-Fri", "time": "11:00am"}, {"days": "Sat-Sun", "time": "Closed"}], "id": "6386700002", "name": "USPS COLLECTION BOX - PO LOBBY", "address": {"city": "MATTHEWS", "state": "MO", "street": "106 MAIN ST", "postcode": "63867"}}},
{"geometry": {"type": "Point", "coordinates": [-89.6783125025, 36.7917400496]}, "type": "Feature", "properties": {"collection_times": [{"days": "Mon-Sat", "time": "11:15am"}, {"days": "Sun", "time": "Closed"}], "id": "6386800000", "name": "USPS COLLECTION BOX - BLUE BOX", "address": {"city": "MOREHOUSE", "state": "MO", "street": "312 W BEECH ST", "postcode": "63868"}}},
{"geometry": {"type": "Point", "coordinates": [-89.6783125025, 36.7917400496]}, "type": "Feature", "properties": {"collection_times": [{"days": "Mon-Fri", "time": "11:15am"}, {"days": "Sat", "time": "10:00am"}, {"days": "Sun", "time": "Closed"}], "id": "6386800001", "name": "USPS COLLECTION BOX - PO LOBBY", "address": {"city": "MOREHOUSE", "state": "MO", "street": "312 W BEECH ST", "postcode": "63868"}}},
{"geometry": {"type": "Point", "coordinates": [-89.5262161362, 36.5862287372]}, "type": "Feature", "properties": {"collection_times": [{"days": "Mon-Sat", "time": "10:45am"}, {"days": "Sun", "time": "Closed"}], "id": "6386900000", "name": "USPS COLLECTION BOX - BLUE BOX", "address": {"city": "NEW MADRID", "state": "MO", "street": "450 MILL ST", "postcode": "63869"}}},
{"geometry": {"type": "Point", "coordinates": [-89.5503547744, 36.5839646718]}, "type": "Feature", "properties": {"collection_times": [{"days": "Mon-Fri", "time": "9:00am"}, {"days": "Sat-Sun", "time": "Closed"}], "id": "6386900003", "name": "USPS COLLECTION BOX - BLUE BOX", "address": {"city": "NEW MADRID", "state": "MO", "street": "601 US HIGHWAY 61", "postcode": "63869"}}},
{"geometry": {"type": "Point", "coordinates": [-89.5262161362, 36.5862287372]}, "type": "Feature", "properties": {"collection_times": [{"days": "Mon-Fri", "time": "10:45am"}, {"days": "Sat", "time": "10:00am"}, {"days": "Sun", "time": "Closed"}], "id": "6386900005", "name": "USPS COLLECTION BOX - PO LOBBY", "address": {"city": "NEW MADRID", "state": "MO", "street": "450 MILL ST", "postcode": "63869"}}},
{"geometry": {"type": "Point", "coordinates": [-89.8169984756, 36.6142658736]}, "type": "Feature", "properties": {"collection_times": [{"days": "Mon-Sat", "time": "9:30am"}, {"days": "Sun", "time": "Closed"}], "id": "6387000000", "name": "USPS COLLECTION BOX - BLUE BOX", "address": {"city": "PARMA", "state": "MO", "street": "205 S BROAD ST", "postcode": "63870"}}},
{"geometry": {"type": "Point", "coordinates": [-89.8169984756, 36.6142658736]}, "type": "Feature", "properties": {"collection_times": [{"days": "Mon-Sat", "time": "9:30am"}, {"days": "Sun", "time": "Closed"}], "id": "6387000001", "name": "USPS COLLECTION BOX - PO LOBBY", "address": {"city": "PARMA", "state": "MO", "street": "205 S BROAD ST", "postcode": "63870"}}},
{"geometry": {"type": "Point", "coordinates": [-89.6994581221, 36.42655081]}, "type": "Feature", "properties": {"collection_times": [{"days": "Mon-Sat", "time": "12:00pm"}, {"days": "Sun", "time": "Closed"}], "id": "6387300000", "name": "USPS COLLECTION BOX - BLUE BOX", "address": {"city": "PORTAGEVILLE", "state": "MO", "street": "305 KING AVE", "postcode": "63873"}}},
{"geometry": {"type": "Point", "coordinates": [-89.6994581221, 36.42655081]}, "type": "Feature", "properties": {"collection_times": [{"days": "Mon-Sat", "time": "12:00pm"}, {"days": "Sun", "time": "Closed"}], "id": "6387300002", "name": "USPS COLLECTION BOX - PO LOBBY", "address": {"city": "PORTAGEVILLE", "state": "MO", "street": "305 KING AVE", "postcode": "63873"}}},
{"geometry": {"type": "Point", "coordinates": [-89.8181285432, 36.5522693128]}, "type": "Feature", "properties": {"collection_times": [{"days": "Mon-Sat", "time": "9:30am"}, {"days": "Sun", "time": "Closed"}], "id": "6387400000", "name": "USPS COLLECTION BOX - BLUE BOX", "address": {"city": "RISCO", "state": "MO", "street": "203 FRONT ST", "postcode": "63874"}}},
{"geometry": {"type": "Point", "coordinates": [-89.8181285432, 36.5522693128]}, "type": "Feature", "properties": {"collection_times": [{"days": "Mon-Fri", "time": "9:30am"}, {"days": "Sat", "time": "8:45am"}, {"days": "Sun", "time": "Closed"}], "id": "6387400002", "name": "USPS COLLECTION BOX - PO LOBBY", "address": {"city": "RISCO", "state": "MO", "street": "203 FRONT ST", "postcode": "63874"}}},
{"geometry": {"type": "Point", "coordinates": [-90.1608916588, 36.134128596]}, "type": "Feature", "properties": {"collection_times": [{"days": "Mon-Sat", "time": "10:45am"}, {"days": "Sun", "time": "Closed"}], "id": "6387600000", "name": "USPS COLLECTION BOX - BLUE BOX", "address": {"city": "SENATH", "state": "MO", "street": "205 W COMMERCIAL ST", "postcode": "63876"}}},
{"geometry": {"type": "Point", "coordinates": [-90.1608916588, 36.134128596]}, "type": "Feature", "properties": {"collection_times": [{"days": "Mon-Fri", "time": "10:45am"}, {"days": "Sat", "time": "9:00am"}, {"days": "Sun", "time": "Closed"}], "id": "6387600001", "name": "USPS COLLECTION BOX - PO LOBBY", "address": {"city": "SENATH", "state": "MO", "street": "205 W COMMERCIAL ST", "postcode": "63876"}}},
{"geometry": {"type": "Point", "coordinates": [-90.1608916588, 36.134128596]}, "type": "Feature", "properties": {"collection_times": [{"days": "Mon-Fri", "time": "10:45am"}, {"days": "Sat", "time": "9:00am"}, {"days": "Sun", "time": "Closed"}], "id": "6387600002", "name": "USPS COLLECTION BOX - PO LOBBY", "address": {"city": "SENATH", "state": "MO", "street": "205 W COMMERCIAL ST", "postcode": "63876"}}},
{"geometry": {"type": "Point", "coordinates": [-89.8332923327, 36.0849772383]}, "type": "Feature", "properties": {"collection_times": [{"days": "Mon-Sat", "time": "10:00am"}, {"days": "Sun", "time": "Closed"}], "id": "6387700000", "name": "USPS COLLECTION BOX - BLUE BOX", "address": {"city": "STEELE", "state": "MO", "street": "301 S 1ST ST", "postcode": "63877"}}},
{"geometry": {"type": "Point", "coordinates": [-89.8332923327, 36.0849772383]}, "type": "Feature", "properties": {"collection_times": [{"days": "Mon-Fri", "time": "10:00am"}, {"days": "Sat", "time": "8:00am"}, {"days": "Sun", "time": "Closed"}], "id": "6387700006", "name": "USPS COLLECTION BOX - PO LOBBY", "address": {"city": "STEELE", "state": "MO", "street": "301 S 1ST ST", "postcode": "63877"}}},
{"geometry": {"type": "Point", "coordinates": [-89.8180761497, 36.5098386324]}, "type": "Feature", "properties": {"collection_times": [{"days": "Mon-Sat", "time": "9:30am"}, {"days": "Sun", "time": "Closed"}], "id": "6387800000", "name": "USPS COLLECTION BOX - BLUE BOX", "address": {"city": "TALLAPOOSA", "state": "MO", "street": "308 1ST ST", "postcode": "63878"}}},
{"geometry": {"type": "Point", "coordinates": [-89.8180761497, 36.5098386324]}, "type": "Feature", "properties": {"collection_times": [{"days": "Mon-Sat", "time": "9:30am"}, {"days": "Sun", "time": "Closed"}], "id": "6387800001", "name": "USPS COLLECTION BOX - PO LOBBY", "address": {"city": "TALLAPOOSA", "state": "MO", "street": "308 1ST ST", "postcode": "63878"}}},
{"geometry": {"type": "Point", "coordinates": [-89.8197205879, 36.3512009237]}, "type": "Feature", "properties": {"collection_times": [{"days": "Mon-Sat", "time": "10:30am"}, {"days": "Sun", "time": "Closed"}], "id": "6387900000", "name": "USPS COLLECTION BOX - BLUE BOX", "address": {"city": "WARDELL", "state": "MO", "street": "115 W BROAD ST", "postcode": "63879"}}},
{"geometry": {"type": "Point", "coordinates": [-89.8197205879, 36.3512009237]}, "type": "Feature", "properties": {"collection_times": [{"days": "Mon-Fri", "time": "10:30am"}, {"days": "Sat", "time": "9:45am"}, {"days": "Sun", "time": "Closed"}], "id": "6387900001", "name": "USPS COLLECTION BOX - PO LOBBY", "address": {"city": "WARDELL", "state": "MO", "street": "115 W BROAD ST", "postcode": "63879"}}},
{"geometry": {"type": "Point", "coordinates": [-90.027782992, 36.3298257926]}, "type": "Feature", "properties": {"collection_times": [{"days": "Mon-Sat", "time": "10:30am"}, {"days": "Sun", "time": "Closed"}], "id": "6388000000", "name": "USPS COLLECTION BOX - BLUE BOX", "address": {"city": "WHITE OAK", "state": "MO", "street": "3 MAIN ST", "postcode": "63880"}}},
{"geometry": {"type": "Point", "coordinates": [-90.027782992, 36.3298257926]}, "type": "Feature", "properties": {"collection_times": [{"days": "Mon-Sat", "time": "10:30am"}, {"days": "Sun", "time": "Closed"}], "id": "6388000001", "name": "USPS COLLECTION BOX - PO LOBBY", "address": {"city": "WHITE OAK", "state": "MO", "street": "3 MAIN ST", "postcode": "63880"}}},
{"geometry": {"type": "Point", "coordinates": [-89.2238175849, 36.9089661794]}, "type": "Feature", "properties": {"collection_times": [{"days": "Mon-Sat", "time": "10:30am"}, {"days": "Sun", "time": "Closed"}], "id": "6388200000", "name": "USPS COLLECTION BOX - BLUE BOX", "address": {"city": "WYATT", "state": "MO", "street": "211 S MAIN ST", "postcode": "63882"}}},
{"geometry": {"type": "Point", "coordinates": [-89.2238175849, 36.9089661794]}, "type": "Feature", "properties": {"collection_times": [{"days": "Mon-Fri", "time": "10:30am"}, {"days": "Sat", "time": "9:45am"}, {"days": "Sun", "time": "Closed"}], "id": "6388200003", "name": "USPS COLLECTION BOX - PO LOBBY", "address": {"city": "WYATT", "state": "MO", "street": "211 S MAIN ST", "postcode": "63882"}}}
]}
