{"type": "FeatureCollection", "features": [
{"geometry": {"type": "Point", "coordinates": [-90.3950473271, 36.755786447]}, "type": "Feature", "properties": {"collection_times": [{"days": "Mon-Sat", "time": "11:00am"}, {"days": "Sun", "time": "Closed"}], "id": "6390100000", "name": "USPS COLLECTION BOX - BLUE BOX", "address": {"city": "POPLAR BLUFF", "state": "MO", "street": "430 POPLAR ST", "postcode": "63901"}}},
{"geometry": {"type": "Point", "coordinates": [-90.4056869866, 36.7591941237]}, "type": "Feature", "properties": {"collection_times": [{"days": "Mon-Sat", "time": "10:00am"}, {"days": "Sun", "time": "Closed"}], "id": "6390100014", "name": "USPS COLLECTION BOX - BLUE BOX", "address": {"city": "POPLAR BLUFF", "state": "MO", "street": "1100 LESTER ST", "postcode": "63901"}}},
{"geometry": {"type": "Point", "coordinates": [-90.4056869866, 36.7591941237]}, "type": "Feature", "properties": {"collection_times": [{"days": "Mon-Sat", "time": "10:00am"}, {"days": "Sun", "time": "Closed"}], "id": "6390100015", "name": "USPS COLLECTION BOX - BLUE BOX", "address": {"city": "POPLAR BLUFF", "state": "MO", "street": "1100 LESTER ST", "postcode": "63901"}}},
{"geometry": {"type": "Point", "coordinates": [-90.4123898994, 36.7646806491]}, "type": "Feature", "properties": {"collection_times": [{"days": "Mon-Sat", "time": "10:00am"}, {"days": "Sun", "time": "Closed"}], "id": "6390100016", "name": "USPS COLLECTION BOX - BLUE BOX", "address": {"city": "POPLAR BLUFF", "state": "MO", "street": "910 N WESTWOOD BLVD", "postcode": "63901"}}},
{"geometry": {"type": "Point", "coordinates": [-90.4219529974, 36.7765824986]}, "type": "Feature", "properties": {"collection_times": [{"days": "Mon-Sat", "time": "10:00am"}, {"days": "Sun", "time": "Closed"}], "id": "6390100019", "name": "USPS COLLECTION BOX - BLUE BOX", "address": {"city": "POPLAR BLUFF", "state": "MO", "street": "2024 N WESTWOOD BLVD", "postcode": "63901"}}},
{"geometry": {"type": "Point", "coordinates": [-90.4292593431, 36.7856662267]}, "type": "Feature", "properties": {"collection_times": [{"days": "Mon-Sat", "time": "10:00am"}, {"days": "Sun", "time": "Closed"}], "id": "6390100024", "name": "USPS COLLECTION BOX - BLUE BOX", "address": {"city": "POPLAR BLUFF", "state": "MO", "street": "2770 N WESTWOOD BLVD", "postcode": "63901"}}},
{"geometry": {"type": "Point", "coordinates": [-90.4081284597, 36.7559241801]}, "type": "Feature", "properties": {"collection_times": [{"days": "Mon-Sat", "time": "10:00am"}, {"days": "Sun", "time": "Closed"}], "id": "6390100032", "name": "USPS COLLECTION BOX - BLUE BOX", "address": {"city": "POPLAR BLUFF", "state": "MO", "street": "333 S WESTWOOD BLVD", "postcode": "63901"}}},
{"geometry": {"type": "Point", "coordinates": [-90.3950473271, 36.755786447]}, "type": "Feature", "properties": {"collection_times": [{"days": "Mon-Sat", "time": "11:00am"}, {"days": "Sun", "time": "Closed"}], "id": "6390100034", "name": "USPS COLLECTION BOX - PO LOBBY", "address": {"city": "POPLAR BLUFF", "state": "MO", "street": "430 POPLAR ST", "postcode": "63901"}}},
{"geometry": {"type": "Point", "coordinates": [-90.4231280313, 36.7776704869]}, "type": "Feature", "properties": {"collection_times": [{"days": "Mon-Sat", "time": "10:00am"}, {"days": "Sun", "time": "Closed"}], "id": "6390100038", "name": "USPS COLLECTION BOX - BLUE BOX", "address": {"city": "POPLAR BLUFF", "state": "MO", "street": "2201 N WESTWOOD BLVD", "postcode": "63901"}}},
{"geometry": {"type": "Point", "coordinates": [-90.246639834, 36.675247059]}, "type": "Feature", "properties": {"collection_times": [{"days": "Mon-Sat", "time": "10:00am"}, {"days": "Sun", "time": "Closed"}], "id": "6393200000", "name": "USPS COLLECTION BOX - BLUE BOX", "address": {"city": "BROSELEY", "state": "MO", "street": "779A COUNTY ROAD 639", "postcode": "63932"}}},
{"geometry": {"type": "Point", "coordinates": [-90.246639834, 36.675247059]}, "type": "Feature", "properties": {"collection_times": [{"days": "Mon-Fri", "time": "10:00am"}, {"days": "Sat", "time": "8:45am"}, {"days": "Sun", "time": "Closed"}], "id": "6393200001", "name": "USPS COLLECTION BOX - PO LOBBY", "address": {"city": "BROSELEY", "state": "MO", "street": "779A COUNTY ROAD 639", "postcode": "63932"}}},
{"geometry": {"type": "Point", "coordinates": [-90.0761172604, 36.4922986532]}, "type": "Feature", "properties": {"collection_times": [{"days": "Mon-Sat", "time": "10:00am"}, {"days": "Sun", "time": "Closed"}], "id": "6393300000", "name": "USPS COLLECTION BOX - BLUE BOX", "address": {"city": "CAMPBELL", "state": "MO", "street": "405 W GRAND AVE", "postcode": "63933"}}},
{"geometry": {"type": "Point", "coordinates": [-90.0761172604, 36.4922986532]}, "type": "Feature", "properties": {"collection_times": [{"days": "Mon-Sat", "time": "10:00am"}, {"days": "Sun", "time": "Closed"}], "id": "6393300001", "name": "USPS COLLECTION BOX - BLUE BOX", "address": {"city": "CAMPBELL", "state": "MO", "street": "405 W GRAND AVE", "postcode": "63933"}}},
{"geometry": {"type": "Point", "coordinates": [-90.0761172604, 36.4922986532]}, "type": "Feature", "properties": {"collection_times": [{"days": "Mon-Sat", "time": "10:00am"}, {"days": "Sun", "time": "Closed"}], "id": "6393300011", "name": "USPS COLLECTION BOX - PO LOBBY", "address": {"city": "CAMPBELL", "state": "MO", "street": "405 W GRAND AVE", "postcode": "63933"}}},
{"geometry": {"type": "Point", "coordinates": [-90.8286128081, 36.6175611942]}, "type": "Feature", "properties": {"collection_times": [{"days": "Mon-Sat", "time": "9:15am"}, {"days": "Sun", "time": "Closed"}], "id": "6393500001", "name": "USPS COLLECTION BOX - BLUE BOX", "address": {"city": "DONIPHAN", "state": "MO", "street": "124 W JEFFERSON ST", "postcode": "63935"}}},
{"geometry": {"type": "Point", "coordinates": [-90.8260392315, 36.6286541973]}, "type": "Feature", "properties": {"collection_times": [{"days": "Mon-Sat", "time": "8:45am"}, {"days": "Sun", "time": "Closed"}], "id": "6393500004", "name": "USPS COLLECTION BOX - BLUE BOX", "address": {"city": "DONIPHAN", "state": "MO", "street": "1403 HILLCREST PLZ", "postcode": "63935"}}},
{"geometry": {"type": "Point", "coordinates": [-90.8254728807, 36.6206458571]}, "type": "Feature", "properties": {"collection_times": [{"days": "Mon-Sat", "time": "9:15am"}, {"days": "Sun", "time": "Closed"}], "id": "6393500008", "name": "USPS COLLECTION BOX - PO LOBBY", "address": {"city": "DONIPHAN", "state": "MO", "street": "303 N GRAND AVE", "postcode": "63935"}}},
{"geometry": {"type": "Point", "coordinates": [-90.8286128081, 36.6175611942]}, "type": "Feature", "properties": {"collection_times": [{"days": "Mon-Sat", "time": "9:15am"}, {"days": "Sun", "time": "Closed"}], "id": "6393500010", "name": "USPS COLLECTION BOX - BLUE BOX", "address": {"city": "DONIPHAN", "state": "MO", "street": "124 W JEFFERSON ST", "postcode": "63935"}}},
{"geometry": {"type": "Point", "coordinates": [-90.8850477282, 36.5538963762]}, "type": "Feature", "properties": {"collection_times": [{"days": "Mon-Sat", "time": "8:45am"}, {"days": "Sun", "time": "Closed"}], "id": "6393500011", "name": "USPS COLLECTION BOX - BLUE BOX", "address": {"city": "DONIPHAN", "state": "MO", "street": "HC 5 BOX 320", "postcode": "63935"}}},
{"geometry": {"type": "Point", "coordinates": [-90.0920396639, 36.7933631807]}, "type": "Feature", "properties": {"collection_times": [{"days": "Mon-Sat", "time": "9:45am"}, {"days": "Sun", "time": "Closed"}], "id": "6393600000", "name": "USPS COLLECTION BOX - BLUE BOX", "address": {"city": "DUDLEY", "state": "MO", "street": "10363 BRENDA ST", "postcode": "63936"}}},
{"geometry": {"type": "Point", "coordinates": [-90.0920396639, 36.7933631807]}, "type": "Feature", "properties": {"collection_times": [{"days": "Mon-Fri", "time": "9:45am"}, {"days": "Sat", "time": "7:30am"}, {"days": "Sun", "time": "Closed"}], "id": "6393600001", "name": "USPS COLLECTION BOX - PO LOBBY", "address": {"city": "DUDLEY", "state": "MO", "street": "10363 BRENDA ST", "postcode": "63936"}}},
{"geometry": {"type": "Point", "coordinates": [-90.7471161528, 36.9341109003]}, "type": "Feature", "properties": {"collection_times": [{"days": "Mon-Sat", "time": "10:15am"}, {"days": "Sun", "time": "Closed"}], "id": "6393700000", "name": "USPS COLLECTION BOX - BLUE BOX", "address": {"city": "ELLSINORE", "state": "MO", "street": "1 NORTH ST", "postcode": "63937"}}},
{"geometry": {"type": "Point", "coordinates": [-90.7471161528, 36.9341109003]}, "type": "Feature", "properties": {"collection_times": [{"days": "Mon-Fri", "time": "10:15am"}, {"days": "Sat", "time": "9:15am"}, {"days": "Sun", "time": "Closed"}], "id": "6393700002", "name": "USPS COLLECTION BOX - PO LOBBY", "address": {"city": "ELLSINORE", "state": "MO", "street": "1 NORTH ST", "postcode": "63937"}}},
{"geometry": {"type": "Point", "coordinates": [-90.6553380489, 36.6671656197]}, "type": "Feature", "properties": {"collection_times": [{"days": "Mon-Sat", "time": "10:15am"}, {"days": "Sun", "time": "Closed"}], "id": "6393900000", "name": "USPS COLLECTION BOX - BLUE BOX", "address": {"city": "FAIRDEALING", "state": "MO", "street": "101 N COUNTY ROAD 160E26", "postcode": "63939"}}},
{"geometry": {"type": "Point", "coordinates": [-90.6553380489, 36.6671656197]}, "type": "Feature", "properties": {"collection_times": [{"days": "Mon-Fri", "time": "10:15am"}, {"days": "Sat", "time": "8:30am"}, {"days": "Sun", "time": "Closed"}], "id": "6393900001", "name": "USPS COLLECTION BOX - PO LOBBY", "address": {"city": "FAIRDEALING", "state": "MO", "street": "101 N COUNTY ROAD 160E26", "postcode": "63939"}}},
{"geometry": {"type": "Point", "coordinates": [-90.2069672864, 36.7808875596]}, "type": "Feature", "properties": {"collection_times": [{"days": "Mon-Sat", "time": "10:00am"}, {"days": "Sun", "time": "Closed"}], "id": "6394000000", "name": "USPS COLLECTION BOX - BLUE BOX", "address": {"city": "FISK", "state": "MO", "street": "204 LINCOLN AVE", "postcode": "63940"}}},
{"geometry": {"type": "Point", "coordinates": [-90.2069672864, 36.7808875596]}, "type": "Feature", "properties": {"collection_times": [{"days": "Mon-Fri", "time": "10:00am"}, {"days": "Sat", "time": "9:15am"}, {"days": "Sun", "time": "Closed"}], "id": "6394000001", "name": "USPS COLLECTION BOX - PO LOBBY", "address": {"city": "FISK", "state": "MO", "street": "204 LINCOLN AVE", "postcode": "63940"}}},
{"geometry": {"type": "Point", "coordinates": [-91.1602822038, 36.951735866]}, "type": "Feature", "properties": {"collection_times": [{"days": "Mon-Sat", "time": "9:00am"}, {"days": "Sun", "time": "Closed"}], "id": "6394100000", "name": "USPS COLLECTION BOX - BLUE BOX", "address": {"city": "FREMONT", "state": "MO", "street": "303 3RD ST", "postcode": "63941"}}},
{"geometry": {"type": "Point", "coordinates": [-91.1602822038, 36.951735866]}, "type": "Feature", "properties": {"collection_times": [{"days": "Mon-Sat", "time": "9:00am"}, {"days": "Sun", "time": "Closed"}], "id": "6394100001", "name": "USPS COLLECTION BOX - PO LOBBY", "address": {"city": "FREMONT", "state": "MO", "street": "303 3RD ST", "postcode": "63941"}}},
{"geometry": {"type": "Point", "coordinates": [-90.8270637845, 36.8313482648]}, "type": "Feature", "properties": {"collection_times": [{"days": "Mon-Sat", "time": "9:45am"}, {"days": "Sun", "time": "Closed"}], "id": "6394300000", "name": "USPS COLLECTION BOX - BLUE BOX", "address": {"city": "GRANDIN", "state": "MO", "street": "406 5TH ST", "postcode": "63943"}}},
{"geometry": {"type": "Point", "coordinates": [-90.8270637845, 36.8313482648]}, "type": "Feature", "properties": {"collection_times": [{"days": "Mon-Fri", "time": "9:45am"}, {"days": "Sat", "time": "9:30am"}, {"days": "Sun", "time": "Closed"}], "id": "6394300001", "name": "USPS COLLECTION BOX - PO LOBBY", "address": {"city": "GRANDIN", "state": "MO", "street": "406 5TH ST", "postcode": "63943"}}},
{"geometry": {"type": "Point", "coordinates": [-90.4487883855, 37.1258635573]}, "type": "Feature", "properties": {"collection_times": [{"days": "Mon-Sat", "time": "10:00am"}, {"days": "Sun", "time": "Closed"}], "id": "6394400000", "name": "USPS COLLECTION BOX - BLUE BOX", "address": {"city": "GREENVILLE", "state": "MO", "street": "111 MAIN ST", "postcode": "63944"}}},
{"geometry": {"type": "Point", "coordinates": [-90.4487883855, 37.1258635573]}, "type": "Feature", "properties": {"collection_times": [{"days": "Mon-Sat", "time": "10:00am"}, {"days": "Sun", "time": "Closed"}], "id": "6394400001", "name": "USPS COLLECTION BOX - PO LOBBY", "address": {"city": "GREENVILLE", "state": "MO", "street": "111 MAIN ST", "postcode": "63944"}}},
{"geometry": {"type": "Point", "coordinates": [-90.5876902121, 36.6842349308]}, "type": "Feature", "properties": {"collection_times": [{"days": "Mon-Sat", "time": "10:15am"}, {"days": "Sun", "time": "Closed"}], "id": "6394500000", "name": "USPS COLLECTION BOX - BLUE BOX", "address": {"city": "HARVIELL", "state": "MO", "street": "54 E MAIN ST", "postcode": "63945"}}},
{"geometry": {"type": "Point", "coordinates": [-90.5876902121, 36.6842349308]}, "type": "Feature", "properties": {"collection_times": [{"days": "Mon-Sat", "time": "10:15am"}, {"days": "Sun", "time": "Closed"}], "id": "6394500001", "name": "USPS COLLECTION BOX - PO LOBBY", "address": {"city": "HARVIELL", "state": "MO", "street": "54 E MAIN ST", "postcode": "63945"}}},
{"geometry": {"type": "Point", "coordinates": [-90.2502452469, 37.1353114398]}, "type": "Feature", "properties": {"collection_times": [{"days": "Mon-Sat", "time": "9:30am"}, {"days": "Sun", "time": "Closed"}], "id": "6395100000", "name": "USPS COLLECTION BOX - BLUE BOX", "address": {"city": "LOWNDES", "state": "MO", "street": "3 STATE ROUTE E", "postcode": "63951"}}},
{"geometry": {"type": "Point", "coordinates": [-90.2502452469, 37.1353114398]}, "type": "Feature", "properties": {"collection_times": [{"days": "Mon-Sat", "time": "9:30am"}, {"days": "Sun", "time": "Closed"}], "id": "6395100001", "name": "USPS COLLECTION BOX - PO LOBBY", "address": {"city": "LOWNDES", "state": "MO", "street": "3 STATE ROUTE E", "postcode": "63951"}}},
{"geometry": {"type": "Point", "coordinates": [-90.6840605184, 37.0618713828]}, "type": "Feature", "properties": {"collection_times": [{"days": "Mon-Sat", "time": "9:00am"}, {"days": "Sun", "time": "Closed"}], "id": "6395200000", "name": "USPS COLLECTION BOX - BLUE BOX", "address": {"city": "MILL SPRING", "state": "MO", "street": "106 N BIRCH ST", "postcode": "63952"}}},
{"geometry": {"type": "Point", "coordinates": [-90.6073549853, 36.5753554717]}, "type": "Feature", "properties": {"collection_times": [{"days": "Mon-Sat", "time": "9:45am"}, {"days": "Sun", "time": "Closed"}], "id": "6395300000", "name": "USPS COLLECTION BOX - BLUE BOX", "address": {"city": "NAYLOR", "state": "MO", "street": "100 BROAD ST", "postcode": "63953"}}},
{"geometry": {"type": "Point", "coordinates": [-90.6073549853, 36.5753554717]}, "type": "Feature", "properties": {"collection_times": [{"days": "Mon-Sat", "time": "9:45am"}, {"days": "Sun", "time": "Closed"}], "id": "6395300001", "name": "USPS COLLECTION BOX - PO LOBBY", "address": {"city": "NAYLOR", "state": "MO", "street": "100 BROAD ST", "postcode": "63953"}}},
{"geometry": {"type": "Point", "coordinates": [-90.5067871427, 36.5615752563]}, "type": "Feature", "properties": {"collection_times": [{"days": "Mon-Sat", "time": "10:00am"}, {"days": "Sun", "time": "Closed"}], "id": "6395400000", "name": "USPS COLLECTION BOX - BLUE BOX", "address": {"city": "NEELYVILLE", "state": "MO", "street": "407 HART ST", "postcode": "63954"}}},
{"geometry": {"type": "Point", "coordinates": [-90.5067871427, 36.5615752563]}, "type": "Feature", "properties": {"collection_times": [{"days": "Mon-Fri", "time": "10:00am"}, {"days": "Sat", "time": "9:15am"}, {"days": "Sun", "time": "Closed"}], "id": "6395400002", "name": "USPS COLLECTION BOX - PO LOBBY", "address": {"city": "NEELYVILLE", "state": "MO", "street": "407 HART ST", "postcode": "63954"}}},
{"geometry": {"type": "Point", "coordinates": [-90.6913961518, 36.5828391876]}, "type": "Feature", "properties": {"collection_times": [{"days": "Mon-Sat", "time": "9:30am"}, {"days": "Sun", "time": "Closed"}], "id": "6395500000", "name": "USPS COLLECTION BOX - BLUE BOX", "address": {"city": "OXLY", "state": "MO", "street": "150 STATE HIGHWAY 142 E", "postcode": "63955"}}},
{"geometry": {"type": "Point", "coordinates": [-90.5714492187, 37.2107039757]}, "type": "Feature", "properties": {"collection_times": [{"days": "Mon-Sat", "time": "9:45am"}, {"days": "Sun", "time": "Closed"}], "id": "6395600000", "name": "USPS COLLECTION BOX - BLUE BOX", "address": {"city": "PATTERSON", "state": "MO", "street": "1234 OLD STATE ROUTE 34", "postcode": "63956"}}},
{"geometry": {"type": "Point", "coordinates": [-90.5714492187, 37.2107039757]}, "type": "Feature", "properties": {"collection_times": [{"days": "Mon-Fri", "time": "9:45am"}, {"days": "Sat", "time": "8:45am"}, {"days": "Sun", "time": "Closed"}], "id": "6395600001", "name": "USPS COLLECTION BOX - PO LOBBY", "address": {"city": "PATTERSON", "state": "MO", "street": "1234 OLD STATE ROUTE 34", "postcode": "63956"}}},
{"geometry": {"type": "Point", "coordinates": [-90.6951842741, 37.1555946352]}, "type": "Feature", "properties": {"collection_times": [{"days": "Mon-Sat", "time": "9:15am"}, {"days": "Sun", "time": "Closed"}], "id": "6395700000", "name": "USPS COLLECTION BOX - BLUE BOX", "address": {"city": "PIEDMONT", "state": "MO", "street": "125 W GREEN ST", "postcode": "63957"}}},
{"geometry": {"type": "Point", "coordinates": [-90.6951842741, 37.1555946352]}, "type": "Feature", "properties": {"collection_times": [{"days": "Mon-Sat", "time": "9:15am"}, {"days": "Sun", "time": "Closed"}], "id": "6395700008", "name": "USPS COLLECTION BOX - PO LOBBY", "address": {"city": "PIEDMONT", "state": "MO", "street": "125 W GREEN ST", "postcode": "63957"}}},
{"geometry": {"type": "Point", "coordinates": [-90.158141086, 36.950764834]}, "type": "Feature", "properties": {"collection_times": [{"days": "Mon-Sat", "time": "9:00am"}, {"days": "Sun", "time": "Closed"}], "id": "6396000000", "name": "USPS COLLECTION BOX - BLUE BOX", "address": {"city": "PUXICO", "state": "MO", "street": "196 N E L HAWKS ST", "postcode": "63960"}}},
{"geometry": {"type": "Point", "coordinates": [-90.158141086, 36.950764834]}, "type": "Feature", "properties": {"collection_times": [{"days": "Mon-Sat", "time": "9:00am"}, {"days": "Sun", "time": "Closed"}], "id": "6396000001", "name": "USPS COLLECTION BOX - PO LOBBY", "address": {"city": "PUXICO", "state": "MO", "street": "196 N E L HAWKS ST", "postcode": "63960"}}},
{"geometry": {"type": "Point", "coordinates": [-90.158141086, 36.950764834]}, "type": "Feature", "properties": {"collection_times": [{"days": "Mon-Sat", "time": "9:00am"}, {"days": "Sun", "time": "Closed"}], "id": "6396000002", "name": "USPS COLLECTION BOX - PO LOBBY", "address": {"city": "PUXICO", "state": "MO", "street": "196 N E L HAWKS ST", "postcode": "63960"}}},
{"geometry": {"type": "Point", "coordinates": [-90.2680434208, 36.5678342771]}, "type": "Feature", "properties": {"collection_times": [{"days": "Mon-Sat", "time": "10:15am"}, {"days": "Sun", "time": "Closed"}], "id": "6396100000", "name": "USPS COLLECTION BOX - BLUE BOX", "address": {"city": "QULIN", "state": "MO", "street": "548 D ST", "postcode": "63961"}}},
{"geometry": {"type": "Point", "coordinates": [-90.2680434208, 36.5678342771]}, "type": "Feature", "properties": {"collection_times": [{"days": "Mon-Sat", "time": "10:15am"}, {"days": "Sun", "time": "Closed"}], "id": "6396100001", "name": "USPS COLLECTION BOX - PO LOBBY", "address": {"city": "QULIN", "state": "MO", "street": "548 D ST", "postcode": "63961"}}},
{"geometry": {"type": "Point", "coordinates": [-90.4382165249, 37.2395189165]}, "type": "Feature", "properties": {"collection_times": [{"days": "Mon-Sat", "time": "10:00am"}, {"days": "Sun", "time": "Closed"}], "id": "6396400000", "name": "USPS COLLECTION BOX - BLUE BOX", "address": {"city": "SILVA", "state": "MO", "street": "100 MAIN ST", "postcode": "63964"}}},
{"geometry": {"type": "Point", "coordinates": [-90.4382165249, 37.2395189165]}, "type": "Feature", "properties": {"collection_times": [{"days": "Mon-Fri", "time": "10:00am"}, {"days": "Sat", "time": "10:15am"}, {"days": "Sun", "time": "Closed"}], "id": "6396400001", "name": "USPS COLLECTION BOX - PO LOBBY", "address": {"city": "SILVA", "state": "MO", "street": "100 MAIN ST", "postcode": "63964"}}},
{"geometry": {"type": "Point", "coordinates": [-91.014746385, 36.9953985403]}, "type": "Feature", "properties": {"collection_times": [{"days": "Mon-Sat", "time": "9:15am"}, {"days": "Sun", "time": "Closed"}], "id": "6396500000", "name": "USPS COLLECTION BOX - BLUE BOX", "address": {"city": "VAN BUREN", "state": "MO", "street": "307 W OLIVER ST", "postcode": "63965"}}},
{"geometry": {"type": "Point", "coordinates": [-91.014746385, 36.9953985403]}, "type": "Feature", "properties": {"collection_times": [{"days": "Mon-Sat", "time": "9:15am"}, {"days": "Sun", "time": "Closed"}], "id": "6396500002", "name": "USPS COLLECTION BOX - PO LOBBY", "address": {"city": "VAN BUREN", "state": "MO", "street": "307 W OLIVER ST", "postcode": "63965"}}},
{"geometry": {"type": "Point", "coordinates": [-90.2791923208, 36.9607537931]}, "type": "Feature", "properties": {"collection_times": [{"days": "Mon-Sat", "time": "9:00am"}, {"days": "Sun", "time": "Closed"}], "id": "6396600000", "name": "USPS COLLECTION BOX - BLUE BOX", "address": {"city": "WAPPAPELLO", "state": "MO", "street": "700 STATE HIGHWAY D", "postcode": "63966"}}},
{"geometry": {"type": "Point", "coordinates": [-90.2791923208, 36.9607537931]}, "type": "Feature", "properties": {"collection_times": [{"days": "Mon-Sat", "time": "9:00am"}, {"days": "Sun", "time": "Closed"}], "id": "6396600002", "name": "USPS COLLECTION BOX - PO LOBBY", "address": {"city": "WAPPAPELLO", "state": "MO", "street": "700 STATE HIGHWAY D", "postcode": "63966"}}},
{"geometry": {"type": "Point", "coordinates": [-90.4889115549, 36.9600306135]}, "type": "Feature", "properties": {"collection_times": [{"days": "Mon-Sat", "time": "8:45am"}, {"days": "Sun", "time": "Closed"}], "id": "6396700000", "name": "USPS COLLECTION BOX - BLUE BOX", "address": {"city": "WILLIAMSVILLE", "state": "MO", "street": "100 N HIGHWAY A ST", "postcode": "63967"}}},
{"geometry": {"type": "Point", "coordinates": [-90.4889115549, 36.9600306135]}, "type": "Feature", "properties": {"collection_times": [{"days": "Mon-Sat", "time": "8:45am"}, {"days": "Sun", "time": "Closed"}], "id": "6396700001", "name": "USPS COLLECTION BOX - PO LOBBY", "address": {"city": "WILLIAMSVILLE", "state": "MO", "street": "100 N HIGHWAY A ST", "postcode": "63967"}}}
]}
