{"type": "FeatureCollection", "features": [
{"geometry": {"type": "Point", "coordinates": [-93.5453949836, 39.0952414081]}, "type": "Feature", "properties": {"collection_times": [{"days": "Mon-Sat", "time": "3:45pm"}, {"days": "Sun", "time": "Closed"}], "id": "6400100000", "name": "USPS COLLECTION BOX - BLUE BOX", "address": {"city": "ALMA", "state": "MO", "street": "200 S COUNTY RD", "postcode": "64001"}}},
{"geometry": {"type": "Point", "coordinates": [-93.5453949836, 39.0952414081]}, "type": "Feature", "properties": {"collection_times": [{"days": "Mon-Fri", "time": "3:45pm"}, {"days": "Sat", "time": "9:15am"}, {"days": "Sun", "time": "Closed"}], "id": "6400100002", "name": "USPS COLLECTION BOX - PO LOBBY", "address": {"city": "ALMA", "state": "MO", "street": "200 S COUNTY RD", "postcode": "64001"}}},
{"geometry": {"type": "Point", "coordinates": [-93.5453949836, 39.0952414081]}, "type": "Feature", "properties": {"collection_times": [{"days": "Mon-Fri", "time": "3:45pm"}, {"days": "Sat", "time": "9:15am"}, {"days": "Sun", "time": "Closed"}], "id": "6400100003", "name": "USPS COLLECTION BOX - PO LOBBY", "address": {"city": "ALMA", "state": "MO", "street": "200 S COUNTY RD", "postcode": "64001"}}},
{"geometry": {"type": "Point", "coordinates": [-94.0684411989, 39.0035895319]}, "type": "Feature", "properties": {"collection_times": [{"days": "Mon-Fri", "time": "4:15pm"}, {"days": "Sat", "time": "4:00pm"}, {"days": "Sun", "time": "Closed"}], "id": "6401100000", "name": "USPS COLLECTION BOX - BLUE BOX", "address": {"city": "BATES CITY", "state": "MO", "street": "404 E HIGHWAY Z", "postcode": "64011"}}},
{"geometry": {"type": "Point", "coordinates": [-94.0710009289, 39.011926947]}, "type": "Feature", "properties": {"collection_times": [{"days": "Mon-Sat", "time": "10:15am"}, {"days": "Sun", "time": "Closed"}], "id": "6401100001", "name": "USPS COLLECTION BOX - BLUE BOX", "address": {"city": "BATES CITY", "state": "MO", "street": "2099 OUTER RD", "postcode": "64011"}}},
{"geometry": {"type": "Point", "coordinates": [-94.0712605071, 39.0109684141]}, "type": "Feature", "properties": {"collection_times": [{"days": "Mon-Sat", "time": "10:15am"}, {"days": "Sun", "time": "Closed"}], "id": "6401100003", "name": "USPS COLLECTION BOX - BLUE BOX", "address": {"city": "BATES CITY", "state": "MO", "street": "202 E US HIGHWAY 40", "postcode": "64011"}}},
{"geometry": {"type": "Point", "coordinates": [-94.0684411989, 39.0035895319]}, "type": "Feature", "properties": {"collection_times": [{"days": "Mon-Fri", "time": "4:00pm"}, {"days": "Sat", "time": "10:15am"}, {"days": "Sun", "time": "Closed"}], "id": "6401100004", "name": "USPS COLLECTION BOX - PO LOBBY", "address": {"city": "BATES CITY", "state": "MO", "street": "404 E HIGHWAY Z", "postcode": "64011"}}},
{"geometry": {"type": "Point", "coordinates": [-94.5221971494, 38.8144309838]}, "type": "Feature", "properties": {"collection_times": [{"days": "Mon-Sat", "time": "5:00pm"}, {"days": "Sun", "time": "Closed"}], "id": "6401200001", "name": "USPS COLLECTION BOX - BLUE BOX", "address": {"city": "BELTON", "state": "MO", "street": "121 BRADFORD LN", "postcode": "64012"}}},
{"geometry": {"type": "Point", "coordinates": [-94.5221971494, 38.8144309838]}, "type": "Feature", "properties": {"collection_times": [{"days": "Mon-Sat", "time": "5:00pm"}, {"days": "Sun", "time": "Closed"}], "id": "6401200002", "name": "USPS COLLECTION BOX - BLUE BOX", "address": {"city": "BELTON", "state": "MO", "street": "121 BRADFORD LN", "postcode": "64012"}}},
{"geometry": {"type": "Point", "coordinates": [-94.4969870112, 38.8146057523]}, "type": "Feature", "properties": {"collection_times": [{"days": "Mon-Sat", "time": "11:00am"}, {"days": "Sun", "time": "Closed"}], "id": "6401200021", "name": "USPS COLLECTION BOX - BLUE BOX", "address": {"city": "BELTON", "state": "MO", "street": "17040 BEL RAY BLVD", "postcode": "64012"}}},
{"geometry": {"type": "Point", "coordinates": [-94.5221971494, 38.8144309838]}, "type": "Feature", "properties": {"collection_times": [{"days": "Mon-Fri", "time": "5:00pm"}, {"days": "Sat", "time": "3:30pm"}, {"days": "Sun", "time": "Closed"}], "id": "6401200025", "name": "USPS COLLECTION BOX - PO LOBBY", "address": {"city": "BELTON", "state": "MO", "street": "121 BRADFORD LN", "postcode": "64012"}}},
{"geometry": {"type": "Point", "coordinates": [-94.5221971494, 38.8144309838]}, "type": "Feature", "properties": {"collection_times": [{"days": "Mon-Fri", "time": "5:00pm"}, {"days": "Sat", "time": "3:30pm"}, {"days": "Sun", "time": "Closed"}], "id": "6401200026", "name": "USPS COLLECTION BOX - PO LOBBY", "address": {"city": "BELTON", "state": "MO", "street": "121 BRADFORD LN", "postcode": "64012"}}},
{"geometry": {"type": "Point", "coordinates": [-94.5312323999, 38.8110482588]}, "type": "Feature", "properties": {"collection_times": [{"days": "Mon-Sat", "time": "10:00am"}, {"days": "Sun", "time": "Closed"}], "id": "6401200029", "name": "USPS COLLECTION BOX - BLUE BOX", "address": {"city": "BELTON", "state": "MO", "street": "520 MAIN ST", "postcode": "64012"}}},
{"geometry": {"type": "Point", "coordinates": [-94.2723195242, 39.0181718563]}, "type": "Feature", "properties": {"collection_times": [{"days": "Mon-Fri", "time": "10:00am"}, {"days": "Sat-Sun", "time": "Closed"}], "id": "6401400000", "name": "USPS COLLECTION BOX - BLUE BOX", "address": {"city": "BLUE SPRINGS", "state": "MO", "street": "1616 NW STATE ROUTE 7", "postcode": "64014"}}},
{"geometry": {"type": "Point", "coordinates": [-94.2718993751, 39.0288573811]}, "type": "Feature", "properties": {"collection_times": [{"days": "Mon-Fri", "time": "10:00am"}, {"days": "Sat-Sun", "time": "Closed"}], "id": "6401400002", "name": "USPS COLLECTION BOX - BLUE BOX", "address": {"city": "BLUE SPRINGS", "state": "MO", "street": "1005 NW STATE ROUTE 7", "postcode": "64014"}}},
{"geometry": {"type": "Point", "coordinates": [-94.2661207467, 39.0235862827]}, "type": "Feature", "properties": {"collection_times": [{"days": "Mon-Fri", "time": "10:00am"}, {"days": "Sat-Sun", "time": "Closed"}], "id": "6401400004", "name": "USPS COLLECTION BOX - BLUE BOX", "address": {"city": "BLUE SPRINGS", "state": "MO", "street": "201 NW R D MIZE RD", "postcode": "64014"}}},
{"geometry": {"type": "Point", "coordinates": [-94.273361918, 38.9882748964]}, "type": "Feature", "properties": {"collection_times": [{"days": "Mon-Fri", "time": "10:00am"}, {"days": "Sat-Sun", "time": "Closed"}], "id": "6401400008", "name": "USPS COLLECTION BOX - BLUE BOX", "address": {"city": "BLUE SPRINGS", "state": "MO", "street": "3120 SW STATE ROUTE 7", "postcode": "64014"}}},
{"geometry": {"type": "Point", "coordinates": [-94.2711387523, 39.0453968587]}, "type": "Feature", "properties": {"collection_times": [{"days": "Mon-Fri", "time": "10:00am"}, {"days": "Sat-Sun", "time": "Closed"}], "id": "6401400010", "name": "USPS COLLECTION BOX - BLUE BOX", "address": {"city": "BLUE SPRINGS", "state": "MO", "street": "1305 N 7 HWY", "postcode": "64014"}}},
{"geometry": {"type": "Point", "coordinates": [-94.2546866019, 39.0052975249]}, "type": "Feature", "properties": {"collection_times": [{"days": "Mon-Fri", "time": "10:00am"}, {"days": "Sat-Sun", "time": "Closed"}], "id": "6401400012", "name": "USPS COLLECTION BOX - BLUE BOX", "address": {"city": "BLUE SPRINGS", "state": "MO", "street": "1100 S 7 HWY", "postcode": "64014"}}},
{"geometry": {"type": "Point", "coordinates": [-94.268995959, 39.0126431316]}, "type": "Feature", "properties": {"collection_times": [{"days": "Mon-Fri", "time": "5:00pm"}, {"days": "Sat", "time": "4:00pm"}, {"days": "Sun", "time": "Closed"}], "id": "6401400014", "name": "USPS COLLECTION BOX - BLUE BOX", "address": {"city": "BLUE SPRINGS", "state": "MO", "street": "500 SW SOUTH AVE", "postcode": "64014"}}},
{"geometry": {"type": "Point", "coordinates": [-94.2614890454, 39.0174100723]}, "type": "Feature", "properties": {"collection_times": [{"days": "Mon-Fri", "time": "5:00pm"}, {"days": "Sat", "time": "4:00pm"}, {"days": "Sun", "time": "Closed"}], "id": "6401400016", "name": "USPS COLLECTION BOX - EXPRESS", "address": {"city": "BLUE SPRINGS", "state": "MO", "street": "500 SW SOUTH AVE", "postcode": "64014"}}},
{"geometry": {"type": "Point", "coordinates": [-94.2727558572, 39.0077373601]}, "type": "Feature", "properties": {"collection_times": [{"days": "Mon-Fri", "time": "10:00am"}, {"days": "Sat-Sun", "time": "Closed"}], "id": "6401400020", "name": "USPS COLLECTION BOX - BLUE BOX", "address": {"city": "BLUE SPRINGS", "state": "MO", "street": "909 SW STATE ROUTE 7", "postcode": "64014"}}},
{"geometry": {"type": "Point", "coordinates": [-94.2563837192, 39.0268097307]}, "type": "Feature", "properties": {"collection_times": [{"days": "Mon-Fri", "time": "10:00am"}, {"days": "Sat-Sun", "time": "Closed"}], "id": "6401400021", "name": "USPS COLLECTION BOX - BLUE BOX", "address": {"city": "BLUE SPRINGS", "state": "MO", "street": "600 NE CORONADO DR", "postcode": "64014"}}},
{"geometry": {"type": "Point", "coordinates": [-94.3043617583, 39.0295253883]}, "type": "Feature", "properties": {"collection_times": [{"days": "Mon-Fri", "time": "10:00am"}, {"days": "Sat-Sun", "time": "Closed"}], "id": "6401500010", "name": "USPS COLLECTION BOX - BLUE BOX", "address": {"city": "BLUE SPRINGS", "state": "MO", "street": "1106 NW WOODS CHAPEL RD", "postcode": "64015"}}},
{"geometry": {"type": "Point", "coordinates": [-94.3021152472, 39.0170985653]}, "type": "Feature", "properties": {"collection_times": [{"days": "Mon-Fri", "time": "10:00am"}, {"days": "Sat-Sun", "time": "Closed"}], "id": "6401500011", "name": "USPS COLLECTION BOX - BLUE BOX", "address": {"city": "BLUE SPRINGS", "state": "MO", "street": "1900 NW OUTER RD", "postcode": "64015"}}},
{"geometry": {"type": "Point", "coordinates": [-94.276931674, 39.0183127981]}, "type": "Feature", "properties": {"collection_times": [{"days": "Mon-Sat", "time": "10:00am"}, {"days": "Sun", "time": "Closed"}], "id": "6401500013", "name": "USPS COLLECTION BOX - BLUE BOX", "address": {"city": "BLUE SPRINGS", "state": "MO", "street": "1000 W MAIN ST", "postcode": "64015"}}},
{"geometry": {"type": "Point", "coordinates": [-94.2776958939, 39.0201300382]}, "type": "Feature", "properties": {"collection_times": [{"days": "Mon-Fri", "time": "5:30pm"}, {"days": "Sat", "time": "2:30pm"}, {"days": "Sun", "time": "Closed"}], "id": "6401500014", "name": "USPS COLLECTION BOX - PO LOBBY", "address": {"city": "BLUE SPRINGS", "state": "MO", "street": "500 SW SOUTH AVE", "postcode": "64015"}}},
{"geometry": {"type": "Point", "coordinates": [-94.2776958939, 39.0201300382]}, "type": "Feature", "properties": {"collection_times": [{"days": "Mon-Fri", "time": "5:30pm"}, {"days": "Sat", "time": "2:30pm"}, {"days": "Sun", "time": "Closed"}], "id": "6401500021", "name": "USPS COLLECTION BOX - APC", "address": {"city": "BLUE SPRINGS", "state": "MO", "street": "500 SW SOUTH AVE", "postcode": "64015"}}},
{"geometry": {"type": "Point", "coordinates": [-94.1997247026, 39.1326613757]}, "type": "Feature", "properties": {"collection_times": [{"days": "Mon-Fri", "time": "4:00pm"}, {"days": "Sat", "time": "4:30pm"}, {"days": "Sun", "time": "Closed"}], "id": "6401600001", "name": "USPS COLLECTION BOX - BLUE BOX", "address": {"city": "BUCKNER", "state": "MO", "street": "16 WASHINGTON ST", "postcode": "64016"}}},
{"geometry": {"type": "Point", "coordinates": [-94.1997247026, 39.1326613757]}, "type": "Feature", "properties": {"collection_times": [{"days": "Mon-Fri", "time": "4:00pm"}, {"days": "Sat", "time": "11:00am"}, {"days": "Sun", "time": "Closed"}], "id": "6401600003", "name": "USPS COLLECTION BOX - PO LOBBY", "address": {"city": "BUCKNER", "state": "MO", "street": "16 WASHINGTON ST", "postcode": "64016"}}},
{"geometry": {"type": "Point", "coordinates": [-94.1997247026, 39.1326613757]}, "type": "Feature", "properties": {"collection_times": [{"days": "Mon-Fri", "time": "4:00pm"}, {"days": "Sat", "time": "11:00am"}, {"days": "Sun", "time": "Closed"}], "id": "6401600004", "name": "USPS COLLECTION BOX - PO LOBBY", "address": {"city": "BUCKNER", "state": "MO", "street": "16 WASHINGTON ST", "postcode": "64016"}}},
{"geometry": {"type": "Point", "coordinates": [-94.7426377679, 39.4531246204]}, "type": "Feature", "properties": {"collection_times": [{"days": "Mon-Sat", "time": "4:00pm"}, {"days": "Sun", "time": "Closed"}], "id": "6401800000", "name": "USPS COLLECTION BOX - BLUE BOX", "address": {"city": "CAMDEN POINT", "state": "MO", "street": "310 CAMDEN ST", "postcode": "64018"}}},
{"geometry": {"type": "Point", "coordinates": [-94.7426377679, 39.4531246204]}, "type": "Feature", "properties": {"collection_times": [{"days": "Mon-Fri", "time": "4:00pm"}, {"days": "Sat", "time": "10:00am"}, {"days": "Sun", "time": "Closed"}], "id": "6401800002", "name": "USPS COLLECTION BOX - PO LOBBY", "address": {"city": "CAMDEN POINT", "state": "MO", "street": "310 CAMDEN ST", "postcode": "64018"}}},
{"geometry": {"type": "Point", "coordinates": [-94.7426377679, 39.4531246204]}, "type": "Feature", "properties": {"collection_times": [{"days": "Mon-Fri", "time": "4:00pm"}, {"days": "Sat", "time": "10:00am"}, {"days": "Sun", "time": "Closed"}], "id": "6401800003", "name": "USPS COLLECTION BOX - PO LOBBY", "address": {"city": "CAMDEN POINT", "state": "MO", "street": "310 CAMDEN ST", "postcode": "64018"}}},
{"geometry": {"type": "Point", "coordinates": [-93.8452909498, 38.7435143954]}, "type": "Feature", "properties": {"collection_times": [{"days": "Mon-Fri", "time": "4:00pm"}, {"days": "Sat", "time": "4:15pm"}, {"days": "Sun", "time": "Closed"}], "id": "6401900000", "name": "USPS COLLECTION BOX - BLUE BOX", "address": {"city": "CENTERVIEW", "state": "MO", "street": "204 S MAIN ST", "postcode": "64019"}}},
{"geometry": {"type": "Point", "coordinates": [-93.8452909498, 38.7435143954]}, "type": "Feature", "properties": {"collection_times": [{"days": "Mon-Fri", "time": "4:00pm"}, {"days": "Sat", "time": "9:45am"}, {"days": "Sun", "time": "Closed"}], "id": "6401900003", "name": "USPS COLLECTION BOX - PO LOBBY", "address": {"city": "CENTERVIEW", "state": "MO", "street": "204 S MAIN ST", "postcode": "64019"}}},
{"geometry": {"type": "Point", "coordinates": [-93.5680627407, 38.9822174873]}, "type": "Feature", "properties": {"collection_times": [{"days": "Mon-Sat", "time": "4:30pm"}, {"days": "Sun", "time": "Closed"}], "id": "6402000001", "name": "USPS COLLECTION BOX - BLUE BOX", "address": {"city": "CONCORDIA", "state": "MO", "street": "13 SE 7TH ST", "postcode": "64020"}}},
{"geometry": {"type": "Point", "coordinates": [-93.5680627407, 38.9822174873]}, "type": "Feature", "properties": {"collection_times": [{"days": "Mon-Fri", "time": "4:30pm"}, {"days": "Sat", "time": "11:00am"}, {"days": "Sun", "time": "Closed"}], "id": "6402000003", "name": "USPS COLLECTION BOX - PO LOBBY", "address": {"city": "CONCORDIA", "state": "MO", "street": "13 SE 7TH ST", "postcode": "64020"}}},
{"geometry": {"type": "Point", "coordinates": [-93.5946481373, 38.9657201376]}, "type": "Feature", "properties": {"collection_times": [{"days": "Mon-Sat", "time": "11:00am"}, {"days": "Sun", "time": "Closed"}], "id": "6402000004", "name": "USPS COLLECTION BOX - BLUE BOX", "address": {"city": "CONCORDIA", "state": "MO", "street": "HWY 23 & I70", "postcode": "64020"}}},
{"geometry": {"type": "Point", "coordinates": [-93.640856153, 39.099041106]}, "type": "Feature", "properties": {"collection_times": [{"days": "Mon-Sat", "time": "4:15pm"}, {"days": "Sun", "time": "Closed"}], "id": "6402100000", "name": "USPS COLLECTION BOX - BLUE BOX", "address": {"city": "CORDER", "state": "MO", "street": "222 N LAFAYETTE ST", "postcode": "64021"}}},
{"geometry": {"type": "Point", "coordinates": [-93.640856153, 39.099041106]}, "type": "Feature", "properties": {"collection_times": [{"days": "Mon-Fri", "time": "4:15pm"}, {"days": "Sat", "time": "10:45am"}, {"days": "Sun", "time": "Closed"}], "id": "6402100001", "name": "USPS COLLECTION BOX - PO LOBBY", "address": {"city": "CORDER", "state": "MO", "street": "222 N LAFAYETTE ST", "postcode": "64021"}}},
{"geometry": {"type": "Point", "coordinates": [-93.640856153, 39.099041106]}, "type": "Feature", "properties": {"collection_times": [{"days": "Mon-Fri", "time": "4:15pm"}, {"days": "Sat", "time": "10:45am"}, {"days": "Sun", "time": "Closed"}], "id": "6402100002", "name": "USPS COLLECTION BOX - PO LOBBY", "address": {"city": "CORDER", "state": "MO", "street": "222 N LAFAYETTE ST", "postcode": "64021"}}},
{"geometry": {"type": "Point", "coordinates": [-93.6880123876, 39.1924037581]}, "type": "Feature", "properties": {"collection_times": [{"days": "Mon-Fri", "time": "3:45pm"}, {"days": "Sat", "time": "4:00pm"}, {"days": "Sun", "time": "Closed"}], "id": "6402200000", "name": "USPS COLLECTION BOX - BLUE BOX", "address": {"city": "DOVER", "state": "MO", "street": "270 W WALNUT ST", "postcode": "64022"}}},
{"geometry": {"type": "Point", "coordinates": [-93.6880123876, 39.1924037581]}, "type": "Feature", "properties": {"collection_times": [{"days": "Mon-Fri", "time": "3:45pm"}, {"days": "Sat", "time": "10:00am"}, {"days": "Sun", "time": "Closed"}], "id": "6402200001", "name": "USPS COLLECTION BOX - PO LOBBY", "address": {"city": "DOVER", "state": "MO", "street": "270 W WALNUT ST", "postcode": "64022"}}},
{"geometry": {"type": "Point", "coordinates": [-93.6880123876, 39.1924037581]}, "type": "Feature", "properties": {"collection_times": [{"days": "Mon-Fri", "time": "3:45pm"}, {"days": "Sat", "time": "10:00am"}, {"days": "Sun", "time": "Closed"}], "id": "6402200002", "name": "USPS COLLECTION BOX - PO LOBBY", "address": {"city": "DOVER", "state": "MO", "street": "270 W WALNUT ST", "postcode": "64022"}}},
{"geometry": {"type": "Point", "coordinates": [-94.2278980533, 39.3392107428]}, "type": "Feature", "properties": {"collection_times": [{"days": "Mon-Fri", "time": "5:00pm"}, {"days": "Sat", "time": "3:00pm"}, {"days": "Sun", "time": "Closed"}], "id": "6402400000", "name": "USPS COLLECTION BOX - BLUE BOX", "address": {"city": "EXCELSIOR SPG", "state": "MO", "street": "515 SAINT LOUIS AVE", "postcode": "64024"}}},
{"geometry": {"type": "Point", "coordinates": [-94.2278980533, 39.3392107428]}, "type": "Feature", "properties": {"collection_times": [{"days": "Mon-Sat", "time": "5:00pm"}, {"days": "Sun", "time": "Closed"}], "id": "6402400001", "name": "USPS COLLECTION BOX - BLUE BOX", "address": {"city": "EXCELSIOR SPG", "state": "MO", "street": "515 SAINT LOUIS AVE", "postcode": "64024"}}},
{"geometry": {"type": "Point", "coordinates": [-94.2441317991, 39.3384642957]}, "type": "Feature", "properties": {"collection_times": [{"days": "Mon-Sat", "time": "2:15pm"}, {"days": "Sun", "time": "Closed"}], "id": "6402400002", "name": "USPS COLLECTION BOX - BLUE BOX", "address": {"city": "EXCELSIOR SPG", "state": "MO", "street": "1450 KEARNEY RD", "postcode": "64024"}}},
{"geometry": {"type": "Point", "coordinates": [-94.2501746308, 39.3375597459]}, "type": "Feature", "properties": {"collection_times": [{"days": "Mon-Sat", "time": "2:15pm"}, {"days": "Sun", "time": "Closed"}], "id": "6402400004", "name": "USPS COLLECTION BOX - BLUE BOX", "address": {"city": "EXCELSIOR SPG", "state": "MO", "street": "1727 W JESSE JAMES RD", "postcode": "64024"}}},
{"geometry": {"type": "Point", "coordinates": [-94.2490854397, 39.3399319475]}, "type": "Feature", "properties": {"collection_times": [{"days": "Mon-Sat", "time": "2:15pm"}, {"days": "Sun", "time": "Closed"}], "id": "6402400012", "name": "USPS COLLECTION BOX - BLUE BOX", "address": {"city": "EXCELSIOR SPG", "state": "MO", "street": "153 CROWN HILL RD", "postcode": "64024"}}},
{"geometry": {"type": "Point", "coordinates": [-94.2278980533, 39.3392107428]}, "type": "Feature", "properties": {"collection_times": [{"days": "Mon-Fri", "time": "5:00pm"}, {"days": "Sat", "time": "3:00pm"}, {"days": "Sun", "time": "Closed"}], "id": "6402400015", "name": "USPS COLLECTION BOX - PO LOBBY", "address": {"city": "EXCELSIOR SPG", "state": "MO", "street": "515 SAINT LOUIS AVE", "postcode": "64024"}}},
{"geometry": {"type": "Point", "coordinates": [-94.2278980533, 39.3392107428]}, "type": "Feature", "properties": {"collection_times": [{"days": "Mon-Fri", "time": "5:00pm"}, {"days": "Sat", "time": "3:00pm"}, {"days": "Sun", "time": "Closed"}], "id": "6402400016", "name": "USPS COLLECTION BOX - PO LOBBY", "address": {"city": "EXCELSIOR SPG", "state": "MO", "street": "515 SAINT LOUIS AVE", "postcode": "64024"}}},
{"geometry": {"type": "Point", "coordinates": [-94.248776096, 39.3379982099]}, "type": "Feature", "properties": {"collection_times": [{"days": "Mon-Sat", "time": "2:15pm"}, {"days": "Sun", "time": "Closed"}], "id": "6402400017", "name": "USPS COLLECTION BOX - BLUE BOX", "address": {"city": "EXCELSIOR SPG", "state": "MO", "street": "1645 KEARNEY RD", "postcode": "64024"}}},
{"geometry": {"type": "Point", "coordinates": [-94.2577062533, 39.3350147873]}, "type": "Feature", "properties": {"collection_times": [{"days": "Mon-Sat", "time": "2:15pm"}, {"days": "Sun", "time": "Closed"}], "id": "6402400019", "name": "USPS COLLECTION BOX - BLUE BOX", "address": {"city": "EXCELSIOR SPG", "state": "MO", "street": "2000 W JESSE JAMES RD", "postcode": "64024"}}},
{"geometry": {"type": "Point", "coordinates": [-94.2124509751, 39.340445752]}, "type": "Feature", "properties": {"collection_times": [{"days": "Mon-Sat", "time": "2:15pm"}, {"days": "Sun", "time": "Closed"}], "id": "6402400020", "name": "USPS COLLECTION BOX - BLUE BOX", "address": {"city": "EXCELSIOR SPG", "state": "MO", "street": "960 ISLEY BLVD", "postcode": "64024"}}},
{"geometry": {"type": "Point", "coordinates": [-94.2351377621, 39.3518991607]}, "type": "Feature", "properties": {"collection_times": [{"days": "Mon-Sat", "time": "2:15pm"}, {"days": "Sun", "time": "Closed"}], "id": "6402400022", "name": "USPS COLLECTION BOX - BLUE BOX", "address": {"city": "EXCELSIOR SPG", "state": "MO", "street": "1000 N JESSE JAMES RD", "postcode": "64024"}}},
{"geometry": {"type": "Point", "coordinates": [-94.8319292609, 39.2810602996]}, "type": "Feature", "properties": {"collection_times": [{"days": "Mon-Sat", "time": "4:15pm"}, {"days": "Sun", "time": "Closed"}], "id": "6402800000", "name": "USPS COLLECTION BOX - BLUE BOX", "address": {"city": "FARLEY", "state": "MO", "street": "106 MAIN ST", "postcode": "64028"}}},
{"geometry": {"type": "Point", "coordinates": [-94.8319292609, 39.2810602996]}, "type": "Feature", "properties": {"collection_times": [{"days": "Mon-Fri", "time": "10:30am"}, {"days": "Sat", "time": "10:00am"}, {"days": "Sun", "time": "Closed"}], "id": "6402800001", "name": "USPS COLLECTION BOX - PO LOBBY", "address": {"city": "FARLEY", "state": "MO", "street": "106 MAIN ST", "postcode": "64028"}}},
{"geometry": {"type": "Point", "coordinates": [-94.1983084751, 39.0161618705]}, "type": "Feature", "properties": {"collection_times": [{"days": "Mon-Sat", "time": "4:30pm"}, {"days": "Sun", "time": "Closed"}], "id": "6402900001", "name": "USPS COLLECTION BOX - BLUE BOX", "address": {"city": "GRAIN VALLEY", "state": "MO", "street": "112 W WALNUT ST", "postcode": "64029"}}},
{"geometry": {"type": "Point", "coordinates": [-94.1983084751, 39.0161618705]}, "type": "Feature", "properties": {"collection_times": [{"days": "Mon-Fri", "time": "4:30pm"}, {"days": "Sat", "time": "11:30am"}, {"days": "Sun", "time": "Closed"}], "id": "6402900007", "name": "USPS COLLECTION BOX - PO LOBBY", "address": {"city": "GRAIN VALLEY", "state": "MO", "street": "112 W WALNUT ST", "postcode": "64029"}}},
{"geometry": {"type": "Point", "coordinates": [-94.2213290821, 39.008518113]}, "type": "Feature", "properties": {"collection_times": [{"days": "Mon-Sat", "time": "12:00pm"}, {"days": "Sun", "time": "Closed"}], "id": "6402900011", "name": "USPS COLLECTION BOX - BLUE BOX", "address": {"city": "GRAIN VALLEY", "state": "MO", "street": "1251 E AA HWY", "postcode": "64029"}}},
{"geometry": {"type": "Point", "coordinates": [-94.5297515177, 38.9040035593]}, "type": "Feature", "properties": {"collection_times": [{"days": "Mon-Fri", "time": "2:30pm"}, {"days": "Sat", "time": "1:30pm"}, {"days": "Sun", "time": "Closed"}], "id": "6403000004", "name": "USPS COLLECTION BOX - BLUE BOX", "address": {"city": "GRANDVIEW", "state": "MO", "street": "12127 BLUE RIDGE EXT", "postcode": "64030"}}},
{"geometry": {"type": "Point", "coordinates": [-94.5243298255, 38.8908669291]}, "type": "Feature", "properties": {"collection_times": [{"days": "Mon-Fri", "time": "2:30pm"}, {"days": "Sat", "time": "1:30pm"}, {"days": "Sun", "time": "Closed"}], "id": "6403000006", "name": "USPS COLLECTION BOX - BLUE BOX", "address": {"city": "GRANDVIEW", "state": "MO", "street": "12901 S US HIGHWAY 71", "postcode": "64030"}}},
{"geometry": {"type": "Point", "coordinates": [-94.5284335102, 38.888996671]}, "type": "Feature", "properties": {"collection_times": [{"days": "Mon-Fri", "time": "5:00pm"}, {"days": "Sat", "time": "3:00pm"}, {"days": "Sun", "time": "Closed"}], "id": "6403000011", "name": "USPS COLLECTION BOX - BLUE BOX", "address": {"city": "GRANDVIEW", "state": "MO", "street": "1415 MAIN ST", "postcode": "64030"}}},
{"geometry": {"type": "Point", "coordinates": [-94.5270140854, 38.8715371829]}, "type": "Feature", "properties": {"collection_times": [{"days": "Mon-Fri", "time": "2:30pm"}, {"days": "Sat", "time": "1:30pm"}, {"days": "Sun", "time": "Closed"}], "id": "6403000015", "name": "USPS COLLECTION BOX - BLUE BOX", "address": {"city": "GRANDVIEW", "state": "MO", "street": "13920 S 71 HWY", "postcode": "64030"}}},
{"geometry": {"type": "Point", "coordinates": [-94.5284335102, 38.888996671]}, "type": "Feature", "properties": {"collection_times": [{"days": "Mon-Fri", "time": "5:00pm"}, {"days": "Sat", "time": "3:00pm"}, {"days": "Sun", "time": "Closed"}], "id": "6403000016", "name": "USPS COLLECTION BOX - PO LOBBY", "address": {"city": "GRANDVIEW", "state": "MO", "street": "1415 MAIN ST", "postcode": "64030"}}},
{"geometry": {"type": "Point", "coordinates": [-94.5284335102, 38.888996671]}, "type": "Feature", "properties": {"collection_times": [{"days": "Mon-Fri", "time": "5:00pm"}, {"days": "Sat", "time": "3:00pm"}, {"days": "Sun", "time": "Closed"}], "id": "6403000018", "name": "USPS COLLECTION BOX - PO LOBBY", "address": {"city": "GRANDVIEW", "state": "MO", "street": "1415 MAIN ST", "postcode": "64030"}}},
{"geometry": {"type": "Point", "coordinates": [-94.5239795177, 38.8809030345]}, "type": "Feature", "properties": {"collection_times": [{"days": "Mon-Fri", "time": "5:00pm"}, {"days": "Sat", "time": "3:00pm"}, {"days": "Sun", "time": "Closed"}], "id": "6403000019", "name": "USPS COLLECTION BOX - EXPRESS", "address": {"city": "GRANDVIEW", "state": "MO", "street": "1415 MAIN ST", "postcode": "64030"}}},
{"geometry": {"type": "Point", "coordinates": [-94.3416642133, 38.8505143401]}, "type": "Feature", "properties": {"collection_times": [{"days": "Mon-Fri", "time": "4:15pm"}, {"days": "Sat", "time": "4:00pm"}, {"days": "Sun", "time": "Closed"}], "id": "6403400001", "name": "USPS COLLECTION BOX - BLUE BOX", "address": {"city": "GREENWOOD", "state": "MO", "street": "604 WALNUT ST", "postcode": "64034"}}},
{"geometry": {"type": "Point", "coordinates": [-94.3416642133, 38.8505143401]}, "type": "Feature", "properties": {"collection_times": [{"days": "Mon-Fri", "time": "4:15pm"}, {"days": "Sat", "time": "10:00am"}, {"days": "Sun", "time": "Closed"}], "id": "6403400004", "name": "USPS COLLECTION BOX - PO LOBBY", "address": {"city": "GREENWOOD", "state": "MO", "street": "604 WALNUT ST", "postcode": "64034"}}},
{"geometry": {"type": "Point", "coordinates": [-94.2953849886, 38.8464253449]}, "type": "Feature", "properties": {"collection_times": [{"days": "Mon-Sat", "time": "10:00am"}, {"days": "Sun", "time": "Closed"}], "id": "6403400005", "name": "USPS COLLECTION BOX - BLUE BOX", "address": {"city": "GREENWOOD", "state": "MO", "street": "10 N WINNEBAGO DR", "postcode": "64034"}}},
{"geometry": {"type": "Point", "coordinates": [-94.3419091568, 38.8505179544]}, "type": "Feature", "properties": {"collection_times": [{"days": "Mon-Fri", "time": "4:15pm"}, {"days": "Sat", "time": "10:00am"}, {"days": "Sun", "time": "Closed"}], "id": "6403400007", "name": "USPS COLLECTION BOX - PO LOBBY", "address": {"city": "GREENWOOD", "state": "MO", "street": "604 WALNUT ST", "postcode": "64034"}}},
{"geometry": {"type": "Point", "coordinates": [-93.8323662061, 39.2697079908]}, "type": "Feature", "properties": {"collection_times": [{"days": "Mon-Sat", "time": "4:00pm"}, {"days": "Sun", "time": "Closed"}], "id": "6403500000", "name": "USPS COLLECTION BOX - BLUE BOX", "address": {"city": "HARDIN", "state": "MO", "street": "108 NE 2ND ST", "postcode": "64035"}}},
{"geometry": {"type": "Point", "coordinates": [-93.8323662061, 39.2697079908]}, "type": "Feature", "properties": {"collection_times": [{"days": "Mon-Fri", "time": "11:30am"}, {"days": "Sat", "time": "10:15am"}, {"days": "Sun", "time": "Closed"}], "id": "6403500001", "name": "USPS COLLECTION BOX - PO LOBBY", "address": {"city": "HARDIN", "state": "MO", "street": "108 NE 2ND ST", "postcode": "64035"}}},
{"geometry": {"type": "Point", "coordinates": [-93.935067498, 39.2340150769]}, "type": "Feature", "properties": {"collection_times": [{"days": "Mon-Sat", "time": "4:30pm"}, {"days": "Sun", "time": "Closed"}], "id": "6403600000", "name": "USPS COLLECTION BOX - BLUE BOX", "address": {"city": "HENRIETTA", "state": "MO", "street": "100 W 3RD ST", "postcode": "64036"}}},
{"geometry": {"type": "Point", "coordinates": [-93.935067498, 39.2340150769]}, "type": "Feature", "properties": {"collection_times": [{"days": "Mon-Fri", "time": "4:00pm"}, {"days": "Sat", "time": "10:00am"}, {"days": "Sun", "time": "Closed"}], "id": "6403600001", "name": "USPS COLLECTION BOX - PO LOBBY", "address": {"city": "HENRIETTA", "state": "MO", "street": "100 W 3RD ST", "postcode": "64036"}}},
{"geometry": {"type": "Point", "coordinates": [-93.7167485564, 39.0790101549]}, "type": "Feature", "properties": {"collection_times": [{"days": "Mon-Sat", "time": "12:30pm"}, {"days": "Sun", "time": "Closed"}], "id": "6403700001", "name": "USPS COLLECTION BOX - BLUE BOX", "address": {"city": "HIGGINSVILLE", "state": "MO", "street": "15 E 16TH ST", "postcode": "64037"}}},
{"geometry": {"type": "Point", "coordinates": [-93.7168769138, 39.0749522035]}, "type": "Feature", "properties": {"collection_times": [{"days": "Mon-Fri", "time": "4:45pm"}, {"days": "Sat", "time": "2:45pm"}, {"days": "Sun", "time": "Closed"}], "id": "6403700002", "name": "USPS COLLECTION BOX - BLUE BOX", "address": {"city": "HIGGINSVILLE", "state": "MO", "street": "2001 MAIN ST", "postcode": "64037"}}},
{"geometry": {"type": "Point", "coordinates": [-93.7234612102, 39.0698871422]}, "type": "Feature", "properties": {"collection_times": [{"days": "Mon-Sat", "time": "12:45pm"}, {"days": "Sun", "time": "Closed"}], "id": "6403700006", "name": "USPS COLLECTION BOX - BLUE BOX", "address": {"city": "HIGGINSVILLE", "state": "MO", "street": "509 FAIRGROUND AVE", "postcode": "64037"}}},
{"geometry": {"type": "Point", "coordinates": [-93.7172083337, 39.074112381]}, "type": "Feature", "properties": {"collection_times": [{"days": "Mon-Fri", "time": "4:45pm"}, {"days": "Sat", "time": "2:45pm"}, {"days": "Sun", "time": "Closed"}], "id": "6403700007", "name": "USPS COLLECTION BOX - PO LOBBY", "address": {"city": "HIGGINSVILLE", "state": "MO", "street": "2001 S MAIN ST", "postcode": "64037"}}},
{"geometry": {"type": "Point", "coordinates": [-93.7172083337, 39.074112381]}, "type": "Feature", "properties": {"collection_times": [{"days": "Mon-Fri", "time": "4:45pm"}, {"days": "Sat", "time": "2:45pm"}, {"days": "Sun", "time": "Closed"}], "id": "6403700008", "name": "USPS COLLECTION BOX - PO LOBBY", "address": {"city": "HIGGINSVILLE", "state": "MO", "street": "2001 S MAIN ST", "postcode": "64037"}}},
{"geometry": {"type": "Point", "coordinates": [-93.7170587944, 39.0749601]}, "type": "Feature", "properties": {"collection_times": [{"days": "Mon-Fri", "time": "4:45pm"}, {"days": "Sat", "time": "2:45pm"}, {"days": "Sun", "time": "Closed"}], "id": "6403700010", "name": "USPS COLLECTION BOX - BLUE BOX", "address": {"city": "HIGGINSVILLE", "state": "MO", "street": "2001 MAIN ST", "postcode": "64037"}}},
{"geometry": {"type": "Point", "coordinates": [-93.993303638, 38.7190393367]}, "type": "Feature", "properties": {"collection_times": [{"days": "Mon-Fri", "time": "4:30pm"}, {"days": "Sat", "time": "5:00pm"}, {"days": "Sun", "time": "Closed"}], "id": "6404000001", "name": "USPS COLLECTION BOX - BLUE BOX", "address": {"city": "HOLDEN", "state": "MO", "street": "105 S LEXINGTON ST", "postcode": "64040"}}},
{"geometry": {"type": "Point", "coordinates": [-93.993303638, 38.7190393367]}, "type": "Feature", "properties": {"collection_times": [{"days": "Mon-Fri", "time": "4:30pm"}, {"days": "Sat", "time": "12:00pm"}, {"days": "Sun", "time": "Closed"}], "id": "6404000004", "name": "USPS COLLECTION BOX - PO LOBBY", "address": {"city": "HOLDEN", "state": "MO", "street": "105 S LEXINGTON ST", "postcode": "64040"}}},
{"geometry": {"type": "Point", "coordinates": [-93.9804100935, 38.7099122222]}, "type": "Feature", "properties": {"collection_times": [{"days": "Mon-Sat", "time": "1:00pm"}, {"days": "Sun", "time": "Closed"}], "id": "6404000007", "name": "USPS COLLECTION BOX - BLUE BOX", "address": {"city": "HOLDEN", "state": "MO", "street": "1200 E 10TH ST", "postcode": "64040"}}},
{"geometry": {"type": "Point", "coordinates": [-94.3415165925, 39.453540741]}, "type": "Feature", "properties": {"collection_times": [{"days": "Mon-Sat", "time": "4:15pm"}, {"days": "Sun", "time": "Closed"}], "id": "6404800000", "name": "USPS COLLECTION BOX - BLUE BOX", "address": {"city": "HOLT", "state": "MO", "street": "205 MAIN ST", "postcode": "64048"}}},
{"geometry": {"type": "Point", "coordinates": [-94.3415165925, 39.453540741]}, "type": "Feature", "properties": {"collection_times": [{"days": "Mon-Fri", "time": "4:15pm"}, {"days": "Sat", "time": "11:00am"}, {"days": "Sun", "time": "Closed"}], "id": "6404800001", "name": "USPS COLLECTION BOX - PO LOBBY", "address": {"city": "HOLT", "state": "MO", "street": "205 MAIN ST", "postcode": "64048"}}},
{"geometry": {"type": "Point", "coordinates": [-94.3415165925, 39.453540741]}, "type": "Feature", "properties": {"collection_times": [{"days": "Mon-Fri", "time": "4:15pm"}, {"days": "Sat", "time": "11:00am"}, {"days": "Sun", "time": "Closed"}], "id": "6404800002", "name": "USPS COLLECTION BOX - PO LOBBY", "address": {"city": "HOLT", "state": "MO", "street": "205 MAIN ST", "postcode": "64048"}}},
{"geometry": {"type": "Point", "coordinates": [-94.418431859, 39.0929039581]}, "type": "Feature", "properties": {"collection_times": [{"days": "Mon-Sat", "time": "5:00pm"}, {"days": "Sun", "time": "Closed"}], "id": "6405000012", "name": "USPS COLLECTION BOX - BLUE BOX", "address": {"city": "INDEPENDENCE", "state": "MO", "street": "200 N OSAGE ST", "postcode": "64050"}}},
{"geometry": {"type": "Point", "coordinates": [-94.4101080421, 39.1010739974]}, "type": "Feature", "properties": {"collection_times": [{"days": "Mon-Sat", "time": "1:00pm"}, {"days": "Sun", "time": "Closed"}], "id": "6405000048", "name": "USPS COLLECTION BOX - BLUE BOX", "address": {"city": "INDEPENDENCE", "state": "MO", "street": "401 E 24 HWY", "postcode": "64050"}}},
{"geometry": {"type": "Point", "coordinates": [-94.4111100059, 39.0920018931]}, "type": "Feature", "properties": {"collection_times": [{"days": "Mon-Sat", "time": "5:00pm"}, {"days": "Sun", "time": "Closed"}], "id": "6405000050", "name": "USPS COLLECTION BOX - PO LOBBY", "address": {"city": "INDEPENDENCE", "state": "MO", "street": "301 W LEXINGTON AVE", "postcode": "64050"}}},
{"geometry": {"type": "Point", "coordinates": [-94.4111100059, 39.0920018931]}, "type": "Feature", "properties": {"collection_times": [{"days": "Mon-Sat", "time": "5:00pm"}, {"days": "Sun", "time": "Closed"}], "id": "6405000051", "name": "USPS COLLECTION BOX - PO LOBBY", "address": {"city": "INDEPENDENCE", "state": "MO", "street": "301 W LEXINGTON AVE", "postcode": "64050"}}},
{"geometry": {"type": "Point", "coordinates": [-94.4504098846, 39.0755940409]}, "type": "Feature", "properties": {"collection_times": [{"days": "Mon-Fri", "time": "4:30pm"}, {"days": "Sat", "time": "2:00pm"}, {"days": "Sun", "time": "Closed"}], "id": "6405200002", "name": "USPS COLLECTION BOX - EXPRESS", "address": {"city": "INDEPENDENCE", "state": "MO", "street": "1500 S NORTHERN BLVD", "postcode": "64052"}}},
{"geometry": {"type": "Point", "coordinates": [-94.4460735411, 39.0798765637]}, "type": "Feature", "properties": {"collection_times": [{"days": "Mon-Sat", "time": "12:30pm"}, {"days": "Sun", "time": "Closed"}], "id": "6405200003", "name": "USPS COLLECTION BOX - BLUE BOX", "address": {"city": "INDEPENDENCE", "state": "MO", "street": "2301 S STERLING AVE", "postcode": "64052"}}},
{"geometry": {"type": "Point", "coordinates": [-94.4505412183, 39.0913270892]}, "type": "Feature", "properties": {"collection_times": [{"days": "Mon-Fri", "time": "4:30pm"}, {"days": "Sat", "time": "2:00pm"}, {"days": "Sun", "time": "Closed"}], "id": "6405200005", "name": "USPS COLLECTION BOX - BLUE BOX", "address": {"city": "INDEPENDENCE", "state": "MO", "street": "1500 S NORTHERN BLVD", "postcode": "64052"}}},
{"geometry": {"type": "Point", "coordinates": [-94.4325676986, 39.0727385893]}, "type": "Feature", "properties": {"collection_times": [{"days": "Mon-Sat", "time": "12:30pm"}, {"days": "Sun", "time": "Closed"}], "id": "6405200006", "name": "USPS COLLECTION BOX - BLUE BOX", "address": {"city": "INDEPENDENCE", "state": "MO", "street": "2604 S CRYSLER AVE", "postcode": "64052"}}},
{"geometry": {"type": "Point", "coordinates": [-94.4697942343, 39.0640438409]}, "type": "Feature", "properties": {"collection_times": [{"days": "Mon-Sat", "time": "12:45pm"}, {"days": "Sun", "time": "Closed"}], "id": "6405200013", "name": "USPS COLLECTION BOX - BLUE BOX", "address": {"city": "INDEPENDENCE", "state": "MO", "street": "3306 BLUE RIDGE BLVD", "postcode": "64052"}}},
{"geometry": {"type": "Point", "coordinates": [-94.4505412183, 39.0913270892]}, "type": "Feature", "properties": {"collection_times": [{"days": "Mon-Fri", "time": "4:30pm"}, {"days": "Sat", "time": "2:00pm"}, {"days": "Sun", "time": "Closed"}], "id": "6405200020", "name": "USPS COLLECTION BOX - PO LOBBY", "address": {"city": "INDEPENDENCE", "state": "MO", "street": "1500 S NORTHERN BLVD", "postcode": "64052"}}},
{"geometry": {"type": "Point", "coordinates": [-94.4508040143, 39.0804499348]}, "type": "Feature", "properties": {"collection_times": [{"days": "Mon-Sat", "time": "12:30pm"}, {"days": "Sun", "time": "Closed"}], "id": "6405200023", "name": "USPS COLLECTION BOX - BLUE BOX", "address": {"city": "INDEPENDENCE", "state": "MO", "street": "2301 S NORTHERN BLVD", "postcode": "64052"}}},
{"geometry": {"type": "Point", "coordinates": [-94.4496185966, 39.0505351037]}, "type": "Feature", "properties": {"collection_times": [{"days": "Mon-Sat", "time": "12:45pm"}, {"days": "Sun", "time": "Closed"}], "id": "6405200024", "name": "USPS COLLECTION BOX - BLUE BOX", "address": {"city": "INDEPENDENCE", "state": "MO", "street": "10910 E 40 HWY", "postcode": "64052"}}},
{"geometry": {"type": "Point", "coordinates": [-94.4426337265, 39.1113690716]}, "type": "Feature", "properties": {"collection_times": [{"days": "Mon-Sat", "time": "1:00pm"}, {"days": "Sun", "time": "Closed"}], "id": "6405400007", "name": "USPS COLLECTION BOX - BLUE BOX", "address": {"city": "SUGAR CREEK", "state": "MO", "street": "10412 LEXINGTON AVE", "postcode": "64054"}}},
{"geometry": {"type": "Point", "coordinates": [-94.4426337265, 39.1113690716]}, "type": "Feature", "properties": {"collection_times": [{"days": "Mon-Sat", "time": "1:00pm"}, {"days": "Sun", "time": "Closed"}], "id": "6405400014", "name": "USPS COLLECTION BOX - BLUE BOX", "address": {"city": "SUGAR CREEK", "state": "MO", "street": "11206 E US HIGHWAY 24", "postcode": "64054"}}},
{"geometry": {"type": "Point", "coordinates": [-94.4414070332, 39.1070040857]}, "type": "Feature", "properties": {"collection_times": [{"days": "Mon-Sat", "time": "12:30pm"}, {"days": "Sun", "time": "Closed"}], "id": "6405400015", "name": "USPS COLLECTION BOX - BLUE BOX", "address": {"city": "SUGAR CREEK", "state": "MO", "street": "431 S STERLING AVE", "postcode": "64054"}}},
{"geometry": {"type": "Point", "coordinates": [-94.4449080071, 39.1095413817]}, "type": "Feature", "properties": {"collection_times": [{"days": "Mon-Sat", "time": "1:00pm"}, {"days": "Sun", "time": "Closed"}], "id": "6405400016", "name": "USPS COLLECTION BOX - BLUE BOX", "address": {"city": "SUGAR CREEK", "state": "MO", "street": "102 S STERLING AVE", "postcode": "64054"}}},
{"geometry": {"type": "Point", "coordinates": [-94.4119593705, 39.0620363595]}, "type": "Feature", "properties": {"collection_times": [{"days": "Mon-Fri", "time": "5:30pm"}, {"days": "Sat", "time": "5:00pm"}, {"days": "Sun", "time": "Closed"}], "id": "6405500002", "name": "USPS COLLECTION BOX - BLUE BOX", "address": {"city": "INDEPENDENCE", "state": "MO", "street": "14200 E 32ND ST S", "postcode": "64055"}}},
{"geometry": {"type": "Point", "coordinates": [-94.4019283132, 39.0515835406]}, "type": "Feature", "properties": {"collection_times": [{"days": "Mon-Fri", "time": "5:30pm"}, {"days": "Sat", "time": "5:00pm"}, {"days": "Sun", "time": "Closed"}], "id": "6405500003", "name": "USPS COLLECTION BOX - EXPRESS", "address": {"city": "INDEPENDENCE", "state": "MO", "street": "14200 E 32ND ST S", "postcode": "64055"}}},
{"geometry": {"type": "Point", "coordinates": [-94.4161198371, 39.0544027253]}, "type": "Feature", "properties": {"collection_times": [{"days": "Mon-Sat", "time": "2:00pm"}, {"days": "Sun", "time": "Closed"}], "id": "6405500009", "name": "USPS COLLECTION BOX - BLUE BOX", "address": {"city": "INDEPENDENCE", "state": "MO", "street": "13905 E NOLAND CT", "postcode": "64055"}}},
{"geometry": {"type": "Point", "coordinates": [-94.4186750285, 39.0440707617]}, "type": "Feature", "properties": {"collection_times": [{"days": "Mon-Sat", "time": "2:00pm"}, {"days": "Sun", "time": "Closed"}], "id": "6405500011", "name": "USPS COLLECTION BOX - BLUE BOX", "address": {"city": "INDEPENDENCE", "state": "MO", "street": "13700 E 42ND TER S", "postcode": "64055"}}},
{"geometry": {"type": "Point", "coordinates": [-94.4154147936, 39.0402249621]}, "type": "Feature", "properties": {"collection_times": [{"days": "Mon-Sat", "time": "2:00pm"}, {"days": "Sun", "time": "Closed"}], "id": "6405500014", "name": "USPS COLLECTION BOX - BLUE BOX", "address": {"city": "INDEPENDENCE", "state": "MO", "street": "4401 S NOLAND RD", "postcode": "64055"}}},
{"geometry": {"type": "Point", "coordinates": [-94.4152527282, 39.0436271521]}, "type": "Feature", "properties": {"collection_times": [{"days": "Mon-Sat", "time": "3:00pm"}, {"days": "Sun", "time": "Closed"}], "id": "6405500015", "name": "USPS COLLECTION BOX - BLUE BOX", "address": {"city": "INDEPENDENCE", "state": "MO", "street": "4201 S NOLAND RD", "postcode": "64055"}}},
{"geometry": {"type": "Point", "coordinates": [-94.3789194611, 39.0336705918]}, "type": "Feature", "properties": {"collection_times": [{"days": "Mon-Sat", "time": "3:00pm"}, {"days": "Sun", "time": "Closed"}], "id": "6405500022", "name": "USPS COLLECTION BOX - BLUE BOX", "address": {"city": "INDEPENDENCE", "state": "MO", "street": "4705 S SHRANK DR", "postcode": "64055"}}},
{"geometry": {"type": "Point", "coordinates": [-94.3959453102, 39.0567100514]}, "type": "Feature", "properties": {"collection_times": [{"days": "Mon-Sat", "time": "3:00pm"}, {"days": "Sun", "time": "Closed"}], "id": "6405500025", "name": "USPS COLLECTION BOX - BLUE BOX", "address": {"city": "INDEPENDENCE", "state": "MO", "street": "19401 E 40 HWY", "postcode": "64055"}}},
{"geometry": {"type": "Point", "coordinates": [-94.4192329341, 39.0358013338]}, "type": "Feature", "properties": {"collection_times": [{"days": "Mon-Sat", "time": "2:00pm"}, {"days": "Sun", "time": "Closed"}], "id": "6405500033", "name": "USPS COLLECTION BOX - BLUE BOX", "address": {"city": "INDEPENDENCE", "state": "MO", "street": "13710 E 40 HWY", "postcode": "64055"}}},
{"geometry": {"type": "Point", "coordinates": [-94.3739970203, 39.0338404118]}, "type": "Feature", "properties": {"collection_times": [{"days": "Mon-Sat", "time": "3:00pm"}, {"days": "Sun", "time": "Closed"}], "id": "6405500037", "name": "USPS COLLECTION BOX - BLUE BOX", "address": {"city": "INDEPENDENCE", "state": "MO", "street": "17601 E 40 HWY", "postcode": "64055"}}},
{"geometry": {"type": "Point", "coordinates": [-94.3889799503, 39.0658789224]}, "type": "Feature", "properties": {"collection_times": [{"days": "Mon-Sat", "time": "1:00pm"}, {"days": "Sun", "time": "Closed"}], "id": "6405500039", "name": "USPS COLLECTION BOX - BLUE BOX", "address": {"city": "INDEPENDENCE", "state": "MO", "street": "16206 E 29TH ST S", "postcode": "64055"}}},
{"geometry": {"type": "Point", "coordinates": [-94.4053241536, 39.0438459995]}, "type": "Feature", "properties": {"collection_times": [{"days": "Mon-Sat", "time": "3:00pm"}, {"days": "Sun", "time": "Closed"}], "id": "6405500055", "name": "USPS COLLECTION BOX - BLUE BOX", "address": {"city": "INDEPENDENCE", "state": "MO", "street": "14825 E 42ND ST S", "postcode": "64055"}}},
{"geometry": {"type": "Point", "coordinates": [-94.4330669073, 39.043545528]}, "type": "Feature", "properties": {"collection_times": [{"days": "Mon-Sat", "time": "2:00pm"}, {"days": "Sun", "time": "Closed"}], "id": "6405500057", "name": "USPS COLLECTION BOX - BLUE BOX", "address": {"city": "INDEPENDENCE", "state": "MO", "street": "12401 E 43RD ST S", "postcode": "64055"}}},
{"geometry": {"type": "Point", "coordinates": [-94.4102582755, 39.0432769963]}, "type": "Feature", "properties": {"collection_times": [{"days": "Mon-Sat", "time": "3:00pm"}, {"days": "Sun", "time": "Closed"}], "id": "6405500059", "name": "USPS COLLECTION BOX - BLUE BOX", "address": {"city": "INDEPENDENCE", "state": "MO", "street": "4212 S HOCKER DR", "postcode": "64055"}}},
{"geometry": {"type": "Point", "coordinates": [-94.4148588029, 39.0537343535]}, "type": "Feature", "properties": {"collection_times": [{"days": "Mon-Sat", "time": "2:00pm"}, {"days": "Sun", "time": "Closed"}], "id": "6405500062", "name": "USPS COLLECTION BOX - BLUE BOX", "address": {"city": "INDEPENDENCE", "state": "MO", "street": "3675 S NOLAND RD", "postcode": "64055"}}},
{"geometry": {"type": "Point", "coordinates": [-94.3816661573, 39.0778608016]}, "type": "Feature", "properties": {"collection_times": [{"days": "Mon-Sat", "time": "1:00pm"}, {"days": "Sun", "time": "Closed"}], "id": "6405500063", "name": "USPS COLLECTION BOX - BLUE BOX", "address": {"city": "INDEPENDENCE", "state": "MO", "street": "16611 E 23RD ST S", "postcode": "64055"}}},
{"geometry": {"type": "Point", "coordinates": [-94.3646860523, 39.0326285694]}, "type": "Feature", "properties": {"collection_times": [{"days": "Mon-Sat", "time": "3:00pm"}, {"days": "Sun", "time": "Closed"}], "id": "6405500064", "name": "USPS COLLECTION BOX - BLUE BOX", "address": {"city": "INDEPENDENCE", "state": "MO", "street": "4721 S CLIFF AVE", "postcode": "64055"}}},
{"geometry": {"type": "Point", "coordinates": [-94.3773885777, 39.0412316602]}, "type": "Feature", "properties": {"collection_times": [{"days": "Mon-Sat", "time": "3:00pm"}, {"days": "Sun", "time": "Closed"}], "id": "6405500070", "name": "USPS COLLECTION BOX - BLUE BOX", "address": {"city": "INDEPENDENCE", "state": "MO", "street": "4306 S DAVIDSON DR", "postcode": "64055"}}},
{"geometry": {"type": "Point", "coordinates": [-94.3875743911, 39.042074277]}, "type": "Feature", "properties": {"collection_times": [{"days": "Mon-Sat", "time": "3:00pm"}, {"days": "Sun", "time": "Closed"}], "id": "6405500077", "name": "USPS COLLECTION BOX - BLUE BOX", "address": {"city": "INDEPENDENCE", "state": "MO", "street": "4240 S LEES SUMMIT RD", "postcode": "64055"}}},
{"geometry": {"type": "Point", "coordinates": [-94.3586493247, 39.0311989852]}, "type": "Feature", "properties": {"collection_times": [{"days": "Mon-Sat", "time": "3:00pm"}, {"days": "Sun", "time": "Closed"}], "id": "6405500083", "name": "USPS COLLECTION BOX - BLUE BOX", "address": {"city": "INDEPENDENCE", "state": "MO", "street": "19001 E 48TH ST S", "postcode": "64055"}}},
{"geometry": {"type": "Point", "coordinates": [-94.4119593705, 39.0620363595]}, "type": "Feature", "properties": {"collection_times": [{"days": "Mon-Fri", "time": "5:30pm"}, {"days": "Sat", "time": "5:00pm"}, {"days": "Sun", "time": "Closed"}], "id": "6405500084", "name": "USPS COLLECTION BOX - PO LOBBY", "address": {"city": "INDEPENDENCE", "state": "MO", "street": "14200 E 32ND ST S", "postcode": "64055"}}},
{"geometry": {"type": "Point", "coordinates": [-94.4119593705, 39.0620363595]}, "type": "Feature", "properties": {"collection_times": [{"days": "Mon-Fri", "time": "5:30pm"}, {"days": "Sat", "time": "5:00pm"}, {"days": "Sun", "time": "Closed"}], "id": "6405500085", "name": "USPS COLLECTION BOX - APC", "address": {"city": "INDEPENDENCE", "state": "MO", "street": "14200 E 32ND ST S", "postcode": "64055"}}},
{"geometry": {"type": "Point", "coordinates": [-94.4119593705, 39.0620363595]}, "type": "Feature", "properties": {"collection_times": [{"days": "Mon-Fri", "time": "5:30pm"}, {"days": "Sat", "time": "5:00pm"}, {"days": "Sun", "time": "Closed"}], "id": "6405500088", "name": "USPS COLLECTION BOX - PO LOBBY", "address": {"city": "INDEPENDENCE", "state": "MO", "street": "14200 E 32ND ST S", "postcode": "64055"}}},
{"geometry": {"type": "Point", "coordinates": [-94.3724144261, 39.1006349079]}, "type": "Feature", "properties": {"collection_times": [{"days": "Mon-Sat", "time": "1:00pm"}, {"days": "Sun", "time": "Closed"}], "id": "6405600000", "name": "USPS COLLECTION BOX - BLUE BOX", "address": {"city": "INDEPENDENCE", "state": "MO", "street": "100 E GEOSPACE DR", "postcode": "64056"}}},
{"geometry": {"type": "Point", "coordinates": [-94.3671586959, 39.1219206837]}, "type": "Feature", "properties": {"collection_times": [{"days": "Mon-Sat", "time": "1:00pm"}, {"days": "Sun", "time": "Closed"}], "id": "6405600001", "name": "USPS COLLECTION BOX - BLUE BOX", "address": {"city": "INDEPENDENCE", "state": "MO", "street": "17911 E 24 HWY", "postcode": "64056"}}},
{"geometry": {"type": "Point", "coordinates": [-94.382601677, 39.1179697822]}, "type": "Feature", "properties": {"collection_times": [{"days": "Mon-Sat", "time": "1:00pm"}, {"days": "Sun", "time": "Closed"}], "id": "6405600004", "name": "USPS COLLECTION BOX - BLUE BOX", "address": {"city": "INDEPENDENCE", "state": "MO", "street": "16300 E 24 HWY", "postcode": "64056"}}},
{"geometry": {"type": "Point", "coordinates": [-94.385817862, 39.1347661003]}, "type": "Feature", "properties": {"collection_times": [{"days": "Mon-Sat", "time": "1:00pm"}, {"days": "Sun", "time": "Closed"}], "id": "6405600006", "name": "USPS COLLECTION BOX - BLUE BOX", "address": {"city": "INDEPENDENCE", "state": "MO", "street": "1600 N STATE ROUTE 291", "postcode": "64056"}}},
{"geometry": {"type": "Point", "coordinates": [-94.3411173623, 39.0426722196]}, "type": "Feature", "properties": {"collection_times": [{"days": "Mon-Sat", "time": "3:00pm"}, {"days": "Sun", "time": "Closed"}], "id": "6405700002", "name": "USPS COLLECTION BOX - BLUE BOX", "address": {"city": "INDEPENDENCE", "state": "MO", "street": "4200 LITTLE BLUE PKWY", "postcode": "64057"}}},
{"geometry": {"type": "Point", "coordinates": [-94.3790709911, 39.0758916264]}, "type": "Feature", "properties": {"collection_times": [{"days": "Mon-Sat", "time": "1:00pm"}, {"days": "Sun", "time": "Closed"}], "id": "6405700004", "name": "USPS COLLECTION BOX - BLUE BOX", "address": {"city": "INDEPENDENCE", "state": "MO", "street": "2341 S STATE ROUTE 291", "postcode": "64057"}}},
{"geometry": {"type": "Point", "coordinates": [-94.3448666682, 39.0631192126]}, "type": "Feature", "properties": {"collection_times": [{"days": "Mon-Sat", "time": "1:00pm"}, {"days": "Sun", "time": "Closed"}], "id": "6405700005", "name": "USPS COLLECTION BOX - BLUE BOX", "address": {"city": "INDEPENDENCE", "state": "MO", "street": "17826 E 78 HWY", "postcode": "64057"}}},
{"geometry": {"type": "Point", "coordinates": [-94.361738225, 39.0505055561]}, "type": "Feature", "properties": {"collection_times": [{"days": "Mon-Sat", "time": "3:00pm"}, {"days": "Sun", "time": "Closed"}], "id": "6405700009", "name": "USPS COLLECTION BOX - BLUE BOX", "address": {"city": "INDEPENDENCE", "state": "MO", "street": "18700 E 37TH TER S", "postcode": "64057"}}},
{"geometry": {"type": "Point", "coordinates": [-94.3292123682, 39.0905321206]}, "type": "Feature", "properties": {"collection_times": [{"days": "Mon-Sat", "time": "1:00pm"}, {"days": "Sun", "time": "Closed"}], "id": "6405700012", "name": "USPS COLLECTION BOX - BLUE BOX", "address": {"city": "INDEPENDENCE", "state": "MO", "street": "1220 S POWELL RD", "postcode": "64057"}}},
{"geometry": {"type": "Point", "coordinates": [-94.3409475965, 39.0835679148]}, "type": "Feature", "properties": {"collection_times": [{"days": "Mon-Sat", "time": "1:00pm"}, {"days": "Sun", "time": "Closed"}], "id": "6405700016", "name": "USPS COLLECTION BOX - BLUE BOX", "address": {"city": "INDEPENDENCE", "state": "MO", "street": "20301 E 78 HWY", "postcode": "64057"}}},
{"geometry": {"type": "Point", "coordinates": [-94.3592152409, 39.0479450148]}, "type": "Feature", "properties": {"collection_times": [{"days": "Mon-Sat", "time": "3:00pm"}, {"days": "Sun", "time": "Closed"}], "id": "6405700017", "name": "USPS COLLECTION BOX - BLUE BOX", "address": {"city": "INDEPENDENCE", "state": "MO", "street": "18813 E 39TH ST S", "postcode": "64057"}}},
{"geometry": {"type": "Point", "coordinates": [-94.3444733056, 39.0411867863]}, "type": "Feature", "properties": {"collection_times": [{"days": "Mon-Sat", "time": "3:00pm"}, {"days": "Sun", "time": "Closed"}], "id": "6405700018", "name": "USPS COLLECTION BOX - BLUE BOX", "address": {"city": "INDEPENDENCE", "state": "MO", "street": "20000 E JACKSON DR", "postcode": "64057"}}},
{"geometry": {"type": "Point", "coordinates": [-94.3495156025, 39.0478150165]}, "type": "Feature", "properties": {"collection_times": [{"days": "Mon-Sat", "time": "4:00pm"}, {"days": "Sun", "time": "Closed"}], "id": "6405700020", "name": "USPS COLLECTION BOX - BLUE BOX", "address": {"city": "INDEPENDENCE", "state": "MO", "street": "19600 E 39TH ST S", "postcode": "64057"}}},
{"geometry": {"type": "Point", "coordinates": [-94.3694169468, 39.3425719962]}, "type": "Feature", "properties": {"collection_times": [{"days": "Mon-Fri", "time": "1:00pm"}, {"days": "Sat", "time": "12:00pm"}, {"days": "Sun", "time": "Closed"}], "id": "6406000000", "name": "USPS COLLECTION BOX - BLUE BOX", "address": {"city": "KEARNEY", "state": "MO", "street": "701 WATSON DR", "postcode": "64060"}}},
{"geometry": {"type": "Point", "coordinates": [-94.3620089282, 39.3729546473]}, "type": "Feature", "properties": {"collection_times": [{"days": "Mon-Fri", "time": "1:00pm"}, {"days": "Sat", "time": "12:00pm"}, {"days": "Sun", "time": "Closed"}], "id": "6406000001", "name": "USPS COLLECTION BOX - BLUE BOX", "address": {"city": "KEARNEY", "state": "MO", "street": "100 E WASHINGTON ST", "postcode": "64060"}}},
{"geometry": {"type": "Point", "coordinates": [-94.373759919, 39.3677939135]}, "type": "Feature", "properties": {"collection_times": [{"days": "Mon-Fri", "time": "1:00pm"}, {"days": "Sat", "time": "12:00pm"}, {"days": "Sun", "time": "Closed"}], "id": "6406000003", "name": "USPS COLLECTION BOX - BLUE BOX", "address": {"city": "KEARNEY", "state": "MO", "street": "605 W STATE ROUTE 92", "postcode": "64060"}}},
{"geometry": {"type": "Point", "coordinates": [-94.3675416272, 39.3717243699]}, "type": "Feature", "properties": {"collection_times": [{"days": "Mon-Sat", "time": "4:30pm"}, {"days": "Sun", "time": "Closed"}], "id": "6406000007", "name": "USPS COLLECTION BOX - BLUE BOX", "address": {"city": "KEARNEY", "state": "MO", "street": "1 S PLATTE CLAY WAY", "postcode": "64060"}}},
{"geometry": {"type": "Point", "coordinates": [-94.3675416272, 39.3717243699]}, "type": "Feature", "properties": {"collection_times": [{"days": "Mon-Sat", "time": "4:30pm"}, {"days": "Sun", "time": "Closed"}], "id": "6406000009", "name": "USPS COLLECTION BOX - BLUE BOX", "address": {"city": "KEARNEY", "state": "MO", "street": "1 S PLATTE CLAY WAY", "postcode": "64060"}}},
{"geometry": {"type": "Point", "coordinates": [-94.3675416272, 39.3717243699]}, "type": "Feature", "properties": {"collection_times": [{"days": "Mon-Fri", "time": "4:30pm"}, {"days": "Sat", "time": "1:30pm"}, {"days": "Sun", "time": "Closed"}], "id": "6406000010", "name": "USPS COLLECTION BOX - PO LOBBY", "address": {"city": "KEARNEY", "state": "MO", "street": "1 S PLATTE CLAY WAY", "postcode": "64060"}}},
{"geometry": {"type": "Point", "coordinates": [-94.3675416272, 39.3717243699]}, "type": "Feature", "properties": {"collection_times": [{"days": "Mon-Fri", "time": "4:30pm"}, {"days": "Sat", "time": "1:30pm"}, {"days": "Sun", "time": "Closed"}], "id": "6406000011", "name": "USPS COLLECTION BOX - PO LOBBY", "address": {"city": "KEARNEY", "state": "MO", "street": "1 S PLATTE CLAY WAY", "postcode": "64060"}}},
{"geometry": {"type": "Point", "coordinates": [-94.0677605017, 38.7434724678]}, "type": "Feature", "properties": {"collection_times": [{"days": "Mon-Fri", "time": "3:45pm"}, {"days": "Sat", "time": "4:00pm"}, {"days": "Sun", "time": "Closed"}], "id": "6406100000", "name": "USPS COLLECTION BOX - BLUE BOX", "address": {"city": "KINGSVILLE", "state": "MO", "street": "201 E PACIFIC ST", "postcode": "64061"}}},
{"geometry": {"type": "Point", "coordinates": [-94.0677605017, 38.7434724678]}, "type": "Feature", "properties": {"collection_times": [{"days": "Mon-Fri", "time": "3:45pm"}, {"days": "Sat", "time": "9:45am"}, {"days": "Sun", "time": "Closed"}], "id": "6406100001", "name": "USPS COLLECTION BOX - PO LOBBY", "address": {"city": "KINGSVILLE", "state": "MO", "street": "201 E PACIFIC ST", "postcode": "64061"}}},
{"geometry": {"type": "Point", "coordinates": [-94.2043159091, 39.438449493]}, "type": "Feature", "properties": {"collection_times": [{"days": "Mon-Sat", "time": "4:30pm"}, {"days": "Sun", "time": "Closed"}], "id": "6406200000", "name": "USPS COLLECTION BOX - BLUE BOX", "address": {"city": "LAWSON", "state": "MO", "street": "420 N PENNSYLVANIA AVE", "postcode": "64062"}}},
{"geometry": {"type": "Point", "coordinates": [-94.191608322, 39.448543243]}, "type": "Feature", "properties": {"collection_times": [{"days": "Mon-Fri", "time": "4:30pm"}, {"days": "Sat", "time": "10:30am"}, {"days": "Sun", "time": "Closed"}], "id": "6406200001", "name": "USPS COLLECTION BOX - PO LOBBY", "address": {"city": "LAWSON", "state": "MO", "street": "420 N PENNSYLVANIA AVE", "postcode": "64062"}}},
{"geometry": {"type": "Point", "coordinates": [-94.191608322, 39.448543243]}, "type": "Feature", "properties": {"collection_times": [{"days": "Mon-Fri", "time": "4:30pm"}, {"days": "Sat", "time": "10:30am"}, {"days": "Sun", "time": "Closed"}], "id": "6406200002", "name": "USPS COLLECTION BOX - PO LOBBY", "address": {"city": "LAWSON", "state": "MO", "street": "420 N PENNSYLVANIA AVE", "postcode": "64062"}}},
{"geometry": {"type": "Point", "coordinates": [-94.3620100577, 38.9159670338]}, "type": "Feature", "properties": {"collection_times": [{"days": "Mon-Sat", "time": "10:00am"}, {"days": "Sun", "time": "Closed"}], "id": "6406300040", "name": "USPS COLLECTION BOX - BLUE BOX", "address": {"city": "LEES SUMMIT", "state": "MO", "street": "209 SE STATE ROUTE 291", "postcode": "64063"}}},
{"geometry": {"type": "Point", "coordinates": [-94.3906128759, 38.9111676879]}, "type": "Feature", "properties": {"collection_times": [{"days": "Mon-Sat", "time": "9:00am"}, {"days": "Sun", "time": "Closed"}], "id": "6406300068", "name": "USPS COLLECTION BOX - BLUE BOX", "address": {"city": "LEES SUMMIT", "state": "MO", "street": "615 SW 3RD ST", "postcode": "64063"}}},
{"geometry": {"type": "Point", "coordinates": [-94.3982086555, 38.9158593032]}, "type": "Feature", "properties": {"collection_times": [{"days": "Mon-Sat", "time": "9:00am"}, {"days": "Sun", "time": "Closed"}], "id": "6406300072", "name": "USPS COLLECTION BOX - BLUE BOX", "address": {"city": "LEES SUMMIT", "state": "MO", "street": "203 NW EXECUTIVE WAY", "postcode": "64063"}}},
{"geometry": {"type": "Point", "coordinates": [-94.3825184148, 38.9054164459]}, "type": "Feature", "properties": {"collection_times": [{"days": "Mon-Sat", "time": "9:00am"}, {"days": "Sun", "time": "Closed"}], "id": "6406300073", "name": "USPS COLLECTION BOX - BLUE BOX", "address": {"city": "LEES SUMMIT", "state": "MO", "street": "348 SW BLUE PKWY", "postcode": "64063"}}},
{"geometry": {"type": "Point", "coordinates": [-94.3618937978, 38.9070881629]}, "type": "Feature", "properties": {"collection_times": [{"days": "Mon-Sat", "time": "10:00am"}, {"days": "Sun", "time": "Closed"}], "id": "6406300075", "name": "USPS COLLECTION BOX - BLUE BOX", "address": {"city": "LEES SUMMIT", "state": "MO", "street": "688 SE BAYBERRY LN", "postcode": "64063"}}},
{"geometry": {"type": "Point", "coordinates": [-94.3621650615, 38.9097307709]}, "type": "Feature", "properties": {"collection_times": [{"days": "Mon-Sat", "time": "10:00am"}, {"days": "Sun", "time": "Closed"}], "id": "6406300076", "name": "USPS COLLECTION BOX - BLUE BOX", "address": {"city": "LEES SUMMIT", "state": "MO", "street": "541 SE MELODY LN", "postcode": "64063"}}},
{"geometry": {"type": "Point", "coordinates": [-94.3537849998, 38.9043145617]}, "type": "Feature", "properties": {"collection_times": [{"days": "Mon-Sat", "time": "10:00am"}, {"days": "Sun", "time": "Closed"}], "id": "6406300086", "name": "USPS COLLECTION BOX - BLUE BOX", "address": {"city": "LEES SUMMIT", "state": "MO", "street": "800 SE VISTA DR", "postcode": "64063"}}},
{"geometry": {"type": "Point", "coordinates": [-94.3653317984, 38.982679391]}, "type": "Feature", "properties": {"collection_times": [{"days": "Mon-Sat", "time": "11:00am"}, {"days": "Sun", "time": "Closed"}], "id": "6406400000", "name": "USPS COLLECTION BOX - BLUE BOX", "address": {"city": "LEES SUMMIT", "state": "MO", "street": "617 NE WOODS CHAPEL RD", "postcode": "64064"}}},
{"geometry": {"type": "Point", "coordinates": [-94.3552151613, 38.9886416696]}, "type": "Feature", "properties": {"collection_times": [{"days": "Mon-Sat", "time": "11:00am"}, {"days": "Sun", "time": "Closed"}], "id": "6406400001", "name": "USPS COLLECTION BOX - BLUE BOX", "address": {"city": "LEES SUMMIT", "state": "MO", "street": "1050 NE JIB CT", "postcode": "64064"}}},
{"geometry": {"type": "Point", "coordinates": [-94.3594572857, 38.9483421734]}, "type": "Feature", "properties": {"collection_times": [{"days": "Mon-Fri", "time": "5:00pm"}, {"days": "Sat", "time": "3:00pm"}, {"days": "Sun", "time": "Closed"}], "id": "6406400002", "name": "USPS COLLECTION BOX - BLUE BOX", "address": {"city": "LEES SUMMIT", "state": "MO", "street": "1951 NE RICE RD", "postcode": "64064"}}},
{"geometry": {"type": "Point", "coordinates": [-94.3594572857, 38.9483421734]}, "type": "Feature", "properties": {"collection_times": [{"days": "Mon-Fri", "time": "5:00pm"}, {"days": "Sat", "time": "3:00pm"}, {"days": "Sun", "time": "Closed"}], "id": "6406400003", "name": "USPS COLLECTION BOX - BLUE BOX", "address": {"city": "LEES SUMMIT", "state": "MO", "street": "1951 NE RICE RD", "postcode": "64064"}}},
{"geometry": {"type": "Point", "coordinates": [-94.3594572857, 38.9483421734]}, "type": "Feature", "properties": {"collection_times": [{"days": "Mon-Fri", "time": "5:00pm"}, {"days": "Sat", "time": "3:00pm"}, {"days": "Sun", "time": "Closed"}], "id": "6406400004", "name": "USPS COLLECTION BOX - PO LOBBY", "address": {"city": "LEES SUMMIT", "state": "MO", "street": "1951 NE RICE RD", "postcode": "64064"}}},
{"geometry": {"type": "Point", "coordinates": [-94.3594572857, 38.9483421734]}, "type": "Feature", "properties": {"collection_times": [{"days": "Mon-Fri", "time": "5:00pm"}, {"days": "Sat", "time": "3:00pm"}, {"days": "Sun", "time": "Closed"}], "id": "6406400005", "name": "USPS COLLECTION BOX - PO LOBBY", "address": {"city": "LEES SUMMIT", "state": "MO", "street": "1951 NE RICE RD", "postcode": "64064"}}},
{"geometry": {"type": "Point", "coordinates": [-94.3834404009, 39.0070633314]}, "type": "Feature", "properties": {"collection_times": [{"days": "Mon-Fri", "time": "10:00am"}, {"days": "Sat-Sun", "time": "Closed"}], "id": "6406400006", "name": "USPS COLLECTION BOX - BLUE BOX", "address": {"city": "LEES SUMMIT", "state": "MO", "street": "100 NE SPACE CENTER DR", "postcode": "64064"}}},
{"geometry": {"type": "Point", "coordinates": [-94.3554380509, 38.9957357282]}, "type": "Feature", "properties": {"collection_times": [{"days": "Mon-Sat", "time": "11:00am"}, {"days": "Sun", "time": "Closed"}], "id": "6406400007", "name": "USPS COLLECTION BOX - BLUE BOX", "address": {"city": "LEES SUMMIT", "state": "MO", "street": "4600 NE WHISPERING WINDS DR", "postcode": "64064"}}},
{"geometry": {"type": "Point", "coordinates": [-92.4777439191, 38.3679846143]}, "type": "Feature", "properties": {"collection_times": [{"days": "Mon-Sat", "time": "11:00am"}, {"days": "Sun", "time": "Closed"}], "id": "6406400008", "name": "USPS COLLECTION BOX - BLUE BOX", "address": {"city": "LEES SUMMIT", "state": "MO", "street": "801 NE LAKEWOOD BLVD", "postcode": "64064"}}},
{"geometry": {"type": "Point", "coordinates": [-94.3545767188, 39.001507855]}, "type": "Feature", "properties": {"collection_times": [{"days": "Mon-Sat", "time": "11:00am"}, {"days": "Sun", "time": "Closed"}], "id": "6406400009", "name": "USPS COLLECTION BOX - BLUE BOX", "address": {"city": "LEES SUMMIT", "state": "MO", "street": "4960 NE GOODVIEW CIR", "postcode": "64064"}}},
{"geometry": {"type": "Point", "coordinates": [-94.3594572857, 38.9483421734]}, "type": "Feature", "properties": {"collection_times": [{"days": "Mon-Fri", "time": "5:00pm"}, {"days": "Sat", "time": "3:00pm"}, {"days": "Sun", "time": "Closed"}], "id": "6406400010", "name": "USPS COLLECTION BOX - APC", "address": {"city": "LEES SUMMIT", "state": "MO", "street": "1951 NE RICE RD", "postcode": "64064"}}},
{"geometry": {"type": "Point", "coordinates": [-94.3586041966, 38.9824192979]}, "type": "Feature", "properties": {"collection_times": [{"days": "Mon-Sat", "time": "11:00am"}, {"days": "Sun", "time": "Closed"}], "id": "6406400012", "name": "USPS COLLECTION BOX - BLUE BOX", "address": {"city": "LEES SUMMIT", "state": "MO", "street": "937 NE WOODS CHAPEL RD", "postcode": "64064"}}},
{"geometry": {"type": "Point", "coordinates": [-94.3593588752, 38.9726282315]}, "type": "Feature", "properties": {"collection_times": [{"days": "Mon-Sat", "time": "11:00am"}, {"days": "Sun", "time": "Closed"}], "id": "6406400013", "name": "USPS COLLECTION BOX - BLUE BOX", "address": {"city": "LEES SUMMIT", "state": "MO", "street": "3350 NE RALPH POWELL RD", "postcode": "64064"}}},
{"geometry": {"type": "Point", "coordinates": [-94.4073767766, 38.9443714626]}, "type": "Feature", "properties": {"collection_times": [{"days": "Mon-Sat", "time": "9:00am"}, {"days": "Sun", "time": "Closed"}], "id": "6406500000", "name": "USPS COLLECTION BOX - BLUE BOX", "address": {"city": "LEES SUMMIT", "state": "MO", "street": "1901 NW BLUE PKWY", "postcode": "64065"}}},
{"geometry": {"type": "Point", "coordinates": [-94.1330432515, 39.1339510286]}, "type": "Feature", "properties": {"collection_times": [{"days": "Mon-Fri", "time": "11:30am"}, {"days": "Sat", "time": "9:30am"}, {"days": "Sun", "time": "Closed"}], "id": "6406600000", "name": "USPS COLLECTION BOX - PO LOBBY", "address": {"city": "LEVASY", "state": "MO", "street": "212 MAIN ST", "postcode": "64066"}}},
{"geometry": {"type": "Point", "coordinates": [-94.1330432515, 39.1339510286]}, "type": "Feature", "properties": {"collection_times": [{"days": "Mon-Sat", "time": "3:00pm"}, {"days": "Sun", "time": "Closed"}], "id": "6406600001", "name": "USPS COLLECTION BOX - BLUE BOX", "address": {"city": "LEVASY", "state": "MO", "street": "212 MAIN ST", "postcode": "64066"}}},
{"geometry": {"type": "Point", "coordinates": [-93.870202333, 39.1852756654]}, "type": "Feature", "properties": {"collection_times": [{"days": "Mon-Sat", "time": "9:00am"}, {"days": "Sun", "time": "Closed"}], "id": "6406700003", "name": "USPS COLLECTION BOX - BLUE BOX", "address": {"city": "LEXINGTON", "state": "MO", "street": "2112 MAIN ST", "postcode": "64067"}}},
{"geometry": {"type": "Point", "coordinates": [-93.8819488363, 39.1855610539]}, "type": "Feature", "properties": {"collection_times": [{"days": "Mon-Sat", "time": "10:00am"}, {"days": "Sun", "time": "Closed"}], "id": "6406700006", "name": "USPS COLLECTION BOX - BLUE BOX", "address": {"city": "LEXINGTON", "state": "MO", "street": "1030 MAIN ST", "postcode": "64067"}}},
{"geometry": {"type": "Point", "coordinates": [-93.877498959, 39.1666917141]}, "type": "Feature", "properties": {"collection_times": [{"days": "Mon-Sat", "time": "12:00pm"}, {"days": "Sun", "time": "Closed"}], "id": "6406700011", "name": "USPS COLLECTION BOX - BLUE BOX", "address": {"city": "LEXINGTON", "state": "MO", "street": "2201 OAKDALE DR", "postcode": "64067"}}},
{"geometry": {"type": "Point", "coordinates": [-93.885342369, 39.1858497342]}, "type": "Feature", "properties": {"collection_times": [{"days": "Mon-Sat", "time": "10:00am"}, {"days": "Sun", "time": "Closed"}], "id": "6406700013", "name": "USPS COLLECTION BOX - BLUE BOX", "address": {"city": "LEXINGTON", "state": "MO", "street": "326 BROADWAY ST", "postcode": "64067"}}},
{"geometry": {"type": "Point", "coordinates": [-93.8799258246, 39.183347919]}, "type": "Feature", "properties": {"collection_times": [{"days": "Mon-Fri", "time": "4:00pm"}, {"days": "Sat", "time": "12:15pm"}, {"days": "Sun", "time": "Closed"}], "id": "6406700015", "name": "USPS COLLECTION BOX - PO LOBBY", "address": {"city": "LEXINGTON", "state": "MO", "street": "301 S 13TH ST", "postcode": "64067"}}},
{"geometry": {"type": "Point", "coordinates": [-93.8727978884, 39.1736825401]}, "type": "Feature", "properties": {"collection_times": [{"days": "Mon-Sat", "time": "9:30am"}, {"days": "Sun", "time": "Closed"}], "id": "6406700016", "name": "USPS COLLECTION BOX - BLUE BOX", "address": {"city": "LEXINGTON", "state": "MO", "street": "740 S BUSINESS HIGHWAY 13", "postcode": "64067"}}},
{"geometry": {"type": "Point", "coordinates": [-93.8734397376, 39.186399187]}, "type": "Feature", "properties": {"collection_times": [{"days": "Mon-Sat", "time": "9:00am"}, {"days": "Sun", "time": "Closed"}], "id": "6406700017", "name": "USPS COLLECTION BOX - BLUE BOX", "address": {"city": "LEXINGTON", "state": "MO", "street": "1880 WASHINGTON AVE", "postcode": "64067"}}},
{"geometry": {"type": "Point", "coordinates": [-93.8799258246, 39.183347919]}, "type": "Feature", "properties": {"collection_times": [{"days": "Mon-Fri", "time": "4:00pm"}, {"days": "Sat", "time": "3:00pm"}, {"days": "Sun", "time": "Closed"}], "id": "6406700018", "name": "USPS COLLECTION BOX - BLUE BOX", "address": {"city": "LEXINGTON", "state": "MO", "street": "301 S 13TH ST", "postcode": "64067"}}},
{"geometry": {"type": "Point", "coordinates": [-94.4362597135, 39.2473859191]}, "type": "Feature", "properties": {"collection_times": [{"days": "Mon-Fri", "time": "10:00am"}, {"days": "Sat-Sun", "time": "Closed"}], "id": "6406800010", "name": "USPS COLLECTION BOX - BLUE BOX", "address": {"city": "PLEASANT VALLEY", "state": "MO", "street": "130 WESTWOODS DR", "postcode": "64068"}}},
{"geometry": {"type": "Point", "coordinates": [-94.4473144185, 39.2435775329]}, "type": "Feature", "properties": {"collection_times": [{"days": "Mon-Sat", "time": "11:30am"}, {"days": "Sun", "time": "Closed"}], "id": "6406800015", "name": "USPS COLLECTION BOX - BLUE BOX", "address": {"city": "PLEASANT VALLEY", "state": "MO", "street": "1 VICTORY DR", "postcode": "64068"}}},
{"geometry": {"type": "Point", "coordinates": [-94.4416208836, 39.2426860231]}, "type": "Feature", "properties": {"collection_times": [{"days": "Mon-Sat", "time": "9:30am"}, {"days": "Sun", "time": "Closed"}], "id": "6406800017", "name": "USPS COLLECTION BOX - BLUE BOX", "address": {"city": "PLEASANT VALLEY", "state": "MO", "street": "300 S 291 HWY", "postcode": "64068"}}},
{"geometry": {"type": "Point", "coordinates": [-94.4284285018, 39.2479604091]}, "type": "Feature", "properties": {"collection_times": [{"days": "Mon-Fri", "time": "10:00am"}, {"days": "Sat-Sun", "time": "Closed"}], "id": "6406800019", "name": "USPS COLLECTION BOX - BLUE BOX", "address": {"city": "PLEASANT VALLEY", "state": "MO", "street": "900 S 291 HWY", "postcode": "64068"}}},
{"geometry": {"type": "Point", "coordinates": [-94.4348214813, 39.2401221551]}, "type": "Feature", "properties": {"collection_times": [{"days": "Mon-Sat", "time": "9:00am"}, {"days": "Sun", "time": "Closed"}], "id": "6406800020", "name": "USPS COLLECTION BOX - BLUE BOX", "address": {"city": "PLEASANT VALLEY", "state": "MO", "street": "913 W LIBERTY DR", "postcode": "64068"}}},
{"geometry": {"type": "Point", "coordinates": [-94.441320412, 39.2462952309]}, "type": "Feature", "properties": {"collection_times": [{"days": "Mon-Fri", "time": "2:45pm"}, {"days": "Sat", "time": "10:00am"}, {"days": "Sun", "time": "Closed"}], "id": "6406800031", "name": "USPS COLLECTION BOX - BLUE BOX", "address": {"city": "PLEASANT VALLEY", "state": "MO", "street": "100 N CLAYVIEW DR", "postcode": "64068"}}},
{"geometry": {"type": "Point", "coordinates": [-94.4188894467, 39.2460832132]}, "type": "Feature", "properties": {"collection_times": [{"days": "Mon-Fri", "time": "3:30pm"}, {"days": "Sat-Sun", "time": "Closed"}], "id": "6406800035", "name": "USPS COLLECTION BOX - BLUE BOX", "address": {"city": "PLEASANT VALLEY", "state": "MO", "street": "101 E KANSAS ST", "postcode": "64068"}}},
{"geometry": {"type": "Point", "coordinates": [-94.4188894467, 39.2460832132]}, "type": "Feature", "properties": {"collection_times": [{"days": "Mon-Fri", "time": "3:30pm"}, {"days": "Sat-Sun", "time": "Closed"}], "id": "6406800036", "name": "USPS COLLECTION BOX - BLUE BOX", "address": {"city": "PLEASANT VALLEY", "state": "MO", "street": "101 E KANSAS ST", "postcode": "64068"}}},
{"geometry": {"type": "Point", "coordinates": [-94.4343492348, 39.2311663687]}, "type": "Feature", "properties": {"collection_times": [{"days": "Mon-Fri", "time": "5:45pm"}, {"days": "Sat", "time": "4:00pm"}, {"days": "Sun", "time": "Closed"}], "id": "6406800037", "name": "USPS COLLECTION BOX - BLUE BOX", "address": {"city": "PLEASANT VALLEY", "state": "MO", "street": "1000 PROGRESS DR", "postcode": "64068"}}},
{"geometry": {"type": "Point", "coordinates": [-94.4343492348, 39.2311663687]}, "type": "Feature", "properties": {"collection_times": [{"days": "Mon-Fri", "time": "5:45pm"}, {"days": "Sat", "time": "4:00pm"}, {"days": "Sun", "time": "Closed"}], "id": "6406800038", "name": "USPS COLLECTION BOX - BLUE BOX", "address": {"city": "PLEASANT VALLEY", "state": "MO", "street": "1000 PROGRESS DR", "postcode": "64068"}}},
{"geometry": {"type": "Point", "coordinates": [-94.4343492348, 39.2311663687]}, "type": "Feature", "properties": {"collection_times": [{"days": "Mon-Fri", "time": "5:45pm"}, {"days": "Sat", "time": "4:00pm"}, {"days": "Sun", "time": "Closed"}], "id": "6406800039", "name": "USPS COLLECTION BOX - BLUE BOX", "address": {"city": "PLEASANT VALLEY", "state": "MO", "street": "1000 PROGRESS DR", "postcode": "64068"}}},
{"geometry": {"type": "Point", "coordinates": [-94.4343492348, 39.2311663687]}, "type": "Feature", "properties": {"collection_times": [{"days": "Mon-Fri", "time": "5:45pm"}, {"days": "Sat", "time": "4:00pm"}, {"days": "Sun", "time": "Closed"}], "id": "6406800040", "name": "USPS COLLECTION BOX - BLUE BOX", "address": {"city": "PLEASANT VALLEY", "state": "MO", "street": "1000 PROGRESS DR", "postcode": "64068"}}},
{"geometry": {"type": "Point", "coordinates": [-94.4815575782, 39.2126033766]}, "type": "Feature", "properties": {"collection_times": [{"days": "Mon-Fri", "time": "11:00am"}, {"days": "Sat-Sun", "time": "Closed"}], "id": "6406800041", "name": "USPS COLLECTION BOX - BLUE BOX", "address": {"city": "PLEASANT VALLEY", "state": "MO", "street": "6500 ROYAL ST", "postcode": "64068"}}},
{"geometry": {"type": "Point", "coordinates": [-94.4284285018, 39.2479604091]}, "type": "Feature", "properties": {"collection_times": [{"days": "Mon-Sat", "time": "2:30pm"}, {"days": "Sun", "time": "Closed"}], "id": "6406800042", "name": "USPS COLLECTION BOX - BLUE BOX", "address": {"city": "PLEASANT VALLEY", "state": "MO", "street": "1332 W KANSAS ST", "postcode": "64068"}}},
{"geometry": {"type": "Point", "coordinates": [-94.4343492348, 39.2311663687]}, "type": "Feature", "properties": {"collection_times": [{"days": "Mon-Fri", "time": "5:45pm"}, {"days": "Sat", "time": "4:00pm"}, {"days": "Sun", "time": "Closed"}], "id": "6406800043", "name": "USPS COLLECTION BOX - PO LOBBY", "address": {"city": "PLEASANT VALLEY", "state": "MO", "street": "1000 PROGRESS DR", "postcode": "64068"}}},
{"geometry": {"type": "Point", "coordinates": [-94.441320412, 39.2462952309]}, "type": "Feature", "properties": {"collection_times": [{"days": "Mon-Fri", "time": "2:45pm"}, {"days": "Sat", "time": "10:00am"}, {"days": "Sun", "time": "Closed"}], "id": "6406800044", "name": "USPS COLLECTION BOX - BLUE BOX", "address": {"city": "PLEASANT VALLEY", "state": "MO", "street": "100 N CLAYVIEW DR", "postcode": "64068"}}},
{"geometry": {"type": "Point", "coordinates": [-94.4246670182, 39.2764902641]}, "type": "Feature", "properties": {"collection_times": [{"days": "Mon-Fri", "time": "10:00am"}, {"days": "Sat-Sun", "time": "Closed"}], "id": "6406800046", "name": "USPS COLLECTION BOX - BLUE BOX", "address": {"city": "PLEASANT VALLEY", "state": "MO", "street": "2525 GLENN HENDREN DR", "postcode": "64068"}}},
{"geometry": {"type": "Point", "coordinates": [-94.4731573866, 39.2163131359]}, "type": "Feature", "properties": {"collection_times": [{"days": "Mon-Fri", "time": "11:00am"}, {"days": "Sat", "time": "10:00am"}, {"days": "Sun", "time": "Closed"}], "id": "6406800050", "name": "USPS COLLECTION BOX - BLUE BOX", "address": {"city": "PLEASANT VALLEY", "state": "MO", "street": "8906 LIBERTY DR", "postcode": "64068"}}},
{"geometry": {"type": "Point", "coordinates": [-94.4465091033, 39.2670694617]}, "type": "Feature", "properties": {"collection_times": [{"days": "Mon-Fri", "time": "11:45am"}, {"days": "Sat-Sun", "time": "Closed"}], "id": "6406800051", "name": "USPS COLLECTION BOX - BLUE BOX", "address": {"city": "PLEASANT VALLEY", "state": "MO", "street": "1520 A HWY", "postcode": "64068"}}},
{"geometry": {"type": "Point", "coordinates": [-94.4465091033, 39.2670694617]}, "type": "Feature", "properties": {"collection_times": [{"days": "Mon-Fri", "time": "11:45am"}, {"days": "Sat-Sun", "time": "Closed"}], "id": "6406800052", "name": "USPS COLLECTION BOX - BLUE BOX", "address": {"city": "PLEASANT VALLEY", "state": "MO", "street": "1520 A HWY", "postcode": "64068"}}},
{"geometry": {"type": "Point", "coordinates": [-94.4343492348, 39.2311663687]}, "type": "Feature", "properties": {"collection_times": [{"days": "Mon-Fri", "time": "5:45pm"}, {"days": "Sat", "time": "4:00pm"}, {"days": "Sun", "time": "Closed"}], "id": "6406800053", "name": "USPS COLLECTION BOX - APC", "address": {"city": "PLEASANT VALLEY", "state": "MO", "street": "1000 PROGRESS DR", "postcode": "64068"}}},
{"geometry": {"type": "Point", "coordinates": [-94.3892363634, 39.2478269474]}, "type": "Feature", "properties": {"collection_times": [{"days": "Mon-Fri", "time": "11:15am"}, {"days": "Sat-Sun", "time": "Closed"}], "id": "6406800056", "name": "USPS COLLECTION BOX - BLUE BOX", "address": {"city": "PLEASANT VALLEY", "state": "MO", "street": "1525 NE 96 TH ST", "postcode": "64068"}}},
{"geometry": {"type": "Point", "coordinates": [-94.1728986837, 38.873994583]}, "type": "Feature", "properties": {"collection_times": [{"days": "Mon-Sat", "time": "4:15pm"}, {"days": "Sun", "time": "Closed"}], "id": "6407000000", "name": "USPS COLLECTION BOX - BLUE BOX", "address": {"city": "LONE JACK", "state": "MO", "street": "309 N BYNUM RD", "postcode": "64070"}}},
{"geometry": {"type": "Point", "coordinates": [-94.1728986837, 38.873994583]}, "type": "Feature", "properties": {"collection_times": [{"days": "Mon-Fri", "time": "4:15pm"}, {"days": "Sat", "time": "10:30am"}, {"days": "Sun", "time": "Closed"}], "id": "6407000002", "name": "USPS COLLECTION BOX - PO LOBBY", "address": {"city": "LONE JACK", "state": "MO", "street": "309 N BYNUM RD", "postcode": "64070"}}},
{"geometry": {"type": "Point", "coordinates": [-94.1728986837, 38.873994583]}, "type": "Feature", "properties": {"collection_times": [{"days": "Mon-Fri", "time": "4:15pm"}, {"days": "Sat", "time": "10:30am"}, {"days": "Sun", "time": "Closed"}], "id": "6407000003", "name": "USPS COLLECTION BOX - PO LOBBY", "address": {"city": "LONE JACK", "state": "MO", "street": "309 N BYNUM RD", "postcode": "64070"}}},
{"geometry": {"type": "Point", "coordinates": [-93.8278016445, 39.0522998267]}, "type": "Feature", "properties": {"collection_times": [{"days": "Mon-Sat", "time": "4:15pm"}, {"days": "Sun", "time": "Closed"}], "id": "6407100000", "name": "USPS COLLECTION BOX - BLUE BOX", "address": {"city": "MAYVIEW", "state": "MO", "street": "100 SW BOUNDARY ST", "postcode": "64071"}}},
{"geometry": {"type": "Point", "coordinates": [-93.8278016445, 39.0522998267]}, "type": "Feature", "properties": {"collection_times": [{"days": "Mon-Fri", "time": "1:30pm"}, {"days": "Sat", "time": "9:00am"}, {"days": "Sun", "time": "Closed"}], "id": "6407100001", "name": "USPS COLLECTION BOX - PO LOBBY", "address": {"city": "MAYVIEW", "state": "MO", "street": "100 SW BOUNDARY ST", "postcode": "64071"}}},
{"geometry": {"type": "Point", "coordinates": [-93.8278016445, 39.0522998267]}, "type": "Feature", "properties": {"collection_times": [{"days": "Mon-Fri", "time": "1:30pm"}, {"days": "Sat", "time": "9:00am"}, {"days": "Sun", "time": "Closed"}], "id": "6407100002", "name": "USPS COLLECTION BOX - PO LOBBY", "address": {"city": "MAYVIEW", "state": "MO", "street": "100 SW BOUNDARY ST", "postcode": "64071"}}},
{"geometry": {"type": "Point", "coordinates": [-94.2935372176, 39.2386322194]}, "type": "Feature", "properties": {"collection_times": [{"days": "Mon-Sat", "time": "5:00pm"}, {"days": "Sun", "time": "Closed"}], "id": "6407200000", "name": "USPS COLLECTION BOX - BLUE BOX", "address": {"city": "MISSOURI CITY", "state": "MO", "street": "426 MAIN ST", "postcode": "64072"}}},
{"geometry": {"type": "Point", "coordinates": [-94.2935372176, 39.2386322194]}, "type": "Feature", "properties": {"collection_times": [{"days": "Mon-Fri", "time": "11:45am"}, {"days": "Sat", "time": "10:00am"}, {"days": "Sun", "time": "Closed"}], "id": "6407200002", "name": "USPS COLLECTION BOX - PO LOBBY", "address": {"city": "MISSOURI CITY", "state": "MO", "street": "426 MAIN ST", "postcode": "64072"}}},
{"geometry": {"type": "Point", "coordinates": [-94.0744957088, 39.1306503103]}, "type": "Feature", "properties": {"collection_times": [{"days": "Mon-Sat", "time": "4:15pm"}, {"days": "Sun", "time": "Closed"}], "id": "6407400000", "name": "USPS COLLECTION BOX - BLUE BOX", "address": {"city": "NAPOLEON", "state": "MO", "street": "265 W 2ND ST", "postcode": "64074"}}},
{"geometry": {"type": "Point", "coordinates": [-94.0744957088, 39.1306503103]}, "type": "Feature", "properties": {"collection_times": [{"days": "Mon-Fri", "time": "12:30pm"}, {"days": "Sat", "time": "9:45am"}, {"days": "Sun", "time": "Closed"}], "id": "6407400001", "name": "USPS COLLECTION BOX - PO LOBBY", "address": {"city": "NAPOLEON", "state": "MO", "street": "265 W 2ND ST", "postcode": "64074"}}},
{"geometry": {"type": "Point", "coordinates": [-94.0744957088, 39.1306503103]}, "type": "Feature", "properties": {"collection_times": [{"days": "Mon-Fri", "time": "12:30pm"}, {"days": "Sat", "time": "9:45am"}, {"days": "Sun", "time": "Closed"}], "id": "6407400002", "name": "USPS COLLECTION BOX - PO LOBBY", "address": {"city": "NAPOLEON", "state": "MO", "street": "265 W 2ND ST", "postcode": "64074"}}},
{"geometry": {"type": "Point", "coordinates": [-94.1295133059, 38.9985042515]}, "type": "Feature", "properties": {"collection_times": [{"days": "Mon-Sat", "time": "4:30pm"}, {"days": "Sun", "time": "Closed"}], "id": "6407500006", "name": "USPS COLLECTION BOX - BLUE BOX", "address": {"city": "OAK GROVE", "state": "MO", "street": "1700 S BROADWAY", "postcode": "64075"}}},
{"geometry": {"type": "Point", "coordinates": [-94.1385862199, 38.9988612438]}, "type": "Feature", "properties": {"collection_times": [{"days": "Mon-Fri", "time": "4:30pm"}, {"days": "Sat", "time": "11:00am"}, {"days": "Sun", "time": "Closed"}], "id": "6407500007", "name": "USPS COLLECTION BOX - EXPRESS", "address": {"city": "OAK GROVE", "state": "MO", "street": "1700 S BROADWAY", "postcode": "64075"}}},
{"geometry": {"type": "Point", "coordinates": [-94.1287472281, 39.0130785075]}, "type": "Feature", "properties": {"collection_times": [{"days": "Mon-Fri", "time": "11:00am"}, {"days": "Sat-Sun", "time": "Closed"}], "id": "6407500008", "name": "USPS COLLECTION BOX - BLUE BOX", "address": {"city": "OAK GROVE", "state": "MO", "street": "309 S BROADWAY", "postcode": "64075"}}},
{"geometry": {"type": "Point", "coordinates": [-94.1295133059, 38.9985042515]}, "type": "Feature", "properties": {"collection_times": [{"days": "Mon-Fri", "time": "4:30pm"}, {"days": "Sat", "time": "11:00am"}, {"days": "Sun", "time": "Closed"}], "id": "6407500011", "name": "USPS COLLECTION BOX - PO LOBBY", "address": {"city": "OAK GROVE", "state": "MO", "street": "1700 S BROADWAY", "postcode": "64075"}}},
{"geometry": {"type": "Point", "coordinates": [-94.1295133059, 38.9985042515]}, "type": "Feature", "properties": {"collection_times": [{"days": "Mon-Fri", "time": "4:30pm"}, {"days": "Sat", "time": "11:00am"}, {"days": "Sun", "time": "Closed"}], "id": "6407500012", "name": "USPS COLLECTION BOX - PO LOBBY", "address": {"city": "OAK GROVE", "state": "MO", "street": "1700 S BROADWAY", "postcode": "64075"}}},
{"geometry": {"type": "Point", "coordinates": [-94.1295133059, 38.9985042515]}, "type": "Feature", "properties": {"collection_times": [{"days": "Mon-Fri", "time": "4:30pm"}, {"days": "Sat", "time": "11:00am"}, {"days": "Sun", "time": "Closed"}], "id": "6407500013", "name": "USPS COLLECTION BOX - PO LOBBY", "address": {"city": "OAK GROVE", "state": "MO", "street": "1700 S BROADWAY", "postcode": "64075"}}},
{"geometry": {"type": "Point", "coordinates": [-94.1323467094, 39.0157804726]}, "type": "Feature", "properties": {"collection_times": [{"days": "Mon-Fri", "time": "11:00am"}, {"days": "Sat-Sun", "time": "Closed"}], "id": "6407500014", "name": "USPS COLLECTION BOX - BLUE BOX", "address": {"city": "OAK GROVE", "state": "MO", "street": "301 SW 1ST ST", "postcode": "64075"}}},
{"geometry": {"type": "Point", "coordinates": [-94.1240387681, 39.0143407407]}, "type": "Feature", "properties": {"collection_times": [{"days": "Mon-Fri", "time": "11:00am"}, {"days": "Sat-Sun", "time": "Closed"}], "id": "6407500015", "name": "USPS COLLECTION BOX - BLUE BOX", "address": {"city": "OAK GROVE", "state": "MO", "street": "201 SE SALEM ST", "postcode": "64075"}}},
{"geometry": {"type": "Point", "coordinates": [-94.1288327253, 39.0142964287]}, "type": "Feature", "properties": {"collection_times": [{"days": "Mon-Fri", "time": "11:00am"}, {"days": "Sat-Sun", "time": "Closed"}], "id": "6407500016", "name": "USPS COLLECTION BOX - BLUE BOX", "address": {"city": "OAK GROVE", "state": "MO", "street": "100 N BROADWAY", "postcode": "64075"}}},
{"geometry": {"type": "Point", "coordinates": [-93.9536931181, 38.9979955248]}, "type": "Feature", "properties": {"collection_times": [{"days": "Mon-Fri", "time": "4:45pm"}, {"days": "Sat", "time": "11:45am"}, {"days": "Sun", "time": "Closed"}], "id": "6407600000", "name": "USPS COLLECTION BOX - BLUE BOX", "address": {"city": "ODESSA", "state": "MO", "street": "101 E DRYDEN ST", "postcode": "64076"}}},
{"geometry": {"type": "Point", "coordinates": [-93.9536931181, 38.9979955248]}, "type": "Feature", "properties": {"collection_times": [{"days": "Mon-Fri", "time": "4:45pm"}, {"days": "Sat", "time": "5:30pm"}, {"days": "Sun", "time": "Closed"}], "id": "6407600001", "name": "USPS COLLECTION BOX - BLUE BOX", "address": {"city": "ODESSA", "state": "MO", "street": "101 E DRYDEN ST", "postcode": "64076"}}},
{"geometry": {"type": "Point", "coordinates": [-93.9536931181, 38.9979955248]}, "type": "Feature", "properties": {"collection_times": [{"days": "Mon-Fri", "time": "4:45pm"}, {"days": "Sat", "time": "11:45am"}, {"days": "Sun", "time": "Closed"}], "id": "6407600003", "name": "USPS COLLECTION BOX - PO LOBBY", "address": {"city": "ODESSA", "state": "MO", "street": "101 E DRYDEN ST", "postcode": "64076"}}},
{"geometry": {"type": "Point", "coordinates": [-93.9536931181, 38.9979955248]}, "type": "Feature", "properties": {"collection_times": [{"days": "Mon-Fri", "time": "4:45pm"}, {"days": "Sat", "time": "11:45am"}, {"days": "Sun", "time": "Closed"}], "id": "6407600004", "name": "USPS COLLECTION BOX - PO LOBBY", "address": {"city": "ODESSA", "state": "MO", "street": "101 E DRYDEN ST", "postcode": "64076"}}},
{"geometry": {"type": "Point", "coordinates": [-94.122948471, 39.2128273138]}, "type": "Feature", "properties": {"collection_times": [{"days": "Mon-Fri", "time": "4:15pm"}, {"days": "Sat", "time": "4:30pm"}, {"days": "Sun", "time": "Closed"}], "id": "6407700000", "name": "USPS COLLECTION BOX - BLUE BOX", "address": {"city": "ORRICK", "state": "MO", "street": "107 W SOUTH FRONT ST", "postcode": "64077"}}},
{"geometry": {"type": "Point", "coordinates": [-94.122948471, 39.2128273138]}, "type": "Feature", "properties": {"collection_times": [{"days": "Mon-Fri", "time": "4:15pm"}, {"days": "Sat", "time": "10:00am"}, {"days": "Sun", "time": "Closed"}], "id": "6407700003", "name": "USPS COLLECTION BOX - PO LOBBY", "address": {"city": "ORRICK", "state": "MO", "street": "107 W SOUTH FRONT ST", "postcode": "64077"}}},
{"geometry": {"type": "Point", "coordinates": [-94.4583749601, 38.722154921]}, "type": "Feature", "properties": {"collection_times": [{"days": "Mon-Sat", "time": "4:30pm"}, {"days": "Sun", "time": "Closed"}], "id": "6407800000", "name": "USPS COLLECTION BOX - BLUE BOX", "address": {"city": "PECULIAR", "state": "MO", "street": "401 SCHUG AVE", "postcode": "64078"}}},
{"geometry": {"type": "Point", "coordinates": [-94.4518349745, 38.7170727696]}, "type": "Feature", "properties": {"collection_times": [{"days": "Mon-Fri", "time": "10:45am"}, {"days": "Sat", "time": "8:00am"}, {"days": "Sun", "time": "Closed"}], "id": "6407800001", "name": "USPS COLLECTION BOX - BLUE BOX", "address": {"city": "PECULIAR", "state": "MO", "street": "700 S J HWY", "postcode": "64078"}}},
{"geometry": {"type": "Point", "coordinates": [-94.4583749601, 38.722154921]}, "type": "Feature", "properties": {"collection_times": [{"days": "Mon-Fri", "time": "4:30pm"}, {"days": "Sat", "time": "12:00pm"}, {"days": "Sun", "time": "Closed"}], "id": "6407800004", "name": "USPS COLLECTION BOX - PO LOBBY", "address": {"city": "PECULIAR", "state": "MO", "street": "401 SCHUG AVE", "postcode": "64078"}}},
{"geometry": {"type": "Point", "coordinates": [-94.4583749601, 38.722154921]}, "type": "Feature", "properties": {"collection_times": [{"days": "Mon-Fri", "time": "4:30pm"}, {"days": "Sat", "time": "12:00pm"}, {"days": "Sun", "time": "Closed"}], "id": "6407800005", "name": "USPS COLLECTION BOX - PO LOBBY", "address": {"city": "PECULIAR", "state": "MO", "street": "401 SCHUG AVE", "postcode": "64078"}}},
{"geometry": {"type": "Point", "coordinates": [-94.7760113568, 39.3653992981]}, "type": "Feature", "properties": {"collection_times": [{"days": "Mon-Fri", "time": "4:30pm"}, {"days": "Sat", "time": "5:00pm"}, {"days": "Sun", "time": "Closed"}], "id": "6407900000", "name": "USPS COLLECTION BOX - BLUE BOX", "address": {"city": "PLATTE CITY", "state": "MO", "street": "1101 HAMPTON LN", "postcode": "64079"}}},
{"geometry": {"type": "Point", "coordinates": [-94.7760113568, 39.3653992981]}, "type": "Feature", "properties": {"collection_times": [{"days": "Mon-Fri", "time": "4:30pm"}, {"days": "Sat", "time": "5:00pm"}, {"days": "Sun", "time": "Closed"}], "id": "6407900002", "name": "USPS COLLECTION BOX - BLUE BOX", "address": {"city": "PLATTE CITY", "state": "MO", "street": "1101 HAMPTON LN", "postcode": "64079"}}},
{"geometry": {"type": "Point", "coordinates": [-94.7760113568, 39.3653992981]}, "type": "Feature", "properties": {"collection_times": [{"days": "Mon-Fri", "time": "4:30pm"}, {"days": "Sat", "time": "10:00am"}, {"days": "Sun", "time": "Closed"}], "id": "6407900005", "name": "USPS COLLECTION BOX - PO LOBBY", "address": {"city": "PLATTE CITY", "state": "MO", "street": "1101 HAMPTON LN", "postcode": "64079"}}},
{"geometry": {"type": "Point", "coordinates": [-94.7760113568, 39.3653992981]}, "type": "Feature", "properties": {"collection_times": [{"days": "Mon-Fri", "time": "4:30pm"}, {"days": "Sat", "time": "10:00am"}, {"days": "Sun", "time": "Closed"}], "id": "6407900006", "name": "USPS COLLECTION BOX - PO LOBBY", "address": {"city": "PLATTE CITY", "state": "MO", "street": "1101 HAMPTON LN", "postcode": "64079"}}},
{"geometry": {"type": "Point", "coordinates": [-94.7760113568, 39.3653992981]}, "type": "Feature", "properties": {"collection_times": [{"days": "Mon-Fri", "time": "4:30pm"}, {"days": "Sat", "time": "10:00am"}, {"days": "Sun", "time": "Closed"}], "id": "6407900007", "name": "USPS COLLECTION BOX - PO LOBBY", "address": {"city": "PLATTE CITY", "state": "MO", "street": "1101 HAMPTON LN", "postcode": "64079"}}},
{"geometry": {"type": "Point", "coordinates": [-94.2626643736, 38.8061117983]}, "type": "Feature", "properties": {"collection_times": [{"days": "Mon-Sat", "time": "9:45am"}, {"days": "Sun", "time": "Closed"}], "id": "6408000002", "name": "USPS COLLECTION BOX - BLUE BOX", "address": {"city": "PLEASANT HILL", "state": "MO", "street": "1508 N STATE ROUTE 7", "postcode": "64080"}}},
{"geometry": {"type": "Point", "coordinates": [-94.2637730745, 38.8137038482]}, "type": "Feature", "properties": {"collection_times": [{"days": "Mon-Sat", "time": "12:30pm"}, {"days": "Sun", "time": "Closed"}], "id": "6408000004", "name": "USPS COLLECTION BOX - BLUE BOX", "address": {"city": "PLEASANT HILL", "state": "MO", "street": "2101 N STATE ROUTE 7", "postcode": "64080"}}},
{"geometry": {"type": "Point", "coordinates": [-94.2732589153, 38.7859560041]}, "type": "Feature", "properties": {"collection_times": [{"days": "Mon-Sat", "time": "5:00pm"}, {"days": "Sun", "time": "Closed"}], "id": "6408000005", "name": "USPS COLLECTION BOX - BLUE BOX", "address": {"city": "PLEASANT HILL", "state": "MO", "street": "124 VETERANS PKWY", "postcode": "64080"}}},
{"geometry": {"type": "Point", "coordinates": [-94.2732589153, 38.7859560041]}, "type": "Feature", "properties": {"collection_times": [{"days": "Mon-Fri", "time": "5:00pm"}, {"days": "Sat", "time": "12:00pm"}, {"days": "Sun", "time": "Closed"}], "id": "6408000007", "name": "USPS COLLECTION BOX - PO LOBBY", "address": {"city": "PLEASANT HILL", "state": "MO", "street": "124 VETERANS PKWY", "postcode": "64080"}}},
{"geometry": {"type": "Point", "coordinates": [-94.2732589153, 38.7859560041]}, "type": "Feature", "properties": {"collection_times": [{"days": "Mon-Fri", "time": "5:00pm"}, {"days": "Sat", "time": "12:00pm"}, {"days": "Sun", "time": "Closed"}], "id": "6408000008", "name": "USPS COLLECTION BOX - PO LOBBY", "address": {"city": "PLEASANT HILL", "state": "MO", "street": "124 VETERANS PKWY", "postcode": "64080"}}},
{"geometry": {"type": "Point", "coordinates": [-94.4510046477, 38.9100703996]}, "type": "Feature", "properties": {"collection_times": [{"days": "Mon-Sat", "time": "10:00am"}, {"days": "Sun", "time": "Closed"}], "id": "6408100000", "name": "USPS COLLECTION BOX - BLUE BOX", "address": {"city": "LEES SUMMIT", "state": "MO", "street": "500 SW LONGVIEW RD", "postcode": "64081"}}},
{"geometry": {"type": "Point", "coordinates": [-94.3958190783, 38.9105963188]}, "type": "Feature", "properties": {"collection_times": [{"days": "Mon-Sat", "time": "9:00am"}, {"days": "Sun", "time": "Closed"}], "id": "6408100011", "name": "USPS COLLECTION BOX - BLUE BOX", "address": {"city": "LEES SUMMIT", "state": "MO", "street": "310 SW WARD RD", "postcode": "64081"}}},
{"geometry": {"type": "Point", "coordinates": [-94.4008402522, 38.917116155]}, "type": "Feature", "properties": {"collection_times": [{"days": "Mon-Sat", "time": "9:00am"}, {"days": "Sun", "time": "Closed"}], "id": "6408100014", "name": "USPS COLLECTION BOX - BLUE BOX", "address": {"city": "LEES SUMMIT", "state": "MO", "street": "186 NW OLDHAM PKWY", "postcode": "64081"}}},
{"geometry": {"type": "Point", "coordinates": [-94.4073445086, 38.9213788925]}, "type": "Feature", "properties": {"collection_times": [{"days": "Mon-Sat", "time": "9:00am"}, {"days": "Sun", "time": "Closed"}], "id": "6408100036", "name": "USPS COLLECTION BOX - BLUE BOX", "address": {"city": "LEES SUMMIT", "state": "MO", "street": "515 NW MOORE ST", "postcode": "64081"}}},
{"geometry": {"type": "Point", "coordinates": [-94.3760411876, 38.8937616293]}, "type": "Feature", "properties": {"collection_times": [{"days": "Mon-Fri", "time": "5:00pm"}, {"days": "Sat", "time": "3:00pm"}, {"days": "Sun", "time": "Closed"}], "id": "6408100039", "name": "USPS COLLECTION BOX - BLUE BOX", "address": {"city": "LEES SUMMIT", "state": "MO", "street": "1404 SW MARKET ST", "postcode": "64081"}}},
{"geometry": {"type": "Point", "coordinates": [-94.3760411876, 38.8937616293]}, "type": "Feature", "properties": {"collection_times": [{"days": "Mon-Sat", "time": "5:00pm"}, {"days": "Sun", "time": "Closed"}], "id": "6408100040", "name": "USPS COLLECTION BOX - PO LOBBY", "address": {"city": "LEES SUMMIT", "state": "MO", "street": "1404 SW MARKET ST", "postcode": "64081"}}},
{"geometry": {"type": "Point", "coordinates": [-94.376430705, 38.894027293]}, "type": "Feature", "properties": {"collection_times": [{"days": "Mon-Sat", "time": "5:00pm"}, {"days": "Sun", "time": "Closed"}], "id": "6408100044", "name": "USPS COLLECTION BOX - APC", "address": {"city": "LEES SUMMIT", "state": "MO", "street": "1404 SW MARKET ST", "postcode": "64081"}}},
{"geometry": {"type": "Point", "coordinates": [-94.376430705, 38.894027293]}, "type": "Feature", "properties": {"collection_times": [{"days": "Mon-Sat", "time": "5:00pm"}, {"days": "Sun", "time": "Closed"}], "id": "6408100045", "name": "USPS COLLECTION BOX - PO LOBBY", "address": {"city": "LEES SUMMIT", "state": "MO", "street": "1404 SW MARKET ST", "postcode": "64081"}}},
{"geometry": {"type": "Point", "coordinates": [-94.38141, 38.851612]}, "type": "Feature", "properties": {"collection_times": [{"days": "Mon-Sat", "time": "10:00am"}, {"days": "Sun", "time": "Closed"}], "id": "6408200000", "name": "USPS COLLECTION BOX - BLUE BOX", "address": {"city": "LEES SUMMIT", "state": "MO", "street": "250 SW GREENWICH DR", "postcode": "64082"}}},
{"geometry": {"type": "Point", "coordinates": [-94.457057743, 38.8044526627]}, "type": "Feature", "properties": {"collection_times": [{"days": "Mon-Fri", "time": "5:00pm"}, {"days": "Sat", "time": "12:00pm"}, {"days": "Sun", "time": "Closed"}], "id": "6408300002", "name": "USPS COLLECTION BOX - EXPRESS", "address": {"city": "RAYMORE", "state": "MO", "street": "329 N MADISON ST", "postcode": "64083"}}},
{"geometry": {"type": "Point", "coordinates": [-94.4571610225, 38.810703402]}, "type": "Feature", "properties": {"collection_times": [{"days": "Mon-Fri", "time": "5:00pm"}, {"days": "Sat", "time": "12:00pm"}, {"days": "Sun", "time": "Closed"}], "id": "6408300006", "name": "USPS COLLECTION BOX - PO LOBBY", "address": {"city": "RAYMORE", "state": "MO", "street": "329 N MADISON ST", "postcode": "64083"}}},
{"geometry": {"type": "Point", "coordinates": [-94.4571610225, 38.810703402]}, "type": "Feature", "properties": {"collection_times": [{"days": "Mon-Sat", "time": "5:00pm"}, {"days": "Sun", "time": "Closed"}], "id": "6408300008", "name": "USPS COLLECTION BOX - BLUE BOX", "address": {"city": "RAYMORE", "state": "MO", "street": "329 N MADISON ST", "postcode": "64083"}}},
{"geometry": {"type": "Point", "coordinates": [-94.060824434, 39.3438163262]}, "type": "Feature", "properties": {"collection_times": [{"days": "Mon-Fri", "time": "4:00pm"}, {"days": "Sat", "time": "4:30pm"}, {"days": "Sun", "time": "Closed"}], "id": "6408400000", "name": "USPS COLLECTION BOX - BLUE BOX", "address": {"city": "RAYVILLE", "state": "MO", "street": "107 N HIGHWAY C", "postcode": "64084"}}},
{"geometry": {"type": "Point", "coordinates": [-94.060824434, 39.3438163262]}, "type": "Feature", "properties": {"collection_times": [{"days": "Mon-Fri", "time": "1:00pm"}, {"days": "Sat", "time": "11:00am"}, {"days": "Sun", "time": "Closed"}], "id": "6408400003", "name": "USPS COLLECTION BOX - PO LOBBY", "address": {"city": "RAYVILLE", "state": "MO", "street": "107 N HIGHWAY C", "postcode": "64084"}}},
{"geometry": {"type": "Point", "coordinates": [-93.9778042378, 39.2776258846]}, "type": "Feature", "properties": {"collection_times": [{"days": "Mon-Fri", "time": "5:00pm"}, {"days": "Sat", "time": "3:45pm"}, {"days": "Sun", "time": "Closed"}], "id": "6408500007", "name": "USPS COLLECTION BOX - BLUE BOX", "address": {"city": "RICHMOND", "state": "MO", "street": "209 S COLLEGE ST", "postcode": "64085"}}},
{"geometry": {"type": "Point", "coordinates": [-93.9778042378, 39.2776258846]}, "type": "Feature", "properties": {"collection_times": [{"days": "Mon-Fri", "time": "5:00pm"}, {"days": "Sat", "time": "3:45pm"}, {"days": "Sun", "time": "Closed"}], "id": "6408500009", "name": "USPS COLLECTION BOX - PO LOBBY", "address": {"city": "RICHMOND", "state": "MO", "street": "209 S COLLEGE ST", "postcode": "64085"}}},
{"geometry": {"type": "Point", "coordinates": [-94.360501596, 38.9176140502]}, "type": "Feature", "properties": {"collection_times": [{"days": "Mon-Sat", "time": "10:00am"}, {"days": "Sun", "time": "Closed"}], "id": "6408600000", "name": "USPS COLLECTION BOX - BLUE BOX", "address": {"city": "LEES SUMMIT", "state": "MO", "street": "301 NE RICE RD", "postcode": "64086"}}},
{"geometry": {"type": "Point", "coordinates": [-94.4024400997, 38.9281419661]}, "type": "Feature", "properties": {"collection_times": [{"days": "Mon-Sat", "time": "9:00am"}, {"days": "Sun", "time": "Closed"}], "id": "6408600002", "name": "USPS COLLECTION BOX - BLUE BOX", "address": {"city": "LEES SUMMIT", "state": "MO", "street": "740 NW BLUE PKWY", "postcode": "64086"}}},
{"geometry": {"type": "Point", "coordinates": [-94.359678499, 38.9256624841]}, "type": "Feature", "properties": {"collection_times": [{"days": "Mon-Sat", "time": "10:00am"}, {"days": "Sun", "time": "Closed"}], "id": "6408600003", "name": "USPS COLLECTION BOX - BLUE BOX", "address": {"city": "LEES SUMMIT", "state": "MO", "street": "729 NE RICE RD", "postcode": "64086"}}},
{"geometry": {"type": "Point", "coordinates": [-94.3593317645, 38.9335674136]}, "type": "Feature", "properties": {"collection_times": [{"days": "Mon-Sat", "time": "10:00am"}, {"days": "Sun", "time": "Closed"}], "id": "6408600007", "name": "USPS COLLECTION BOX - BLUE BOX", "address": {"city": "LEES SUMMIT", "state": "MO", "street": "1201 NE RICE RD", "postcode": "64086"}}},
{"geometry": {"type": "Point", "coordinates": [-94.3595022381, 38.9309692381]}, "type": "Feature", "properties": {"collection_times": [{"days": "Mon-Sat", "time": "10:00am"}, {"days": "Sun", "time": "Closed"}], "id": "6408600020", "name": "USPS COLLECTION BOX - BLUE BOX", "address": {"city": "LEES SUMMIT", "state": "MO", "street": "1015 NE RICE RD", "postcode": "64086"}}},
{"geometry": {"type": "Point", "coordinates": [-94.3741257919, 38.9305573789]}, "type": "Feature", "properties": {"collection_times": [{"days": "Mon-Sat", "time": "10:00am"}, {"days": "Sun", "time": "Closed"}], "id": "6408600022", "name": "USPS COLLECTION BOX - BLUE BOX", "address": {"city": "LEES SUMMIT", "state": "MO", "street": "300 NE TUDOR RD", "postcode": "64086"}}},
{"geometry": {"type": "Point", "coordinates": [-94.3781478078, 38.9410716597]}, "type": "Feature", "properties": {"collection_times": [{"days": "Mon-Sat", "time": "11:00am"}, {"days": "Sun", "time": "Closed"}], "id": "6408600024", "name": "USPS COLLECTION BOX - BLUE BOX", "address": {"city": "LEES SUMMIT", "state": "MO", "street": "1647 NE DOUGLAS ST", "postcode": "64086"}}},
{"geometry": {"type": "Point", "coordinates": [-94.3979598116, 38.9258022839]}, "type": "Feature", "properties": {"collection_times": [{"days": "Mon-Sat", "time": "11:00am"}, {"days": "Sun", "time": "Closed"}], "id": "6408600025", "name": "USPS COLLECTION BOX - BLUE BOX", "address": {"city": "LEES SUMMIT", "state": "MO", "street": "800 NW CHIPMAN RD", "postcode": "64086"}}},
{"geometry": {"type": "Point", "coordinates": [-94.2451588176, 38.9034485513]}, "type": "Feature", "properties": {"collection_times": [{"days": "Mon-Fri", "time": "9:00am"}, {"days": "Sat-Sun", "time": "Closed"}], "id": "6408600026", "name": "USPS COLLECTION BOX - BLUE BOX", "address": {"city": "LEES SUMMIT", "state": "MO", "street": "12418 7 HWY", "postcode": "64086"}}},
{"geometry": {"type": "Point", "coordinates": [-94.3849307584, 38.9262877224]}, "type": "Feature", "properties": {"collection_times": [{"days": "Mon-Sat", "time": "11:00am"}, {"days": "Sun", "time": "Closed"}], "id": "6408600027", "name": "USPS COLLECTION BOX - BLUE BOX", "address": {"city": "LEES SUMMIT", "state": "MO", "street": "701 NW COMMERCE DR", "postcode": "64086"}}},
{"geometry": {"type": "Point", "coordinates": [-94.1998272113, 39.1777446594]}, "type": "Feature", "properties": {"collection_times": [{"days": "Mon-Sat", "time": "4:30pm"}, {"days": "Sun", "time": "Closed"}], "id": "6408800000", "name": "USPS COLLECTION BOX - BLUE BOX", "address": {"city": "SIBLEY", "state": "MO", "street": "100 CHICAGO AVE", "postcode": "64088"}}},
{"geometry": {"type": "Point", "coordinates": [-94.1998272113, 39.1777446594]}, "type": "Feature", "properties": {"collection_times": [{"days": "Mon-Fri", "time": "4:30pm"}, {"days": "Sat", "time": "9:30am"}, {"days": "Sun", "time": "Closed"}], "id": "6408800001", "name": "USPS COLLECTION BOX - PO LOBBY", "address": {"city": "SIBLEY", "state": "MO", "street": "100 CHICAGO AVE", "postcode": "64088"}}},
{"geometry": {"type": "Point", "coordinates": [-94.5842668074, 39.3733544874]}, "type": "Feature", "properties": {"collection_times": [{"days": "Mon-Sat", "time": "5:00pm"}, {"days": "Sun", "time": "Closed"}], "id": "6408900000", "name": "USPS COLLECTION BOX - BLUE BOX", "address": {"city": "SMITHVILLE", "state": "MO", "street": "206 RICHARDSON ST", "postcode": "64089"}}},
{"geometry": {"type": "Point", "coordinates": [-94.5832807209, 39.3706030905]}, "type": "Feature", "properties": {"collection_times": [{"days": "Mon-Sat", "time": "9:00am"}, {"days": "Sun", "time": "Closed"}], "id": "6408900001", "name": "USPS COLLECTION BOX - BLUE BOX", "address": {"city": "SMITHVILLE", "state": "MO", "street": "1102 S US HIGHWAY 169", "postcode": "64089"}}},
{"geometry": {"type": "Point", "coordinates": [-94.584175813, 39.3902203732]}, "type": "Feature", "properties": {"collection_times": [{"days": "Mon-Sat", "time": "9:45am"}, {"days": "Sun", "time": "Closed"}], "id": "6408900002", "name": "USPS COLLECTION BOX - BLUE BOX", "address": {"city": "SMITHVILLE", "state": "MO", "street": "122 N US HIGHWAY 169", "postcode": "64089"}}},
{"geometry": {"type": "Point", "coordinates": [-94.5797798235, 39.3904691335]}, "type": "Feature", "properties": {"collection_times": [{"days": "Mon-Fri", "time": "9:00am"}, {"days": "Sat", "time": "8:30am"}, {"days": "Sun", "time": "Closed"}], "id": "6408900003", "name": "USPS COLLECTION BOX - BLUE BOX", "address": {"city": "SMITHVILLE", "state": "MO", "street": "161 COUNTY ROAD F", "postcode": "64089"}}},
{"geometry": {"type": "Point", "coordinates": [-94.5842668074, 39.3733544874]}, "type": "Feature", "properties": {"collection_times": [{"days": "Mon-Fri", "time": "5:00pm"}, {"days": "Sat", "time": "11:45am"}, {"days": "Sun", "time": "Closed"}], "id": "6408900005", "name": "USPS COLLECTION BOX - PO LOBBY", "address": {"city": "SMITHVILLE", "state": "MO", "street": "206 RICHARDSON ST", "postcode": "64089"}}},
{"geometry": {"type": "Point", "coordinates": [-94.5842668074, 39.3733544874]}, "type": "Feature", "properties": {"collection_times": [{"days": "Mon-Fri", "time": "5:00pm"}, {"days": "Sat", "time": "11:45am"}, {"days": "Sun", "time": "Closed"}], "id": "6408900006", "name": "USPS COLLECTION BOX - PO LOBBY", "address": {"city": "SMITHVILLE", "state": "MO", "street": "206 RICHARDSON ST", "postcode": "64089"}}},
{"geometry": {"type": "Point", "coordinates": [-94.5835321899, 39.3871312275]}, "type": "Feature", "properties": {"collection_times": [{"days": "Mon-Sat", "time": "9:00am"}, {"days": "Sun", "time": "Closed"}], "id": "6408900007", "name": "USPS COLLECTION BOX - BLUE BOX", "address": {"city": "SMITHVILLE", "state": "MO", "street": "107 W MAIN ST", "postcode": "64089"}}},
{"geometry": {"type": "Point", "coordinates": [-94.7931598593, 39.2230086748]}, "type": "Feature", "properties": {"collection_times": [{"days": "Mon-Sat", "time": "4:30pm"}, {"days": "Sun", "time": "Closed"}], "id": "6409200000", "name": "USPS COLLECTION BOX - BLUE BOX", "address": {"city": "WALDRON", "state": "MO", "street": "7230 NW RIVER RD", "postcode": "64092"}}},
{"geometry": {"type": "Point", "coordinates": [-94.7931598593, 39.2230086748]}, "type": "Feature", "properties": {"collection_times": [{"days": "Mon-Fri", "time": "4:30pm"}, {"days": "Sat", "time": "9:30am"}, {"days": "Sun", "time": "Closed"}], "id": "6409200001", "name": "USPS COLLECTION BOX - PO LOBBY", "address": {"city": "WALDRON", "state": "MO", "street": "7230 NW RIVER RD", "postcode": "64092"}}},
{"geometry": {"type": "Point", "coordinates": [-93.7312158842, 38.7651216729]}, "type": "Feature", "properties": {"collection_times": [{"days": "Mon-Sat", "time": "5:00pm"}, {"days": "Sun", "time": "Closed"}], "id": "6409300000", "name": "USPS COLLECTION BOX - EXPRESS", "address": {"city": "WARRENSBURG", "state": "MO", "street": "201 E GAY ST", "postcode": "64093"}}},
{"geometry": {"type": "Point", "coordinates": [-93.7378685388, 38.7658741988]}, "type": "Feature", "properties": {"collection_times": [{"days": "Mon-Sat", "time": "5:00pm"}, {"days": "Sun", "time": "Closed"}], "id": "6409300002", "name": "USPS COLLECTION BOX - BLUE BOX", "address": {"city": "WARRENSBURG", "state": "MO", "street": "201 E GAY ST", "postcode": "64093"}}},
{"geometry": {"type": "Point", "coordinates": [-93.7414618654, 38.7651011269]}, "type": "Feature", "properties": {"collection_times": [{"days": "Mon-Sat", "time": "2:30pm"}, {"days": "Sun", "time": "Closed"}], "id": "6409300006", "name": "USPS COLLECTION BOX - BLUE BOX", "address": {"city": "WARRENSBURG", "state": "MO", "street": "100 W MARKET ST", "postcode": "64093"}}},
{"geometry": {"type": "Point", "coordinates": [-93.7362863706, 38.7482272158]}, "type": "Feature", "properties": {"collection_times": [{"days": "Mon-Sat", "time": "12:30pm"}, {"days": "Sun", "time": "Closed"}], "id": "6409300008", "name": "USPS COLLECTION BOX - BLUE BOX", "address": {"city": "WARRENSBURG", "state": "MO", "street": "1047 S MAGUIRE ST", "postcode": "64093"}}},
{"geometry": {"type": "Point", "coordinates": [-93.7355704153, 38.7655981704]}, "type": "Feature", "properties": {"collection_times": [{"days": "Mon-Sat", "time": "2:30pm"}, {"days": "Sun", "time": "Closed"}], "id": "6409300009", "name": "USPS COLLECTION BOX - BLUE BOX", "address": {"city": "WARRENSBURG", "state": "MO", "street": "401 N MAGUIRE ST", "postcode": "64093"}}},
{"geometry": {"type": "Point", "coordinates": [-93.734592899, 38.771264451]}, "type": "Feature", "properties": {"collection_times": [{"days": "Mon-Sat", "time": "10:30am"}, {"days": "Sun", "time": "Closed"}], "id": "6409300010", "name": "USPS COLLECTION BOX - BLUE BOX", "address": {"city": "WARRENSBURG", "state": "MO", "street": "714 N CHARLES ST", "postcode": "64093"}}},
{"geometry": {"type": "Point", "coordinates": [-93.7356710624, 38.7788607501]}, "type": "Feature", "properties": {"collection_times": [{"days": "Mon-Sat", "time": "12:30pm"}, {"days": "Sun", "time": "Closed"}], "id": "6409300012", "name": "USPS COLLECTION BOX - BLUE BOX", "address": {"city": "WARRENSBURG", "state": "MO", "street": "301 E COOPER ST", "postcode": "64093"}}},
{"geometry": {"type": "Point", "coordinates": [-93.7260160642, 38.770880433]}, "type": "Feature", "properties": {"collection_times": [{"days": "Mon-Sat", "time": "2:30pm"}, {"days": "Sun", "time": "Closed"}], "id": "6409300014", "name": "USPS COLLECTION BOX - BLUE BOX", "address": {"city": "WARRENSBURG", "state": "MO", "street": "540 E YOUNG AVE", "postcode": "64093"}}},
{"geometry": {"type": "Point", "coordinates": [-93.7378685388, 38.7658741988]}, "type": "Feature", "properties": {"collection_times": [{"days": "Mon-Sat", "time": "5:00pm"}, {"days": "Sun", "time": "Closed"}], "id": "6409300017", "name": "USPS COLLECTION BOX - PO LOBBY", "address": {"city": "WARRENSBURG", "state": "MO", "street": "201 E GAY ST", "postcode": "64093"}}},
{"geometry": {"type": "Point", "coordinates": [-93.7414618654, 38.7651011269]}, "type": "Feature", "properties": {"collection_times": [{"days": "Mon-Sat", "time": "2:30pm"}, {"days": "Sun", "time": "Closed"}], "id": "6409300019", "name": "USPS COLLECTION BOX - BLUE BOX", "address": {"city": "WARRENSBURG", "state": "MO", "street": "100 W MARKET ST", "postcode": "64093"}}},
{"geometry": {"type": "Point", "coordinates": [-93.7378685388, 38.7658741988]}, "type": "Feature", "properties": {"collection_times": [{"days": "Mon-Sat", "time": "5:00pm"}, {"days": "Sun", "time": "Closed"}], "id": "6409300022", "name": "USPS COLLECTION BOX - APC", "address": {"city": "WARRENSBURG", "state": "MO", "street": "201 E GAY ST", "postcode": "64093"}}},
{"geometry": {"type": "Point", "coordinates": [-93.5172543382, 39.2093876253]}, "type": "Feature", "properties": {"collection_times": [{"days": "Mon-Sat", "time": "4:15pm"}, {"days": "Sun", "time": "Closed"}], "id": "6409600000", "name": "USPS COLLECTION BOX - BLUE BOX", "address": {"city": "WAVERLY", "state": "MO", "street": "110 E KELLING AVE", "postcode": "64096"}}},
{"geometry": {"type": "Point", "coordinates": [-93.5172543382, 39.2093876253]}, "type": "Feature", "properties": {"collection_times": [{"days": "Mon-Fri", "time": "4:15pm"}, {"days": "Sat", "time": "9:45am"}, {"days": "Sun", "time": "Closed"}], "id": "6409600001", "name": "USPS COLLECTION BOX - PO LOBBY", "address": {"city": "WAVERLY", "state": "MO", "street": "110 E KELLING AVE", "postcode": "64096"}}},
{"geometry": {"type": "Point", "coordinates": [-93.5172543382, 39.2093876253]}, "type": "Feature", "properties": {"collection_times": [{"days": "Mon-Fri", "time": "4:15pm"}, {"days": "Sat", "time": "9:45am"}, {"days": "Sun", "time": "Closed"}], "id": "6409600002", "name": "USPS COLLECTION BOX - PO LOBBY", "address": {"city": "WAVERLY", "state": "MO", "street": "110 E KELLING AVE", "postcode": "64096"}}},
{"geometry": {"type": "Point", "coordinates": [-93.9828034741, 39.1342883685]}, "type": "Feature", "properties": {"collection_times": [{"days": "Mon-Sat", "time": "4:00pm"}, {"days": "Sun", "time": "Closed"}], "id": "6409700000", "name": "USPS COLLECTION BOX - BLUE BOX", "address": {"city": "WELLINGTON", "state": "MO", "street": "110 E HIGHWAY 224", "postcode": "64097"}}},
{"geometry": {"type": "Point", "coordinates": [-93.9828034741, 39.1342883685]}, "type": "Feature", "properties": {"collection_times": [{"days": "Mon-Fri", "time": "4:00pm"}, {"days": "Sat", "time": "9:30am"}, {"days": "Sun", "time": "Closed"}], "id": "6409700002", "name": "USPS COLLECTION BOX - PO LOBBY", "address": {"city": "WELLINGTON", "state": "MO", "street": "110 E HIGHWAY 224", "postcode": "64097"}}},
{"geometry": {"type": "Point", "coordinates": [-94.9013535785, 39.4114994348]}, "type": "Feature", "properties": {"collection_times": [{"days": "Mon-Fri", "time": "1:30pm"}, {"days": "Sat", "time": "10:00am"}, {"days": "Sun", "time": "Closed"}], "id": "6409800000", "name": "USPS COLLECTION BOX - BLUE BOX", "address": {"city": "WESTON", "state": "MO", "street": "526 MAIN ST", "postcode": "64098"}}},
{"geometry": {"type": "Point", "coordinates": [-94.8956654548, 39.4213463256]}, "type": "Feature", "properties": {"collection_times": [{"days": "Mon-Fri", "time": "4:30pm"}, {"days": "Sat", "time": "10:15am"}, {"days": "Sun", "time": "Closed"}], "id": "6409800003", "name": "USPS COLLECTION BOX - PO LOBBY", "address": {"city": "WESTON", "state": "MO", "street": "18205 LIBRARY DR", "postcode": "64098"}}},
{"geometry": {"type": "Point", "coordinates": [-94.8956654548, 39.4213463256]}, "type": "Feature", "properties": {"collection_times": [{"days": "Mon-Fri", "time": "4:30pm"}, {"days": "Sat", "time": "10:15am"}, {"days": "Sun", "time": "Closed"}], "id": "6409800004", "name": "USPS COLLECTION BOX - PO LOBBY", "address": {"city": "WESTON", "state": "MO", "street": "18205 LIBRARY DR", "postcode": "64098"}}},
{"geometry": {"type": "Point", "coordinates": [-94.8956654548, 39.4213463256]}, "type": "Feature", "properties": {"collection_times": [{"days": "Mon-Sat", "time": "4:30pm"}, {"days": "Sun", "time": "Closed"}], "id": "6409800005", "name": "USPS COLLECTION BOX - BLUE BOX", "address": {"city": "WESTON", "state": "MO", "street": "18205 LIBRARY DR", "postcode": "64098"}}}
]}
