{"type": "FeatureCollection", "features": [
{"geometry": {"type": "Point", "coordinates": [-94.604493214, 39.1044176897]}, "type": "Feature", "properties": {"collection_times": [{"days": "Mon-Fri", "time": "3:00pm"}, {"days": "Sat", "time": "10:00am"}, {"days": "Sun", "time": "Closed"}], "id": "6410100002", "name": "USPS COLLECTION BOX - BLUE BOX", "address": {"city": "KANSAS CITY", "state": "MO", "street": "1600 W 9TH ST", "postcode": "64101"}}},
{"geometry": {"type": "Point", "coordinates": [-94.6049295516, 39.094799591]}, "type": "Feature", "properties": {"collection_times": [{"days": "Mon-Fri", "time": "3:00pm"}, {"days": "Sat", "time": "12:30pm"}, {"days": "Sun", "time": "Closed"}], "id": "6410200004", "name": "USPS COLLECTION BOX - BLUE BOX", "address": {"city": "KANSAS CITY", "state": "MO", "street": "1600 GENESSEE ST", "postcode": "64102"}}},
{"geometry": {"type": "Point", "coordinates": [-94.60479662, 39.0956027913]}, "type": "Feature", "properties": {"collection_times": [{"days": "Mon-Fri", "time": "3:00pm"}, {"days": "Sat", "time": "12:30pm"}, {"days": "Sun", "time": "Closed"}], "id": "6410200005", "name": "USPS COLLECTION BOX - EXPRESS", "address": {"city": "KANSAS CITY", "state": "MO", "street": "1600 GENESSEE ST", "postcode": "64102"}}},
{"geometry": {"type": "Point", "coordinates": [-94.5874004657, 39.1051114443]}, "type": "Feature", "properties": {"collection_times": [{"days": "Mon-Fri", "time": "3:00pm"}, {"days": "Sat", "time": "10:00am"}, {"days": "Sun", "time": "Closed"}], "id": "6410500033", "name": "USPS COLLECTION BOX - BLUE BOX", "address": {"city": "KANSAS CITY", "state": "MO", "street": "715 MAY ST", "postcode": "64105"}}},
{"geometry": {"type": "Point", "coordinates": [-94.5852891303, 39.1044046251]}, "type": "Feature", "properties": {"collection_times": [{"days": "Mon-Fri", "time": "3:00pm"}, {"days": "Sat-Sun", "time": "Closed"}], "id": "6410500045", "name": "USPS COLLECTION BOX - BLUE BOX", "address": {"city": "KANSAS CITY", "state": "MO", "street": "817 WYANDOTTE ST", "postcode": "64105"}}},
{"geometry": {"type": "Point", "coordinates": [-94.5852891303, 39.1044046251]}, "type": "Feature", "properties": {"collection_times": [{"days": "Mon-Fri", "time": "3:00pm"}, {"days": "Sat-Sun", "time": "Closed"}], "id": "6410500046", "name": "USPS COLLECTION BOX - BLUE BOX", "address": {"city": "KANSAS CITY", "state": "MO", "street": "817 WYANDOTTE ST", "postcode": "64105"}}},
{"geometry": {"type": "Point", "coordinates": [-94.5869894024, 39.1016548656]}, "type": "Feature", "properties": {"collection_times": [{"days": "Mon-Fri", "time": "3:00pm"}, {"days": "Sat-Sun", "time": "Closed"}], "id": "6410500062", "name": "USPS COLLECTION BOX - BLUE BOX", "address": {"city": "KANSAS CITY", "state": "MO", "street": "1048 CENTRAL ST", "postcode": "64105"}}},
{"geometry": {"type": "Point", "coordinates": [-94.5863390366, 39.1036323614]}, "type": "Feature", "properties": {"collection_times": [{"days": "Mon-Fri", "time": "3:00pm"}, {"days": "Sat", "time": "10:00am"}, {"days": "Sun", "time": "Closed"}], "id": "6410500065", "name": "USPS COLLECTION BOX - BLUE BOX", "address": {"city": "KANSAS CITY", "state": "MO", "street": "309 DELAWARE ST", "postcode": "64105"}}},
{"geometry": {"type": "Point", "coordinates": [-94.5844856548, 39.1092849236]}, "type": "Feature", "properties": {"collection_times": [{"days": "Mon-Fri", "time": "3:00pm"}, {"days": "Sat", "time": "10:00am"}, {"days": "Sun", "time": "Closed"}], "id": "6410500066", "name": "USPS COLLECTION BOX - BLUE BOX", "address": {"city": "KANSAS CITY", "state": "MO", "street": "309 DELAWARE ST", "postcode": "64105"}}},
{"geometry": {"type": "Point", "coordinates": [-94.5691935443, 39.1054261114]}, "type": "Feature", "properties": {"collection_times": [{"days": "Mon-Fri", "time": "3:00pm"}, {"days": "Sat", "time": "9:00am"}, {"days": "Sun", "time": "Closed"}], "id": "6410600016", "name": "USPS COLLECTION BOX - BLUE BOX", "address": {"city": "KANSAS CITY", "state": "MO", "street": "1100 ADMIRAL BLVD", "postcode": "64106"}}},
{"geometry": {"type": "Point", "coordinates": [-94.5818239971, 39.1042833731]}, "type": "Feature", "properties": {"collection_times": [{"days": "Mon-Fri", "time": "3:00pm"}, {"days": "Sat", "time": "10:00am"}, {"days": "Sun", "time": "Closed"}], "id": "6410600075", "name": "USPS COLLECTION BOX - BLUE BOX", "address": {"city": "KANSAS CITY", "state": "MO", "street": "801 WALNUT ST", "postcode": "64106"}}},
{"geometry": {"type": "Point", "coordinates": [-94.5772512397, 39.0983745655]}, "type": "Feature", "properties": {"collection_times": [{"days": "Mon-Fri", "time": "1:30pm"}, {"days": "Sat", "time": "10:00am"}, {"days": "Sun", "time": "Closed"}], "id": "6410600089", "name": "USPS COLLECTION BOX - BLUE BOX", "address": {"city": "KANSAS CITY", "state": "MO", "street": "515 E 13TH ST", "postcode": "64106"}}},
{"geometry": {"type": "Point", "coordinates": [-94.5772512397, 39.0983745655]}, "type": "Feature", "properties": {"collection_times": [{"days": "Mon-Fri", "time": "1:30pm"}, {"days": "Sat", "time": "10:00am"}, {"days": "Sun", "time": "Closed"}], "id": "6410600090", "name": "USPS COLLECTION BOX - BLUE BOX", "address": {"city": "KANSAS CITY", "state": "MO", "street": "515 E 13TH ST", "postcode": "64106"}}},
{"geometry": {"type": "Point", "coordinates": [-94.5762518551, 39.0996535238]}, "type": "Feature", "properties": {"collection_times": [{"days": "Mon-Fri", "time": "3:00pm"}, {"days": "Sat-Sun", "time": "Closed"}], "id": "6410600097", "name": "USPS COLLECTION BOX - PO LOBBY", "address": {"city": "KANSAS CITY", "state": "MO", "street": "601 E 12TH ST", "postcode": "64106"}}},
{"geometry": {"type": "Point", "coordinates": [-94.5699648335, 39.108984452]}, "type": "Feature", "properties": {"collection_times": [{"days": "Mon-Fri", "time": "9:00am"}, {"days": "Sat", "time": "10:00am"}, {"days": "Sun", "time": "Closed"}], "id": "6410600102", "name": "USPS COLLECTION BOX - BLUE BOX", "address": {"city": "KANSAS CITY", "state": "MO", "street": "545 TROOST AVE", "postcode": "64106"}}},
{"geometry": {"type": "Point", "coordinates": [-94.5809036551, 39.1000507459]}, "type": "Feature", "properties": {"collection_times": [{"days": "Mon-Fri", "time": "3:00pm"}, {"days": "Sat", "time": "10:00am"}, {"days": "Sun", "time": "Closed"}], "id": "6410600103", "name": "USPS COLLECTION BOX - BLUE BOX", "address": {"city": "KANSAS CITY", "state": "MO", "street": "1150 GRAND BLVD", "postcode": "64106"}}},
{"geometry": {"type": "Point", "coordinates": [-94.594655553, 39.0842310356]}, "type": "Feature", "properties": {"collection_times": [{"days": "Mon-Fri", "time": "9:00am"}, {"days": "Sat", "time": "10:00am"}, {"days": "Sun", "time": "Closed"}], "id": "6410800003", "name": "USPS COLLECTION BOX - BLUE BOX", "address": {"city": "KANSAS CITY", "state": "MO", "street": "900 SOUTHWEST BLVD", "postcode": "64108"}}},
{"geometry": {"type": "Point", "coordinates": [-94.5813413499, 39.0914411705]}, "type": "Feature", "properties": {"collection_times": [{"days": "Mon-Fri", "time": "1:30pm"}, {"days": "Sat", "time": "10:30am"}, {"days": "Sun", "time": "Closed"}], "id": "6410800006", "name": "USPS COLLECTION BOX - BLUE BOX", "address": {"city": "KANSAS CITY", "state": "MO", "street": "1801 GRAND BLVD", "postcode": "64108"}}},
{"geometry": {"type": "Point", "coordinates": [-94.5815899456, 39.0850704979]}, "type": "Feature", "properties": {"collection_times": [{"days": "Mon-Fri", "time": "3:00pm"}, {"days": "Sat-Sun", "time": "Closed"}], "id": "6410800007", "name": "USPS COLLECTION BOX - BLUE BOX", "address": {"city": "KANSAS CITY", "state": "MO", "street": "819 E 19TH ST", "postcode": "64108"}}},
{"geometry": {"type": "Point", "coordinates": [-94.5859832808, 39.091486123]}, "type": "Feature", "properties": {"collection_times": [{"days": "Mon-Fri", "time": "3:00pm"}, {"days": "Sat", "time": "10:30am"}, {"days": "Sun", "time": "Closed"}], "id": "6410800021", "name": "USPS COLLECTION BOX - BLUE BOX", "address": {"city": "KANSAS CITY", "state": "MO", "street": "1800 WYANDOTTE ST", "postcode": "64108"}}},
{"geometry": {"type": "Point", "coordinates": [-94.582549151, 39.0905764275]}, "type": "Feature", "properties": {"collection_times": [{"days": "Mon-Fri", "time": "3:00pm"}, {"days": "Sat", "time": "10:00am"}, {"days": "Sun", "time": "Closed"}], "id": "6410800067", "name": "USPS COLLECTION BOX - BLUE BOX", "address": {"city": "KANSAS CITY", "state": "MO", "street": "1828 WALNUT ST", "postcode": "64108"}}},
{"geometry": {"type": "Point", "coordinates": [-94.5847648331, 39.0916931408]}, "type": "Feature", "properties": {"collection_times": [{"days": "Mon-Fri", "time": "3:00pm"}, {"days": "Sat-Sun", "time": "Closed"}], "id": "6410800072", "name": "USPS COLLECTION BOX - BLUE BOX", "address": {"city": "KANSAS CITY", "state": "MO", "street": "1801 BALTIMORE AVE", "postcode": "64108"}}},
{"geometry": {"type": "Point", "coordinates": [-94.5792745894, 39.0829939257]}, "type": "Feature", "properties": {"collection_times": [{"days": "Mon-Fri", "time": "3:00pm"}, {"days": "Sat-Sun", "time": "Closed"}], "id": "6410800111", "name": "USPS COLLECTION BOX - BLUE BOX", "address": {"city": "KANSAS CITY", "state": "MO", "street": "2440 PERSHING RD", "postcode": "64108"}}},
{"geometry": {"type": "Point", "coordinates": [-94.5844196267, 39.0841279161]}, "type": "Feature", "properties": {"collection_times": [{"days": "Mon-Fri", "time": "4:30pm"}, {"days": "Sat", "time": "3:30pm"}, {"days": "Sun", "time": "Closed"}], "id": "6410800114", "name": "USPS COLLECTION BOX - PO LOBBY", "address": {"city": "KANSAS CITY", "state": "MO", "street": "30 W PERSHING RD", "postcode": "64108"}}},
{"geometry": {"type": "Point", "coordinates": [-94.5769982047, 39.0791591397]}, "type": "Feature", "properties": {"collection_times": [{"days": "Mon-Fri", "time": "3:00pm"}, {"days": "Sat-Sun", "time": "Closed"}], "id": "6410800118", "name": "USPS COLLECTION BOX - BLUE BOX", "address": {"city": "KANSAS CITY", "state": "MO", "street": "625 E 26TH ST", "postcode": "64108"}}},
{"geometry": {"type": "Point", "coordinates": [-94.5844196267, 39.0841279161]}, "type": "Feature", "properties": {"collection_times": [{"days": "Mon-Fri", "time": "4:30pm"}, {"days": "Sat", "time": "3:30pm"}, {"days": "Sun", "time": "Closed"}], "id": "6410800123", "name": "USPS COLLECTION BOX - PO LOBBY", "address": {"city": "KANSAS CITY", "state": "MO", "street": "30 W PERSHING RD", "postcode": "64108"}}},
{"geometry": {"type": "Point", "coordinates": [-94.5844196267, 39.0841279161]}, "type": "Feature", "properties": {"collection_times": [{"days": "Mon-Fri", "time": "4:30pm"}, {"days": "Sat", "time": "3:00pm"}, {"days": "Sun", "time": "Closed"}], "id": "6410800128", "name": "USPS COLLECTION BOX - BLUE BOX", "address": {"city": "KANSAS CITY", "state": "MO", "street": "30 W PERSHING RD", "postcode": "64108"}}},
{"geometry": {"type": "Point", "coordinates": [-94.5815899456, 39.0850704979]}, "type": "Feature", "properties": {"collection_times": [{"days": "Mon-Fri", "time": "4:30pm"}, {"days": "Sat", "time": "3:00pm"}, {"days": "Sun", "time": "Closed"}], "id": "6410800129", "name": "USPS COLLECTION BOX - EXPRESS", "address": {"city": "KANSAS CITY", "state": "MO", "street": "30 W PERSHING RD", "postcode": "64108"}}},
{"geometry": {"type": "Point", "coordinates": [-94.5651584712, 39.0128832316]}, "type": "Feature", "properties": {"collection_times": [{"days": "Mon-Fri", "time": "3:00pm"}, {"days": "Sat", "time": "12:15pm"}, {"days": "Sun", "time": "Closed"}], "id": "6411000011", "name": "USPS COLLECTION BOX - BLUE BOX", "address": {"city": "KANSAS CITY", "state": "MO", "street": "1734 E 63RD ST", "postcode": "64110"}}},
{"geometry": {"type": "Point", "coordinates": [-94.6014043339, 39.042621637]}, "type": "Feature", "properties": {"collection_times": [{"days": "Mon-Sat", "time": "12:30pm"}, {"days": "Sun", "time": "Closed"}], "id": "6411000012", "name": "USPS COLLECTION BOX - BLUE BOX", "address": {"city": "KANSAS CITY", "state": "MO", "street": "1215 E 47TH ST", "postcode": "64110"}}},
{"geometry": {"type": "Point", "coordinates": [-94.5920767027, 39.2094602546]}, "type": "Feature", "properties": {"collection_times": [{"days": "Mon-Fri", "time": "3:00pm"}, {"days": "Sat", "time": "12:15pm"}, {"days": "Sun", "time": "Closed"}], "id": "6411000015", "name": "USPS COLLECTION BOX - BLUE BOX", "address": {"city": "KANSAS CITY", "state": "MO", "street": "1015 E 63RD ST", "postcode": "64110"}}},
{"geometry": {"type": "Point", "coordinates": [-94.5669144542, 39.0130026605]}, "type": "Feature", "properties": {"collection_times": [{"days": "Mon-Fri", "time": "3:00pm"}, {"days": "Sat", "time": "12:15pm"}, {"days": "Sun", "time": "Closed"}], "id": "6411000023", "name": "USPS COLLECTION BOX - BLUE BOX", "address": {"city": "KANSAS CITY", "state": "MO", "street": "1616 E 63RD ST", "postcode": "64110"}}},
{"geometry": {"type": "Point", "coordinates": [-94.57321712, 39.0359632458]}, "type": "Feature", "properties": {"collection_times": [{"days": "Mon-Fri", "time": "3:00pm"}, {"days": "Sat", "time": "12:15pm"}, {"days": "Sun", "time": "Closed"}], "id": "6411000024", "name": "USPS COLLECTION BOX - EXPRESS", "address": {"city": "KANSAS CITY", "state": "MO", "street": "1616 E 63RD ST", "postcode": "64110"}}},
{"geometry": {"type": "Point", "coordinates": [-94.5807617, 39.0135161146]}, "type": "Feature", "properties": {"collection_times": [{"days": "Mon-Fri", "time": "3:00pm"}, {"days": "Sat", "time": "12:15pm"}, {"days": "Sun", "time": "Closed"}], "id": "6411000050", "name": "USPS COLLECTION BOX - BLUE BOX", "address": {"city": "KANSAS CITY", "state": "MO", "street": "616 E 63RD ST", "postcode": "64110"}}},
{"geometry": {"type": "Point", "coordinates": [-94.5881376489, 39.0638223245]}, "type": "Feature", "properties": {"collection_times": [{"days": "Mon-Fri", "time": "2:50pm"}, {"days": "Sat", "time": "10:00am"}, {"days": "Sun", "time": "Closed"}], "id": "6411100006", "name": "USPS COLLECTION BOX - BLUE BOX", "address": {"city": "KANSAS CITY", "state": "MO", "street": "211 W ARMOUR BLVD", "postcode": "64111"}}},
{"geometry": {"type": "Point", "coordinates": [-94.5860374664, 39.0565927717]}, "type": "Feature", "properties": {"collection_times": [{"days": "Mon-Fri", "time": "2:50pm"}, {"days": "Sat", "time": "10:30am"}, {"days": "Sun", "time": "Closed"}], "id": "6411100010", "name": "USPS COLLECTION BOX - BLUE BOX", "address": {"city": "KANSAS CITY", "state": "MO", "street": "3899 MAIN ST", "postcode": "64111"}}},
{"geometry": {"type": "Point", "coordinates": [-94.598627872, 39.0498782931]}, "type": "Feature", "properties": {"collection_times": [{"days": "Mon-Fri", "time": "3:00pm"}, {"days": "Sat", "time": "10:30am"}, {"days": "Sun", "time": "Closed"}], "id": "6411100022", "name": "USPS COLLECTION BOX - BLUE BOX", "address": {"city": "KANSAS CITY", "state": "MO", "street": "1002 WESTPORT RD", "postcode": "64111"}}},
{"geometry": {"type": "Point", "coordinates": [-94.5900822337, 39.0686408194]}, "type": "Feature", "properties": {"collection_times": [{"days": "Mon-Fri", "time": "2:50pm"}, {"days": "Sat-Sun", "time": "Closed"}], "id": "6411100025", "name": "USPS COLLECTION BOX - BLUE BOX", "address": {"city": "KANSAS CITY", "state": "MO", "street": "3217 BROADWAY ST", "postcode": "64111"}}},
{"geometry": {"type": "Point", "coordinates": [-94.5919927124, 39.0535391653]}, "type": "Feature", "properties": {"collection_times": [{"days": "Mon-Fri", "time": "3:00pm"}, {"days": "Sat-Sun", "time": "Closed"}], "id": "6411100051", "name": "USPS COLLECTION BOX - BLUE BOX", "address": {"city": "KANSAS CITY", "state": "MO", "street": "4049 PENNSYLVANIA AVE", "postcode": "64111"}}},
{"geometry": {"type": "Point", "coordinates": [-94.6036046376, 39.0674365672]}, "type": "Feature", "properties": {"collection_times": [{"days": "Mon-Fri", "time": "3:00pm"}, {"days": "Sat-Sun", "time": "Closed"}], "id": "6411100065", "name": "USPS COLLECTION BOX - BLUE BOX", "address": {"city": "KANSAS CITY", "state": "MO", "street": "3269 ROANOKE RD", "postcode": "64111"}}},
{"geometry": {"type": "Point", "coordinates": [-94.5916496543, 39.0477722403]}, "type": "Feature", "properties": {"collection_times": [{"days": "Mon-Fri", "time": "3:00pm"}, {"days": "Sat", "time": "10:00am"}, {"days": "Sun", "time": "Closed"}], "id": "6411100068", "name": "USPS COLLECTION BOX - BLUE BOX", "address": {"city": "KANSAS CITY", "state": "MO", "street": "4400 BROADWAY ST", "postcode": "64111"}}},
{"geometry": {"type": "Point", "coordinates": [-94.5902121544, 39.0463684107]}, "type": "Feature", "properties": {"collection_times": [{"days": "Mon-Fri", "time": "3:00pm"}, {"days": "Sat", "time": "10:00am"}, {"days": "Sun", "time": "Closed"}], "id": "6411100073", "name": "USPS COLLECTION BOX - BLUE BOX", "address": {"city": "KANSAS CITY", "state": "MO", "street": "4434 WORNALL RD", "postcode": "64111"}}},
{"geometry": {"type": "Point", "coordinates": [-94.5881499835, 39.0676478819]}, "type": "Feature", "properties": {"collection_times": [{"days": "Mon-Fri", "time": "2:50pm"}, {"days": "Sat-Sun", "time": "Closed"}], "id": "6411100092", "name": "USPS COLLECTION BOX - BLUE BOX", "address": {"city": "KANSAS CITY", "state": "MO", "street": "207 W LINWOOD BLVD", "postcode": "64111"}}},
{"geometry": {"type": "Point", "coordinates": [-94.5885070097, 39.0543279325]}, "type": "Feature", "properties": {"collection_times": [{"days": "Mon-Fri", "time": "5:00pm"}, {"days": "Sat", "time": "3:30pm"}, {"days": "Sun", "time": "Closed"}], "id": "6411100114", "name": "USPS COLLECTION BOX - PO LOBBY", "address": {"city": "KANSAS CITY", "state": "MO", "street": "200 WESTPORT RD", "postcode": "64111"}}},
{"geometry": {"type": "Point", "coordinates": [-94.5944192426, 39.0536087559]}, "type": "Feature", "properties": {"collection_times": [{"days": "Mon-Fri", "time": "11:00am"}, {"days": "Sat-Sun", "time": "Closed"}], "id": "6411100116", "name": "USPS COLLECTION BOX - BLUE BOX", "address": {"city": "KANSAS CITY", "state": "MO", "street": "4001 MILL ST", "postcode": "64111"}}},
{"geometry": {"type": "Point", "coordinates": [-94.5898176686, 39.04446153]}, "type": "Feature", "properties": {"collection_times": [{"days": "Mon-Fri", "time": "3:00pm"}, {"days": "Sat-Sun", "time": "Closed"}], "id": "6411100118", "name": "USPS COLLECTION BOX - BLUE BOX", "address": {"city": "KANSAS CITY", "state": "MO", "street": "4545 WORNALL RD", "postcode": "64111"}}},
{"geometry": {"type": "Point", "coordinates": [-94.5866883244, 39.0465786347]}, "type": "Feature", "properties": {"collection_times": [{"days": "Mon-Fri", "time": "2:50pm"}, {"days": "Sat-Sun", "time": "Closed"}], "id": "6411100122", "name": "USPS COLLECTION BOX - BLUE BOX", "address": {"city": "KANSAS CITY", "state": "MO", "street": "4435 MAIN ST", "postcode": "64111"}}},
{"geometry": {"type": "Point", "coordinates": [-94.5894953845, 39.0549759792]}, "type": "Feature", "properties": {"collection_times": [{"days": "Mon-Fri", "time": "5:00pm"}, {"days": "Sat", "time": "3:30pm"}, {"days": "Sun", "time": "Closed"}], "id": "6411100124", "name": "USPS COLLECTION BOX - BLUE BOX", "address": {"city": "KANSAS CITY", "state": "MO", "street": "3941 CENTRAL ST", "postcode": "64111"}}},
{"geometry": {"type": "Point", "coordinates": [-94.5920483115, 39.041268332]}, "type": "Feature", "properties": {"collection_times": [{"days": "Mon-Fri", "time": "3:00pm"}, {"days": "Sat", "time": "10:00am"}, {"days": "Sun", "time": "Closed"}], "id": "6411200025", "name": "USPS COLLECTION BOX - BLUE BOX", "address": {"city": "KANSAS CITY", "state": "MO", "street": "414 NICHOLS RD", "postcode": "64112"}}},
{"geometry": {"type": "Point", "coordinates": [-94.5873933849, 39.0347010343]}, "type": "Feature", "properties": {"collection_times": [{"days": "Mon-Fri", "time": "4:00pm"}, {"days": "Sat-Sun", "time": "Closed"}], "id": "6411200057", "name": "USPS COLLECTION BOX - PO LOBBY", "address": {"city": "KANSAS CITY", "state": "MO", "street": "5104 MAIN ST", "postcode": "64112"}}},
{"geometry": {"type": "Point", "coordinates": [-94.5826828253, 39.2084571054]}, "type": "Feature", "properties": {"collection_times": [{"days": "Mon-Fri", "time": "4:00pm"}, {"days": "Sat", "time": "12:30pm"}, {"days": "Sun", "time": "Closed"}], "id": "6411300008", "name": "USPS COLLECTION BOX - BLUE BOX", "address": {"city": "KANSAS CITY", "state": "MO", "street": "108 W 63RD ST", "postcode": "64113"}}},
{"geometry": {"type": "Point", "coordinates": [-94.5901589772, 39.0146193816]}, "type": "Feature", "properties": {"collection_times": [{"days": "Mon-Fri", "time": "4:00pm"}, {"days": "Sat", "time": "12:30pm"}, {"days": "Sun", "time": "Closed"}], "id": "6411300010", "name": "USPS COLLECTION BOX - BLUE BOX", "address": {"city": "KANSAS CITY", "state": "MO", "street": "6227 BROOKSIDE PLZ", "postcode": "64113"}}},
{"geometry": {"type": "Point", "coordinates": [-94.5901589772, 39.0146193816]}, "type": "Feature", "properties": {"collection_times": [{"days": "Mon-Fri", "time": "4:00pm"}, {"days": "Sat", "time": "12:30pm"}, {"days": "Sun", "time": "Closed"}], "id": "6411300011", "name": "USPS COLLECTION BOX - BLUE BOX", "address": {"city": "KANSAS CITY", "state": "MO", "street": "6227 BROOKSIDE PLZ", "postcode": "64113"}}},
{"geometry": {"type": "Point", "coordinates": [-94.5835795082, 39.0275282636]}, "type": "Feature", "properties": {"collection_times": [{"days": "Mon-Sat", "time": "10:00am"}, {"days": "Sun", "time": "Closed"}], "id": "6411300019", "name": "USPS COLLECTION BOX - BLUE BOX", "address": {"city": "KANSAS CITY", "state": "MO", "street": "301 E 55TH ST", "postcode": "64113"}}},
{"geometry": {"type": "Point", "coordinates": [-94.5826828253, 39.2084571054]}, "type": "Feature", "properties": {"collection_times": [{"days": "Mon-Fri", "time": "4:00pm"}, {"days": "Sat", "time": "12:30pm"}, {"days": "Sun", "time": "Closed"}], "id": "6411300026", "name": "USPS COLLECTION BOX - PO LOBBY", "address": {"city": "KANSAS CITY", "state": "MO", "street": "108 W 63RD ST", "postcode": "64113"}}},
{"geometry": {"type": "Point", "coordinates": [-94.6062191593, 38.9420443451]}, "type": "Feature", "properties": {"collection_times": [{"days": "Mon-Fri", "time": "4:30pm"}, {"days": "Sat", "time": "10:00am"}, {"days": "Sun", "time": "Closed"}], "id": "6411400003", "name": "USPS COLLECTION BOX - BLUE BOX", "address": {"city": "KANSAS CITY", "state": "MO", "street": "1156 W 103RD ST", "postcode": "64114"}}},
{"geometry": {"type": "Point", "coordinates": [-94.6062191593, 38.9420443451]}, "type": "Feature", "properties": {"collection_times": [{"days": "Mon-Fri", "time": "4:30pm"}, {"days": "Sat", "time": "10:00am"}, {"days": "Sun", "time": "Closed"}], "id": "6411400004", "name": "USPS COLLECTION BOX - BLUE BOX", "address": {"city": "KANSAS CITY", "state": "MO", "street": "1156 W 103RD ST", "postcode": "64114"}}},
{"geometry": {"type": "Point", "coordinates": [-94.5957285935, 38.9583006175]}, "type": "Feature", "properties": {"collection_times": [{"days": "Mon-Fri", "time": "4:45pm"}, {"days": "Sat", "time": "10:00am"}, {"days": "Sun", "time": "Closed"}], "id": "6411400007", "name": "USPS COLLECTION BOX - BLUE BOX", "address": {"city": "KANSAS CITY", "state": "MO", "street": "1523 W 89TH ST", "postcode": "64114"}}},
{"geometry": {"type": "Point", "coordinates": [-94.6053874716, 38.9786746244]}, "type": "Feature", "properties": {"collection_times": [{"days": "Mon-Fri", "time": "4:45pm"}, {"days": "Sat", "time": "12:00pm"}, {"days": "Sun", "time": "Closed"}], "id": "6411400011", "name": "USPS COLLECTION BOX - BLUE BOX", "address": {"city": "KANSAS CITY", "state": "MO", "street": "1210 W 83RD ST", "postcode": "64114"}}},
{"geometry": {"type": "Point", "coordinates": [-94.5997813142, 38.9603503899]}, "type": "Feature", "properties": {"collection_times": [{"days": "Mon-Fri", "time": "5:00pm"}, {"days": "Sat-Sun", "time": "Closed"}], "id": "6411400012", "name": "USPS COLLECTION BOX - BLUE BOX", "address": {"city": "KANSAS CITY", "state": "MO", "street": "9225 WARD PKWY", "postcode": "64114"}}},
{"geometry": {"type": "Point", "coordinates": [-94.5997813142, 38.9603503899]}, "type": "Feature", "properties": {"collection_times": [{"days": "Mon-Fri", "time": "5:00pm"}, {"days": "Sat-Sun", "time": "Closed"}], "id": "6411400016", "name": "USPS COLLECTION BOX - BLUE BOX", "address": {"city": "KANSAS CITY", "state": "MO", "street": "9225 WARD PKWY", "postcode": "64114"}}},
{"geometry": {"type": "Point", "coordinates": [-94.5922474926, 38.9478208469]}, "type": "Feature", "properties": {"collection_times": [{"days": "Mon-Sat", "time": "10:00am"}, {"days": "Sun", "time": "Closed"}], "id": "6411400019", "name": "USPS COLLECTION BOX - BLUE BOX", "address": {"city": "KANSAS CITY", "state": "MO", "street": "10000 WYANDOTTE ST", "postcode": "64114"}}},
{"geometry": {"type": "Point", "coordinates": [-94.5968700522, 38.9595294163]}, "type": "Feature", "properties": {"collection_times": [{"days": "Mon-Fri", "time": "5:00pm"}, {"days": "Sat-Sun", "time": "Closed"}], "id": "6411400028", "name": "USPS COLLECTION BOX - BLUE BOX", "address": {"city": "KANSAS CITY", "state": "MO", "street": "9233 WARD PKWY", "postcode": "64114"}}},
{"geometry": {"type": "Point", "coordinates": [-94.5968700522, 38.9595294163]}, "type": "Feature", "properties": {"collection_times": [{"days": "Mon-Fri", "time": "5:00pm"}, {"days": "Sat-Sun", "time": "Closed"}], "id": "6411400029", "name": "USPS COLLECTION BOX - BLUE BOX", "address": {"city": "KANSAS CITY", "state": "MO", "street": "9233 WARD PKWY", "postcode": "64114"}}},
{"geometry": {"type": "Point", "coordinates": [-94.5968320657, 38.9389913775]}, "type": "Feature", "properties": {"collection_times": [{"days": "Mon-Sat", "time": "10:00am"}, {"days": "Sun", "time": "Closed"}], "id": "6411400039", "name": "USPS COLLECTION BOX - BLUE BOX", "address": {"city": "KANSAS CITY", "state": "MO", "street": "401 W 104TH ST", "postcode": "64114"}}},
{"geometry": {"type": "Point", "coordinates": [-94.5883404166, 38.921825848]}, "type": "Feature", "properties": {"collection_times": [{"days": "Mon-Sat", "time": "10:00am"}, {"days": "Sun", "time": "Closed"}], "id": "6411400049", "name": "USPS COLLECTION BOX - BLUE BOX", "address": {"city": "KANSAS CITY", "state": "MO", "street": "11291 OAK ST", "postcode": "64114"}}},
{"geometry": {"type": "Point", "coordinates": [-94.5883385521, 38.9938470559]}, "type": "Feature", "properties": {"collection_times": [{"days": "Mon-Sat", "time": "10:00am"}, {"days": "Sun", "time": "Closed"}], "id": "6411400050", "name": "USPS COLLECTION BOX - BLUE BOX", "address": {"city": "KANSAS CITY", "state": "MO", "street": "7400 WALNUT ST", "postcode": "64114"}}},
{"geometry": {"type": "Point", "coordinates": [-94.5949744266, 38.9752490774]}, "type": "Feature", "properties": {"collection_times": [{"days": "Mon-Sat", "time": "10:30am"}, {"days": "Sun", "time": "Closed"}], "id": "6411400054", "name": "USPS COLLECTION BOX - BLUE BOX", "address": {"city": "KANSAS CITY", "state": "MO", "street": "8447 WORNALL RD", "postcode": "64114"}}},
{"geometry": {"type": "Point", "coordinates": [-94.6067442107, 38.9351711083]}, "type": "Feature", "properties": {"collection_times": [{"days": "Mon-Fri", "time": "4:15pm"}, {"days": "Sat", "time": "10:00am"}, {"days": "Sun", "time": "Closed"}], "id": "6411400060", "name": "USPS COLLECTION BOX - BLUE BOX", "address": {"city": "KANSAS CITY", "state": "MO", "street": "1310 CARONDELET DR", "postcode": "64114"}}},
{"geometry": {"type": "Point", "coordinates": [-94.6068092734, 38.9838557845]}, "type": "Feature", "properties": {"collection_times": [{"days": "Mon-Fri", "time": "4:30pm"}, {"days": "Sat", "time": "12:00pm"}, {"days": "Sun", "time": "Closed"}], "id": "6411400068", "name": "USPS COLLECTION BOX - BLUE BOX", "address": {"city": "KANSAS CITY", "state": "MO", "street": "8080 WARD PKWY", "postcode": "64114"}}},
{"geometry": {"type": "Point", "coordinates": [-94.5925747282, 38.9995465522]}, "type": "Feature", "properties": {"collection_times": [{"days": "Mon-Fri", "time": "5:15pm"}, {"days": "Sat", "time": "10:00am"}, {"days": "Sun", "time": "Closed"}], "id": "6411400072", "name": "USPS COLLECTION BOX - BLUE BOX", "address": {"city": "KANSAS CITY", "state": "MO", "street": "222 W GREGORY BLVD", "postcode": "64114"}}},
{"geometry": {"type": "Point", "coordinates": [-94.5925747282, 38.9995465522]}, "type": "Feature", "properties": {"collection_times": [{"days": "Mon-Fri", "time": "5:15pm"}, {"days": "Sat", "time": "10:00am"}, {"days": "Sun", "time": "Closed"}], "id": "6411400073", "name": "USPS COLLECTION BOX - BLUE BOX", "address": {"city": "KANSAS CITY", "state": "MO", "street": "222 W GREGORY BLVD", "postcode": "64114"}}},
{"geometry": {"type": "Point", "coordinates": [-94.5870136381, 38.9993052286]}, "type": "Feature", "properties": {"collection_times": [{"days": "Mon-Fri", "time": "5:15pm"}, {"days": "Sat", "time": "12:30pm"}, {"days": "Sun", "time": "Closed"}], "id": "6411400075", "name": "USPS COLLECTION BOX - PO LOBBY", "address": {"city": "KANSAS CITY", "state": "MO", "street": "119 W GREGORY BLVD", "postcode": "64114"}}},
{"geometry": {"type": "Point", "coordinates": [-94.5870136381, 38.9993052286]}, "type": "Feature", "properties": {"collection_times": [{"days": "Mon-Fri", "time": "5:15pm"}, {"days": "Sat", "time": "12:30pm"}, {"days": "Sun", "time": "Closed"}], "id": "6411400076", "name": "USPS COLLECTION BOX - PO LOBBY", "address": {"city": "KANSAS CITY", "state": "MO", "street": "119 W GREGORY BLVD", "postcode": "64114"}}},
{"geometry": {"type": "Point", "coordinates": [-94.5870136381, 38.9993052286]}, "type": "Feature", "properties": {"collection_times": [{"days": "Mon-Fri", "time": "5:15pm"}, {"days": "Sat", "time": "12:30pm"}, {"days": "Sun", "time": "Closed"}], "id": "6411400077", "name": "USPS COLLECTION BOX - APC", "address": {"city": "KANSAS CITY", "state": "MO", "street": "119 W GREGORY BLVD", "postcode": "64114"}}},
{"geometry": {"type": "Point", "coordinates": [-94.5870136381, 38.9993052286]}, "type": "Feature", "properties": {"collection_times": [{"days": "Mon-Fri", "time": "5:15pm"}, {"days": "Sat", "time": "12:30pm"}, {"days": "Sun", "time": "Closed"}], "id": "6411400080", "name": "USPS COLLECTION BOX - BLUE BOX", "address": {"city": "KANSAS CITY", "state": "MO", "street": "119 W GREGORY BLVD", "postcode": "64114"}}},
{"geometry": {"type": "Point", "coordinates": [-94.5870136381, 38.9993052286]}, "type": "Feature", "properties": {"collection_times": [{"days": "Mon-Fri", "time": "5:15pm"}, {"days": "Sat", "time": "12:30pm"}, {"days": "Sun", "time": "Closed"}], "id": "6411400081", "name": "USPS COLLECTION BOX - BLUE BOX", "address": {"city": "KANSAS CITY", "state": "MO", "street": "119 W GREGORY BLVD", "postcode": "64114"}}},
{"geometry": {"type": "Point", "coordinates": [-94.5735302718, 39.1304587061]}, "type": "Feature", "properties": {"collection_times": [{"days": "Mon-Fri", "time": "10:00am"}, {"days": "Sat-Sun", "time": "Closed"}], "id": "6411600007", "name": "USPS COLLECTION BOX - BLUE BOX", "address": {"city": "KANSAS CITY", "state": "MO", "street": "601 E 12TH AVE", "postcode": "64116"}}},
{"geometry": {"type": "Point", "coordinates": [-94.5622081716, 39.1347989825]}, "type": "Feature", "properties": {"collection_times": [{"days": "Mon-Sat", "time": "10:00am"}, {"days": "Sun", "time": "Closed"}], "id": "6411600014", "name": "USPS COLLECTION BOX - BLUE BOX", "address": {"city": "KANSAS CITY", "state": "MO", "street": "1411 QUEBEC ST", "postcode": "64116"}}},
{"geometry": {"type": "Point", "coordinates": [-94.5768974331, 39.1419779252]}, "type": "Feature", "properties": {"collection_times": [{"days": "Mon-Fri", "time": "3:00pm"}, {"days": "Sat", "time": "10:00am"}, {"days": "Sun", "time": "Closed"}], "id": "6411600015", "name": "USPS COLLECTION BOX - BLUE BOX", "address": {"city": "KANSAS CITY", "state": "MO", "street": "329 ARMOUR RD", "postcode": "64116"}}},
{"geometry": {"type": "Point", "coordinates": [-94.5618872953, 39.1672215202]}, "type": "Feature", "properties": {"collection_times": [{"days": "Mon-Sat", "time": "10:00am"}, {"days": "Sun", "time": "Closed"}], "id": "6411600016", "name": "USPS COLLECTION BOX - BLUE BOX", "address": {"city": "KANSAS CITY", "state": "MO", "street": "1525 NE PARVIN RD", "postcode": "64116"}}},
{"geometry": {"type": "Point", "coordinates": [-94.5772897154, 39.1412886954]}, "type": "Feature", "properties": {"collection_times": [{"days": "Mon-Fri", "time": "3:00pm"}, {"days": "Sat", "time": "10:00am"}, {"days": "Sun", "time": "Closed"}], "id": "6411600017", "name": "USPS COLLECTION BOX - BLUE BOX", "address": {"city": "KANSAS CITY", "state": "MO", "street": "1828 SWIFT AVE", "postcode": "64116"}}},
{"geometry": {"type": "Point", "coordinates": [-94.5784359521, 39.1439115057]}, "type": "Feature", "properties": {"collection_times": [{"days": "Mon-Sat", "time": "10:00am"}, {"days": "Sun", "time": "Closed"}], "id": "6411600020", "name": "USPS COLLECTION BOX - BLUE BOX", "address": {"city": "KANSAS CITY", "state": "MO", "street": "200 E 21ST AVE", "postcode": "64116"}}},
{"geometry": {"type": "Point", "coordinates": [-94.5784419174, 39.1323502575]}, "type": "Feature", "properties": {"collection_times": [{"days": "Mon-Fri", "time": "10:00am"}, {"days": "Sat-Sun", "time": "Closed"}], "id": "6411600022", "name": "USPS COLLECTION BOX - BLUE BOX", "address": {"city": "KANSAS CITY", "state": "MO", "street": "200 E 13TH AVE", "postcode": "64116"}}},
{"geometry": {"type": "Point", "coordinates": [-94.5720553595, 39.1721164714]}, "type": "Feature", "properties": {"collection_times": [{"days": "Mon-Sat", "time": "10:00am"}, {"days": "Sun", "time": "Closed"}], "id": "6411600025", "name": "USPS COLLECTION BOX - BLUE BOX", "address": {"city": "KANSAS CITY", "state": "MO", "street": "4303 N HOLMES ST", "postcode": "64116"}}},
{"geometry": {"type": "Point", "coordinates": [-94.5759933184, 39.1439071973]}, "type": "Feature", "properties": {"collection_times": [{"days": "Mon-Sat", "time": "10:00am"}, {"days": "Sun", "time": "Closed"}], "id": "6411600026", "name": "USPS COLLECTION BOX - BLUE BOX", "address": {"city": "KANSAS CITY", "state": "MO", "street": "400 E 21ST ST", "postcode": "64116"}}},
{"geometry": {"type": "Point", "coordinates": [-94.5525406108, 39.1493165993]}, "type": "Feature", "properties": {"collection_times": [{"days": "Mon-Sat", "time": "10:00am"}, {"days": "Sun", "time": "Closed"}], "id": "6411600031", "name": "USPS COLLECTION BOX - BLUE BOX", "address": {"city": "KANSAS CITY", "state": "MO", "street": "2750 CLAY EDWARDS DR", "postcode": "64116"}}},
{"geometry": {"type": "Point", "coordinates": [-94.5767467372, 39.1706367244]}, "type": "Feature", "properties": {"collection_times": [{"days": "Mon-Sat", "time": "10:00am"}, {"days": "Sun", "time": "Closed"}], "id": "6411600039", "name": "USPS COLLECTION BOX - BLUE BOX", "address": {"city": "KANSAS CITY", "state": "MO", "street": "4225 N OAK TRFY", "postcode": "64116"}}},
{"geometry": {"type": "Point", "coordinates": [-94.5524641386, 39.1495268216]}, "type": "Feature", "properties": {"collection_times": [{"days": "Mon-Sat", "time": "10:00am"}, {"days": "Sun", "time": "Closed"}], "id": "6411600041", "name": "USPS COLLECTION BOX - BLUE BOX", "address": {"city": "KANSAS CITY", "state": "MO", "street": "2800 CLAY EDWARDS DR", "postcode": "64116"}}},
{"geometry": {"type": "Point", "coordinates": [-94.5709566183, 39.1431399304]}, "type": "Feature", "properties": {"collection_times": [{"days": "Mon-Fri", "time": "5:00pm"}, {"days": "Sat", "time": "3:00pm"}, {"days": "Sun", "time": "Closed"}], "id": "6411600043", "name": "USPS COLLECTION BOX - BLUE BOX", "address": {"city": "KANSAS CITY", "state": "MO", "street": "820 ARMOUR RD", "postcode": "64116"}}},
{"geometry": {"type": "Point", "coordinates": [-94.5709566183, 39.1431399304]}, "type": "Feature", "properties": {"collection_times": [{"days": "Mon-Fri", "time": "5:00pm"}, {"days": "Sat", "time": "3:00pm"}, {"days": "Sun", "time": "Closed"}], "id": "6411600044", "name": "USPS COLLECTION BOX - BLUE BOX", "address": {"city": "KANSAS CITY", "state": "MO", "street": "820 ARMOUR RD", "postcode": "64116"}}},
{"geometry": {"type": "Point", "coordinates": [-94.5903753751, 39.176720956]}, "type": "Feature", "properties": {"collection_times": [{"days": "Mon-Sat", "time": "10:00am"}, {"days": "Sun", "time": "Closed"}], "id": "6411600047", "name": "USPS COLLECTION BOX - BLUE BOX", "address": {"city": "KANSAS CITY", "state": "MO", "street": "801 NW 45TH ST", "postcode": "64116"}}},
{"geometry": {"type": "Point", "coordinates": [-94.5627675151, 39.1469303877]}, "type": "Feature", "properties": {"collection_times": [{"days": "Mon-Sat", "time": "10:00am"}, {"days": "Sun", "time": "Closed"}], "id": "6411600052", "name": "USPS COLLECTION BOX - BLUE BOX", "address": {"city": "KANSAS CITY", "state": "MO", "street": "1601 ORLEANS CIR", "postcode": "64116"}}},
{"geometry": {"type": "Point", "coordinates": [-94.5709566183, 39.1431399304]}, "type": "Feature", "properties": {"collection_times": [{"days": "Mon-Fri", "time": "5:00pm"}, {"days": "Sat", "time": "3:00pm"}, {"days": "Sun", "time": "Closed"}], "id": "6411600055", "name": "USPS COLLECTION BOX - PO LOBBY", "address": {"city": "KANSAS CITY", "state": "MO", "street": "820 ARMOUR RD", "postcode": "64116"}}},
{"geometry": {"type": "Point", "coordinates": [-94.5990940151, 39.1692171736]}, "type": "Feature", "properties": {"collection_times": [{"days": "Mon-Sat", "time": "10:00am"}, {"days": "Sun", "time": "Closed"}], "id": "6411600058", "name": "USPS COLLECTION BOX - BLUE BOX", "address": {"city": "KANSAS CITY", "state": "MO", "street": "4100 N MULBERRY DR", "postcode": "64116"}}},
{"geometry": {"type": "Point", "coordinates": [-94.5343388413, 39.1488276929]}, "type": "Feature", "properties": {"collection_times": [{"days": "Mon-Sat", "time": "9:00am"}, {"days": "Sun", "time": "Closed"}], "id": "6411700008", "name": "USPS COLLECTION BOX - BLUE BOX", "address": {"city": "KANSAS CITY", "state": "MO", "street": "2604 NE INDUSTRIAL DR", "postcode": "64117"}}},
{"geometry": {"type": "Point", "coordinates": [-94.5187462592, 39.1670133211]}, "type": "Feature", "properties": {"collection_times": [{"days": "Mon-Sat", "time": "10:00am"}, {"days": "Sun", "time": "Closed"}], "id": "6411700010", "name": "USPS COLLECTION BOX - BLUE BOX", "address": {"city": "KANSAS CITY", "state": "MO", "street": "5004 NE PARVIN RD", "postcode": "64117"}}},
{"geometry": {"type": "Point", "coordinates": [-94.5340336379, 39.1541829481]}, "type": "Feature", "properties": {"collection_times": [{"days": "Mon-Sat", "time": "10:00am"}, {"days": "Sun", "time": "Closed"}], "id": "6411700011", "name": "USPS COLLECTION BOX - BLUE BOX", "address": {"city": "KANSAS CITY", "state": "MO", "street": "3939 NE 33RD TER", "postcode": "64117"}}},
{"geometry": {"type": "Point", "coordinates": [-94.5120259021, 39.167974266]}, "type": "Feature", "properties": {"collection_times": [{"days": "Mon-Sat", "time": "10:00am"}, {"days": "Sun", "time": "Closed"}], "id": "6411700015", "name": "USPS COLLECTION BOX - BLUE BOX", "address": {"city": "KANSAS CITY", "state": "MO", "street": "5820 NE 41ST ST", "postcode": "64117"}}},
{"geometry": {"type": "Point", "coordinates": [-94.5765255239, 39.1924209137]}, "type": "Feature", "properties": {"collection_times": [{"days": "Mon-Fri", "time": "2:00pm"}, {"days": "Sat", "time": "12:00pm"}, {"days": "Sun", "time": "Closed"}], "id": "6411800001", "name": "USPS COLLECTION BOX - BLUE BOX", "address": {"city": "KANSAS CITY", "state": "MO", "street": "5400 N OAK TRFY", "postcode": "64118"}}},
{"geometry": {"type": "Point", "coordinates": [-94.5759991072, 39.239574841]}, "type": "Feature", "properties": {"collection_times": [{"days": "Mon-Fri", "time": "2:00pm"}, {"days": "Sat", "time": "12:00pm"}, {"days": "Sun", "time": "Closed"}], "id": "6411800004", "name": "USPS COLLECTION BOX - BLUE BOX", "address": {"city": "KANSAS CITY", "state": "MO", "street": "8002 N OAK TRFY", "postcode": "64118"}}},
{"geometry": {"type": "Point", "coordinates": [-94.5853527637, 39.2237397523]}, "type": "Feature", "properties": {"collection_times": [{"days": "Mon-Fri", "time": "5:00pm"}, {"days": "Sat", "time": "1:30pm"}, {"days": "Sun", "time": "Closed"}], "id": "6411800008", "name": "USPS COLLECTION BOX - BLUE BOX", "address": {"city": "KANSAS CITY", "state": "MO", "street": "7170 N BROADWAY ST", "postcode": "64118"}}},
{"geometry": {"type": "Point", "coordinates": [-94.5733691952, 39.2142735815]}, "type": "Feature", "properties": {"collection_times": [{"days": "Mon-Fri", "time": "5:00pm"}, {"days": "Sat", "time": "1:30pm"}, {"days": "Sun", "time": "Closed"}], "id": "6411800013", "name": "USPS COLLECTION BOX - EXPRESS", "address": {"city": "KANSAS CITY", "state": "MO", "street": "7170 N BROADWAY ST", "postcode": "64118"}}},
{"geometry": {"type": "Point", "coordinates": [-94.5715003142, 39.2216920503]}, "type": "Feature", "properties": {"collection_times": [{"days": "Mon-Fri", "time": "2:00pm"}, {"days": "Sat", "time": "12:00pm"}, {"days": "Sun", "time": "Closed"}], "id": "6411800016", "name": "USPS COLLECTION BOX - BLUE BOX", "address": {"city": "KANSAS CITY", "state": "MO", "street": "7010 N HOLMES ST", "postcode": "64118"}}},
{"geometry": {"type": "Point", "coordinates": [-94.5871270904, 39.1958275738]}, "type": "Feature", "properties": {"collection_times": [{"days": "Mon-Fri", "time": "2:00pm"}, {"days": "Sat", "time": "12:00pm"}, {"days": "Sun", "time": "Closed"}], "id": "6411800017", "name": "USPS COLLECTION BOX - BLUE BOX", "address": {"city": "KANSAS CITY", "state": "MO", "street": "528 NW ENGLEWOOD RD", "postcode": "64118"}}},
{"geometry": {"type": "Point", "coordinates": [-94.5649034893, 39.1810988702]}, "type": "Feature", "properties": {"collection_times": [{"days": "Mon-Sat", "time": "10:00am"}, {"days": "Sun", "time": "Closed"}], "id": "6411800019", "name": "USPS COLLECTION BOX - BLUE BOX", "address": {"city": "KANSAS CITY", "state": "MO", "street": "4800 NE DAVIDSON RD", "postcode": "64118"}}},
{"geometry": {"type": "Point", "coordinates": [-94.5733691952, 39.2142735815]}, "type": "Feature", "properties": {"collection_times": [{"days": "Mon-Fri", "time": "2:00pm"}, {"days": "Sat", "time": "10:00am"}, {"days": "Sun", "time": "Closed"}], "id": "6411800022", "name": "USPS COLLECTION BOX - BLUE BOX", "address": {"city": "KANSAS CITY", "state": "MO", "street": "5440 N OAK TRFY", "postcode": "64118"}}},
{"geometry": {"type": "Point", "coordinates": [-94.5589751447, 38.9999345628]}, "type": "Feature", "properties": {"collection_times": [{"days": "Mon-Sat", "time": "10:00am"}, {"days": "Sun", "time": "Closed"}], "id": "6411800024", "name": "USPS COLLECTION BOX - BLUE BOX", "address": {"city": "KANSAS CITY", "state": "MO", "street": "2401 NE 70TH ST", "postcode": "64118"}}},
{"geometry": {"type": "Point", "coordinates": [-94.5853527637, 39.2237397523]}, "type": "Feature", "properties": {"collection_times": [{"days": "Mon-Fri", "time": "5:00pm"}, {"days": "Sat", "time": "1:30pm"}, {"days": "Sun", "time": "Closed"}], "id": "6411800030", "name": "USPS COLLECTION BOX - BLUE BOX", "address": {"city": "KANSAS CITY", "state": "MO", "street": "7170 N BROADWAY ST", "postcode": "64118"}}},
{"geometry": {"type": "Point", "coordinates": [-94.5853527637, 39.2237397523]}, "type": "Feature", "properties": {"collection_times": [{"days": "Mon-Fri", "time": "5:00pm"}, {"days": "Sat", "time": "1:30pm"}, {"days": "Sun", "time": "Closed"}], "id": "6411800031", "name": "USPS COLLECTION BOX - BLUE BOX", "address": {"city": "KANSAS CITY", "state": "MO", "street": "7170 N BROADWAY ST", "postcode": "64118"}}},
{"geometry": {"type": "Point", "coordinates": [-94.5853527637, 39.2237397523]}, "type": "Feature", "properties": {"collection_times": [{"days": "Mon-Fri", "time": "5:00pm"}, {"days": "Sat", "time": "1:30pm"}, {"days": "Sun", "time": "Closed"}], "id": "6411800035", "name": "USPS COLLECTION BOX - PO LOBBY", "address": {"city": "KANSAS CITY", "state": "MO", "street": "7170 N BROADWAY ST", "postcode": "64118"}}},
{"geometry": {"type": "Point", "coordinates": [-94.5853527637, 39.2237397523]}, "type": "Feature", "properties": {"collection_times": [{"days": "Mon-Fri", "time": "5:00pm"}, {"days": "Sat", "time": "1:30pm"}, {"days": "Sun", "time": "Closed"}], "id": "6411800038", "name": "USPS COLLECTION BOX - APC", "address": {"city": "KANSAS CITY", "state": "MO", "street": "7170 N BROADWAY ST", "postcode": "64118"}}},
{"geometry": {"type": "Point", "coordinates": [-94.5230321195, 39.187972988]}, "type": "Feature", "properties": {"collection_times": [{"days": "Mon-Fri", "time": "5:00pm"}, {"days": "Sat", "time": "3:00pm"}, {"days": "Sun", "time": "Closed"}], "id": "6411900006", "name": "USPS COLLECTION BOX - BLUE BOX", "address": {"city": "KANSAS CITY", "state": "MO", "street": "4810 NE VIVION RD", "postcode": "64119"}}},
{"geometry": {"type": "Point", "coordinates": [-94.5230321195, 39.187972988]}, "type": "Feature", "properties": {"collection_times": [{"days": "Mon-Fri", "time": "5:00pm"}, {"days": "Sat", "time": "3:00pm"}, {"days": "Sun", "time": "Closed"}], "id": "6411900007", "name": "USPS COLLECTION BOX - BLUE BOX", "address": {"city": "KANSAS CITY", "state": "MO", "street": "4810 NE VIVION RD", "postcode": "64119"}}},
{"geometry": {"type": "Point", "coordinates": [-94.518901466, 39.2119961701]}, "type": "Feature", "properties": {"collection_times": [{"days": "Mon-Sat", "time": "11:30am"}, {"days": "Sun", "time": "Closed"}], "id": "6411900009", "name": "USPS COLLECTION BOX - BLUE BOX", "address": {"city": "KANSAS CITY", "state": "MO", "street": "4112 NE VIVION RD", "postcode": "64119"}}},
{"geometry": {"type": "Point", "coordinates": [-94.4961167667, 39.2010801364]}, "type": "Feature", "properties": {"collection_times": [{"days": "Mon-Sat", "time": "11:45am"}, {"days": "Sun", "time": "Closed"}], "id": "6411900010", "name": "USPS COLLECTION BOX - BLUE BOX", "address": {"city": "KANSAS CITY", "state": "MO", "street": "445 E 69TH TER", "postcode": "64119"}}},
{"geometry": {"type": "Point", "coordinates": [-94.5459637791, 39.2003668491]}, "type": "Feature", "properties": {"collection_times": [{"days": "Mon-Fri", "time": "3:30pm"}, {"days": "Sat", "time": "11:00am"}, {"days": "Sun", "time": "Closed"}], "id": "6411900015", "name": "USPS COLLECTION BOX - BLUE BOX", "address": {"city": "KANSAS CITY", "state": "MO", "street": "2850 NE KENDALLWOOD PKWY", "postcode": "64119"}}},
{"geometry": {"type": "Point", "coordinates": [-94.5459637791, 39.2003668491]}, "type": "Feature", "properties": {"collection_times": [{"days": "Mon-Fri", "time": "3:30pm"}, {"days": "Sat", "time": "11:00am"}, {"days": "Sun", "time": "Closed"}], "id": "6411900017", "name": "USPS COLLECTION BOX - BLUE BOX", "address": {"city": "KANSAS CITY", "state": "MO", "street": "2850 NE KENDALLWOOD PKWY", "postcode": "64119"}}},
{"geometry": {"type": "Point", "coordinates": [-94.5486650758, 39.1925101537]}, "type": "Feature", "properties": {"collection_times": [{"days": "Mon-Sat", "time": "11:15am"}, {"days": "Sun", "time": "Closed"}], "id": "6411900024", "name": "USPS COLLECTION BOX - BLUE BOX", "address": {"city": "KANSAS CITY", "state": "MO", "street": "5415 NE ANTIOCH RD", "postcode": "64119"}}},
{"geometry": {"type": "Point", "coordinates": [-94.5412591513, 39.2437530521]}, "type": "Feature", "properties": {"collection_times": [{"days": "Mon-Sat", "time": "11:00am"}, {"days": "Sun", "time": "Closed"}], "id": "6411900028", "name": "USPS COLLECTION BOX - BLUE BOX", "address": {"city": "KANSAS CITY", "state": "MO", "street": "3100 NE 83RD ST", "postcode": "64119"}}},
{"geometry": {"type": "Point", "coordinates": [-94.5230321195, 39.187972988]}, "type": "Feature", "properties": {"collection_times": [{"days": "Mon-Fri", "time": "5:00pm"}, {"days": "Sat", "time": "12:30pm"}, {"days": "Sun", "time": "Closed"}], "id": "6411900030", "name": "USPS COLLECTION BOX - PO LOBBY", "address": {"city": "KANSAS CITY", "state": "MO", "street": "4810 NE VIVION RD", "postcode": "64119"}}},
{"geometry": {"type": "Point", "coordinates": [-94.5459637791, 39.2003668491]}, "type": "Feature", "properties": {"collection_times": [{"days": "Mon-Fri", "time": "3:30pm"}, {"days": "Sat", "time": "11:00am"}, {"days": "Sun", "time": "Closed"}], "id": "6411900034", "name": "USPS COLLECTION BOX - BLUE BOX", "address": {"city": "KANSAS CITY", "state": "MO", "street": "2850 NE KENDALLWOOD PKWY", "postcode": "64119"}}},
{"geometry": {"type": "Point", "coordinates": [-94.5230321195, 39.187972988]}, "type": "Feature", "properties": {"collection_times": [{"days": "Mon-Fri", "time": "5:00pm"}, {"days": "Sat", "time": "12:30pm"}, {"days": "Sun", "time": "Closed"}], "id": "6411900035", "name": "USPS COLLECTION BOX - APC", "address": {"city": "KANSAS CITY", "state": "MO", "street": "4810 NE VIVION RD", "postcode": "64119"}}},
{"geometry": {"type": "Point", "coordinates": [-94.548474018, 39.2225023772]}, "type": "Feature", "properties": {"collection_times": [{"days": "Mon-Fri", "time": "3:30pm"}, {"days": "Sat", "time": "12:00pm"}, {"days": "Sun", "time": "Closed"}], "id": "6411900038", "name": "USPS COLLECTION BOX - BLUE BOX", "address": {"city": "KANSAS CITY", "state": "MO", "street": "7117 N PROSPECT AVE", "postcode": "64119"}}},
{"geometry": {"type": "Point", "coordinates": [-94.5245660935, 39.2030200172]}, "type": "Feature", "properties": {"collection_times": [{"days": "Mon-Fri", "time": "3:30pm"}, {"days": "Sat", "time": "12:00pm"}, {"days": "Sun", "time": "Closed"}], "id": "6411900039", "name": "USPS COLLECTION BOX - EXPRESS", "address": {"city": "KANSAS CITY", "state": "MO", "street": "7117 N PROSPECT AVE", "postcode": "64119"}}},
{"geometry": {"type": "Point", "coordinates": [-94.5060708539, 39.138649514]}, "type": "Feature", "properties": {"collection_times": [{"days": "Mon-Fri", "time": "5:00pm"}, {"days": "Sat", "time": "3:00pm"}, {"days": "Sun", "time": "Closed"}], "id": "6412000006", "name": "USPS COLLECTION BOX - BLUE BOX", "address": {"city": "KANSAS CITY", "state": "MO", "street": "1740 UNIVERSAL AVE", "postcode": "64120"}}},
{"geometry": {"type": "Point", "coordinates": [-94.5060708539, 39.138649514]}, "type": "Feature", "properties": {"collection_times": [{"days": "Mon-Fri", "time": "5:00pm"}, {"days": "Sat", "time": "3:00pm"}, {"days": "Sun", "time": "Closed"}], "id": "6412000019", "name": "USPS COLLECTION BOX - BLUE BOX", "address": {"city": "KANSAS CITY", "state": "MO", "street": "1740 UNIVERSAL AVE", "postcode": "64120"}}},
{"geometry": {"type": "Point", "coordinates": [-94.5060708539, 39.138649514]}, "type": "Feature", "properties": {"collection_times": [{"days": "Mon-Fri", "time": "5:00pm"}, {"days": "Sat", "time": "3:00pm"}, {"days": "Sun", "time": "Closed"}], "id": "6412000020", "name": "USPS COLLECTION BOX - PO LOBBY", "address": {"city": "KANSAS CITY", "state": "MO", "street": "1740 UNIVERSAL AVE", "postcode": "64120"}}},
{"geometry": {"type": "Point", "coordinates": [-94.5060708539, 39.138649514]}, "type": "Feature", "properties": {"collection_times": [{"days": "Mon-Fri", "time": "5:00pm"}, {"days": "Sat", "time": "3:00pm"}, {"days": "Sun", "time": "Closed"}], "id": "6412000021", "name": "USPS COLLECTION BOX - PO LOBBY", "address": {"city": "KANSAS CITY", "state": "MO", "street": "1740 UNIVERSAL AVE", "postcode": "64120"}}},
{"geometry": {"type": "Point", "coordinates": [-94.557364923, 39.117463377]}, "type": "Feature", "properties": {"collection_times": [{"days": "Mon-Fri", "time": "12:00pm"}, {"days": "Sat", "time": "10:00am"}, {"days": "Sun", "time": "Closed"}], "id": "6412000025", "name": "USPS COLLECTION BOX - BLUE BOX", "address": {"city": "KANSAS CITY", "state": "MO", "street": "2001 GUINOTTE AVE", "postcode": "64120"}}},
{"geometry": {"type": "Point", "coordinates": [-94.518636244, 39.1127947628]}, "type": "Feature", "properties": {"collection_times": [{"days": "Mon-Fri", "time": "4:00pm"}, {"days": "Sat", "time": "1:30pm"}, {"days": "Sun", "time": "Closed"}], "id": "6412300001", "name": "USPS COLLECTION BOX - BLUE BOX", "address": {"city": "KANSAS CITY", "state": "MO", "street": "105 N HARDESTY AVE", "postcode": "64123"}}},
{"geometry": {"type": "Point", "coordinates": [-94.5255393747, 39.1134433839]}, "type": "Feature", "properties": {"collection_times": [{"days": "Mon-Fri", "time": "4:00pm"}, {"days": "Sat", "time": "1:30pm"}, {"days": "Sun", "time": "Closed"}], "id": "6412300002", "name": "USPS COLLECTION BOX - EXPRESS", "address": {"city": "KANSAS CITY", "state": "MO", "street": "105 N HARDESTY AVE", "postcode": "64123"}}},
{"geometry": {"type": "Point", "coordinates": [-94.5125960555, 39.1122364062]}, "type": "Feature", "properties": {"collection_times": [{"days": "Mon-Sat", "time": "9:30am"}, {"days": "Sun", "time": "Closed"}], "id": "6412300003", "name": "USPS COLLECTION BOX - BLUE BOX", "address": {"city": "KANSAS CITY", "state": "MO", "street": "5900 SAINT JOHN AVE", "postcode": "64123"}}},
{"geometry": {"type": "Point", "coordinates": [-94.5106477221, 39.108408351]}, "type": "Feature", "properties": {"collection_times": [{"days": "Mon-Fri", "time": "3:00pm"}, {"days": "Sat", "time": "10:00am"}, {"days": "Sun", "time": "Closed"}], "id": "6412300019", "name": "USPS COLLECTION BOX - BLUE BOX", "address": {"city": "KANSAS CITY", "state": "MO", "street": "6000 WILSON RD", "postcode": "64123"}}},
{"geometry": {"type": "Point", "coordinates": [-94.518636244, 39.1127947628]}, "type": "Feature", "properties": {"collection_times": [{"days": "Mon-Sat", "time": "10:15am"}, {"days": "Sun", "time": "Closed"}], "id": "6412300020", "name": "USPS COLLECTION BOX - PO LOBBY", "address": {"city": "KANSAS CITY", "state": "MO", "street": "105 N HARDESTY AVE", "postcode": "64123"}}},
{"geometry": {"type": "Point", "coordinates": [-94.54169236, 39.105939096]}, "type": "Feature", "properties": {"collection_times": [{"days": "Mon-Sat", "time": "3:30pm"}, {"days": "Sun", "time": "Closed"}], "id": "6412400022", "name": "USPS COLLECTION BOX - BLUE BOX", "address": {"city": "KANSAS CITY", "state": "MO", "street": "3401 INDEPENDENCE AVE", "postcode": "64124"}}},
{"geometry": {"type": "Point", "coordinates": [-94.5068705341, 39.1047482759]}, "type": "Feature", "properties": {"collection_times": [{"days": "Mon-Sat", "time": "10:00am"}, {"days": "Sun", "time": "Closed"}], "id": "6412500003", "name": "USPS COLLECTION BOX - BLUE BOX", "address": {"city": "KANSAS CITY", "state": "MO", "street": "6400 INDEPENDENCE AVE", "postcode": "64125"}}},
{"geometry": {"type": "Point", "coordinates": [-94.5006859432, 39.0935432587]}, "type": "Feature", "properties": {"collection_times": [{"days": "Mon-Fri", "time": "4:00pm"}, {"days": "Sat", "time": "2:00pm"}, {"days": "Sun", "time": "Closed"}], "id": "6412600008", "name": "USPS COLLECTION BOX - EXPRESS", "address": {"city": "KANSAS CITY", "state": "MO", "street": "5824 E TRUMAN RD", "postcode": "64126"}}},
{"geometry": {"type": "Point", "coordinates": [-94.5141934591, 39.0940182941]}, "type": "Feature", "properties": {"collection_times": [{"days": "Mon-Fri", "time": "1:30pm"}, {"days": "Sat", "time": "9:00am"}, {"days": "Sun", "time": "Closed"}], "id": "6412600013", "name": "USPS COLLECTION BOX - PO LOBBY", "address": {"city": "KANSAS CITY", "state": "MO", "street": "5824 E TRUMAN RD", "postcode": "64126"}}},
{"geometry": {"type": "Point", "coordinates": [-94.5557042632, 39.0948741175]}, "type": "Feature", "properties": {"collection_times": [{"days": "Mon-Fri", "time": "5:00pm"}, {"days": "Sat", "time": "4:45pm"}, {"days": "Sun", "time": "Closed"}], "id": "6412700013", "name": "USPS COLLECTION BOX - BLUE BOX", "address": {"city": "KANSAS CITY", "state": "MO", "street": "2201 E TRUMAN RD", "postcode": "64127"}}},
{"geometry": {"type": "Point", "coordinates": [-94.5557042632, 39.0948741175]}, "type": "Feature", "properties": {"collection_times": [{"days": "Mon-Fri", "time": "5:00pm"}, {"days": "Sat", "time": "4:45pm"}, {"days": "Sun", "time": "Closed"}], "id": "6412700032", "name": "USPS COLLECTION BOX - BLUE BOX", "address": {"city": "KANSAS CITY", "state": "MO", "street": "2201 E TRUMAN RD", "postcode": "64127"}}},
{"geometry": {"type": "Point", "coordinates": [-94.5557042632, 39.0948741175]}, "type": "Feature", "properties": {"collection_times": [{"days": "Mon-Fri", "time": "5:00pm"}, {"days": "Sat", "time": "12:30pm"}, {"days": "Sun", "time": "Closed"}], "id": "6412700033", "name": "USPS COLLECTION BOX - PO LOBBY", "address": {"city": "KANSAS CITY", "state": "MO", "street": "2201 E TRUMAN RD", "postcode": "64127"}}},
{"geometry": {"type": "Point", "coordinates": [-94.5379012027, 39.0910790679]}, "type": "Feature", "properties": {"collection_times": [{"days": "Mon-Fri", "time": "7:00pm"}, {"days": "Sat", "time": "6:00pm"}, {"days": "Sun", "time": "Closed"}], "id": "6412700034", "name": "USPS COLLECTION BOX - BLUE BOX", "address": {"city": "KANSAS CITY", "state": "MO", "street": "1700 CLEVELAND AVE", "postcode": "64127"}}},
{"geometry": {"type": "Point", "coordinates": [-94.539247867, 39.0897631039]}, "type": "Feature", "properties": {"collection_times": [{"days": "Mon-Fri", "time": "6:00pm"}, {"days": "Sat", "time": "2:00pm"}, {"days": "Sun", "time": "Closed"}], "id": "6412700035", "name": "USPS COLLECTION BOX - EXPRESS", "address": {"city": "KANSAS CITY", "state": "MO", "street": "1700 CLEVELAND AVE", "postcode": "64127"}}},
{"geometry": {"type": "Point", "coordinates": [-94.5278423297, 39.0672096891]}, "type": "Feature", "properties": {"collection_times": [{"days": "Mon-Sat", "time": "11:30am"}, {"days": "Sun", "time": "Closed"}], "id": "6412800012", "name": "USPS COLLECTION BOX - BLUE BOX", "address": {"city": "KANSAS CITY", "state": "MO", "street": "4801 E LINWOOD BLVD", "postcode": "64128"}}},
{"geometry": {"type": "Point", "coordinates": [-94.5328177203, 39.0548146722]}, "type": "Feature", "properties": {"collection_times": [{"days": "Mon-Fri", "time": "3:00pm"}, {"days": "Sat", "time": "12:00pm"}, {"days": "Sun", "time": "Closed"}], "id": "6412800028", "name": "USPS COLLECTION BOX - BLUE BOX", "address": {"city": "KANSAS CITY", "state": "MO", "street": "3050 PROSPECT AVE", "postcode": "64128"}}},
{"geometry": {"type": "Point", "coordinates": [-94.5528863946, 39.0674932883]}, "type": "Feature", "properties": {"collection_times": [{"days": "Mon-Fri", "time": "4:00pm"}, {"days": "Sat", "time": "12:45pm"}, {"days": "Sun", "time": "Closed"}], "id": "6412800029", "name": "USPS COLLECTION BOX - BLUE BOX", "address": {"city": "KANSAS CITY", "state": "MO", "street": "3231 PROSPECT AVE", "postcode": "64128"}}},
{"geometry": {"type": "Point", "coordinates": [-94.5528863946, 39.0674932883]}, "type": "Feature", "properties": {"collection_times": [{"days": "Mon-Fri", "time": "4:00pm"}, {"days": "Sat", "time": "12:45pm"}, {"days": "Sun", "time": "Closed"}], "id": "6412800031", "name": "USPS COLLECTION BOX - BLUE BOX", "address": {"city": "KANSAS CITY", "state": "MO", "street": "3231 PROSPECT AVE", "postcode": "64128"}}},
{"geometry": {"type": "Point", "coordinates": [-94.5528863946, 39.0674932883]}, "type": "Feature", "properties": {"collection_times": [{"days": "Mon-Fri", "time": "4:00pm"}, {"days": "Sat", "time": "12:45pm"}, {"days": "Sun", "time": "Closed"}], "id": "6412800032", "name": "USPS COLLECTION BOX - BLUE BOX", "address": {"city": "KANSAS CITY", "state": "MO", "street": "3231 PROSPECT AVE", "postcode": "64128"}}},
{"geometry": {"type": "Point", "coordinates": [-94.5528863946, 39.0674932883]}, "type": "Feature", "properties": {"collection_times": [{"days": "Mon-Fri", "time": "4:00pm"}, {"days": "Sat", "time": "12:45pm"}, {"days": "Sun", "time": "Closed"}], "id": "6412800033", "name": "USPS COLLECTION BOX - PO LOBBY", "address": {"city": "KANSAS CITY", "state": "MO", "street": "3231 PROSPECT AVE", "postcode": "64128"}}},
{"geometry": {"type": "Point", "coordinates": [-94.5528863946, 39.0674932883]}, "type": "Feature", "properties": {"collection_times": [{"days": "Mon-Fri", "time": "4:00pm"}, {"days": "Sat", "time": "12:45pm"}, {"days": "Sun", "time": "Closed"}], "id": "6412800034", "name": "USPS COLLECTION BOX - PO LOBBY", "address": {"city": "KANSAS CITY", "state": "MO", "street": "3231 PROSPECT AVE", "postcode": "64128"}}},
{"geometry": {"type": "Point", "coordinates": [-94.5342938889, 39.0348188397]}, "type": "Feature", "properties": {"collection_times": [{"days": "Mon-Fri", "time": "5:00pm"}, {"days": "Sat", "time": "3:30pm"}, {"days": "Sun", "time": "Closed"}], "id": "6413000001", "name": "USPS COLLECTION BOX - BLUE BOX", "address": {"city": "KANSAS CITY", "state": "MO", "street": "4320 BLUE PKWY", "postcode": "64130"}}},
{"geometry": {"type": "Point", "coordinates": [-94.5342938889, 39.0348188397]}, "type": "Feature", "properties": {"collection_times": [{"days": "Mon-Fri", "time": "5:00pm"}, {"days": "Sat", "time": "3:30pm"}, {"days": "Sun", "time": "Closed"}], "id": "6413000002", "name": "USPS COLLECTION BOX - BLUE BOX", "address": {"city": "KANSAS CITY", "state": "MO", "street": "4320 BLUE PKWY", "postcode": "64130"}}},
{"geometry": {"type": "Point", "coordinates": [-94.5342938889, 39.0348188397]}, "type": "Feature", "properties": {"collection_times": [{"days": "Mon-Fri", "time": "5:00pm"}, {"days": "Sat", "time": "3:30pm"}, {"days": "Sun", "time": "Closed"}], "id": "6413000025", "name": "USPS COLLECTION BOX - PO LOBBY", "address": {"city": "KANSAS CITY", "state": "MO", "street": "4320 BLUE PKWY", "postcode": "64130"}}},
{"geometry": {"type": "Point", "coordinates": [-94.5834941729, 38.9255485201]}, "type": "Feature", "properties": {"collection_times": [{"days": "Mon-Fri", "time": "4:00pm"}, {"days": "Sat", "time": "11:30am"}, {"days": "Sun", "time": "Closed"}], "id": "6413100001", "name": "USPS COLLECTION BOX - BLUE BOX", "address": {"city": "KANSAS CITY", "state": "MO", "street": "11112 HOLMES RD", "postcode": "64131"}}},
{"geometry": {"type": "Point", "coordinates": [-94.5834941729, 38.9255485201]}, "type": "Feature", "properties": {"collection_times": [{"days": "Mon-Fri", "time": "4:00pm"}, {"days": "Sat", "time": "11:30am"}, {"days": "Sun", "time": "Closed"}], "id": "6413100003", "name": "USPS COLLECTION BOX - BLUE BOX", "address": {"city": "KANSAS CITY", "state": "MO", "street": "11112 HOLMES RD", "postcode": "64131"}}},
{"geometry": {"type": "Point", "coordinates": [-94.5769060292, 38.9653830228]}, "type": "Feature", "properties": {"collection_times": [{"days": "Mon-Fri", "time": "5:15pm"}, {"days": "Sat", "time": "3:30pm"}, {"days": "Sun", "time": "Closed"}], "id": "6413100011", "name": "USPS COLLECTION BOX - BLUE BOX", "address": {"city": "KANSAS CITY", "state": "MO", "street": "7420 TROOST AVE", "postcode": "64131"}}},
{"geometry": {"type": "Point", "coordinates": [-94.575570876, 38.9932697719]}, "type": "Feature", "properties": {"collection_times": [{"days": "Mon-Fri", "time": "5:15pm"}, {"days": "Sat", "time": "3:30pm"}, {"days": "Sun", "time": "Closed"}], "id": "6413100012", "name": "USPS COLLECTION BOX - BLUE BOX", "address": {"city": "KANSAS CITY", "state": "MO", "street": "7420 TROOST AVE", "postcode": "64131"}}},
{"geometry": {"type": "Point", "coordinates": [-94.575570876, 38.9932697719]}, "type": "Feature", "properties": {"collection_times": [{"days": "Mon-Fri", "time": "5:15pm"}, {"days": "Sat", "time": "3:30pm"}, {"days": "Sun", "time": "Closed"}], "id": "6413100013", "name": "USPS COLLECTION BOX - BLUE BOX", "address": {"city": "KANSAS CITY", "state": "MO", "street": "7420 TROOST AVE", "postcode": "64131"}}},
{"geometry": {"type": "Point", "coordinates": [-94.5834941729, 38.9255485201]}, "type": "Feature", "properties": {"collection_times": [{"days": "Mon-Fri", "time": "4:00pm"}, {"days": "Sat", "time": "11:30am"}, {"days": "Sun", "time": "Closed"}], "id": "6413100017", "name": "USPS COLLECTION BOX - BLUE BOX", "address": {"city": "KANSAS CITY", "state": "MO", "street": "11112 HOLMES RD", "postcode": "64131"}}},
{"geometry": {"type": "Point", "coordinates": [-94.5827609006, 38.9388181708]}, "type": "Feature", "properties": {"collection_times": [{"days": "Mon-Fri", "time": "4:00pm"}, {"days": "Sat", "time": "11:45am"}, {"days": "Sun", "time": "Closed"}], "id": "6413100028", "name": "USPS COLLECTION BOX - BLUE BOX", "address": {"city": "KANSAS CITY", "state": "MO", "street": "10401 HOLMES RD", "postcode": "64131"}}},
{"geometry": {"type": "Point", "coordinates": [-94.5827609006, 38.9388181708]}, "type": "Feature", "properties": {"collection_times": [{"days": "Mon-Fri", "time": "4:00pm"}, {"days": "Sat", "time": "11:45am"}, {"days": "Sun", "time": "Closed"}], "id": "6413100029", "name": "USPS COLLECTION BOX - BLUE BOX", "address": {"city": "KANSAS CITY", "state": "MO", "street": "10401 HOLMES RD", "postcode": "64131"}}},
{"geometry": {"type": "Point", "coordinates": [-94.5827609006, 38.9388181708]}, "type": "Feature", "properties": {"collection_times": [{"days": "Mon-Fri", "time": "4:00pm"}, {"days": "Sat", "time": "11:45am"}, {"days": "Sun", "time": "Closed"}], "id": "6413100030", "name": "USPS COLLECTION BOX - BLUE BOX", "address": {"city": "KANSAS CITY", "state": "MO", "street": "10401 HOLMES RD", "postcode": "64131"}}},
{"geometry": {"type": "Point", "coordinates": [-94.5827609006, 38.9388181708]}, "type": "Feature", "properties": {"collection_times": [{"days": "Mon-Fri", "time": "4:00pm"}, {"days": "Sat", "time": "11:45am"}, {"days": "Sun", "time": "Closed"}], "id": "6413100031", "name": "USPS COLLECTION BOX - BLUE BOX", "address": {"city": "KANSAS CITY", "state": "MO", "street": "10401 HOLMES RD", "postcode": "64131"}}},
{"geometry": {"type": "Point", "coordinates": [-94.5812892997, 38.94333944]}, "type": "Feature", "properties": {"collection_times": [{"days": "Mon-Fri", "time": "4:00pm"}, {"days": "Sat", "time": "12:00pm"}, {"days": "Sun", "time": "Closed"}], "id": "6413100033", "name": "USPS COLLECTION BOX - BLUE BOX", "address": {"city": "KANSAS CITY", "state": "MO", "street": "800 E 101ST ST TER", "postcode": "64131"}}},
{"geometry": {"type": "Point", "coordinates": [-94.5824415907, 38.9479393419]}, "type": "Feature", "properties": {"collection_times": [{"days": "Mon-Fri", "time": "4:00pm"}, {"days": "Sat", "time": "11:30am"}, {"days": "Sun", "time": "Closed"}], "id": "6413100037", "name": "USPS COLLECTION BOX - BLUE BOX", "address": {"city": "KANSAS CITY", "state": "MO", "street": "9912 HOLMES RD STE B", "postcode": "64131"}}},
{"geometry": {"type": "Point", "coordinates": [-94.5875483356, 38.92612857]}, "type": "Feature", "properties": {"collection_times": [{"days": "Mon-Fri", "time": "4:00pm"}, {"days": "Sat", "time": "11:30am"}, {"days": "Sun", "time": "Closed"}], "id": "6413100041", "name": "USPS COLLECTION BOX - BLUE BOX", "address": {"city": "KANSAS CITY", "state": "MO", "street": "400 E RED BRIDGE RD", "postcode": "64131"}}},
{"geometry": {"type": "Point", "coordinates": [-94.5811674549, 38.973462307]}, "type": "Feature", "properties": {"collection_times": [{"days": "Mon-Sat", "time": "12:00pm"}, {"days": "Sun", "time": "Closed"}], "id": "6413100047", "name": "USPS COLLECTION BOX - BLUE BOX", "address": {"city": "KANSAS CITY", "state": "MO", "street": "8501 HOLMES RD", "postcode": "64131"}}},
{"geometry": {"type": "Point", "coordinates": [-94.5762166559, 38.9791431101]}, "type": "Feature", "properties": {"collection_times": [{"days": "Mon-Sat", "time": "10:00am"}, {"days": "Sun", "time": "Closed"}], "id": "6413100055", "name": "USPS COLLECTION BOX - BLUE BOX", "address": {"city": "KANSAS CITY", "state": "MO", "street": "8227 TROOST AVE", "postcode": "64131"}}},
{"geometry": {"type": "Point", "coordinates": [-94.5834941729, 38.9255485201]}, "type": "Feature", "properties": {"collection_times": [{"days": "Mon-Fri", "time": "4:00pm"}, {"days": "Sat", "time": "11:30am"}, {"days": "Sun", "time": "Closed"}], "id": "6413100061", "name": "USPS COLLECTION BOX - BLUE BOX", "address": {"city": "KANSAS CITY", "state": "MO", "street": "11112 HOLMES RD", "postcode": "64131"}}},
{"geometry": {"type": "Point", "coordinates": [-94.575570876, 38.9932697719]}, "type": "Feature", "properties": {"collection_times": [{"days": "Mon-Fri", "time": "5:00pm"}, {"days": "Sat", "time": "3:30pm"}, {"days": "Sun", "time": "Closed"}], "id": "6413100064", "name": "USPS COLLECTION BOX - PO LOBBY", "address": {"city": "KANSAS CITY", "state": "MO", "street": "7420 TROOST AVE", "postcode": "64131"}}},
{"geometry": {"type": "Point", "coordinates": [-94.5563171493, 39.0111128809]}, "type": "Feature", "properties": {"collection_times": [{"days": "Mon-Fri", "time": "12:30pm"}, {"days": "Sat", "time": "1:30pm"}, {"days": "Sun", "time": "Closed"}], "id": "6413200018", "name": "USPS COLLECTION BOX - BLUE BOX", "address": {"city": "KANSAS CITY", "state": "MO", "street": "6320 PROSPECT AVE", "postcode": "64132"}}},
{"geometry": {"type": "Point", "coordinates": [-94.4821653443, 39.0014018549]}, "type": "Feature", "properties": {"collection_times": [{"days": "Mon-Sat", "time": "11:00am"}, {"days": "Sun", "time": "Closed"}], "id": "6413300008", "name": "USPS COLLECTION BOX - BLUE BOX", "address": {"city": "RAYTOWN", "state": "MO", "street": "6731 BLUE RIDGE BLVD", "postcode": "64133"}}},
{"geometry": {"type": "Point", "coordinates": [-94.4566716705, 39.008489722]}, "type": "Feature", "properties": {"collection_times": [{"days": "Mon-Fri", "time": "5:15pm"}, {"days": "Sat", "time": "3:00pm"}, {"days": "Sun", "time": "Closed"}], "id": "6413300011", "name": "USPS COLLECTION BOX - BLUE BOX", "address": {"city": "RAYTOWN", "state": "MO", "street": "10501 E 63RD ST", "postcode": "64133"}}},
{"geometry": {"type": "Point", "coordinates": [-94.4566716705, 39.008489722]}, "type": "Feature", "properties": {"collection_times": [{"days": "Mon-Fri", "time": "5:15pm"}, {"days": "Sat", "time": "3:00pm"}, {"days": "Sun", "time": "Closed"}], "id": "6413300012", "name": "USPS COLLECTION BOX - BLUE BOX", "address": {"city": "RAYTOWN", "state": "MO", "street": "10501 E 63RD ST", "postcode": "64133"}}},
{"geometry": {"type": "Point", "coordinates": [-94.4566716705, 39.008489722]}, "type": "Feature", "properties": {"collection_times": [{"days": "Mon-Fri", "time": "5:15pm"}, {"days": "Sat", "time": "3:00pm"}, {"days": "Sun", "time": "Closed"}], "id": "6413300013", "name": "USPS COLLECTION BOX - BLUE BOX", "address": {"city": "RAYTOWN", "state": "MO", "street": "10501 E 63RD ST", "postcode": "64133"}}},
{"geometry": {"type": "Point", "coordinates": [-94.5053113942, 39.0046522031]}, "type": "Feature", "properties": {"collection_times": [{"days": "Mon-Sat", "time": "11:00am"}, {"days": "Sun", "time": "Closed"}], "id": "6413300016", "name": "USPS COLLECTION BOX - BLUE BOX", "address": {"city": "RAYTOWN", "state": "MO", "street": "6601 WINCHESTER AVE", "postcode": "64133"}}},
{"geometry": {"type": "Point", "coordinates": [-94.4380495304, 39.0431752618]}, "type": "Feature", "properties": {"collection_times": [{"days": "Mon-Sat", "time": "10:00am"}, {"days": "Sun", "time": "Closed"}], "id": "6413300021", "name": "USPS COLLECTION BOX - BLUE BOX", "address": {"city": "RAYTOWN", "state": "MO", "street": "4300 BLUE RIDGE BLVD", "postcode": "64133"}}},
{"geometry": {"type": "Point", "coordinates": [-94.4636919762, 39.0043262424]}, "type": "Feature", "properties": {"collection_times": [{"days": "Mon-Sat", "time": "10:30am"}, {"days": "Sun", "time": "Closed"}], "id": "6413300025", "name": "USPS COLLECTION BOX - BLUE BOX", "address": {"city": "RAYTOWN", "state": "MO", "street": "6528 RAYTOWN RD", "postcode": "64133"}}},
{"geometry": {"type": "Point", "coordinates": [-94.4674374887, 39.0215709596]}, "type": "Feature", "properties": {"collection_times": [{"days": "Mon-Sat", "time": "10:30am"}, {"days": "Sun", "time": "Closed"}], "id": "6413300031", "name": "USPS COLLECTION BOX - BLUE BOX", "address": {"city": "RAYTOWN", "state": "MO", "street": "5540 RAYTOWN RD", "postcode": "64133"}}},
{"geometry": {"type": "Point", "coordinates": [-94.4630203522, 39.0158907998]}, "type": "Feature", "properties": {"collection_times": [{"days": "Mon-Fri", "time": "1:00pm"}, {"days": "Sat", "time": "10:00am"}, {"days": "Sun", "time": "Closed"}], "id": "6413300033", "name": "USPS COLLECTION BOX - BLUE BOX", "address": {"city": "RAYTOWN", "state": "MO", "street": "10000 E 59TH ST", "postcode": "64133"}}},
{"geometry": {"type": "Point", "coordinates": [-94.466528315, 39.0092819797]}, "type": "Feature", "properties": {"collection_times": [{"days": "Mon-Sat", "time": "10:30am"}, {"days": "Sun", "time": "Closed"}], "id": "6413300034", "name": "USPS COLLECTION BOX - BLUE BOX", "address": {"city": "RAYTOWN", "state": "MO", "street": "6240 RAYTOWN TRFY", "postcode": "64133"}}},
{"geometry": {"type": "Point", "coordinates": [-94.4807768253, 39.0096194478]}, "type": "Feature", "properties": {"collection_times": [{"days": "Mon-Fri", "time": "2:30pm"}, {"days": "Sat", "time": "10:00am"}, {"days": "Sun", "time": "Closed"}], "id": "6413300035", "name": "USPS COLLECTION BOX - BLUE BOX", "address": {"city": "RAYTOWN", "state": "MO", "street": "8800 E 63RD ST", "postcode": "64133"}}},
{"geometry": {"type": "Point", "coordinates": [-94.4457540385, 39.0283668094]}, "type": "Feature", "properties": {"collection_times": [{"days": "Mon-Sat", "time": "10:00am"}, {"days": "Sun", "time": "Closed"}], "id": "6413300040", "name": "USPS COLLECTION BOX - BLUE BOX", "address": {"city": "RAYTOWN", "state": "MO", "street": "11400 HIDDEN LAKE DR", "postcode": "64133"}}},
{"geometry": {"type": "Point", "coordinates": [-94.4566716705, 39.008489722]}, "type": "Feature", "properties": {"collection_times": [{"days": "Mon-Fri", "time": "5:15pm"}, {"days": "Sat", "time": "3:00pm"}, {"days": "Sun", "time": "Closed"}], "id": "6413300053", "name": "USPS COLLECTION BOX - PO LOBBY", "address": {"city": "RAYTOWN", "state": "MO", "street": "10501 E 63RD ST", "postcode": "64133"}}},
{"geometry": {"type": "Point", "coordinates": [-94.4566716705, 39.008489722]}, "type": "Feature", "properties": {"collection_times": [{"days": "Mon-Fri", "time": "5:15pm"}, {"days": "Sat", "time": "3:00pm"}, {"days": "Sun", "time": "Closed"}], "id": "6413300054", "name": "USPS COLLECTION BOX - PO LOBBY", "address": {"city": "RAYTOWN", "state": "MO", "street": "10501 E 63RD ST", "postcode": "64133"}}},
{"geometry": {"type": "Point", "coordinates": [-94.4566716705, 39.008489722]}, "type": "Feature", "properties": {"collection_times": [{"days": "Mon-Fri", "time": "5:15pm"}, {"days": "Sat", "time": "3:00pm"}, {"days": "Sun", "time": "Closed"}], "id": "6413300055", "name": "USPS COLLECTION BOX - APC", "address": {"city": "RAYTOWN", "state": "MO", "street": "10501 E 63RD ST", "postcode": "64133"}}},
{"geometry": {"type": "Point", "coordinates": [-94.4594984446, 39.0137227801]}, "type": "Feature", "properties": {"collection_times": [{"days": "Mon-Sat", "time": "10:00am"}, {"days": "Sun", "time": "Closed"}], "id": "6413300057", "name": "USPS COLLECTION BOX - BLUE BOX", "address": {"city": "RAYTOWN", "state": "MO", "street": "11601 E 40 HIWAY", "postcode": "64133"}}},
{"geometry": {"type": "Point", "coordinates": [-94.4705891827, 38.9927871247]}, "type": "Feature", "properties": {"collection_times": [{"days": "Mon-Sat", "time": "11:00am"}, {"days": "Sun", "time": "Closed"}], "id": "6413300058", "name": "USPS COLLECTION BOX - BLUE BOX", "address": {"city": "RAYTOWN", "state": "MO", "street": "9400 E 350", "postcode": "64133"}}},
{"geometry": {"type": "Point", "coordinates": [-94.4939778704, 38.951796859]}, "type": "Feature", "properties": {"collection_times": [{"days": "Mon-Sat", "time": "1:00pm"}, {"days": "Sun", "time": "Closed"}], "id": "6413400002", "name": "USPS COLLECTION BOX - BLUE BOX", "address": {"city": "KANSAS CITY", "state": "MO", "street": "8202 E BANNISTER RD", "postcode": "64134"}}},
{"geometry": {"type": "Point", "coordinates": [-94.5017765396, 38.9313833084]}, "type": "Feature", "properties": {"collection_times": [{"days": "Mon-Fri", "time": "5:00pm"}, {"days": "Sat", "time": "4:00pm"}, {"days": "Sun", "time": "Closed"}], "id": "6413400006", "name": "USPS COLLECTION BOX - BLUE BOX", "address": {"city": "KANSAS CITY", "state": "MO", "street": "6921 E RED BRIDGE RD", "postcode": "64134"}}},
{"geometry": {"type": "Point", "coordinates": [-94.5017765396, 38.9313833084]}, "type": "Feature", "properties": {"collection_times": [{"days": "Mon-Fri", "time": "5:00pm"}, {"days": "Sat", "time": "4:00pm"}, {"days": "Sun", "time": "Closed"}], "id": "6413400007", "name": "USPS COLLECTION BOX - BLUE BOX", "address": {"city": "KANSAS CITY", "state": "MO", "street": "6921 E RED BRIDGE RD", "postcode": "64134"}}},
{"geometry": {"type": "Point", "coordinates": [-94.5017765396, 38.9313833084]}, "type": "Feature", "properties": {"collection_times": [{"days": "Mon-Fri", "time": "5:00pm"}, {"days": "Sat", "time": "4:00pm"}, {"days": "Sun", "time": "Closed"}], "id": "6413400008", "name": "USPS COLLECTION BOX - BLUE BOX", "address": {"city": "KANSAS CITY", "state": "MO", "street": "6921 E RED BRIDGE RD", "postcode": "64134"}}},
{"geometry": {"type": "Point", "coordinates": [-94.5017765396, 38.9313833084]}, "type": "Feature", "properties": {"collection_times": [{"days": "Mon-Fri", "time": "5:00pm"}, {"days": "Sat", "time": "4:00pm"}, {"days": "Sun", "time": "Closed"}], "id": "6413400017", "name": "USPS COLLECTION BOX - PO LOBBY", "address": {"city": "KANSAS CITY", "state": "MO", "street": "6921 E RED BRIDGE RD", "postcode": "64134"}}},
{"geometry": {"type": "Point", "coordinates": [-94.5412343091, 38.9346837292]}, "type": "Feature", "properties": {"collection_times": [{"days": "Mon-Sat", "time": "10:00am"}, {"days": "Sun", "time": "Closed"}], "id": "6413700001", "name": "USPS COLLECTION BOX - BLUE BOX", "address": {"city": "KANSAS CITY", "state": "MO", "street": "10524 GRANDVIEW RD", "postcode": "64137"}}},
{"geometry": {"type": "Point", "coordinates": [-94.4791173359, 38.9701233774]}, "type": "Feature", "properties": {"collection_times": [{"days": "Mon-Fri", "time": "5:00pm"}, {"days": "Sat", "time": "3:30pm"}, {"days": "Sun", "time": "Closed"}], "id": "6413800007", "name": "USPS COLLECTION BOX - EXPRESS", "address": {"city": "RAYTOWN", "state": "MO", "street": "8800 RAYTOWN RD", "postcode": "64138"}}},
{"geometry": {"type": "Point", "coordinates": [-94.5209808687, 38.9702967088]}, "type": "Feature", "properties": {"collection_times": [{"days": "Mon-Fri", "time": "2:15pm"}, {"days": "Sat", "time": "11:00am"}, {"days": "Sun", "time": "Closed"}], "id": "6413800010", "name": "USPS COLLECTION BOX - BLUE BOX", "address": {"city": "RAYTOWN", "state": "MO", "street": "8511 HILLCREST RD", "postcode": "64138"}}},
{"geometry": {"type": "Point", "coordinates": [-94.4998966948, 38.9658044812]}, "type": "Feature", "properties": {"collection_times": [{"days": "Mon-Fri", "time": "2:30pm"}, {"days": "Sat", "time": "11:30am"}, {"days": "Sun", "time": "Closed"}], "id": "6413800012", "name": "USPS COLLECTION BOX - BLUE BOX", "address": {"city": "RAYTOWN", "state": "MO", "street": "8712 BLUE RIDGE BLVD", "postcode": "64138"}}},
{"geometry": {"type": "Point", "coordinates": [-94.4998966948, 38.9658044812]}, "type": "Feature", "properties": {"collection_times": [{"days": "Mon-Fri", "time": "2:30pm"}, {"days": "Sat", "time": "12:30pm"}, {"days": "Sun", "time": "Closed"}], "id": "6413800013", "name": "USPS COLLECTION BOX - BLUE BOX", "address": {"city": "RAYTOWN", "state": "MO", "street": "8712 BLUE RIDGE BLVD", "postcode": "64138"}}},
{"geometry": {"type": "Point", "coordinates": [-94.4648459169, 38.9767000657]}, "type": "Feature", "properties": {"collection_times": [{"days": "Mon-Sat", "time": "10:00am"}, {"days": "Sun", "time": "Closed"}], "id": "6413800023", "name": "USPS COLLECTION BOX - BLUE BOX", "address": {"city": "RAYTOWN", "state": "MO", "street": "8015 RAYTOWN RD", "postcode": "64138"}}},
{"geometry": {"type": "Point", "coordinates": [-94.4654977273, 38.9629493507]}, "type": "Feature", "properties": {"collection_times": [{"days": "Mon-Fri", "time": "5:00pm"}, {"days": "Sat", "time": "3:30pm"}, {"days": "Sun", "time": "Closed"}], "id": "6413800028", "name": "USPS COLLECTION BOX - PO LOBBY", "address": {"city": "RAYTOWN", "state": "MO", "street": "8800 RAYTOWN RD", "postcode": "64138"}}},
{"geometry": {"type": "Point", "coordinates": [-94.4654380365, 38.9645928398]}, "type": "Feature", "properties": {"collection_times": [{"days": "Mon-Fri", "time": "5:00pm"}, {"days": "Sat", "time": "3:30pm"}, {"days": "Sun", "time": "Closed"}], "id": "6413800030", "name": "USPS COLLECTION BOX - BLUE BOX", "address": {"city": "RAYTOWN", "state": "MO", "street": "8800 RAYTOWN RD", "postcode": "64138"}}},
{"geometry": {"type": "Point", "coordinates": [-94.3902993918, 38.971560109]}, "type": "Feature", "properties": {"collection_times": [{"days": "Mon-Sat", "time": "10:00am"}, {"days": "Sun", "time": "Closed"}], "id": "6413900001", "name": "USPS COLLECTION BOX - BLUE BOX", "address": {"city": "KANSAS CITY", "state": "MO", "street": "7900 LEES SUMMIT RD", "postcode": "64139"}}},
{"geometry": {"type": "Point", "coordinates": [-94.593445538, 38.9133255593]}, "type": "Feature", "properties": {"collection_times": [{"days": "Mon-Fri", "time": "5:00pm"}, {"days": "Sat", "time": "10:00am"}, {"days": "Sun", "time": "Closed"}], "id": "6414500002", "name": "USPS COLLECTION BOX - BLUE BOX", "address": {"city": "KANSAS CITY", "state": "MO", "street": "11901 WORNALL RD", "postcode": "64145"}}},
{"geometry": {"type": "Point", "coordinates": [-94.5956440425, 38.8829959431]}, "type": "Feature", "properties": {"collection_times": [{"days": "Mon-Fri", "time": "5:00pm"}, {"days": "Sat", "time": "4:00pm"}, {"days": "Sun", "time": "Closed"}], "id": "6414500004", "name": "USPS COLLECTION BOX - BLUE BOX", "address": {"city": "KANSAS CITY", "state": "MO", "street": "10 E 135TH ST", "postcode": "64145"}}},
{"geometry": {"type": "Point", "coordinates": [-94.5956440425, 38.8829959434]}, "type": "Feature", "properties": {"collection_times": [{"days": "Mon-Fri", "time": "5:00pm"}, {"days": "Sat", "time": "4:00pm"}, {"days": "Sun", "time": "Closed"}], "id": "6414500007", "name": "USPS COLLECTION BOX - BLUE BOX", "address": {"city": "KANSAS CITY", "state": "MO", "street": "10 E 135TH ST", "postcode": "64145"}}},
{"geometry": {"type": "Point", "coordinates": [-94.5956440425, 38.8829959434]}, "type": "Feature", "properties": {"collection_times": [{"days": "Mon-Fri", "time": "5:00pm"}, {"days": "Sat", "time": "4:00pm"}, {"days": "Sun", "time": "Closed"}], "id": "6414500008", "name": "USPS COLLECTION BOX - BLUE BOX", "address": {"city": "KANSAS CITY", "state": "MO", "street": "10 E 135TH ST", "postcode": "64145"}}},
{"geometry": {"type": "Point", "coordinates": [-94.5956440425, 38.8829959434]}, "type": "Feature", "properties": {"collection_times": [{"days": "Mon-Fri", "time": "5:00pm"}, {"days": "Sat", "time": "4:00pm"}, {"days": "Sun", "time": "Closed"}], "id": "6414500011", "name": "USPS COLLECTION BOX - PO LOBBY", "address": {"city": "KANSAS CITY", "state": "MO", "street": "10 E 135TH ST", "postcode": "64145"}}},
{"geometry": {"type": "Point", "coordinates": [-94.5956440425, 38.8829959434]}, "type": "Feature", "properties": {"collection_times": [{"days": "Mon-Fri", "time": "5:00pm"}, {"days": "Sat", "time": "4:00pm"}, {"days": "Sun", "time": "Closed"}], "id": "6414500012", "name": "USPS COLLECTION BOX - PO LOBBY", "address": {"city": "KANSAS CITY", "state": "MO", "street": "10 E 135TH ST", "postcode": "64145"}}},
{"geometry": {"type": "Point", "coordinates": [-94.5941232215, 38.9055687432]}, "type": "Feature", "properties": {"collection_times": [{"days": "Mon-Sat", "time": "10:00am"}, {"days": "Sun", "time": "Closed"}], "id": "6414500016", "name": "USPS COLLECTION BOX - BLUE BOX", "address": {"city": "KANSAS CITY", "state": "MO", "street": "12411 WORNALL RD", "postcode": "64145"}}},
{"geometry": {"type": "Point", "coordinates": [-94.6328222062, 39.1724173792]}, "type": "Feature", "properties": {"collection_times": [{"days": "Mon-Fri", "time": "3:00pm"}, {"days": "Sat", "time": "10:00am"}, {"days": "Sun", "time": "Closed"}], "id": "6415000003", "name": "USPS COLLECTION BOX - BLUE BOX", "address": {"city": "NORTHMOOR", "state": "MO", "street": "210 NW PLATTE VALLEY DR", "postcode": "64150"}}},
{"geometry": {"type": "Point", "coordinates": [-94.6108012861, 39.1680038406]}, "type": "Feature", "properties": {"collection_times": [{"days": "Mon-Sat", "time": "10:00am"}, {"days": "Sun", "time": "Closed"}], "id": "6415000005", "name": "USPS COLLECTION BOX - BLUE BOX", "address": {"city": "NORTHMOOR", "state": "MO", "street": "300 NW BUSINESS PARK LN", "postcode": "64150"}}},
{"geometry": {"type": "Point", "coordinates": [-94.6079382242, 39.1692701295]}, "type": "Feature", "properties": {"collection_times": [{"days": "Mon-Sat", "time": "10:00am"}, {"days": "Sun", "time": "Closed"}], "id": "6415000007", "name": "USPS COLLECTION BOX - BLUE BOX", "address": {"city": "NORTHMOOR", "state": "MO", "street": "2301 NW PLATTE RD", "postcode": "64150"}}},
{"geometry": {"type": "Point", "coordinates": [-94.6094563177, 39.1792444098]}, "type": "Feature", "properties": {"collection_times": [{"days": "Mon-Sat", "time": "10:00am"}, {"days": "Sun", "time": "Closed"}], "id": "6415000010", "name": "USPS COLLECTION BOX - BLUE BOX", "address": {"city": "NORTHMOOR", "state": "MO", "street": "2400 NW VIVION RD", "postcode": "64150"}}},
{"geometry": {"type": "Point", "coordinates": [-94.6129496928, 39.1659301165]}, "type": "Feature", "properties": {"collection_times": [{"days": "Mon-Sat", "time": "10:00am"}, {"days": "Sun", "time": "Closed"}], "id": "6415000012", "name": "USPS COLLECTION BOX - BLUE BOX", "address": {"city": "NORTHMOOR", "state": "MO", "street": "2475 NW TULLISON RD", "postcode": "64150"}}},
{"geometry": {"type": "Point", "coordinates": [-94.6133861664, 39.1831092737]}, "type": "Feature", "properties": {"collection_times": [{"days": "Mon-Fri", "time": "5:00pm"}, {"days": "Sat", "time": "12:30pm"}, {"days": "Sun", "time": "Closed"}], "id": "6415000013", "name": "USPS COLLECTION BOX - BLUE BOX", "address": {"city": "NORTHMOOR", "state": "MO", "street": "4900 NW GATEWAY AVE", "postcode": "64150"}}},
{"geometry": {"type": "Point", "coordinates": [-94.6133861664, 39.1831092737]}, "type": "Feature", "properties": {"collection_times": [{"days": "Mon-Fri", "time": "5:00pm"}, {"days": "Sat", "time": "12:30pm"}, {"days": "Sun", "time": "Closed"}], "id": "6415000014", "name": "USPS COLLECTION BOX - BLUE BOX", "address": {"city": "NORTHMOOR", "state": "MO", "street": "4900 NW GATEWAY AVE", "postcode": "64150"}}},
{"geometry": {"type": "Point", "coordinates": [-94.6133861664, 39.1831092737]}, "type": "Feature", "properties": {"collection_times": [{"days": "Mon-Fri", "time": "5:00pm"}, {"days": "Sat", "time": "12:30pm"}, {"days": "Sun", "time": "Closed"}], "id": "6415000017", "name": "USPS COLLECTION BOX - PO LOBBY", "address": {"city": "NORTHMOOR", "state": "MO", "street": "4900 NW GATEWAY AVE", "postcode": "64150"}}},
{"geometry": {"type": "Point", "coordinates": [-94.6133861664, 39.1831092737]}, "type": "Feature", "properties": {"collection_times": [{"days": "Mon-Fri", "time": "5:00pm"}, {"days": "Sat", "time": "12:30pm"}, {"days": "Sun", "time": "Closed"}], "id": "6415000018", "name": "USPS COLLECTION BOX - PO LOBBY", "address": {"city": "NORTHMOOR", "state": "MO", "street": "4900 NW GATEWAY AVE", "postcode": "64150"}}},
{"geometry": {"type": "Point", "coordinates": [-94.6328222062, 39.1724173792]}, "type": "Feature", "properties": {"collection_times": [{"days": "Mon-Fri", "time": "3:00pm"}, {"days": "Sat", "time": "10:00am"}, {"days": "Sun", "time": "Closed"}], "id": "6415000019", "name": "USPS COLLECTION BOX - BLUE BOX", "address": {"city": "NORTHMOOR", "state": "MO", "street": "210 NW PLATTE VALLEY DR", "postcode": "64150"}}},
{"geometry": {"type": "Point", "coordinates": [-94.6140103611, 39.1695652107]}, "type": "Feature", "properties": {"collection_times": [{"days": "Mon-Sat", "time": "10:00am"}, {"days": "Sun", "time": "Closed"}], "id": "6415000021", "name": "USPS COLLECTION BOX - BLUE BOX", "address": {"city": "NORTHMOOR", "state": "MO", "street": "4102 NW RIVERSIDE ST", "postcode": "64150"}}},
{"geometry": {"type": "Point", "coordinates": [-94.6328222062, 39.1724173792]}, "type": "Feature", "properties": {"collection_times": [{"days": "Mon-Fri", "time": "3:00pm"}, {"days": "Sat", "time": "10:00am"}, {"days": "Sun", "time": "Closed"}], "id": "6415000022", "name": "USPS COLLECTION BOX - BLUE BOX", "address": {"city": "NORTHMOOR", "state": "MO", "street": "210 NW PLATTE VALLEY DR", "postcode": "64150"}}},
{"geometry": {"type": "Point", "coordinates": [-94.6433099758, 39.2087207674]}, "type": "Feature", "properties": {"collection_times": [{"days": "Mon-Fri", "time": "3:00pm"}, {"days": "Sat", "time": "12:30pm"}, {"days": "Sun", "time": "Closed"}], "id": "6415100003", "name": "USPS COLLECTION BOX - BLUE BOX", "address": {"city": "KANSAS CITY", "state": "MO", "street": "6238 N CHATHAM AVE", "postcode": "64151"}}},
{"geometry": {"type": "Point", "coordinates": [-94.6585477462, 39.2335057327]}, "type": "Feature", "properties": {"collection_times": [{"days": "Mon-Fri", "time": "3:00pm"}, {"days": "Sat-Sun", "time": "Closed"}], "id": "6415100007", "name": "USPS COLLECTION BOX - BLUE BOX", "address": {"city": "KANSAS CITY", "state": "MO", "street": "7667 NW PRAIRIE VIEW RD", "postcode": "64151"}}},
{"geometry": {"type": "Point", "coordinates": [-94.6463798441, 39.2121984045]}, "type": "Feature", "properties": {"collection_times": [{"days": "Mon-Fri", "time": "3:00pm"}, {"days": "Sat-Sun", "time": "Closed"}], "id": "6415100016", "name": "USPS COLLECTION BOX - BLUE BOX", "address": {"city": "KANSAS CITY", "state": "MO", "street": "6441 N COSBY AVE", "postcode": "64151"}}},
{"geometry": {"type": "Point", "coordinates": [-94.6303318472, 39.2435743714]}, "type": "Feature", "properties": {"collection_times": [{"days": "Mon-Fri", "time": "3:00pm"}, {"days": "Sat", "time": "10:00am"}, {"days": "Sun", "time": "Closed"}], "id": "6415100019", "name": "USPS COLLECTION BOX - BLUE BOX", "address": {"city": "KANSAS CITY", "state": "MO", "street": "4335 NW LINE CREEK DR", "postcode": "64151"}}},
{"geometry": {"type": "Point", "coordinates": [-94.6344165225, 39.216241869]}, "type": "Feature", "properties": {"collection_times": [{"days": "Mon-Fri", "time": "3:00pm"}, {"days": "Sat", "time": "12:30pm"}, {"days": "Sun", "time": "Closed"}], "id": "6415100026", "name": "USPS COLLECTION BOX - EXPRESS", "address": {"city": "KANSAS CITY", "state": "MO", "street": "8301 N SAINT CLAIR AVE", "postcode": "64151"}}},
{"geometry": {"type": "Point", "coordinates": [-94.6468376656, 39.2456825372]}, "type": "Feature", "properties": {"collection_times": [{"days": "Mon-Fri", "time": "3:00pm"}, {"days": "Sat", "time": "12:30pm"}, {"days": "Sun", "time": "Closed"}], "id": "6415100027", "name": "USPS COLLECTION BOX - BLUE BOX", "address": {"city": "KANSAS CITY", "state": "MO", "street": "8301 N SAINT CLAIR AVE", "postcode": "64151"}}},
{"geometry": {"type": "Point", "coordinates": [-94.6828220194, 39.1898290341]}, "type": "Feature", "properties": {"collection_times": [{"days": "Mon-Fri", "time": "5:00pm"}, {"days": "Sat", "time": "12:30pm"}, {"days": "Sun", "time": "Closed"}], "id": "6415200003", "name": "USPS COLLECTION BOX - BLUE BOX", "address": {"city": "PARKVILLE", "state": "MO", "street": "105 EAST ST", "postcode": "64152"}}},
{"geometry": {"type": "Point", "coordinates": [-94.6969498417, 39.2190835026]}, "type": "Feature", "properties": {"collection_times": [{"days": "Mon-Fri", "time": "5:00pm"}, {"days": "Sat", "time": "12:30pm"}, {"days": "Sun", "time": "Closed"}], "id": "6415200004", "name": "USPS COLLECTION BOX - EXPRESS", "address": {"city": "PARKVILLE", "state": "MO", "street": "105 EAST ST", "postcode": "64152"}}},
{"geometry": {"type": "Point", "coordinates": [-94.6919823158, 39.2253329826]}, "type": "Feature", "properties": {"collection_times": [{"days": "Mon-Sat", "time": "10:00am"}, {"days": "Sun", "time": "Closed"}], "id": "6415200007", "name": "USPS COLLECTION BOX - BLUE BOX", "address": {"city": "PARKVILLE", "state": "MO", "street": "7200 NW EASTSIDE DR", "postcode": "64152"}}},
{"geometry": {"type": "Point", "coordinates": [-94.7395507992, 39.2171422535]}, "type": "Feature", "properties": {"collection_times": [{"days": "Mon-Sat", "time": "10:00am"}, {"days": "Sun", "time": "Closed"}], "id": "6415200014", "name": "USPS COLLECTION BOX - BLUE BOX", "address": {"city": "PARKVILLE", "state": "MO", "street": "10917 NW 45 HWY", "postcode": "64152"}}},
{"geometry": {"type": "Point", "coordinates": [-94.6795743305, 39.2396891497]}, "type": "Feature", "properties": {"collection_times": [{"days": "Mon-Sat", "time": "10:00am"}, {"days": "Sun", "time": "Closed"}], "id": "6415200016", "name": "USPS COLLECTION BOX - BLUE BOX", "address": {"city": "PARKVILLE", "state": "MO", "street": "8341 NW MACE RD", "postcode": "64152"}}},
{"geometry": {"type": "Point", "coordinates": [-94.6828220194, 39.1898290341]}, "type": "Feature", "properties": {"collection_times": [{"days": "Mon-Fri", "time": "5:00pm"}, {"days": "Sat", "time": "12:30pm"}, {"days": "Sun", "time": "Closed"}], "id": "6415200018", "name": "USPS COLLECTION BOX - PO LOBBY", "address": {"city": "PARKVILLE", "state": "MO", "street": "105 EAST ST", "postcode": "64152"}}},
{"geometry": {"type": "Point", "coordinates": [-94.6828220194, 39.1898290341]}, "type": "Feature", "properties": {"collection_times": [{"days": "Mon-Fri", "time": "5:00pm"}, {"days": "Sat", "time": "12:30pm"}, {"days": "Sun", "time": "Closed"}], "id": "6415200019", "name": "USPS COLLECTION BOX - PO LOBBY", "address": {"city": "PARKVILLE", "state": "MO", "street": "105 EAST ST", "postcode": "64152"}}},
{"geometry": {"type": "Point", "coordinates": [-94.6693186949, 39.2761413026]}, "type": "Feature", "properties": {"collection_times": [{"days": "Mon-Fri", "time": "3:00pm"}, {"days": "Sat-Sun", "time": "Closed"}], "id": "6415300006", "name": "USPS COLLECTION BOX - BLUE BOX", "address": {"city": "KANSAS CITY", "state": "MO", "street": "10100 N EXECUTIVE HILLS BLVD", "postcode": "64153"}}},
{"geometry": {"type": "Point", "coordinates": [-94.6693186949, 39.2761413026]}, "type": "Feature", "properties": {"collection_times": [{"days": "Mon-Fri", "time": "3:00pm"}, {"days": "Sat-Sun", "time": "Closed"}], "id": "6415300007", "name": "USPS COLLECTION BOX - BLUE BOX", "address": {"city": "KANSAS CITY", "state": "MO", "street": "10100 N EXECUTIVE HILLS BLVD", "postcode": "64153"}}},
{"geometry": {"type": "Point", "coordinates": [-94.682579587, 39.2966730569]}, "type": "Feature", "properties": {"collection_times": [{"days": "Mon-Fri", "time": "3:00pm"}, {"days": "Sat-Sun", "time": "Closed"}], "id": "6415300011", "name": "USPS COLLECTION BOX - BLUE BOX", "address": {"city": "KANSAS CITY", "state": "MO", "street": "8800 NW 112TH ST", "postcode": "64153"}}},
{"geometry": {"type": "Point", "coordinates": [-94.6665162781, 39.272020648]}, "type": "Feature", "properties": {"collection_times": [{"days": "Mon-Fri", "time": "3:00pm"}, {"days": "Sat-Sun", "time": "Closed"}], "id": "6415300018", "name": "USPS COLLECTION BOX - BLUE BOX", "address": {"city": "KANSAS CITY", "state": "MO", "street": "9800 NW POLO DR", "postcode": "64153"}}},
{"geometry": {"type": "Point", "coordinates": [-94.6646705005, 39.2727694938]}, "type": "Feature", "properties": {"collection_times": [{"days": "Mon-Fri", "time": "3:00pm"}, {"days": "Sat-Sun", "time": "Closed"}], "id": "6415300028", "name": "USPS COLLECTION BOX - BLUE BOX", "address": {"city": "KANSAS CITY", "state": "MO", "street": "7505 NW TIFFANY SPRINGS PKWY", "postcode": "64153"}}},
{"geometry": {"type": "Point", "coordinates": [-94.6753847673, 39.2808551243]}, "type": "Feature", "properties": {"collection_times": [{"days": "Mon-Fri", "time": "3:00pm"}, {"days": "Sat-Sun", "time": "Closed"}], "id": "6415300032", "name": "USPS COLLECTION BOX - BLUE BOX", "address": {"city": "KANSAS CITY", "state": "MO", "street": "10326 NW PRAIRIE VIEW RD", "postcode": "64153"}}},
{"geometry": {"type": "Point", "coordinates": [-94.6693186949, 39.2761413026]}, "type": "Feature", "properties": {"collection_times": [{"days": "Mon-Fri", "time": "3:00pm"}, {"days": "Sat-Sun", "time": "Closed"}], "id": "6415300035", "name": "USPS COLLECTION BOX - BLUE BOX", "address": {"city": "KANSAS CITY", "state": "MO", "street": "10100 N EXECUTIVE HILLS BLVD", "postcode": "64153"}}},
{"geometry": {"type": "Point", "coordinates": [-94.6011932792, 39.2450692247]}, "type": "Feature", "properties": {"collection_times": [{"days": "Mon-Fri", "time": "3:00pm"}, {"days": "Sat", "time": "12:30pm"}, {"days": "Sun", "time": "Closed"}], "id": "6415300040", "name": "USPS COLLECTION BOX - BLUE BOX", "address": {"city": "KANSAS CITY", "state": "MO", "street": "8320 N PLATTE PURCHASE DR", "postcode": "64153"}}},
{"geometry": {"type": "Point", "coordinates": [-94.6011932792, 39.2450692247]}, "type": "Feature", "properties": {"collection_times": [{"days": "Mon-Fri", "time": "3:00pm"}, {"days": "Sat", "time": "12:30pm"}, {"days": "Sun", "time": "Closed"}], "id": "6415300041", "name": "USPS COLLECTION BOX - BLUE BOX", "address": {"city": "KANSAS CITY", "state": "MO", "street": "8320 N PLATTE PURCHASE DR", "postcode": "64153"}}},
{"geometry": {"type": "Point", "coordinates": [-94.5730757624, 39.277298787]}, "type": "Feature", "properties": {"collection_times": [{"days": "Mon-Fri", "time": "12:00pm"}, {"days": "Sat", "time": "10:00am"}, {"days": "Sun", "time": "Closed"}], "id": "6415500010", "name": "USPS COLLECTION BOX - BLUE BOX", "address": {"city": "KANSAS CITY", "state": "MO", "street": "515 NE NEW MARK DR", "postcode": "64155"}}},
{"geometry": {"type": "Point", "coordinates": [-94.5730757624, 39.277298787]}, "type": "Feature", "properties": {"collection_times": [{"days": "Mon-Fri", "time": "12:00pm"}, {"days": "Sat", "time": "10:00am"}, {"days": "Sun", "time": "Closed"}], "id": "6415500012", "name": "USPS COLLECTION BOX - BLUE BOX", "address": {"city": "KANSAS CITY", "state": "MO", "street": "515 NE NEW MARK DR", "postcode": "64155"}}},
{"geometry": {"type": "Point", "coordinates": [-94.5241973341, 39.2455263076]}, "type": "Feature", "properties": {"collection_times": [{"days": "Mon-Fri", "time": "5:15pm"}, {"days": "Sat", "time": "3:30pm"}, {"days": "Sun", "time": "Closed"}], "id": "6415600001", "name": "USPS COLLECTION BOX - BLUE BOX", "address": {"city": "KANSAS CITY", "state": "MO", "street": "4701 NE BARRY RD", "postcode": "64156"}}},
{"geometry": {"type": "Point", "coordinates": [-94.5241973341, 39.2455263076]}, "type": "Feature", "properties": {"collection_times": [{"days": "Mon-Fri", "time": "5:15pm"}, {"days": "Sat", "time": "3:30pm"}, {"days": "Sun", "time": "Closed"}], "id": "6415600003", "name": "USPS COLLECTION BOX - PO LOBBY", "address": {"city": "KANSAS CITY", "state": "MO", "street": "4701 NE BARRY RD", "postcode": "64156"}}},
{"geometry": {"type": "Point", "coordinates": [-94.5241973341, 39.2455263076]}, "type": "Feature", "properties": {"collection_times": [{"days": "Mon-Fri", "time": "5:15pm"}, {"days": "Sat", "time": "3:30pm"}, {"days": "Sun", "time": "Closed"}], "id": "6415600004", "name": "USPS COLLECTION BOX - PO LOBBY", "address": {"city": "KANSAS CITY", "state": "MO", "street": "4701 NE BARRY RD", "postcode": "64156"}}},
{"geometry": {"type": "Point", "coordinates": [-94.4637635095, 39.244880412]}, "type": "Feature", "properties": {"collection_times": [{"days": "Mon-Sat", "time": "12:00pm"}, {"days": "Sun", "time": "Closed"}], "id": "6415700001", "name": "USPS COLLECTION BOX - BLUE BOX", "address": {"city": "KANSAS CITY", "state": "MO", "street": "9200 NE BARRY RD", "postcode": "64157"}}},
{"geometry": {"type": "Point", "coordinates": [-94.483176447, 39.1565057992]}, "type": "Feature", "properties": {"collection_times": [{"days": "Mon-Fri", "time": "3:00pm"}, {"days": "Sat", "time": "9:00am"}, {"days": "Sun", "time": "Closed"}], "id": "6416100002", "name": "USPS COLLECTION BOX - BLUE BOX", "address": {"city": "KANSAS CITY", "state": "MO", "street": "8300 NE UNDERGROUND DR", "postcode": "64161"}}},
{"geometry": {"type": "Point", "coordinates": [-94.4886482342, 39.1630326641]}, "type": "Feature", "properties": {"collection_times": [{"days": "Mon-Sat", "time": "9:00am"}, {"days": "Sun", "time": "Closed"}], "id": "6416100003", "name": "USPS COLLECTION BOX - BLUE BOX", "address": {"city": "KANSAS CITY", "state": "MO", "street": "3737 NE GREAT MIDWEST DR", "postcode": "64161"}}},
{"geometry": {"type": "Point", "coordinates": [-94.4380981952, 39.1557871733]}, "type": "Feature", "properties": {"collection_times": [{"days": "Mon-Sat", "time": "10:00am"}, {"days": "Sun", "time": "Closed"}], "id": "6416100006", "name": "USPS COLLECTION BOX - BLUE BOX", "address": {"city": "KANSAS CITY", "state": "MO", "street": "3503 N KIMBALL DR", "postcode": "64161"}}},
{"geometry": {"type": "Point", "coordinates": [-94.483176447, 39.1565057992]}, "type": "Feature", "properties": {"collection_times": [{"days": "Mon-Fri", "time": "3:00pm"}, {"days": "Sat", "time": "9:00am"}, {"days": "Sun", "time": "Closed"}], "id": "6416100008", "name": "USPS COLLECTION BOX - BLUE BOX", "address": {"city": "KANSAS CITY", "state": "MO", "street": "8300 NE UNDERGROUND DR", "postcode": "64161"}}},
{"geometry": {"type": "Point", "coordinates": [-94.6525286696, 39.2470765911]}, "type": "Feature", "properties": {"collection_times": [{"days": "Mon-Fri", "time": "5:00pm"}, {"days": "Sat", "time": "2:00pm"}, {"days": "Sun", "time": "Closed"}], "id": "6419000000", "name": "USPS COLLECTION BOX - BLUE BOX", "address": {"city": "KANSAS CITY", "state": "MO", "street": "6304 NW BARRY RD", "postcode": "64190"}}},
{"geometry": {"type": "Point", "coordinates": [-94.6525286696, 39.2470765911]}, "type": "Feature", "properties": {"collection_times": [{"days": "Mon-Fri", "time": "5:00pm"}, {"days": "Sat", "time": "2:00pm"}, {"days": "Sun", "time": "Closed"}], "id": "6419000001", "name": "USPS COLLECTION BOX - BLUE BOX", "address": {"city": "KANSAS CITY", "state": "MO", "street": "6304 NW BARRY RD", "postcode": "64190"}}},
{"geometry": {"type": "Point", "coordinates": [-94.6525286696, 39.2470765911]}, "type": "Feature", "properties": {"collection_times": [{"days": "Mon-Fri", "time": "5:00pm"}, {"days": "Sat", "time": "2:00pm"}, {"days": "Sun", "time": "Closed"}], "id": "6419000003", "name": "USPS COLLECTION BOX - PO LOBBY", "address": {"city": "KANSAS CITY", "state": "MO", "street": "6304 NW BARRY RD", "postcode": "64190"}}},
{"geometry": {"type": "Point", "coordinates": [-94.6525286696, 39.2470765911]}, "type": "Feature", "properties": {"collection_times": [{"days": "Mon-Fri", "time": "5:00pm"}, {"days": "Sat", "time": "2:00pm"}, {"days": "Sun", "time": "Closed"}], "id": "6419000004", "name": "USPS COLLECTION BOX - APC", "address": {"city": "KANSAS CITY", "state": "MO", "street": "6304 NW BARRY RD", "postcode": "64190"}}},
{"geometry": {"type": "Point", "coordinates": [-94.7200702031, 39.3036452822]}, "type": "Feature", "properties": {"collection_times": [{"days": "Mon-Fri", "time": "4:30pm"}, {"days": "Sat", "time": "8:00am"}, {"days": "Sun", "time": "Closed"}], "id": "6419500004", "name": "USPS COLLECTION BOX - BLUE BOX", "address": {"city": "KANSAS CITY", "state": "MO", "street": "156 PARIS ST", "postcode": "64195"}}},
{"geometry": {"type": "Point", "coordinates": [-94.7200702031, 39.3036452822]}, "type": "Feature", "properties": {"collection_times": [{"days": "Mon-Fri", "time": "4:30pm"}, {"days": "Sat", "time": "8:00am"}, {"days": "Sun", "time": "Closed"}], "id": "6419500008", "name": "USPS COLLECTION BOX - PO LOBBY", "address": {"city": "KANSAS CITY", "state": "MO", "street": "156 PARIS ST", "postcode": "64195"}}},
{"geometry": {"type": "Point", "coordinates": [-94.7200702031, 39.3036452822]}, "type": "Feature", "properties": {"collection_times": [{"days": "Mon-Fri", "time": "4:30pm"}, {"days": "Sat", "time": "8:00am"}, {"days": "Sun", "time": "Closed"}], "id": "6419500009", "name": "USPS COLLECTION BOX - PO LOBBY", "address": {"city": "KANSAS CITY", "state": "MO", "street": "156 PARIS ST", "postcode": "64195"}}},
{"geometry": {"type": "Point", "coordinates": [-94.5831500941, 39.1003973529]}, "type": "Feature", "properties": {"collection_times": [{"days": "Mon-Fri", "time": "5:00pm"}, {"days": "Sat-Sun", "time": "Closed"}], "id": "6419600000", "name": "USPS COLLECTION BOX - PO LOBBY", "address": {"city": "KANSAS CITY", "state": "MO", "street": "1100 MAIN ST", "postcode": "64196"}}},
{"geometry": {"type": "Point", "coordinates": [-94.5831500941, 39.1003973529]}, "type": "Feature", "properties": {"collection_times": [{"days": "Mon-Fri", "time": "5:00pm"}, {"days": "Sat-Sun", "time": "Closed"}], "id": "6419600001", "name": "USPS COLLECTION BOX - PO LOBBY", "address": {"city": "KANSAS CITY", "state": "MO", "street": "1100 MAIN ST", "postcode": "64196"}}},
{"geometry": {"type": "Point", "coordinates": [-94.5831500941, 39.1003973529]}, "type": "Feature", "properties": {"collection_times": [{"days": "Mon-Fri", "time": "5:00pm"}, {"days": "Sat-Sun", "time": "Closed"}], "id": "6419600003", "name": "USPS COLLECTION BOX - PO LOBBY", "address": {"city": "KANSAS CITY", "state": "MO", "street": "1100 MAIN ST", "postcode": "64196"}}}
]}
