{"type": "FeatureCollection", "features": [
{"geometry": {"type": "Point", "coordinates": [-94.7499471069, 39.6594773491]}, "type": "Feature", "properties": {"collection_times": [{"days": "Mon-Sat", "time": "4:00pm"}, {"days": "Sun", "time": "Closed"}], "id": "6440100000", "name": "USPS COLLECTION BOX - BLUE BOX", "address": {"city": "AGENCY", "state": "MO", "street": "10580 STATE ROUTE FF SE", "postcode": "64401"}}},
{"geometry": {"type": "Point", "coordinates": [-94.7491874332, 39.6583832544]}, "type": "Feature", "properties": {"collection_times": [{"days": "Mon-Fri", "time": "10:45am"}, {"days": "Sat", "time": "9:45am"}, {"days": "Sun", "time": "Closed"}], "id": "6440100001", "name": "USPS COLLECTION BOX - PO LOBBY", "address": {"city": "AGENCY", "state": "MO", "street": "10580 STATE ROUTE FF SE", "postcode": "64401"}}},
{"geometry": {"type": "Point", "coordinates": [-94.3317116647, 40.2479010176]}, "type": "Feature", "properties": {"collection_times": [{"days": "Mon-Fri", "time": "4:30pm"}, {"days": "Sat", "time": "5:15pm"}, {"days": "Sun", "time": "Closed"}], "id": "6440200000", "name": "USPS COLLECTION BOX - BLUE BOX", "address": {"city": "ALBANY", "state": "MO", "street": "101 E CLAY ST", "postcode": "64402"}}},
{"geometry": {"type": "Point", "coordinates": [-94.3317116647, 40.2479010176]}, "type": "Feature", "properties": {"collection_times": [{"days": "Mon-Fri", "time": "4:30pm"}, {"days": "Sat", "time": "11:00am"}, {"days": "Sun", "time": "Closed"}], "id": "6440200006", "name": "USPS COLLECTION BOX - PO LOBBY", "address": {"city": "ALBANY", "state": "MO", "street": "101 E CLAY ST", "postcode": "64402"}}},
{"geometry": {"type": "Point", "coordinates": [-94.2893758496, 40.4866478882]}, "type": "Feature", "properties": {"collection_times": [{"days": "Mon-Fri", "time": "12:00pm"}, {"days": "Sat", "time": "11:30am"}, {"days": "Sun", "time": "Closed"}], "id": "6442000000", "name": "USPS COLLECTION BOX - BLUE BOX", "address": {"city": "ALLENDALE", "state": "MO", "street": "101 MAIN ST", "postcode": "64420"}}},
{"geometry": {"type": "Point", "coordinates": [-94.2893758496, 40.4866478882]}, "type": "Feature", "properties": {"collection_times": [{"days": "Mon-Sat", "time": "10:15am"}, {"days": "Sun", "time": "Closed"}], "id": "6442000001", "name": "USPS COLLECTION BOX - PO LOBBY", "address": {"city": "ALLENDALE", "state": "MO", "street": "101 MAIN ST", "postcode": "64420"}}},
{"geometry": {"type": "Point", "coordinates": [-94.892991441, 39.8870726007]}, "type": "Feature", "properties": {"collection_times": [{"days": "Mon-Fri", "time": "4:00pm"}, {"days": "Sat", "time": "5:30pm"}, {"days": "Sun", "time": "Closed"}], "id": "6442100000", "name": "USPS COLLECTION BOX - BLUE BOX", "address": {"city": "AMAZONIA", "state": "MO", "street": "142 STATE ROUTE K", "postcode": "64421"}}},
{"geometry": {"type": "Point", "coordinates": [-94.892991441, 39.8870726007]}, "type": "Feature", "properties": {"collection_times": [{"days": "Mon-Fri", "time": "11:45am"}, {"days": "Sat", "time": "10:30am"}, {"days": "Sun", "time": "Closed"}], "id": "6442100001", "name": "USPS COLLECTION BOX - PO LOBBY", "address": {"city": "AMAZONIA", "state": "MO", "street": "142 STATE ROUTE K", "postcode": "64421"}}},
{"geometry": {"type": "Point", "coordinates": [-94.4364677087, 39.8691129583]}, "type": "Feature", "properties": {"collection_times": [{"days": "Mon-Fri", "time": "1:15pm"}, {"days": "Sat", "time": "2:30pm"}, {"days": "Sun", "time": "Closed"}], "id": "6442200000", "name": "USPS COLLECTION BOX - BLUE BOX", "address": {"city": "AMITY", "state": "MO", "street": "4090 SW MAIN ST", "postcode": "64422"}}},
{"geometry": {"type": "Point", "coordinates": [-94.824790596, 40.1753750256]}, "type": "Feature", "properties": {"collection_times": [{"days": "Mon-Fri", "time": "3:45pm"}, {"days": "Sat", "time": "3:30pm"}, {"days": "Sun", "time": "Closed"}], "id": "6442300000", "name": "USPS COLLECTION BOX - BLUE BOX", "address": {"city": "BARNARD", "state": "MO", "street": "504 4TH ST", "postcode": "64423"}}},
{"geometry": {"type": "Point", "coordinates": [-94.824790596, 40.1753750256]}, "type": "Feature", "properties": {"collection_times": [{"days": "Mon-Fri", "time": "11:45am"}, {"days": "Sat", "time": "9:45am"}, {"days": "Sun", "time": "Closed"}], "id": "6442300001", "name": "USPS COLLECTION BOX - PO LOBBY", "address": {"city": "BARNARD", "state": "MO", "street": "504 4TH ST", "postcode": "64423"}}},
{"geometry": {"type": "Point", "coordinates": [-94.027652616, 40.2686207315]}, "type": "Feature", "properties": {"collection_times": [{"days": "Mon-Sat", "time": "1:15pm"}, {"days": "Sun", "time": "Closed"}], "id": "6442400001", "name": "USPS COLLECTION BOX - BLUE BOX", "address": {"city": "BETHANY", "state": "MO", "street": "101 S 25TH ST", "postcode": "64424"}}},
{"geometry": {"type": "Point", "coordinates": [-94.0364950787, 40.269464571]}, "type": "Feature", "properties": {"collection_times": [{"days": "Mon-Fri", "time": "4:30pm"}, {"days": "Sat", "time": "4:15pm"}, {"days": "Sun", "time": "Closed"}], "id": "6442400003", "name": "USPS COLLECTION BOX - BLUE BOX", "address": {"city": "BETHANY", "state": "MO", "street": "1407 CENTRAL ST", "postcode": "64424"}}},
{"geometry": {"type": "Point", "coordinates": [-94.0364950787, 40.269464571]}, "type": "Feature", "properties": {"collection_times": [{"days": "Mon-Fri", "time": "4:30pm"}, {"days": "Sat", "time": "4:15pm"}, {"days": "Sun", "time": "Closed"}], "id": "6442400004", "name": "USPS COLLECTION BOX - PO LOBBY", "address": {"city": "BETHANY", "state": "MO", "street": "1407 CENTRAL ST", "postcode": "64424"}}},
{"geometry": {"type": "Point", "coordinates": [-93.8543605337, 40.519710849]}, "type": "Feature", "properties": {"collection_times": [{"days": "Mon-Fri", "time": "3:45pm"}, {"days": "Sat", "time": "4:00pm"}, {"days": "Sun", "time": "Closed"}], "id": "6442600000", "name": "USPS COLLECTION BOX - BLUE BOX", "address": {"city": "BLYTHEDALE", "state": "MO", "street": "629 STATE HWY N", "postcode": "64426"}}},
{"geometry": {"type": "Point", "coordinates": [-93.8543605337, 40.519710849]}, "type": "Feature", "properties": {"collection_times": [{"days": "Mon-Fri", "time": "3:45pm"}, {"days": "Sat", "time": "10:00am"}, {"days": "Sun", "time": "Closed"}], "id": "6442600001", "name": "USPS COLLECTION BOX - PO LOBBY", "address": {"city": "BLYTHEDALE", "state": "MO", "street": "629 STATE HWY N", "postcode": "64426"}}},
{"geometry": {"type": "Point", "coordinates": [-93.8543605337, 40.519710849]}, "type": "Feature", "properties": {"collection_times": [{"days": "Mon-Fri", "time": "3:45pm"}, {"days": "Sat", "time": "10:00am"}, {"days": "Sun", "time": "Closed"}], "id": "6442600002", "name": "USPS COLLECTION BOX - PO LOBBY", "address": {"city": "BLYTHEDALE", "state": "MO", "street": "629 STATE HWY N", "postcode": "64426"}}},
{"geometry": {"type": "Point", "coordinates": [-94.8225653165, 40.1134498005]}, "type": "Feature", "properties": {"collection_times": [{"days": "Mon-Fri", "time": "3:45pm"}, {"days": "Sat", "time": "3:00pm"}, {"days": "Sun", "time": "Closed"}], "id": "6442700000", "name": "USPS COLLECTION BOX - BLUE BOX", "address": {"city": "BOLCKOW", "state": "MO", "street": "305 RICHARDSON ST", "postcode": "64427"}}},
{"geometry": {"type": "Point", "coordinates": [-94.8225653165, 40.1134498005]}, "type": "Feature", "properties": {"collection_times": [{"days": "Mon-Fri", "time": "10:45am"}, {"days": "Sat", "time": "8:45am"}, {"days": "Sun", "time": "Closed"}], "id": "6442700001", "name": "USPS COLLECTION BOX - PO LOBBY", "address": {"city": "BOLCKOW", "state": "MO", "street": "305 RICHARDSON ST", "postcode": "64427"}}},
{"geometry": {"type": "Point", "coordinates": [-95.0632829221, 40.4457855886]}, "type": "Feature", "properties": {"collection_times": [{"days": "Mon-Fri", "time": "4:00pm"}, {"days": "Sat", "time": "4:30pm"}, {"days": "Sun", "time": "Closed"}], "id": "6442800000", "name": "USPS COLLECTION BOX - BLUE BOX", "address": {"city": "BRLNGTON JCTN", "state": "MO", "street": "101 W MAIN ST", "postcode": "64428"}}},
{"geometry": {"type": "Point", "coordinates": [-95.0632829221, 40.4457855886]}, "type": "Feature", "properties": {"collection_times": [{"days": "Mon-Fri", "time": "2:45pm"}, {"days": "Sat", "time": "9:15am"}, {"days": "Sun", "time": "Closed"}], "id": "6442800001", "name": "USPS COLLECTION BOX - PO LOBBY", "address": {"city": "BRLNGTON JCTN", "state": "MO", "street": "101 W MAIN ST", "postcode": "64428"}}},
{"geometry": {"type": "Point", "coordinates": [-95.0632829221, 40.4457855886]}, "type": "Feature", "properties": {"collection_times": [{"days": "Mon-Fri", "time": "2:45pm"}, {"days": "Sat", "time": "9:15am"}, {"days": "Sun", "time": "Closed"}], "id": "6442800002", "name": "USPS COLLECTION BOX - PO LOBBY", "address": {"city": "BRLNGTON JCTN", "state": "MO", "street": "101 W MAIN ST", "postcode": "64428"}}},
{"geometry": {"type": "Point", "coordinates": [-94.2392861636, 39.7499844493]}, "type": "Feature", "properties": {"collection_times": [{"days": "Mon-Fri", "time": "4:15pm"}, {"days": "Sat", "time": "2:00pm"}, {"days": "Sun", "time": "Closed"}], "id": "6442900000", "name": "USPS COLLECTION BOX - BLUE BOX", "address": {"city": "CAMERON", "state": "MO", "street": "112 E GRAND AVE", "postcode": "64429"}}},
{"geometry": {"type": "Point", "coordinates": [-94.2344216884, 39.7564679358]}, "type": "Feature", "properties": {"collection_times": [{"days": "Mon-Sat", "time": "1:30pm"}, {"days": "Sun", "time": "Closed"}], "id": "6442900013", "name": "USPS COLLECTION BOX - BLUE BOX", "address": {"city": "CAMERON", "state": "MO", "street": "2000 N WALNUT ST", "postcode": "64429"}}},
{"geometry": {"type": "Point", "coordinates": [-94.2392861636, 39.7499844493]}, "type": "Feature", "properties": {"collection_times": [{"days": "Mon-Fri", "time": "4:15pm"}, {"days": "Sat", "time": "2:00pm"}, {"days": "Sun", "time": "Closed"}], "id": "6442900014", "name": "USPS COLLECTION BOX - PO LOBBY", "address": {"city": "CAMERON", "state": "MO", "street": "112 E GRAND AVE", "postcode": "64429"}}},
{"geometry": {"type": "Point", "coordinates": [-94.2392861636, 39.7499844493]}, "type": "Feature", "properties": {"collection_times": [{"days": "Mon-Fri", "time": "4:15pm"}, {"days": "Sat", "time": "2:00pm"}, {"days": "Sun", "time": "Closed"}], "id": "6442900015", "name": "USPS COLLECTION BOX - PO LOBBY", "address": {"city": "CAMERON", "state": "MO", "street": "112 E GRAND AVE", "postcode": "64429"}}},
{"geometry": {"type": "Point", "coordinates": [-94.5505064474, 39.811934166]}, "type": "Feature", "properties": {"collection_times": [{"days": "Mon-Fri", "time": "3:45pm"}, {"days": "Sat", "time": "5:00pm"}, {"days": "Sun", "time": "Closed"}], "id": "6443000000", "name": "USPS COLLECTION BOX - BLUE BOX", "address": {"city": "CLARKSDALE", "state": "MO", "street": "102 MAY ST", "postcode": "64430"}}},
{"geometry": {"type": "Point", "coordinates": [-94.5505064474, 39.811934166]}, "type": "Feature", "properties": {"collection_times": [{"days": "Mon-Fri", "time": "10:45am"}, {"days": "Sat", "time": "8:15am"}, {"days": "Sun", "time": "Closed"}], "id": "6443000001", "name": "USPS COLLECTION BOX - PO LOBBY", "address": {"city": "CLARKSDALE", "state": "MO", "street": "102 MAY ST", "postcode": "64430"}}},
{"geometry": {"type": "Point", "coordinates": [-95.0322417945, 40.509386801]}, "type": "Feature", "properties": {"collection_times": [{"days": "Mon-Fri", "time": "4:00pm"}, {"days": "Sat", "time": "3:50pm"}, {"days": "Sun", "time": "Closed"}], "id": "6443100000", "name": "USPS COLLECTION BOX - BLUE BOX", "address": {"city": "CLEARMONT", "state": "MO", "street": "201 2ND ST", "postcode": "64431"}}},
{"geometry": {"type": "Point", "coordinates": [-95.0322417945, 40.509386801]}, "type": "Feature", "properties": {"collection_times": [{"days": "Mon-Fri", "time": "3:45pm"}, {"days": "Sat", "time": "1:45pm"}, {"days": "Sun", "time": "Closed"}], "id": "6443100001", "name": "USPS COLLECTION BOX - PO LOBBY", "address": {"city": "CLEARMONT", "state": "MO", "street": "201 2ND ST", "postcode": "64431"}}},
{"geometry": {"type": "Point", "coordinates": [-94.6695913647, 40.2678624308]}, "type": "Feature", "properties": {"collection_times": [{"days": "Mon-Fri", "time": "4:30pm"}, {"days": "Sat", "time": "4:00pm"}, {"days": "Sun", "time": "Closed"}], "id": "6443200000", "name": "USPS COLLECTION BOX - BLUE BOX", "address": {"city": "CLYDE", "state": "MO", "street": "404 MAIN ST", "postcode": "64432"}}},
{"geometry": {"type": "Point", "coordinates": [-94.6695913647, 40.2678624308]}, "type": "Feature", "properties": {"collection_times": [{"days": "Mon-Sat", "time": "10:45am"}, {"days": "Sun", "time": "Closed"}], "id": "6443200001", "name": "USPS COLLECTION BOX - PO LOBBY", "address": {"city": "CLYDE", "state": "MO", "street": "404 MAIN ST", "postcode": "64432"}}},
{"geometry": {"type": "Point", "coordinates": [-94.6847581471, 40.2422972967]}, "type": "Feature", "properties": {"collection_times": [{"days": "Mon-Fri", "time": "3:45pm"}, {"days": "Sat", "time": "4:00pm"}, {"days": "Sun", "time": "Closed"}], "id": "6443300000", "name": "USPS COLLECTION BOX - BLUE BOX", "address": {"city": "CONCEPTION", "state": "MO", "street": "37114 STATE HIGHWAY VV", "postcode": "64433"}}},
{"geometry": {"type": "Point", "coordinates": [-94.6847581471, 40.2422972967]}, "type": "Feature", "properties": {"collection_times": [{"days": "Mon-Fri", "time": "3:45pm"}, {"days": "Sat", "time": "9:45am"}, {"days": "Sun", "time": "Closed"}], "id": "6443300001", "name": "USPS COLLECTION BOX - PO LOBBY", "address": {"city": "CONCEPTION", "state": "MO", "street": "37114 STATE HIGHWAY VV", "postcode": "64433"}}},
{"geometry": {"type": "Point", "coordinates": [-94.6847581471, 40.2422972967]}, "type": "Feature", "properties": {"collection_times": [{"days": "Mon-Fri", "time": "3:45pm"}, {"days": "Sat", "time": "9:45am"}, {"days": "Sun", "time": "Closed"}], "id": "6443300002", "name": "USPS COLLECTION BOX - PO LOBBY", "address": {"city": "CONCEPTION", "state": "MO", "street": "37114 STATE HIGHWAY VV", "postcode": "64433"}}},
{"geometry": {"type": "Point", "coordinates": [-94.7201911826, 40.271620474]}, "type": "Feature", "properties": {"collection_times": [{"days": "Mon-Fri", "time": "3:45pm"}, {"days": "Sat", "time": "4:00pm"}, {"days": "Sun", "time": "Closed"}], "id": "6443400000", "name": "USPS COLLECTION BOX - BLUE BOX", "address": {"city": "CNCPTON JCTN", "state": "MO", "street": "609 S MAIN ST", "postcode": "64434"}}},
{"geometry": {"type": "Point", "coordinates": [-94.7201911826, 40.271620474]}, "type": "Feature", "properties": {"collection_times": [{"days": "Mon-Fri", "time": "11:45am"}, {"days": "Sat", "time": "9:45am"}, {"days": "Sun", "time": "Closed"}], "id": "6443400002", "name": "USPS COLLECTION BOX - PO LOBBY", "address": {"city": "CNCPTON JCTN", "state": "MO", "street": "609 S MAIN ST", "postcode": "64434"}}},
{"geometry": {"type": "Point", "coordinates": [-94.6814263105, 39.8632263685]}, "type": "Feature", "properties": {"collection_times": [{"days": "Mon-Fri", "time": "4:30pm"}, {"days": "Sat", "time": "5:30pm"}, {"days": "Sun", "time": "Closed"}], "id": "6443600000", "name": "USPS COLLECTION BOX - BLUE BOX", "address": {"city": "COSBY", "state": "MO", "street": "421 LEIDY ST", "postcode": "64436"}}},
{"geometry": {"type": "Point", "coordinates": [-94.6814263105, 39.8632263685]}, "type": "Feature", "properties": {"collection_times": [{"days": "Mon-Fri", "time": "3:45pm"}, {"days": "Sat", "time": "9:30am"}, {"days": "Sun", "time": "Closed"}], "id": "6443600001", "name": "USPS COLLECTION BOX - PO LOBBY", "address": {"city": "COSBY", "state": "MO", "street": "421 LEIDY ST", "postcode": "64436"}}},
{"geometry": {"type": "Point", "coordinates": [-95.3707356801, 40.1896958538]}, "type": "Feature", "properties": {"collection_times": [{"days": "Mon-Fri", "time": "4:15pm"}, {"days": "Sat", "time": "8:45am"}, {"days": "Sun", "time": "Closed"}], "id": "6443700000", "name": "USPS COLLECTION BOX - BLUE BOX", "address": {"city": "CRAIG", "state": "MO", "street": "103 S MAIN ST", "postcode": "64437"}}},
{"geometry": {"type": "Point", "coordinates": [-95.3707356801, 40.1896958538]}, "type": "Feature", "properties": {"collection_times": [{"days": "Mon-Fri", "time": "11:15am"}, {"days": "Sat", "time": "8:45am"}, {"days": "Sun", "time": "Closed"}], "id": "6443700001", "name": "USPS COLLECTION BOX - PO LOBBY", "address": {"city": "CRAIG", "state": "MO", "street": "103 S MAIN ST", "postcode": "64437"}}},
{"geometry": {"type": "Point", "coordinates": [-94.396654562, 40.199392021]}, "type": "Feature", "properties": {"collection_times": [{"days": "Mon-Fri", "time": "5:00pm"}, {"days": "Sat", "time": "4:00pm"}, {"days": "Sun", "time": "Closed"}], "id": "6443800000", "name": "USPS COLLECTION BOX - BLUE BOX", "address": {"city": "DARLINGTON", "state": "MO", "street": "408 CENTRE ST", "postcode": "64438"}}},
{"geometry": {"type": "Point", "coordinates": [-94.7699892038, 39.5218944325]}, "type": "Feature", "properties": {"collection_times": [{"days": "Mon-Sat", "time": "4:00pm"}, {"days": "Sun", "time": "Closed"}], "id": "6443900001", "name": "USPS COLLECTION BOX - BLUE BOX", "address": {"city": "DEARBORN", "state": "MO", "street": "109 W 3RD ST", "postcode": "64439"}}},
{"geometry": {"type": "Point", "coordinates": [-94.7699892038, 39.5218944325]}, "type": "Feature", "properties": {"collection_times": [{"days": "Mon-Fri", "time": "2:45pm"}, {"days": "Sat", "time": "9:15am"}, {"days": "Sun", "time": "Closed"}], "id": "6443900003", "name": "USPS COLLECTION BOX - PO LOBBY", "address": {"city": "DEARBORN", "state": "MO", "street": "109 W 3RD ST", "postcode": "64439"}}},
{"geometry": {"type": "Point", "coordinates": [-94.9248170104, 39.586902011]}, "type": "Feature", "properties": {"collection_times": [{"days": "Mon-Fri", "time": "4:30pm"}, {"days": "Sat", "time": "3:45pm"}, {"days": "Sun", "time": "Closed"}], "id": "6444000000", "name": "USPS COLLECTION BOX - BLUE BOX", "address": {"city": "DEKALB", "state": "MO", "street": "503 MAIN ST", "postcode": "64440"}}},
{"geometry": {"type": "Point", "coordinates": [-94.9248170104, 39.586902011]}, "type": "Feature", "properties": {"collection_times": [{"days": "Mon-Fri", "time": "11:45am"}, {"days": "Sat", "time": "9:45am"}, {"days": "Sun", "time": "Closed"}], "id": "6444000002", "name": "USPS COLLECTION BOX - PO LOBBY", "address": {"city": "DEKALB", "state": "MO", "street": "503 MAIN ST", "postcode": "64440"}}},
{"geometry": {"type": "Point", "coordinates": [-94.3270856215, 40.3978050823]}, "type": "Feature", "properties": {"collection_times": [{"days": "Mon-Fri", "time": "2:30pm"}, {"days": "Sat", "time": "3:45pm"}, {"days": "Sun", "time": "Closed"}], "id": "6444100000", "name": "USPS COLLECTION BOX - BLUE BOX", "address": {"city": "DENVER", "state": "MO", "street": "101 N MAIN ST", "postcode": "64441"}}},
{"geometry": {"type": "Point", "coordinates": [-94.3270856215, 40.3978050823]}, "type": "Feature", "properties": {"collection_times": [{"days": "Mon-Fri", "time": "12:15pm"}, {"days": "Sat", "time": "9:30am"}, {"days": "Sun", "time": "Closed"}], "id": "6444100001", "name": "USPS COLLECTION BOX - PO LOBBY", "address": {"city": "DENVER", "state": "MO", "street": "101 N MAIN ST", "postcode": "64441"}}},
{"geometry": {"type": "Point", "coordinates": [-93.9854851525, 40.4682182077]}, "type": "Feature", "properties": {"collection_times": [{"days": "Mon-Fri", "time": "3:45pm"}, {"days": "Sat", "time": "4:00pm"}, {"days": "Sun", "time": "Closed"}], "id": "6444200000", "name": "USPS COLLECTION BOX - BLUE BOX", "address": {"city": "EAGLEVILLE", "state": "MO", "street": "14042 14TH ST", "postcode": "64442"}}},
{"geometry": {"type": "Point", "coordinates": [-93.9854851525, 40.4682182077]}, "type": "Feature", "properties": {"collection_times": [{"days": "Mon-Fri", "time": "10:45am"}, {"days": "Sat", "time": "9:45am"}, {"days": "Sun", "time": "Closed"}], "id": "6444200003", "name": "USPS COLLECTION BOX - PO LOBBY", "address": {"city": "EAGLEVILLE", "state": "MO", "street": "14042 14TH ST", "postcode": "64442"}}},
{"geometry": {"type": "Point", "coordinates": [-93.9854851525, 40.4682182077]}, "type": "Feature", "properties": {"collection_times": [{"days": "Mon-Fri", "time": "10:45am"}, {"days": "Sat", "time": "9:45am"}, {"days": "Sun", "time": "Closed"}], "id": "6444200004", "name": "USPS COLLECTION BOX - PO LOBBY", "address": {"city": "EAGLEVILLE", "state": "MO", "street": "14042 14TH ST", "postcode": "64442"}}},
{"geometry": {"type": "Point", "coordinates": [-94.6417369235, 39.7234273407]}, "type": "Feature", "properties": {"collection_times": [{"days": "Mon-Fri", "time": "4:00pm"}, {"days": "Sat", "time": "4:45pm"}, {"days": "Sun", "time": "Closed"}], "id": "6444300000", "name": "USPS COLLECTION BOX - BLUE BOX", "address": {"city": "EASTON", "state": "MO", "street": "201 N BUCKLIN DR", "postcode": "64443"}}},
{"geometry": {"type": "Point", "coordinates": [-94.6417369235, 39.7234273407]}, "type": "Feature", "properties": {"collection_times": [{"days": "Mon-Fri", "time": "10:30am"}, {"days": "Sat", "time": "8:45am"}, {"days": "Sun", "time": "Closed"}], "id": "6444300001", "name": "USPS COLLECTION BOX - PO LOBBY", "address": {"city": "EASTON", "state": "MO", "street": "201 N BUCKLIN DR", "postcode": "64443"}}},
{"geometry": {"type": "Point", "coordinates": [-94.6313857605, 39.5045223776]}, "type": "Feature", "properties": {"collection_times": [{"days": "Mon-Sat", "time": "4:30pm"}, {"days": "Sun", "time": "Closed"}], "id": "6444400000", "name": "USPS COLLECTION BOX - BLUE BOX", "address": {"city": "EDGERTON", "state": "MO", "street": "604 BELT AVE", "postcode": "64444"}}},
{"geometry": {"type": "Point", "coordinates": [-94.6313857605, 39.5045223776]}, "type": "Feature", "properties": {"collection_times": [{"days": "Mon-Fri", "time": "12:45pm"}, {"days": "Sat", "time": "10:45am"}, {"days": "Sun", "time": "Closed"}], "id": "6444400001", "name": "USPS COLLECTION BOX - PO LOBBY", "address": {"city": "EDGERTON", "state": "MO", "street": "604 BELT AVE", "postcode": "64444"}}},
{"geometry": {"type": "Point", "coordinates": [-95.1194572672, 40.5185688341]}, "type": "Feature", "properties": {"collection_times": [{"days": "Mon-Fri", "time": "4:15pm"}, {"days": "Sat", "time": "3:00pm"}, {"days": "Sun", "time": "Closed"}], "id": "6444500000", "name": "USPS COLLECTION BOX - BLUE BOX", "address": {"city": "ELMO", "state": "MO", "street": "101 W MAIN ST", "postcode": "64445"}}},
{"geometry": {"type": "Point", "coordinates": [-95.1194572672, 40.5185688341]}, "type": "Feature", "properties": {"collection_times": [{"days": "Mon-Fri", "time": "1:45pm"}, {"days": "Sat", "time": "9:30am"}, {"days": "Sun", "time": "Closed"}], "id": "6444500001", "name": "USPS COLLECTION BOX - PO LOBBY", "address": {"city": "ELMO", "state": "MO", "street": "101 W MAIN ST", "postcode": "64445"}}},
{"geometry": {"type": "Point", "coordinates": [-95.3928675276, 40.3390829632]}, "type": "Feature", "properties": {"collection_times": [{"days": "Mon-Fri", "time": "4:30pm"}, {"days": "Sat", "time": "9:30am"}, {"days": "Sun", "time": "Closed"}], "id": "6444600000", "name": "USPS COLLECTION BOX - BLUE BOX", "address": {"city": "FAIRFAX", "state": "MO", "street": "104 N DENNY ST", "postcode": "64446"}}},
{"geometry": {"type": "Point", "coordinates": [-95.3928675276, 40.3390829632]}, "type": "Feature", "properties": {"collection_times": [{"days": "Mon-Fri", "time": "3:15pm"}, {"days": "Sat", "time": "9:30am"}, {"days": "Sun", "time": "Closed"}], "id": "6444600002", "name": "USPS COLLECTION BOX - PO LOBBY", "address": {"city": "FAIRFAX", "state": "MO", "street": "104 N DENNY ST", "postcode": "64446"}}},
{"geometry": {"type": "Point", "coordinates": [-94.7986598008, 39.5997630836]}, "type": "Feature", "properties": {"collection_times": [{"days": "Mon-Fri", "time": "3:45pm"}, {"days": "Sat", "time": "4:00pm"}, {"days": "Sun", "time": "Closed"}], "id": "6444800000", "name": "USPS COLLECTION BOX - BLUE BOX", "address": {"city": "FAUCETT", "state": "MO", "street": "716 SE GRAND DD", "postcode": "64448"}}},
{"geometry": {"type": "Point", "coordinates": [-94.7987797207, 39.5997389704]}, "type": "Feature", "properties": {"collection_times": [{"days": "Mon-Fri", "time": "3:15pm"}, {"days": "Sat", "time": "9:30am"}, {"days": "Sun", "time": "Closed"}], "id": "6444800002", "name": "USPS COLLECTION BOX - PO LOBBY", "address": {"city": "FAUCETT", "state": "MO", "street": "716 GRAND DD", "postcode": "64448"}}},
{"geometry": {"type": "Point", "coordinates": [-94.7919245127, 39.5998764953]}, "type": "Feature", "properties": {"collection_times": [{"days": "Mon-Fri", "time": "1:30pm"}, {"days": "Sat-Sun", "time": "Closed"}], "id": "6444800003", "name": "USPS COLLECTION BOX - BLUE BOX", "address": {"city": "FAUCETT", "state": "MO", "street": "1303 SE GRAND DD", "postcode": "64448"}}},
{"geometry": {"type": "Point", "coordinates": [-94.9734949664, 40.0251326251]}, "type": "Feature", "properties": {"collection_times": [{"days": "Mon-Sat", "time": "4:30pm"}, {"days": "Sun", "time": "Closed"}], "id": "6444900000", "name": "USPS COLLECTION BOX - BLUE BOX", "address": {"city": "FILLMORE", "state": "MO", "street": "126 E MAIN ST", "postcode": "64449"}}},
{"geometry": {"type": "Point", "coordinates": [-94.9734949664, 40.0251326251]}, "type": "Feature", "properties": {"collection_times": [{"days": "Mon-Fri", "time": "11:45am"}, {"days": "Sat", "time": "9:45am"}, {"days": "Sun", "time": "Closed"}], "id": "6444900001", "name": "USPS COLLECTION BOX - PO LOBBY", "address": {"city": "FILLMORE", "state": "MO", "street": "126 E MAIN ST", "postcode": "64449"}}},
{"geometry": {"type": "Point", "coordinates": [-95.1931446718, 39.9823482086]}, "type": "Feature", "properties": {"collection_times": [{"days": "Mon-Fri", "time": "4:30pm"}, {"days": "Sat", "time": "4:45pm"}, {"days": "Sun", "time": "Closed"}], "id": "6445100000", "name": "USPS COLLECTION BOX - BLUE BOX", "address": {"city": "FOREST CITY", "state": "MO", "street": "108 GRAND AVE", "postcode": "64451"}}},
{"geometry": {"type": "Point", "coordinates": [-95.1931446718, 39.9823482086]}, "type": "Feature", "properties": {"collection_times": [{"days": "Mon-Fri", "time": "10:45am"}, {"days": "Sat", "time": "8:45am"}, {"days": "Sun", "time": "Closed"}], "id": "6445100003", "name": "USPS COLLECTION BOX - PO LOBBY", "address": {"city": "FOREST CITY", "state": "MO", "street": "108 GRAND AVE", "postcode": "64451"}}},
{"geometry": {"type": "Point", "coordinates": [-94.4104145848, 40.3440677226]}, "type": "Feature", "properties": {"collection_times": [{"days": "Mon-Fri", "time": "2:45pm"}, {"days": "Sat", "time": "3:30pm"}, {"days": "Sun", "time": "Closed"}], "id": "6445300000", "name": "USPS COLLECTION BOX - BLUE BOX", "address": {"city": "GENTRY", "state": "MO", "street": "107 W MAIN ST", "postcode": "64453"}}},
{"geometry": {"type": "Point", "coordinates": [-94.4104145848, 40.3440677226]}, "type": "Feature", "properties": {"collection_times": [{"days": "Mon-Fri", "time": "2:45pm"}, {"days": "Sat", "time": "9:45am"}, {"days": "Sun", "time": "Closed"}], "id": "6445300001", "name": "USPS COLLECTION BOX - PO LOBBY", "address": {"city": "GENTRY", "state": "MO", "street": "107 W MAIN ST", "postcode": "64453"}}},
{"geometry": {"type": "Point", "coordinates": [-94.5993268771, 39.6131565902]}, "type": "Feature", "properties": {"collection_times": [{"days": "Mon-Sat", "time": "4:15pm"}, {"days": "Sun", "time": "Closed"}], "id": "6445400000", "name": "USPS COLLECTION BOX - BLUE BOX", "address": {"city": "GOWER", "state": "MO", "street": "99 N 3RD ST", "postcode": "64454"}}},
{"geometry": {"type": "Point", "coordinates": [-94.5993268771, 39.6131565902]}, "type": "Feature", "properties": {"collection_times": [{"days": "Mon-Fri", "time": "4:15pm"}, {"days": "Sat", "time": "11:00am"}, {"days": "Sun", "time": "Closed"}], "id": "6445400001", "name": "USPS COLLECTION BOX - PO LOBBY", "address": {"city": "GOWER", "state": "MO", "street": "99 N 3RD ST", "postcode": "64454"}}},
{"geometry": {"type": "Point", "coordinates": [-94.5993268771, 39.6131565902]}, "type": "Feature", "properties": {"collection_times": [{"days": "Mon-Fri", "time": "4:15pm"}, {"days": "Sat", "time": "11:00am"}, {"days": "Sun", "time": "Closed"}], "id": "6445400002", "name": "USPS COLLECTION BOX - PO LOBBY", "address": {"city": "GOWER", "state": "MO", "street": "99 N 3RD ST", "postcode": "64454"}}},
{"geometry": {"type": "Point", "coordinates": [-95.036787099, 40.2008413992]}, "type": "Feature", "properties": {"collection_times": [{"days": "Mon-Fri", "time": "3:30pm"}, {"days": "Sat", "time": "3:45pm"}, {"days": "Sun", "time": "Closed"}], "id": "6445500000", "name": "USPS COLLECTION BOX - BLUE BOX", "address": {"city": "GRAHAM", "state": "MO", "street": "412 E JACKSON ST", "postcode": "64455"}}},
{"geometry": {"type": "Point", "coordinates": [-94.4135031898, 40.4863983106]}, "type": "Feature", "properties": {"collection_times": [{"days": "Mon-Fri", "time": "4:00pm"}, {"days": "Sat", "time": "10:30am"}, {"days": "Sun", "time": "Closed"}], "id": "6445600001", "name": "USPS COLLECTION BOX - PO LOBBY", "address": {"city": "GRANT CITY", "state": "MO", "street": "109 W 3RD ST", "postcode": "64456"}}},
{"geometry": {"type": "Point", "coordinates": [-94.4135031898, 40.4863983106]}, "type": "Feature", "properties": {"collection_times": [{"days": "Mon-Fri", "time": "4:00pm"}, {"days": "Sat", "time": "4:15pm"}, {"days": "Sun", "time": "Closed"}], "id": "6445600002", "name": "USPS COLLECTION BOX - BLUE BOX", "address": {"city": "GRANT CITY", "state": "MO", "street": "109 W 3RD ST", "postcode": "64456"}}},
{"geometry": {"type": "Point", "coordinates": [-94.7370219798, 40.1701149141]}, "type": "Feature", "properties": {"collection_times": [{"days": "Mon-Fri", "time": "4:00pm"}, {"days": "Sat", "time": "3:00pm"}, {"days": "Sun", "time": "Closed"}], "id": "6445700000", "name": "USPS COLLECTION BOX - BLUE BOX", "address": {"city": "GUILFORD", "state": "MO", "street": "119 MAIN ST", "postcode": "64457"}}},
{"geometry": {"type": "Point", "coordinates": [-94.7370219798, 40.1701149141]}, "type": "Feature", "properties": {"collection_times": [{"days": "Mon-Fri", "time": "11:45am"}, {"days": "Sat", "time": "10:00am"}, {"days": "Sun", "time": "Closed"}], "id": "6445700001", "name": "USPS COLLECTION BOX - PO LOBBY", "address": {"city": "GUILFORD", "state": "MO", "street": "119 MAIN ST", "postcode": "64457"}}},
{"geometry": {"type": "Point", "coordinates": [-94.6472445445, 39.9125600543]}, "type": "Feature", "properties": {"collection_times": [{"days": "Mon-Fri", "time": "4:15pm"}, {"days": "Sat", "time": "5:00pm"}, {"days": "Sun", "time": "Closed"}], "id": "6445900000", "name": "USPS COLLECTION BOX - BLUE BOX", "address": {"city": "HELENA", "state": "MO", "street": "21295 SYCAMORE ST", "postcode": "64459"}}},
{"geometry": {"type": "Point", "coordinates": [-94.6472445445, 39.9125600543]}, "type": "Feature", "properties": {"collection_times": [{"days": "Mon-Fri", "time": "11:45am"}, {"days": "Sat", "time": "9:45am"}, {"days": "Sun", "time": "Closed"}], "id": "6445900001", "name": "USPS COLLECTION BOX - PO LOBBY", "address": {"city": "HELENA", "state": "MO", "street": "21295 SYCAMORE ST", "postcode": "64459"}}},
{"geometry": {"type": "Point", "coordinates": [-94.8181264557, 40.5509380665]}, "type": "Feature", "properties": {"collection_times": [{"days": "Mon-Fri", "time": "3:45pm"}, {"days": "Sat", "time": "4:00pm"}, {"days": "Sun", "time": "Closed"}], "id": "6446100000", "name": "USPS COLLECTION BOX - BLUE BOX", "address": {"city": "HOPKINS", "state": "MO", "street": "401 E BARNARD ST", "postcode": "64461"}}},
{"geometry": {"type": "Point", "coordinates": [-94.8181264557, 40.5509380665]}, "type": "Feature", "properties": {"collection_times": [{"days": "Mon-Fri", "time": "11:45am"}, {"days": "Sat", "time": "9:45am"}, {"days": "Sun", "time": "Closed"}], "id": "6446100001", "name": "USPS COLLECTION BOX - PO LOBBY", "address": {"city": "HOPKINS", "state": "MO", "street": "401 E BARNARD ST", "postcode": "64461"}}},
{"geometry": {"type": "Point", "coordinates": [-94.8181264557, 40.5509380665]}, "type": "Feature", "properties": {"collection_times": [{"days": "Mon-Fri", "time": "11:45am"}, {"days": "Sat", "time": "9:45am"}, {"days": "Sun", "time": "Closed"}], "id": "6446100002", "name": "USPS COLLECTION BOX - PO LOBBY", "address": {"city": "HOPKINS", "state": "MO", "street": "401 E BARNARD ST", "postcode": "64461"}}},
{"geometry": {"type": "Point", "coordinates": [-94.5237166907, 40.051237748]}, "type": "Feature", "properties": {"collection_times": [{"days": "Mon-Fri", "time": "4:15pm"}, {"days": "Sat", "time": "5:00pm"}, {"days": "Sun", "time": "Closed"}], "id": "6446300000", "name": "USPS COLLECTION BOX - BLUE BOX", "address": {"city": "KING CITY", "state": "MO", "street": "102 E VERMONT ST", "postcode": "64463"}}},
{"geometry": {"type": "Point", "coordinates": [-94.5237166907, 40.051237748]}, "type": "Feature", "properties": {"collection_times": [{"days": "Mon-Fri", "time": "3:45pm"}, {"days": "Sat", "time": "9:30am"}, {"days": "Sun", "time": "Closed"}], "id": "6446300001", "name": "USPS COLLECTION BOX - PO LOBBY", "address": {"city": "KING CITY", "state": "MO", "street": "102 E VERMONT ST", "postcode": "64463"}}},
{"geometry": {"type": "Point", "coordinates": [-94.3319033004, 39.5482825152]}, "type": "Feature", "properties": {"collection_times": [{"days": "Mon-Fri", "time": "4:15pm"}, {"days": "Sat", "time": "12:00pm"}, {"days": "Sun", "time": "Closed"}], "id": "6446500000", "name": "USPS COLLECTION BOX - BLUE BOX", "address": {"city": "LATHROP", "state": "MO", "street": "606 OAK ST", "postcode": "64465"}}},
{"geometry": {"type": "Point", "coordinates": [-94.3319033004, 39.5482825152]}, "type": "Feature", "properties": {"collection_times": [{"days": "Mon-Fri", "time": "3:45pm"}, {"days": "Sat", "time": "11:15am"}, {"days": "Sun", "time": "Closed"}], "id": "6446500002", "name": "USPS COLLECTION BOX - PO LOBBY", "address": {"city": "LATHROP", "state": "MO", "street": "606 OAK ST", "postcode": "64465"}}},
{"geometry": {"type": "Point", "coordinates": [-94.3319033004, 39.5482825152]}, "type": "Feature", "properties": {"collection_times": [{"days": "Mon-Fri", "time": "3:45pm"}, {"days": "Sat", "time": "11:15am"}, {"days": "Sun", "time": "Closed"}], "id": "6446500003", "name": "USPS COLLECTION BOX - PO LOBBY", "address": {"city": "LATHROP", "state": "MO", "street": "606 OAK ST", "postcode": "64465"}}},
{"geometry": {"type": "Point", "coordinates": [-94.3288675993, 39.5552694906]}, "type": "Feature", "properties": {"collection_times": [{"days": "Mon-Fri", "time": "1:00pm"}, {"days": "Sat", "time": "12:00pm"}, {"days": "Sun", "time": "Closed"}], "id": "6446500004", "name": "USPS COLLECTION BOX - BLUE BOX", "address": {"city": "LATHROP", "state": "MO", "street": "108 CENTER ST", "postcode": "64465"}}},
{"geometry": {"type": "Point", "coordinates": [-95.0738896077, 40.2016148355]}, "type": "Feature", "properties": {"collection_times": [{"days": "Mon-Sat", "time": "3:45pm"}, {"days": "Sun", "time": "Closed"}], "id": "6446600000", "name": "USPS COLLECTION BOX - BLUE BOX", "address": {"city": "MAITLAND", "state": "MO", "street": "205 ASH ST", "postcode": "64466"}}},
{"geometry": {"type": "Point", "coordinates": [-95.0738896077, 40.2016148355]}, "type": "Feature", "properties": {"collection_times": [{"days": "Mon-Fri", "time": "11:45am"}, {"days": "Sat", "time": "10:00am"}, {"days": "Sun", "time": "Closed"}], "id": "6446600001", "name": "USPS COLLECTION BOX - PO LOBBY", "address": {"city": "MAITLAND", "state": "MO", "street": "205 ASH ST", "postcode": "64466"}}},
{"geometry": {"type": "Point", "coordinates": [-94.1618162967, 40.3387329354]}, "type": "Feature", "properties": {"collection_times": [{"days": "Mon-Sat", "time": "1:00pm"}, {"days": "Sun", "time": "Closed"}], "id": "6446700000", "name": "USPS COLLECTION BOX - BLUE BOX", "address": {"city": "MARTINSVILLE", "state": "MO", "street": "13751 W 261ST ST", "postcode": "64467"}}},
{"geometry": {"type": "Point", "coordinates": [-94.1618162967, 40.3387329354]}, "type": "Feature", "properties": {"collection_times": [{"days": "Mon-Sat", "time": "12:15pm"}, {"days": "Sun", "time": "Closed"}], "id": "6446700001", "name": "USPS COLLECTION BOX - PO LOBBY", "address": {"city": "MARTINSVILLE", "state": "MO", "street": "13751 W 261ST ST", "postcode": "64467"}}},
{"geometry": {"type": "Point", "coordinates": [-94.8751675929, 40.3499015506]}, "type": "Feature", "properties": {"collection_times": [{"days": "Mon-Fri", "time": "5:30pm"}, {"days": "Sat", "time": "4:45pm"}, {"days": "Sun", "time": "Closed"}], "id": "6446800001", "name": "USPS COLLECTION BOX - BLUE BOX", "address": {"city": "MARYVILLE", "state": "MO", "street": "507 N FILLMORE ST", "postcode": "64468"}}},
{"geometry": {"type": "Point", "coordinates": [-94.8751675929, 40.3499015506]}, "type": "Feature", "properties": {"collection_times": [{"days": "Mon-Fri", "time": "5:30pm"}, {"days": "Sat", "time": "4:45pm"}, {"days": "Sun", "time": "Closed"}], "id": "6446800002", "name": "USPS COLLECTION BOX - BLUE BOX", "address": {"city": "MARYVILLE", "state": "MO", "street": "507 N FILLMORE ST", "postcode": "64468"}}},
{"geometry": {"type": "Point", "coordinates": [-94.8751675929, 40.3499015506]}, "type": "Feature", "properties": {"collection_times": [{"days": "Mon-Fri", "time": "5:30pm"}, {"days": "Sat", "time": "4:45pm"}, {"days": "Sun", "time": "Closed"}], "id": "6446800003", "name": "USPS COLLECTION BOX - BLUE BOX", "address": {"city": "MARYVILLE", "state": "MO", "street": "507 N FILLMORE ST", "postcode": "64468"}}},
{"geometry": {"type": "Point", "coordinates": [-94.8637416053, 40.3454588959]}, "type": "Feature", "properties": {"collection_times": [{"days": "Mon-Fri", "time": "4:45pm"}, {"days": "Sat", "time": "3:30pm"}, {"days": "Sun", "time": "Closed"}], "id": "6446800004", "name": "USPS COLLECTION BOX - BLUE BOX", "address": {"city": "MARYVILLE", "state": "MO", "street": "1210 E 1ST ST", "postcode": "64468"}}},
{"geometry": {"type": "Point", "coordinates": [-94.8727082465, 40.3488852653]}, "type": "Feature", "properties": {"collection_times": [{"days": "Mon-Fri", "time": "5:00pm"}, {"days": "Sat", "time": "3:30pm"}, {"days": "Sun", "time": "Closed"}], "id": "6446800008", "name": "USPS COLLECTION BOX - BLUE BOX", "address": {"city": "MARYVILLE", "state": "MO", "street": "115 E 4TH ST", "postcode": "64468"}}},
{"geometry": {"type": "Point", "coordinates": [-94.8739514821, 40.3296667394]}, "type": "Feature", "properties": {"collection_times": [{"days": "Mon-Fri", "time": "5:00pm"}, {"days": "Sat", "time": "3:30pm"}, {"days": "Sun", "time": "Closed"}], "id": "6446800010", "name": "USPS COLLECTION BOX - BLUE BOX", "address": {"city": "MARYVILLE", "state": "MO", "street": "1308 S MAIN ST", "postcode": "64468"}}},
{"geometry": {"type": "Point", "coordinates": [-94.8727140639, 40.3479197868]}, "type": "Feature", "properties": {"collection_times": [{"days": "Mon-Fri", "time": "5:00pm"}, {"days": "Sat", "time": "3:30pm"}, {"days": "Sun", "time": "Closed"}], "id": "6446800015", "name": "USPS COLLECTION BOX - BLUE BOX", "address": {"city": "MARYVILLE", "state": "MO", "street": "116 E 3RD ST", "postcode": "64468"}}},
{"geometry": {"type": "Point", "coordinates": [-94.8751675929, 40.3499015506]}, "type": "Feature", "properties": {"collection_times": [{"days": "Mon-Fri", "time": "5:30pm"}, {"days": "Sat", "time": "4:45pm"}, {"days": "Sun", "time": "Closed"}], "id": "6446800019", "name": "USPS COLLECTION BOX - PO LOBBY", "address": {"city": "MARYVILLE", "state": "MO", "street": "507 N FILLMORE ST", "postcode": "64468"}}},
{"geometry": {"type": "Point", "coordinates": [-94.8751675929, 40.3499015506]}, "type": "Feature", "properties": {"collection_times": [{"days": "Mon-Fri", "time": "5:30pm"}, {"days": "Sat", "time": "4:45pm"}, {"days": "Sun", "time": "Closed"}], "id": "6446800020", "name": "USPS COLLECTION BOX - PO LOBBY", "address": {"city": "MARYVILLE", "state": "MO", "street": "507 N FILLMORE ST", "postcode": "64468"}}},
{"geometry": {"type": "Point", "coordinates": [-94.8738845049, 40.3264854831]}, "type": "Feature", "properties": {"collection_times": [{"days": "Mon-Fri", "time": "5:00pm"}, {"days": "Sat", "time": "3:30pm"}, {"days": "Sun", "time": "Closed"}], "id": "6446800021", "name": "USPS COLLECTION BOX - BLUE BOX", "address": {"city": "MARYVILLE", "state": "MO", "street": "1605 S MAIN ST", "postcode": "64468"}}},
{"geometry": {"type": "Point", "coordinates": [-94.3614460964, 39.8895768979]}, "type": "Feature", "properties": {"collection_times": [{"days": "Mon-Sat", "time": "4:00pm"}, {"days": "Sun", "time": "Closed"}], "id": "6446900000", "name": "USPS COLLECTION BOX - BLUE BOX", "address": {"city": "MAYSVILLE", "state": "MO", "street": "303 W MAIN ST", "postcode": "64469"}}},
{"geometry": {"type": "Point", "coordinates": [-94.3614460964, 39.8895768979]}, "type": "Feature", "properties": {"collection_times": [{"days": "Mon-Fri", "time": "4:00pm"}, {"days": "Sat", "time": "10:30am"}, {"days": "Sun", "time": "Closed"}], "id": "6446900003", "name": "USPS COLLECTION BOX - PO LOBBY", "address": {"city": "MAYSVILLE", "state": "MO", "street": "303 W MAIN ST", "postcode": "64469"}}},
{"geometry": {"type": "Point", "coordinates": [-95.232639865, 40.1314585823]}, "type": "Feature", "properties": {"collection_times": [{"days": "Mon-Fri", "time": "4:30pm"}, {"days": "Sat", "time": "9:45am"}, {"days": "Sun", "time": "Closed"}], "id": "6447000002", "name": "USPS COLLECTION BOX - PO LOBBY", "address": {"city": "MOUND CITY", "state": "MO", "street": "116 W 6TH ST", "postcode": "64470"}}},
{"geometry": {"type": "Point", "coordinates": [-95.232639865, 40.1314585823]}, "type": "Feature", "properties": {"collection_times": [{"days": "Mon-Fri", "time": "4:30pm"}, {"days": "Sat", "time": "9:45am"}, {"days": "Sun", "time": "Closed"}], "id": "6447000004", "name": "USPS COLLECTION BOX - BLUE BOX", "address": {"city": "MOUND CITY", "state": "MO", "street": "116 W 6TH ST", "postcode": "64470"}}},
{"geometry": {"type": "Point", "coordinates": [-94.1952348688, 40.2627841887]}, "type": "Feature", "properties": {"collection_times": [{"days": "Mon-Fri", "time": "3:45pm"}, {"days": "Sat", "time": "4:15pm"}, {"days": "Sun", "time": "Closed"}], "id": "6447100000", "name": "USPS COLLECTION BOX - BLUE BOX", "address": {"city": "NEW HAMPTON", "state": "MO", "street": "210 E LINCOLN WAY", "postcode": "64471"}}},
{"geometry": {"type": "Point", "coordinates": [-94.1952348688, 40.2627841887]}, "type": "Feature", "properties": {"collection_times": [{"days": "Mon-Fri", "time": "1:45pm"}, {"days": "Sat", "time": "9:45am"}, {"days": "Sun", "time": "Closed"}], "id": "6447100001", "name": "USPS COLLECTION BOX - PO LOBBY", "address": {"city": "NEW HAMPTON", "state": "MO", "street": "210 E LINCOLN WAY", "postcode": "64471"}}},
{"geometry": {"type": "Point", "coordinates": [-94.1952348688, 40.2627841887]}, "type": "Feature", "properties": {"collection_times": [{"days": "Mon-Fri", "time": "1:45pm"}, {"days": "Sat", "time": "9:45am"}, {"days": "Sun", "time": "Closed"}], "id": "6447100002", "name": "USPS COLLECTION BOX - PO LOBBY", "address": {"city": "NEW HAMPTON", "state": "MO", "street": "210 E LINCOLN WAY", "postcode": "64471"}}},
{"geometry": {"type": "Point", "coordinates": [-95.1420633611, 39.9871377462]}, "type": "Feature", "properties": {"collection_times": [{"days": "Mon-Fri", "time": "4:15pm"}, {"days": "Sat", "time": "4:45pm"}, {"days": "Sun", "time": "Closed"}], "id": "6447300000", "name": "USPS COLLECTION BOX - BLUE BOX", "address": {"city": "OREGON", "state": "MO", "street": "100 S JEFFERSON ST", "postcode": "64473"}}},
{"geometry": {"type": "Point", "coordinates": [-95.1432802256, 39.987141574]}, "type": "Feature", "properties": {"collection_times": [{"days": "Mon-Sat", "time": "5:15pm"}, {"days": "Sun", "time": "Closed"}], "id": "6447300001", "name": "USPS COLLECTION BOX - BLUE BOX", "address": {"city": "OREGON", "state": "MO", "street": "102 W NODAWAY ST", "postcode": "64473"}}},
{"geometry": {"type": "Point", "coordinates": [-95.1420633611, 39.9871377462]}, "type": "Feature", "properties": {"collection_times": [{"days": "Mon-Fri", "time": "3:45pm"}, {"days": "Sat", "time": "9:15am"}, {"days": "Sun", "time": "Closed"}], "id": "6447300002", "name": "USPS COLLECTION BOX - PO LOBBY", "address": {"city": "OREGON", "state": "MO", "street": "100 S JEFFERSON ST", "postcode": "64473"}}},
{"geometry": {"type": "Point", "coordinates": [-94.3564742961, 39.7524352196]}, "type": "Feature", "properties": {"collection_times": [{"days": "Mon-Fri", "time": "3:45pm"}, {"days": "Sat", "time": "5:15pm"}, {"days": "Sun", "time": "Closed"}], "id": "6447400000", "name": "USPS COLLECTION BOX - BLUE BOX", "address": {"city": "OSBORN", "state": "MO", "street": "600 CLINTON AVE", "postcode": "64474"}}},
{"geometry": {"type": "Point", "coordinates": [-94.3564742961, 39.7524352196]}, "type": "Feature", "properties": {"collection_times": [{"days": "Mon-Fri", "time": "11:45am"}, {"days": "Sat", "time": "9:30am"}, {"days": "Sun", "time": "Closed"}], "id": "6447400001", "name": "USPS COLLECTION BOX - PO LOBBY", "address": {"city": "OSBORN", "state": "MO", "street": "600 CLINTON AVE", "postcode": "64474"}}},
{"geometry": {"type": "Point", "coordinates": [-94.6212098698, 40.4383714925]}, "type": "Feature", "properties": {"collection_times": [{"days": "Mon-Sat", "time": "3:45pm"}, {"days": "Sun", "time": "Closed"}], "id": "6447500000", "name": "USPS COLLECTION BOX - BLUE BOX", "address": {"city": "PARNELL", "state": "MO", "street": "211 E ROBINSON AVE", "postcode": "64475"}}},
{"geometry": {"type": "Point", "coordinates": [-94.6212098698, 40.4383714925]}, "type": "Feature", "properties": {"collection_times": [{"days": "Mon-Fri", "time": "1:45pm"}, {"days": "Sat", "time": "9:15am"}, {"days": "Sun", "time": "Closed"}], "id": "6447500003", "name": "USPS COLLECTION BOX - PO LOBBY", "address": {"city": "PARNELL", "state": "MO", "street": "211 E ROBINSON AVE", "postcode": "64475"}}},
{"geometry": {"type": "Point", "coordinates": [-94.8401239946, 40.4509092649]}, "type": "Feature", "properties": {"collection_times": [{"days": "Mon-Fri", "time": "5:00pm"}, {"days": "Sat", "time": "4:00pm"}, {"days": "Sun", "time": "Closed"}], "id": "6447600000", "name": "USPS COLLECTION BOX - BLUE BOX", "address": {"city": "PICKERING", "state": "MO", "street": "411 E 5TH ST", "postcode": "64476"}}},
{"geometry": {"type": "Point", "coordinates": [-94.8401239946, 40.4509092649]}, "type": "Feature", "properties": {"collection_times": [{"days": "Mon-Fri", "time": "9:45am"}, {"days": "Sat", "time": "8:45am"}, {"days": "Sun", "time": "Closed"}], "id": "6447600001", "name": "USPS COLLECTION BOX - PO LOBBY", "address": {"city": "PICKERING", "state": "MO", "street": "411 E 5TH ST", "postcode": "64476"}}},
{"geometry": {"type": "Point", "coordinates": [-94.4471173213, 39.5648516208]}, "type": "Feature", "properties": {"collection_times": [{"days": "Mon-Fri", "time": "4:15pm"}, {"days": "Sat", "time": "10:30am"}, {"days": "Sun", "time": "Closed"}], "id": "6447700005", "name": "USPS COLLECTION BOX - PO LOBBY", "address": {"city": "PLATTSBURG", "state": "MO", "street": "105 S MAIN ST", "postcode": "64477"}}},
{"geometry": {"type": "Point", "coordinates": [-94.4538598192, 39.5592236144]}, "type": "Feature", "properties": {"collection_times": [{"days": "Mon-Fri", "time": "2:45pm"}, {"days": "Sat", "time": "10:00am"}, {"days": "Sun", "time": "Closed"}], "id": "6447700006", "name": "USPS COLLECTION BOX - BLUE BOX", "address": {"city": "PLATTSBURG", "state": "MO", "street": "208 N MAIN ST", "postcode": "64477"}}},
{"geometry": {"type": "Point", "coordinates": [-94.4471173213, 39.5648516208]}, "type": "Feature", "properties": {"collection_times": [{"days": "Mon-Fri", "time": "4:00pm"}, {"days": "Sat", "time": "10:30am"}, {"days": "Sun", "time": "Closed"}], "id": "6447700007", "name": "USPS COLLECTION BOX - BLUE BOX", "address": {"city": "PLATTSBURG", "state": "MO", "street": "105 S MAIN ST", "postcode": "64477"}}},
{"geometry": {"type": "Point", "coordinates": [-94.6731284181, 40.3519734551]}, "type": "Feature", "properties": {"collection_times": [{"days": "Mon-Fri", "time": "11:45am"}, {"days": "Sat", "time": "9:45am"}, {"days": "Sun", "time": "Closed"}], "id": "6447900001", "name": "USPS COLLECTION BOX - PO LOBBY", "address": {"city": "RAVENWOOD", "state": "MO", "street": "121 S MAIN ST", "postcode": "64479"}}},
{"geometry": {"type": "Point", "coordinates": [-94.6731284181, 40.3519734551]}, "type": "Feature", "properties": {"collection_times": [{"days": "Mon-Sat", "time": "4:30pm"}, {"days": "Sun", "time": "Closed"}], "id": "6447900002", "name": "USPS COLLECTION BOX - BLUE BOX", "address": {"city": "RAVENWOOD", "state": "MO", "street": "121 S MAIN ST", "postcode": "64479"}}},
{"geometry": {"type": "Point", "coordinates": [-94.7649163748, 40.0617228067]}, "type": "Feature", "properties": {"collection_times": [{"days": "Mon-Fri", "time": "4:15pm"}, {"days": "Sat", "time": "4:00pm"}, {"days": "Sun", "time": "Closed"}], "id": "6448000000", "name": "USPS COLLECTION BOX - BLUE BOX", "address": {"city": "REA", "state": "MO", "street": "218 BYERS ST", "postcode": "64480"}}},
{"geometry": {"type": "Point", "coordinates": [-94.7649163748, 40.0617228067]}, "type": "Feature", "properties": {"collection_times": [{"days": "Mon-Sat", "time": "11:45am"}, {"days": "Sun", "time": "Closed"}], "id": "6448000001", "name": "USPS COLLECTION BOX - PO LOBBY", "address": {"city": "REA", "state": "MO", "street": "218 BYERS ST", "postcode": "64480"}}},
{"geometry": {"type": "Point", "coordinates": [-93.9384532751, 40.3773892712]}, "type": "Feature", "properties": {"collection_times": [{"days": "Mon-Sat", "time": "4:15pm"}, {"days": "Sun", "time": "Closed"}], "id": "6448100000", "name": "USPS COLLECTION BOX - BLUE BOX", "address": {"city": "RIDGEWAY", "state": "MO", "street": "402 PINE ST", "postcode": "64481"}}},
{"geometry": {"type": "Point", "coordinates": [-93.9384532751, 40.3773892712]}, "type": "Feature", "properties": {"collection_times": [{"days": "Mon-Fri", "time": "11:45am"}, {"days": "Sat", "time": "9:45am"}, {"days": "Sun", "time": "Closed"}], "id": "6448100001", "name": "USPS COLLECTION BOX - PO LOBBY", "address": {"city": "RIDGEWAY", "state": "MO", "street": "402 PINE ST", "postcode": "64481"}}},
{"geometry": {"type": "Point", "coordinates": [-93.9384532751, 40.3773892712]}, "type": "Feature", "properties": {"collection_times": [{"days": "Mon-Fri", "time": "11:45am"}, {"days": "Sat", "time": "9:45am"}, {"days": "Sun", "time": "Closed"}], "id": "6448100002", "name": "USPS COLLECTION BOX - PO LOBBY", "address": {"city": "RIDGEWAY", "state": "MO", "street": "402 PINE ST", "postcode": "64481"}}},
{"geometry": {"type": "Point", "coordinates": [-93.9384532751, 40.3773892712]}, "type": "Feature", "properties": {"collection_times": [{"days": "Mon-Fri", "time": "11:45am"}, {"days": "Sat", "time": "9:45am"}, {"days": "Sun", "time": "Closed"}], "id": "6448100003", "name": "USPS COLLECTION BOX - PO LOBBY", "address": {"city": "RIDGEWAY", "state": "MO", "street": "402 PINE ST", "postcode": "64481"}}},
{"geometry": {"type": "Point", "coordinates": [-95.5149739565, 40.4125847216]}, "type": "Feature", "properties": {"collection_times": [{"days": "Mon-Fri", "time": "4:15pm"}, {"days": "Sat", "time": "11:00am"}, {"days": "Sun", "time": "Closed"}], "id": "6448200000", "name": "USPS COLLECTION BOX - BLUE BOX", "address": {"city": "ROCK PORT", "state": "MO", "street": "110 W OPP ST", "postcode": "64482"}}},
{"geometry": {"type": "Point", "coordinates": [-95.535536251, 40.420554858]}, "type": "Feature", "properties": {"collection_times": [{"days": "Mon-Fri", "time": "12:30pm"}, {"days": "Sat-Sun", "time": "Closed"}], "id": "6448200004", "name": "USPS COLLECTION BOX - BLUE BOX", "address": {"city": "ROCK PORT", "state": "MO", "street": "1306 US HIGHWAY 136 W", "postcode": "64482"}}},
{"geometry": {"type": "Point", "coordinates": [-95.5149739565, 40.4125847216]}, "type": "Feature", "properties": {"collection_times": [{"days": "Mon-Fri", "time": "4:15pm"}, {"days": "Sat", "time": "11:00am"}, {"days": "Sun", "time": "Closed"}], "id": "6448200005", "name": "USPS COLLECTION BOX - PO LOBBY", "address": {"city": "ROCK PORT", "state": "MO", "street": "110 W OPP ST", "postcode": "64482"}}},
{"geometry": {"type": "Point", "coordinates": [-94.8047878517, 40.0557187279]}, "type": "Feature", "properties": {"collection_times": [{"days": "Mon-Fri", "time": "3:45pm"}, {"days": "Sat", "time": "4:30pm"}, {"days": "Sun", "time": "Closed"}], "id": "6448300001", "name": "USPS COLLECTION BOX - BLUE BOX", "address": {"city": "ROSENDALE", "state": "MO", "street": "11501 HIGHWAY 48", "postcode": "64483"}}},
{"geometry": {"type": "Point", "coordinates": [-94.8047878517, 40.0557187279]}, "type": "Feature", "properties": {"collection_times": [{"days": "Mon-Fri", "time": "3:45pm"}, {"days": "Sat", "time": "9:45am"}, {"days": "Sun", "time": "Closed"}], "id": "6448300002", "name": "USPS COLLECTION BOX - PO LOBBY", "address": {"city": "ROSENDALE", "state": "MO", "street": "11501 HIGHWAY 48", "postcode": "64483"}}},
{"geometry": {"type": "Point", "coordinates": [-95.0269519194, 39.5867613063]}, "type": "Feature", "properties": {"collection_times": [{"days": "Mon-Fri", "time": "4:00pm"}, {"days": "Sat", "time": "4:45pm"}, {"days": "Sun", "time": "Closed"}], "id": "6448400000", "name": "USPS COLLECTION BOX - BLUE BOX", "address": {"city": "RUSHVILLE", "state": "MO", "street": "209 VALLEY ST", "postcode": "64484"}}},
{"geometry": {"type": "Point", "coordinates": [-95.0269519194, 39.5867613063]}, "type": "Feature", "properties": {"collection_times": [{"days": "Mon-Fri", "time": "11:15am"}, {"days": "Sat", "time": "9:30am"}, {"days": "Sun", "time": "Closed"}], "id": "6448400001", "name": "USPS COLLECTION BOX - PO LOBBY", "address": {"city": "RUSHVILLE", "state": "MO", "street": "209 VALLEY ST", "postcode": "64484"}}},
{"geometry": {"type": "Point", "coordinates": [-94.8303148396, 39.9416653237]}, "type": "Feature", "properties": {"collection_times": [{"days": "Mon-Fri", "time": "4:30pm"}, {"days": "Sat", "time": "12:00pm"}, {"days": "Sun", "time": "Closed"}], "id": "6448500001", "name": "USPS COLLECTION BOX - BLUE BOX", "address": {"city": "SAVANNAH", "state": "MO", "street": "507 W MAIN ST", "postcode": "64485"}}},
{"geometry": {"type": "Point", "coordinates": [-94.8243622754, 39.9415371906]}, "type": "Feature", "properties": {"collection_times": [{"days": "Mon-Sat", "time": "9:30am"}, {"days": "Sun", "time": "Closed"}], "id": "6448500004", "name": "USPS COLLECTION BOX - BLUE BOX", "address": {"city": "SAVANNAH", "state": "MO", "street": "101 S 1ST ST", "postcode": "64485"}}},
{"geometry": {"type": "Point", "coordinates": [-94.820229118, 39.939214565]}, "type": "Feature", "properties": {"collection_times": [{"days": "Mon-Sat", "time": "9:30am"}, {"days": "Sun", "time": "Closed"}], "id": "6448500005", "name": "USPS COLLECTION BOX - BLUE BOX", "address": {"city": "SAVANNAH", "state": "MO", "street": "402 E PRICE AVE", "postcode": "64485"}}},
{"geometry": {"type": "Point", "coordinates": [-94.8289858191, 39.9416504099]}, "type": "Feature", "properties": {"collection_times": [{"days": "Mon-Sat", "time": "9:30am"}, {"days": "Sun", "time": "Closed"}], "id": "6448500006", "name": "USPS COLLECTION BOX - BLUE BOX", "address": {"city": "SAVANNAH", "state": "MO", "street": "415 W MAIN ST", "postcode": "64485"}}},
{"geometry": {"type": "Point", "coordinates": [-94.8290200194, 39.9409954491]}, "type": "Feature", "properties": {"collection_times": [{"days": "Mon-Sat", "time": "9:30am"}, {"days": "Sun", "time": "Closed"}], "id": "6448500007", "name": "USPS COLLECTION BOX - BLUE BOX", "address": {"city": "SAVANNAH", "state": "MO", "street": "416 COURT ST", "postcode": "64485"}}},
{"geometry": {"type": "Point", "coordinates": [-94.8259559163, 39.9416356216]}, "type": "Feature", "properties": {"collection_times": [{"days": "Mon-Sat", "time": "9:30am"}, {"days": "Sun", "time": "Closed"}], "id": "6448500008", "name": "USPS COLLECTION BOX - BLUE BOX", "address": {"city": "SAVANNAH", "state": "MO", "street": "205 W MAIN ST", "postcode": "64485"}}},
{"geometry": {"type": "Point", "coordinates": [-94.8303148396, 39.9416653237]}, "type": "Feature", "properties": {"collection_times": [{"days": "Mon-Fri", "time": "4:30pm"}, {"days": "Sat", "time": "12:00pm"}, {"days": "Sun", "time": "Closed"}], "id": "6448500009", "name": "USPS COLLECTION BOX - PO LOBBY", "address": {"city": "SAVANNAH", "state": "MO", "street": "507 W MAIN ST", "postcode": "64485"}}},
{"geometry": {"type": "Point", "coordinates": [-94.8303148396, 39.9416653237]}, "type": "Feature", "properties": {"collection_times": [{"days": "Mon-Fri", "time": "4:30pm"}, {"days": "Sat", "time": "12:00pm"}, {"days": "Sun", "time": "Closed"}], "id": "6448500010", "name": "USPS COLLECTION BOX - PO LOBBY", "address": {"city": "SAVANNAH", "state": "MO", "street": "507 W MAIN ST", "postcode": "64485"}}},
{"geometry": {"type": "Point", "coordinates": [-94.6121564049, 40.5180216249]}, "type": "Feature", "properties": {"collection_times": [{"days": "Mon-Fri", "time": "3:30pm"}, {"days": "Sat", "time": "3:45pm"}, {"days": "Sun", "time": "Closed"}], "id": "6448600000", "name": "USPS COLLECTION BOX - BLUE BOX", "address": {"city": "SHERIDAN", "state": "MO", "street": "126 W JEFFERSON ST", "postcode": "64486"}}},
{"geometry": {"type": "Point", "coordinates": [-94.6121564049, 40.5180216249]}, "type": "Feature", "properties": {"collection_times": [{"days": "Mon-Fri", "time": "3:00pm"}, {"days": "Sat", "time": "9:15am"}, {"days": "Sun", "time": "Closed"}], "id": "6448600001", "name": "USPS COLLECTION BOX - PO LOBBY", "address": {"city": "SHERIDAN", "state": "MO", "street": "126 W JEFFERSON ST", "postcode": "64486"}}},
{"geometry": {"type": "Point", "coordinates": [-95.0771233588, 40.2890116119]}, "type": "Feature", "properties": {"collection_times": [{"days": "Mon-Fri", "time": "4:00pm"}, {"days": "Sat", "time": "4:15pm"}, {"days": "Sun", "time": "Closed"}], "id": "6448700000", "name": "USPS COLLECTION BOX - BLUE BOX", "address": {"city": "SKIDMORE", "state": "MO", "street": "305 E ELM ST", "postcode": "64487"}}},
{"geometry": {"type": "Point", "coordinates": [-95.0771233588, 40.2890116119]}, "type": "Feature", "properties": {"collection_times": [{"days": "Mon-Fri", "time": "11:15am"}, {"days": "Sat", "time": "9:15am"}, {"days": "Sun", "time": "Closed"}], "id": "6448700001", "name": "USPS COLLECTION BOX - PO LOBBY", "address": {"city": "SKIDMORE", "state": "MO", "street": "305 E ELM ST", "postcode": "64487"}}},
{"geometry": {"type": "Point", "coordinates": [-94.5414202421, 40.2143547058]}, "type": "Feature", "properties": {"collection_times": [{"days": "Mon-Fri", "time": "4:30pm"}, {"days": "Sat", "time": "4:15pm"}, {"days": "Sun", "time": "Closed"}], "id": "6448900001", "name": "USPS COLLECTION BOX - BLUE BOX", "address": {"city": "STANBERRY", "state": "MO", "street": "220 N PARK ST", "postcode": "64489"}}},
{"geometry": {"type": "Point", "coordinates": [-94.5414202421, 40.2143547058]}, "type": "Feature", "properties": {"collection_times": [{"days": "Mon-Fri", "time": "4:30pm"}, {"days": "Sat", "time": "10:30am"}, {"days": "Sun", "time": "Closed"}], "id": "6448900004", "name": "USPS COLLECTION BOX - PO LOBBY", "address": {"city": "STANBERRY", "state": "MO", "street": "220 N PARK ST", "postcode": "64489"}}},
{"geometry": {"type": "Point", "coordinates": [-94.4977111222, 39.7612188406]}, "type": "Feature", "properties": {"collection_times": [{"days": "Mon-Fri", "time": "9:45am"}, {"days": "Sat-Sun", "time": "Closed"}], "id": "6449000000", "name": "USPS COLLECTION BOX - BLUE BOX", "address": {"city": "STEWARTSVILLE", "state": "MO", "street": "103 HILL ST", "postcode": "64490"}}},
{"geometry": {"type": "Point", "coordinates": [-94.4904273852, 39.7912512068]}, "type": "Feature", "properties": {"collection_times": [{"days": "Mon-Fri", "time": "4:30pm"}, {"days": "Sat", "time": "9:45am"}, {"days": "Sun", "time": "Closed"}], "id": "6449000001", "name": "USPS COLLECTION BOX - BLUE BOX", "address": {"city": "STEWARTSVILLE", "state": "MO", "street": "406 MAIN ST", "postcode": "64490"}}},
{"geometry": {"type": "Point", "coordinates": [-94.4904273852, 39.7912512068]}, "type": "Feature", "properties": {"collection_times": [{"days": "Mon-Fri", "time": "2:45pm"}, {"days": "Sat", "time": "8:45am"}, {"days": "Sun", "time": "Closed"}], "id": "6449000003", "name": "USPS COLLECTION BOX - PO LOBBY", "address": {"city": "STEWARTSVILLE", "state": "MO", "street": "406 MAIN ST", "postcode": "64490"}}},
{"geometry": {"type": "Point", "coordinates": [-95.3809643289, 40.4403676327]}, "type": "Feature", "properties": {"collection_times": [{"days": "Mon-Fri", "time": "4:30pm"}, {"days": "Sat", "time": "10:15am"}, {"days": "Sun", "time": "Closed"}], "id": "6449100002", "name": "USPS COLLECTION BOX - BLUE BOX", "address": {"city": "TARKIO", "state": "MO", "street": "505 MAIN ST", "postcode": "64491"}}},
{"geometry": {"type": "Point", "coordinates": [-95.3809643289, 40.4403676327]}, "type": "Feature", "properties": {"collection_times": [{"days": "Mon-Fri", "time": "4:30pm"}, {"days": "Sat", "time": "10:15am"}, {"days": "Sun", "time": "Closed"}], "id": "6449100009", "name": "USPS COLLECTION BOX - PO LOBBY", "address": {"city": "TARKIO", "state": "MO", "street": "505 MAIN ST", "postcode": "64491"}}},
{"geometry": {"type": "Point", "coordinates": [-94.5675468474, 39.4732079417]}, "type": "Feature", "properties": {"collection_times": [{"days": "Mon-Sat", "time": "3:45pm"}, {"days": "Sun", "time": "Closed"}], "id": "6449200000", "name": "USPS COLLECTION BOX - BLUE BOX", "address": {"city": "TRIMBLE", "state": "MO", "street": "304 N 169 HWY", "postcode": "64492"}}},
{"geometry": {"type": "Point", "coordinates": [-94.5675468474, 39.4732079417]}, "type": "Feature", "properties": {"collection_times": [{"days": "Mon-Fri", "time": "2:45pm"}, {"days": "Sat", "time": "9:45am"}, {"days": "Sun", "time": "Closed"}], "id": "6449200001", "name": "USPS COLLECTION BOX - PO LOBBY", "address": {"city": "TRIMBLE", "state": "MO", "street": "304 N 169 HWY", "postcode": "64492"}}},
{"geometry": {"type": "Point", "coordinates": [-94.3215843711, 39.635407171]}, "type": "Feature", "properties": {"collection_times": [{"days": "Mon-Sat", "time": "3:15pm"}, {"days": "Sun", "time": "Closed"}], "id": "6449300000", "name": "USPS COLLECTION BOX - BLUE BOX", "address": {"city": "TURNEY", "state": "MO", "street": "205 SHERMAN ST", "postcode": "64493"}}},
{"geometry": {"type": "Point", "coordinates": [-94.3215843711, 39.635407171]}, "type": "Feature", "properties": {"collection_times": [{"days": "Mon-Fri", "time": "1:45pm"}, {"days": "Sat", "time": "11:00am"}, {"days": "Sun", "time": "Closed"}], "id": "6449300001", "name": "USPS COLLECTION BOX - PO LOBBY", "address": {"city": "TURNEY", "state": "MO", "street": "205 SHERMAN ST", "postcode": "64493"}}},
{"geometry": {"type": "Point", "coordinates": [-94.5965805694, 39.9798431922]}, "type": "Feature", "properties": {"collection_times": [{"days": "Mon-Fri", "time": "4:00pm"}, {"days": "Sat", "time": "5:15pm"}, {"days": "Sun", "time": "Closed"}], "id": "6449400000", "name": "USPS COLLECTION BOX - BLUE BOX", "address": {"city": "UNION STAR", "state": "MO", "street": "335 CEDAR ST", "postcode": "64494"}}},
{"geometry": {"type": "Point", "coordinates": [-94.5965805694, 39.9798431922]}, "type": "Feature", "properties": {"collection_times": [{"days": "Mon-Fri", "time": "3:45pm"}, {"days": "Sat", "time": "9:30am"}, {"days": "Sun", "time": "Closed"}], "id": "6449400001", "name": "USPS COLLECTION BOX - PO LOBBY", "address": {"city": "UNION STAR", "state": "MO", "street": "335 CEDAR ST", "postcode": "64494"}}},
{"geometry": {"type": "Point", "coordinates": [-94.2409060098, 39.9092676728]}, "type": "Feature", "properties": {"collection_times": [{"days": "Mon-Fri", "time": "3:30pm"}, {"days": "Sat", "time": "4:00pm"}, {"days": "Sun", "time": "Closed"}], "id": "6449700000", "name": "USPS COLLECTION BOX - BLUE BOX", "address": {"city": "WEATHERBY", "state": "MO", "street": "148 N MAIN ST", "postcode": "64497"}}},
{"geometry": {"type": "Point", "coordinates": [-94.2409060098, 39.9092676728]}, "type": "Feature", "properties": {"collection_times": [{"days": "Mon-Fri", "time": "1:45pm"}, {"days": "Sat", "time": "10:00am"}, {"days": "Sun", "time": "Closed"}], "id": "6449700001", "name": "USPS COLLECTION BOX - PO LOBBY", "address": {"city": "WEATHERBY", "state": "MO", "street": "148 N MAIN ST", "postcode": "64497"}}},
{"geometry": {"type": "Point", "coordinates": [-95.3201592715, 40.5343221669]}, "type": "Feature", "properties": {"collection_times": [{"days": "Mon-Fri", "time": "4:15pm"}, {"days": "Sat", "time": "3:30pm"}, {"days": "Sun", "time": "Closed"}], "id": "6449800000", "name": "USPS COLLECTION BOX - BLUE BOX", "address": {"city": "WESTBORO", "state": "MO", "street": "303 E MAIN ST", "postcode": "64498"}}},
{"geometry": {"type": "Point", "coordinates": [-95.3165406596, 40.5375494808]}, "type": "Feature", "properties": {"collection_times": [{"days": "Mon-Fri", "time": "9:30am"}, {"days": "Sat-Sun", "time": "Closed"}], "id": "6449800001", "name": "USPS COLLECTION BOX - BLUE BOX", "address": {"city": "WESTBORO", "state": "MO", "street": "301 WASHINGTON ST", "postcode": "64498"}}},
{"geometry": {"type": "Point", "coordinates": [-95.3201592715, 40.5343221669]}, "type": "Feature", "properties": {"collection_times": [{"days": "Mon-Fri", "time": "12:45pm"}, {"days": "Sat", "time": "9:45am"}, {"days": "Sun", "time": "Closed"}], "id": "6449800002", "name": "USPS COLLECTION BOX - PO LOBBY", "address": {"city": "WESTBORO", "state": "MO", "street": "303 E MAIN ST", "postcode": "64498"}}},
{"geometry": {"type": "Point", "coordinates": [-94.4315395257, 40.415441662]}, "type": "Feature", "properties": {"collection_times": [{"days": "Mon-Sat", "time": "4:45pm"}, {"days": "Sun", "time": "Closed"}], "id": "6449900000", "name": "USPS COLLECTION BOX - BLUE BOX", "address": {"city": "WORTH", "state": "MO", "street": "400 MAIN ST", "postcode": "64499"}}}
]}
