{"type": "FeatureCollection", "features": [
{"geometry": {"type": "Point", "coordinates": [-94.8542437955, 39.7682496166]}, "type": "Feature", "properties": {"collection_times": [{"days": "Mon-Sat", "time": "5:00pm"}, {"days": "Sun", "time": "Closed"}], "id": "6450100016", "name": "USPS COLLECTION BOX - BLUE BOX", "address": {"city": "SAINT JOSEPH", "state": "MO", "street": "300 N 5TH ST", "postcode": "64501"}}},
{"geometry": {"type": "Point", "coordinates": [-94.8480825958, 39.7681694341]}, "type": "Feature", "properties": {"collection_times": [{"days": "Mon-Sat", "time": "10:45am"}, {"days": "Sun", "time": "Closed"}], "id": "6450100038", "name": "USPS COLLECTION BOX - BLUE BOX", "address": {"city": "SAINT JOSEPH", "state": "MO", "street": "1100 FREDERICK AVE", "postcode": "64501"}}},
{"geometry": {"type": "Point", "coordinates": [-94.8495080557, 39.7666268685]}, "type": "Feature", "properties": {"collection_times": [{"days": "Mon-Sat", "time": "5:15pm"}, {"days": "Sun", "time": "Closed"}], "id": "6450100058", "name": "USPS COLLECTION BOX - BLUE BOX", "address": {"city": "SAINT JOSEPH", "state": "MO", "street": "100 S 9TH ST", "postcode": "64501"}}},
{"geometry": {"type": "Point", "coordinates": [-94.8506271215, 39.7658153888]}, "type": "Feature", "properties": {"collection_times": [{"days": "Mon-Fri", "time": "6:00pm"}, {"days": "Sat", "time": "5:00pm"}, {"days": "Sun", "time": "Closed"}], "id": "6450100060", "name": "USPS COLLECTION BOX - PO LOBBY", "address": {"city": "SAINT JOSEPH", "state": "MO", "street": "201 S 8TH ST", "postcode": "64501"}}},
{"geometry": {"type": "Point", "coordinates": [-94.8428985764, 39.7683008878]}, "type": "Feature", "properties": {"collection_times": [{"days": "Mon-Fri", "time": "6:00pm"}, {"days": "Sat", "time": "3:00pm"}, {"days": "Sun", "time": "Closed"}], "id": "6450100061", "name": "USPS COLLECTION BOX - EXPRESS", "address": {"city": "SAINT JOSEPH", "state": "MO", "street": "201 S 8TH ST", "postcode": "64501"}}},
{"geometry": {"type": "Point", "coordinates": [-94.8506271215, 39.7658153888]}, "type": "Feature", "properties": {"collection_times": [{"days": "Mon-Fri", "time": "6:00pm"}, {"days": "Sat", "time": "5:00pm"}, {"days": "Sun", "time": "Closed"}], "id": "6450100062", "name": "USPS COLLECTION BOX - PO LOBBY", "address": {"city": "SAINT JOSEPH", "state": "MO", "street": "201 S 8TH ST", "postcode": "64501"}}},
{"geometry": {"type": "Point", "coordinates": [-94.8495080557, 39.7666268685]}, "type": "Feature", "properties": {"collection_times": [{"days": "Mon-Sat", "time": "5:15pm"}, {"days": "Sun", "time": "Closed"}], "id": "6450100065", "name": "USPS COLLECTION BOX - BLUE BOX", "address": {"city": "SAINT JOSEPH", "state": "MO", "street": "100 S 9TH ST", "postcode": "64501"}}},
{"geometry": {"type": "Point", "coordinates": [-94.8506271215, 39.7658153888]}, "type": "Feature", "properties": {"collection_times": [{"days": "Mon-Fri", "time": "6:00pm"}, {"days": "Sat", "time": "5:00pm"}, {"days": "Sun", "time": "Closed"}], "id": "6450100066", "name": "USPS COLLECTION BOX - PO LOBBY", "address": {"city": "SAINT JOSEPH", "state": "MO", "street": "201 S 8TH ST", "postcode": "64501"}}},
{"geometry": {"type": "Point", "coordinates": [-94.7870197406, 39.7293989368]}, "type": "Feature", "properties": {"collection_times": [{"days": "Mon-Sat", "time": "4:30pm"}, {"days": "Sun", "time": "Closed"}], "id": "6450300017", "name": "USPS COLLECTION BOX - BLUE BOX", "address": {"city": "SAINT JOSEPH", "state": "MO", "street": "4001 S LEONARD RD", "postcode": "64503"}}},
{"geometry": {"type": "Point", "coordinates": [-94.8012180793, 39.7383685779]}, "type": "Feature", "properties": {"collection_times": [{"days": "Mon-Sat", "time": "9:45am"}, {"days": "Sun", "time": "Closed"}], "id": "6450300029", "name": "USPS COLLECTION BOX - BLUE BOX", "address": {"city": "SAINT JOSEPH", "state": "MO", "street": "3022 S BELT HWY", "postcode": "64503"}}},
{"geometry": {"type": "Point", "coordinates": [-94.8034069959, 39.7334303887]}, "type": "Feature", "properties": {"collection_times": [{"days": "Mon-Sat", "time": "4:45pm"}, {"days": "Sun", "time": "Closed"}], "id": "6450300030", "name": "USPS COLLECTION BOX - BLUE BOX", "address": {"city": "SAINT JOSEPH", "state": "MO", "street": "3734 PEAR ST", "postcode": "64503"}}},
{"geometry": {"type": "Point", "coordinates": [-94.8688078442, 39.7057501886]}, "type": "Feature", "properties": {"collection_times": [{"days": "Mon-Fri", "time": "4:00pm"}, {"days": "Sat", "time": "12:00pm"}, {"days": "Sun", "time": "Closed"}], "id": "6450400000", "name": "USPS COLLECTION BOX - EXPRESS", "address": {"city": "SAINT JOSEPH", "state": "MO", "street": "5706 LAKE AVE", "postcode": "64504"}}},
{"geometry": {"type": "Point", "coordinates": [-94.8683199749, 39.7167516243]}, "type": "Feature", "properties": {"collection_times": [{"days": "Mon-Fri", "time": "4:00pm"}, {"days": "Sat", "time": "12:00pm"}, {"days": "Sun", "time": "Closed"}], "id": "6450400002", "name": "USPS COLLECTION BOX - BLUE BOX", "address": {"city": "SAINT JOSEPH", "state": "MO", "street": "5706 LAKE AVE", "postcode": "64504"}}},
{"geometry": {"type": "Point", "coordinates": [-94.8641800603, 39.7016747542]}, "type": "Feature", "properties": {"collection_times": [{"days": "Mon-Sat", "time": "11:00am"}, {"days": "Sun", "time": "Closed"}], "id": "6450400014", "name": "USPS COLLECTION BOX - BLUE BOX", "address": {"city": "SAINT JOSEPH", "state": "MO", "street": "7014 KING HILL AVE", "postcode": "64504"}}},
{"geometry": {"type": "Point", "coordinates": [-94.8683199749, 39.7167516243]}, "type": "Feature", "properties": {"collection_times": [{"days": "Mon-Fri", "time": "4:00pm"}, {"days": "Sat", "time": "12:00pm"}, {"days": "Sun", "time": "Closed"}], "id": "6450400021", "name": "USPS COLLECTION BOX - PO LOBBY", "address": {"city": "SAINT JOSEPH", "state": "MO", "street": "5706 LAKE AVE", "postcode": "64504"}}},
{"geometry": {"type": "Point", "coordinates": [-94.8683199749, 39.7167516243]}, "type": "Feature", "properties": {"collection_times": [{"days": "Mon-Fri", "time": "4:00pm"}, {"days": "Sat", "time": "12:00pm"}, {"days": "Sun", "time": "Closed"}], "id": "6450400022", "name": "USPS COLLECTION BOX - PO LOBBY", "address": {"city": "SAINT JOSEPH", "state": "MO", "street": "5706 LAKE AVE", "postcode": "64504"}}},
{"geometry": {"type": "Point", "coordinates": [-94.8480583153, 39.7878262276]}, "type": "Feature", "properties": {"collection_times": [{"days": "Mon-Fri", "time": "5:00pm"}, {"days": "Sat", "time": "4:30pm"}, {"days": "Sun", "time": "Closed"}], "id": "6450500006", "name": "USPS COLLECTION BOX - BLUE BOX", "address": {"city": "SAINT JOSEPH", "state": "MO", "street": "1002 5TH AVE", "postcode": "64505"}}},
{"geometry": {"type": "Point", "coordinates": [-94.7996121394, 39.7827978051]}, "type": "Feature", "properties": {"collection_times": [{"days": "Mon-Fri", "time": "5:15pm"}, {"days": "Sat", "time": "12:00pm"}, {"days": "Sun", "time": "Closed"}], "id": "6450600001", "name": "USPS COLLECTION BOX - BLUE BOX", "address": {"city": "SAINT JOSEPH", "state": "MO", "street": "3906 OAKLAND AVE", "postcode": "64506"}}},
{"geometry": {"type": "Point", "coordinates": [-94.8035367705, 39.7684444731]}, "type": "Feature", "properties": {"collection_times": [{"days": "Mon-Sat", "time": "11:00am"}, {"days": "Sun", "time": "Closed"}], "id": "6450600008", "name": "USPS COLLECTION BOX - BLUE BOX", "address": {"city": "SAINT JOSEPH", "state": "MO", "street": "201 N BELT HWY", "postcode": "64506"}}},
{"geometry": {"type": "Point", "coordinates": [-94.819676824, 39.7769372912]}, "type": "Feature", "properties": {"collection_times": [{"days": "Mon-Sat", "time": "11:00am"}, {"days": "Sun", "time": "Closed"}], "id": "6450600012", "name": "USPS COLLECTION BOX - BLUE BOX", "address": {"city": "SAINT JOSEPH", "state": "MO", "street": "1000 E ST MAARTENS DR", "postcode": "64506"}}},
{"geometry": {"type": "Point", "coordinates": [-94.8166595068, 39.800555459]}, "type": "Feature", "properties": {"collection_times": [{"days": "Mon-Sat", "time": "5:00pm"}, {"days": "Sun", "time": "Closed"}], "id": "6450600019", "name": "USPS COLLECTION BOX - BLUE BOX", "address": {"city": "SAINT JOSEPH", "state": "MO", "street": "3400 ASHLAND AVE", "postcode": "64506"}}},
{"geometry": {"type": "Point", "coordinates": [-94.8061022236, 39.7754105419]}, "type": "Feature", "properties": {"collection_times": [{"days": "Mon-Sat", "time": "11:00am"}, {"days": "Sun", "time": "Closed"}], "id": "6450600020", "name": "USPS COLLECTION BOX - BLUE BOX", "address": {"city": "SAINT JOSEPH", "state": "MO", "street": "903 N 36TH ST", "postcode": "64506"}}},
{"geometry": {"type": "Point", "coordinates": [-94.8120354728, 39.794545394]}, "type": "Feature", "properties": {"collection_times": [{"days": "Mon-Sat", "time": "11:00am"}, {"days": "Sun", "time": "Closed"}], "id": "6450600031", "name": "USPS COLLECTION BOX - BLUE BOX", "address": {"city": "SAINT JOSEPH", "state": "MO", "street": "2901 N BELT HWY", "postcode": "64506"}}},
{"geometry": {"type": "Point", "coordinates": [-94.8120354728, 39.794545394]}, "type": "Feature", "properties": {"collection_times": [{"days": "Mon-Sat", "time": "11:00am"}, {"days": "Sun", "time": "Closed"}], "id": "6450600033", "name": "USPS COLLECTION BOX - BLUE BOX", "address": {"city": "SAINT JOSEPH", "state": "MO", "street": "2901 N BELT HWY", "postcode": "64506"}}},
{"geometry": {"type": "Point", "coordinates": [-94.8140500904, 39.7983441523]}, "type": "Feature", "properties": {"collection_times": [{"days": "Mon-Sat", "time": "2:45pm"}, {"days": "Sun", "time": "Closed"}], "id": "6450600035", "name": "USPS COLLECTION BOX - BLUE BOX", "address": {"city": "SAINT JOSEPH", "state": "MO", "street": "3225 N BELT HWY", "postcode": "64506"}}},
{"geometry": {"type": "Point", "coordinates": [-94.8149763074, 39.8054102221]}, "type": "Feature", "properties": {"collection_times": [{"days": "Mon-Sat", "time": "5:00pm"}, {"days": "Sun", "time": "Closed"}], "id": "6450600039", "name": "USPS COLLECTION BOX - BLUE BOX", "address": {"city": "SAINT JOSEPH", "state": "MO", "street": "4201 N BELT HWY", "postcode": "64506"}}},
{"geometry": {"type": "Point", "coordinates": [-94.8315854793, 39.7763432365]}, "type": "Feature", "properties": {"collection_times": [{"days": "Mon-Sat", "time": "10:45am"}, {"days": "Sun", "time": "Closed"}], "id": "6450600048", "name": "USPS COLLECTION BOX - BLUE BOX", "address": {"city": "SAINT JOSEPH", "state": "MO", "street": "2400 FREDERICK AVE", "postcode": "64506"}}},
{"geometry": {"type": "Point", "coordinates": [-94.7996121394, 39.7827978051]}, "type": "Feature", "properties": {"collection_times": [{"days": "Mon-Fri", "time": "5:15pm"}, {"days": "Sat", "time": "12:00pm"}, {"days": "Sun", "time": "Closed"}], "id": "6450600054", "name": "USPS COLLECTION BOX - PO LOBBY", "address": {"city": "SAINT JOSEPH", "state": "MO", "street": "3906 OAKLAND AVE", "postcode": "64506"}}},
{"geometry": {"type": "Point", "coordinates": [-94.8045191428, 39.7865108058]}, "type": "Feature", "properties": {"collection_times": [{"days": "Mon-Fri", "time": "5:15pm"}, {"days": "Sat", "time": "12:00pm"}, {"days": "Sun", "time": "Closed"}], "id": "6450600056", "name": "USPS COLLECTION BOX - EXPRESS", "address": {"city": "SAINT JOSEPH", "state": "MO", "street": "3906 OAKLAND AVE", "postcode": "64506"}}},
{"geometry": {"type": "Point", "coordinates": [-94.8301276933, 39.7768034548]}, "type": "Feature", "properties": {"collection_times": [{"days": "Mon-Fri", "time": "4:00pm"}, {"days": "Sat", "time": "10:30am"}, {"days": "Sun", "time": "Closed"}], "id": "6450600059", "name": "USPS COLLECTION BOX - BLUE BOX", "address": {"city": "SAINT JOSEPH", "state": "MO", "street": "2514 FREDERICK AVE", "postcode": "64506"}}},
{"geometry": {"type": "Point", "coordinates": [-94.7996121394, 39.7827978051]}, "type": "Feature", "properties": {"collection_times": [{"days": "Mon-Fri", "time": "5:15pm"}, {"days": "Sat", "time": "12:00pm"}, {"days": "Sun", "time": "Closed"}], "id": "6450600060", "name": "USPS COLLECTION BOX - APC", "address": {"city": "SAINT JOSEPH", "state": "MO", "street": "3906 OAKLAND AVE", "postcode": "64506"}}},
{"geometry": {"type": "Point", "coordinates": [-94.8149763074, 39.8054102221]}, "type": "Feature", "properties": {"collection_times": [{"days": "Mon-Sat", "time": "5:00pm"}, {"days": "Sun", "time": "Closed"}], "id": "6450600062", "name": "USPS COLLECTION BOX - BLUE BOX", "address": {"city": "SAINT JOSEPH", "state": "MO", "street": "4201 N BELT HWY", "postcode": "64506"}}},
{"geometry": {"type": "Point", "coordinates": [-94.8012797203, 39.7551983497]}, "type": "Feature", "properties": {"collection_times": [{"days": "Mon-Sat", "time": "5:00pm"}, {"days": "Sun", "time": "Closed"}], "id": "6450700006", "name": "USPS COLLECTION BOX - BLUE BOX", "address": {"city": "SAINT JOSEPH", "state": "MO", "street": "3800 MITCHELL AVE", "postcode": "64507"}}},
{"geometry": {"type": "Point", "coordinates": [-94.8012797203, 39.7551983497]}, "type": "Feature", "properties": {"collection_times": [{"days": "Mon-Sat", "time": "5:00pm"}, {"days": "Sun", "time": "Closed"}], "id": "6450700009", "name": "USPS COLLECTION BOX - BLUE BOX", "address": {"city": "SAINT JOSEPH", "state": "MO", "street": "3800 MITCHELL AVE", "postcode": "64507"}}},
{"geometry": {"type": "Point", "coordinates": [-94.7858325845, 39.7594510482]}, "type": "Feature", "properties": {"collection_times": [{"days": "Mon-Sat", "time": "9:45am"}, {"days": "Sun", "time": "Closed"}], "id": "6450700013", "name": "USPS COLLECTION BOX - BLUE BOX", "address": {"city": "SAINT JOSEPH", "state": "MO", "street": "4525 DOWNS DR", "postcode": "64507"}}},
{"geometry": {"type": "Point", "coordinates": [-94.8327845746, 39.7551416083]}, "type": "Feature", "properties": {"collection_times": [{"days": "Mon-Sat", "time": "2:00pm"}, {"days": "Sun", "time": "Closed"}], "id": "6450700015", "name": "USPS COLLECTION BOX - BLUE BOX", "address": {"city": "SAINT JOSEPH", "state": "MO", "street": "2300 MITCHELL AVE", "postcode": "64507"}}},
{"geometry": {"type": "Point", "coordinates": [-94.7858325845, 39.7594510482]}, "type": "Feature", "properties": {"collection_times": [{"days": "Mon-Sat", "time": "9:45am"}, {"days": "Sun", "time": "Closed"}], "id": "6450700025", "name": "USPS COLLECTION BOX - BLUE BOX", "address": {"city": "SAINT JOSEPH", "state": "MO", "street": "4525 DOWNS DR", "postcode": "64507"}}},
{"geometry": {"type": "Point", "coordinates": [-94.7647405201, 39.755224128]}, "type": "Feature", "properties": {"collection_times": [{"days": "Mon-Sat", "time": "5:00pm"}, {"days": "Sun", "time": "Closed"}], "id": "6450700028", "name": "USPS COLLECTION BOX - BLUE BOX", "address": {"city": "SAINT JOSEPH", "state": "MO", "street": "5501 CORPORATE DR", "postcode": "64507"}}}
]}
