{"type": "FeatureCollection", "features": [
{"geometry": {"type": "Point", "coordinates": [-93.550898156, 39.7952138519]}, "type": "Feature", "properties": {"collection_times": [{"days": "Mon-Sat", "time": "2:30pm"}, {"days": "Sun", "time": "Closed"}], "id": "6460100004", "name": "USPS COLLECTION BOX - BLUE BOX", "address": {"city": "CHILLICOTHE", "state": "MO", "street": "1016 CHERRY ST", "postcode": "64601"}}},
{"geometry": {"type": "Point", "coordinates": [-93.5503544057, 39.8229956186]}, "type": "Feature", "properties": {"collection_times": [{"days": "Mon-Sat", "time": "2:30pm"}, {"days": "Sun", "time": "Closed"}], "id": "6460100005", "name": "USPS COLLECTION BOX - BLUE BOX", "address": {"city": "CHILLICOTHE", "state": "MO", "street": "2799 N WASHINGTON ST", "postcode": "64601"}}},
{"geometry": {"type": "Point", "coordinates": [-93.5536801499, 39.7912690818]}, "type": "Feature", "properties": {"collection_times": [{"days": "Mon-Sat", "time": "2:30pm"}, {"days": "Sun", "time": "Closed"}], "id": "6460100009", "name": "USPS COLLECTION BOX - BLUE BOX", "address": {"city": "CHILLICOTHE", "state": "MO", "street": "426 WASHINGTON ST", "postcode": "64601"}}},
{"geometry": {"type": "Point", "coordinates": [-93.5528165755, 39.782254666]}, "type": "Feature", "properties": {"collection_times": [{"days": "Mon-Fri", "time": "6:00pm"}, {"days": "Sat", "time": "5:00pm"}, {"days": "Sun", "time": "Closed"}], "id": "6460100015", "name": "USPS COLLECTION BOX - BLUE BOX", "address": {"city": "CHILLICOTHE", "state": "MO", "street": "401 S WASHINGTON ST", "postcode": "64601"}}},
{"geometry": {"type": "Point", "coordinates": [-93.5528165755, 39.782254666]}, "type": "Feature", "properties": {"collection_times": [{"days": "Mon-Fri", "time": "6:00pm"}, {"days": "Sat", "time": "5:00pm"}, {"days": "Sun", "time": "Closed"}], "id": "6460100017", "name": "USPS COLLECTION BOX - BLUE BOX", "address": {"city": "CHILLICOTHE", "state": "MO", "street": "401 S WASHINGTON ST", "postcode": "64601"}}},
{"geometry": {"type": "Point", "coordinates": [-93.5528165755, 39.782254666]}, "type": "Feature", "properties": {"collection_times": [{"days": "Mon-Fri", "time": "6:00pm"}, {"days": "Sat", "time": "5:00pm"}, {"days": "Sun", "time": "Closed"}], "id": "6460100020", "name": "USPS COLLECTION BOX - PO LOBBY", "address": {"city": "CHILLICOTHE", "state": "MO", "street": "401 S WASHINGTON ST", "postcode": "64601"}}},
{"geometry": {"type": "Point", "coordinates": [-93.5528165755, 39.782254666]}, "type": "Feature", "properties": {"collection_times": [{"days": "Mon-Fri", "time": "6:00pm"}, {"days": "Sat", "time": "5:00pm"}, {"days": "Sun", "time": "Closed"}], "id": "6460100021", "name": "USPS COLLECTION BOX - PO LOBBY", "address": {"city": "CHILLICOTHE", "state": "MO", "street": "401 S WASHINGTON ST", "postcode": "64601"}}},
{"geometry": {"type": "Point", "coordinates": [-93.5526157164, 39.7942971702]}, "type": "Feature", "properties": {"collection_times": [{"days": "Mon-Sat", "time": "2:30pm"}, {"days": "Sun", "time": "Closed"}], "id": "6460100025", "name": "USPS COLLECTION BOX - BLUE BOX", "address": {"city": "CHILLICOTHE", "state": "MO", "street": "700 WEBSTER ST", "postcode": "64601"}}},
{"geometry": {"type": "Point", "coordinates": [-94.090916122, 39.8883332144]}, "type": "Feature", "properties": {"collection_times": [{"days": "Mon-Fri", "time": "4:15pm"}, {"days": "Sat", "time": "3:15pm"}, {"days": "Sun", "time": "Closed"}], "id": "6462000000", "name": "USPS COLLECTION BOX - BLUE BOX", "address": {"city": "ALTAMONT", "state": "MO", "street": "210 MAIN ST", "postcode": "64620"}}},
{"geometry": {"type": "Point", "coordinates": [-94.090916122, 39.8883332144]}, "type": "Feature", "properties": {"collection_times": [{"days": "Mon-Fri", "time": "4:15pm"}, {"days": "Sat", "time": "9:30am"}, {"days": "Sun", "time": "Closed"}], "id": "6462000002", "name": "USPS COLLECTION BOX - PO LOBBY", "address": {"city": "ALTAMONT", "state": "MO", "street": "210 MAIN ST", "postcode": "64620"}}},
{"geometry": {"type": "Point", "coordinates": [-93.590050477, 39.5263903193]}, "type": "Feature", "properties": {"collection_times": [{"days": "Mon-Fri", "time": "3:45pm"}, {"days": "Sat", "time": "3:30pm"}, {"days": "Sun", "time": "Closed"}], "id": "6462200000", "name": "USPS COLLECTION BOX - BLUE BOX", "address": {"city": "BOGARD", "state": "MO", "street": "100 W 3RD ST", "postcode": "64622"}}},
{"geometry": {"type": "Point", "coordinates": [-93.590050477, 39.5263903193]}, "type": "Feature", "properties": {"collection_times": [{"days": "Mon-Fri", "time": "10:45am"}, {"days": "Sat", "time": "9:30am"}, {"days": "Sun", "time": "Closed"}], "id": "6462200001", "name": "USPS COLLECTION BOX - PO LOBBY", "address": {"city": "BOGARD", "state": "MO", "street": "100 W 3RD ST", "postcode": "64622"}}},
{"geometry": {"type": "Point", "coordinates": [-93.590050477, 39.5263903193]}, "type": "Feature", "properties": {"collection_times": [{"days": "Mon-Fri", "time": "10:45am"}, {"days": "Sat", "time": "9:30am"}, {"days": "Sun", "time": "Closed"}], "id": "6462200002", "name": "USPS COLLECTION BOX - PO LOBBY", "address": {"city": "BOGARD", "state": "MO", "street": "100 W 3RD ST", "postcode": "64622"}}},
{"geometry": {"type": "Point", "coordinates": [-93.3367704458, 39.4712159726]}, "type": "Feature", "properties": {"collection_times": [{"days": "Mon-Fri", "time": "10:45am"}, {"days": "Sat", "time": "9:30am"}, {"days": "Sun", "time": "Closed"}], "id": "6462300001", "name": "USPS COLLECTION BOX - PO LOBBY", "address": {"city": "BOSWORTH", "state": "MO", "street": "111 N KANSAS AVE", "postcode": "64623"}}},
{"geometry": {"type": "Point", "coordinates": [-93.3367704458, 39.4712159726]}, "type": "Feature", "properties": {"collection_times": [{"days": "Mon-Fri", "time": "4:00pm"}, {"days": "Sat", "time": "5:00pm"}, {"days": "Sun", "time": "Closed"}], "id": "6462300002", "name": "USPS COLLECTION BOX - BLUE BOX", "address": {"city": "BOSWORTH", "state": "MO", "street": "111 N KANSAS AVE", "postcode": "64623"}}},
{"geometry": {"type": "Point", "coordinates": [-93.3367704458, 39.4712159726]}, "type": "Feature", "properties": {"collection_times": [{"days": "Mon-Fri", "time": "10:45am"}, {"days": "Sat", "time": "9:30am"}, {"days": "Sun", "time": "Closed"}], "id": "6462300003", "name": "USPS COLLECTION BOX - PO LOBBY", "address": {"city": "BOSWORTH", "state": "MO", "street": "111 N KANSAS AVE", "postcode": "64623"}}},
{"geometry": {"type": "Point", "coordinates": [-93.7945628227, 39.5874701258]}, "type": "Feature", "properties": {"collection_times": [{"days": "Mon-Fri", "time": "4:00pm"}, {"days": "Sat", "time": "3:15pm"}, {"days": "Sun", "time": "Closed"}], "id": "6462400000", "name": "USPS COLLECTION BOX - BLUE BOX", "address": {"city": "BRAYMER", "state": "MO", "street": "115 E 2ND ST", "postcode": "64624"}}},
{"geometry": {"type": "Point", "coordinates": [-93.7945628227, 39.5874701258]}, "type": "Feature", "properties": {"collection_times": [{"days": "Mon-Fri", "time": "4:00pm"}, {"days": "Sat", "time": "10:00am"}, {"days": "Sun", "time": "Closed"}], "id": "6462400001", "name": "USPS COLLECTION BOX - PO LOBBY", "address": {"city": "BRAYMER", "state": "MO", "street": "115 E 2ND ST", "postcode": "64624"}}},
{"geometry": {"type": "Point", "coordinates": [-93.8026225071, 39.7601811844]}, "type": "Feature", "properties": {"collection_times": [{"days": "Mon-Fri", "time": "4:30pm"}, {"days": "Sat", "time": "5:30pm"}, {"days": "Sun", "time": "Closed"}], "id": "6462500000", "name": "USPS COLLECTION BOX - BLUE BOX", "address": {"city": "BRECKENRIDGE", "state": "MO", "street": "165 S 7TH ST", "postcode": "64625"}}},
{"geometry": {"type": "Point", "coordinates": [-93.8026225071, 39.7601811844]}, "type": "Feature", "properties": {"collection_times": [{"days": "Mon-Fri", "time": "11:45am"}, {"days": "Sat", "time": "9:00am"}, {"days": "Sun", "time": "Closed"}], "id": "6462500002", "name": "USPS COLLECTION BOX - PO LOBBY", "address": {"city": "BRECKENRIDGE", "state": "MO", "street": "165 S 7TH ST", "postcode": "64625"}}},
{"geometry": {"type": "Point", "coordinates": [-93.0754669173, 39.7853807638]}, "type": "Feature", "properties": {"collection_times": [{"days": "Mon-Sat", "time": "4:30pm"}, {"days": "Sun", "time": "Closed"}], "id": "6462800001", "name": "USPS COLLECTION BOX - BLUE BOX", "address": {"city": "BROOKFIELD", "state": "MO", "street": "201 W BOSTON ST", "postcode": "64628"}}},
{"geometry": {"type": "Point", "coordinates": [-93.0754669173, 39.7853807638]}, "type": "Feature", "properties": {"collection_times": [{"days": "Mon-Sat", "time": "4:30pm"}, {"days": "Sun", "time": "Closed"}], "id": "6462800012", "name": "USPS COLLECTION BOX - PO LOBBY", "address": {"city": "BROOKFIELD", "state": "MO", "street": "201 W BOSTON ST", "postcode": "64628"}}},
{"geometry": {"type": "Point", "coordinates": [-93.0701633291, 39.7707219215]}, "type": "Feature", "properties": {"collection_times": [{"days": "Mon-Sat", "time": "9:30am"}, {"days": "Sun", "time": "Closed"}], "id": "6462800016", "name": "USPS COLLECTION BOX - BLUE BOX", "address": {"city": "BROOKFIELD", "state": "MO", "street": "937 PARK CIRCLE DR", "postcode": "64628"}}},
{"geometry": {"type": "Point", "coordinates": [-93.1656992575, 40.0353936851]}, "type": "Feature", "properties": {"collection_times": [{"days": "Mon-Fri", "time": "3:45pm"}, {"days": "Sat", "time": "3:00pm"}, {"days": "Sun", "time": "Closed"}], "id": "6463000000", "name": "USPS COLLECTION BOX - BLUE BOX", "address": {"city": "BROWNING", "state": "MO", "street": "502 W MAIN ST", "postcode": "64630"}}},
{"geometry": {"type": "Point", "coordinates": [-93.1656992575, 40.0353936851]}, "type": "Feature", "properties": {"collection_times": [{"days": "Mon-Fri", "time": "11:45am"}, {"days": "Sat", "time": "9:30am"}, {"days": "Sun", "time": "Closed"}], "id": "6463000001", "name": "USPS COLLECTION BOX - PO LOBBY", "address": {"city": "BROWNING", "state": "MO", "street": "502 W MAIN ST", "postcode": "64630"}}},
{"geometry": {"type": "Point", "coordinates": [-92.8890213752, 39.7819291041]}, "type": "Feature", "properties": {"collection_times": [{"days": "Mon-Fri", "time": "1:30pm"}, {"days": "Sat", "time": "9:45am"}, {"days": "Sun", "time": "Closed"}], "id": "6463100000", "name": "USPS COLLECTION BOX - PO LOBBY", "address": {"city": "BUCKLIN", "state": "MO", "street": "31 N LIVINGSTON ST", "postcode": "64631"}}},
{"geometry": {"type": "Point", "coordinates": [-92.8890213752, 39.7819291041]}, "type": "Feature", "properties": {"collection_times": [{"days": "Mon-Fri", "time": "1:30pm"}, {"days": "Sat", "time": "9:45am"}, {"days": "Sun", "time": "Closed"}], "id": "6463100001", "name": "USPS COLLECTION BOX - PO LOBBY", "address": {"city": "BUCKLIN", "state": "MO", "street": "31 N LIVINGSTON ST", "postcode": "64631"}}},
{"geometry": {"type": "Point", "coordinates": [-92.8890213752, 39.7819291041]}, "type": "Feature", "properties": {"collection_times": [{"days": "Mon-Sat", "time": "3:30pm"}, {"days": "Sun", "time": "Closed"}], "id": "6463100002", "name": "USPS COLLECTION BOX - BLUE BOX", "address": {"city": "BUCKLIN", "state": "MO", "street": "31 N LIVINGSTON ST", "postcode": "64631"}}},
{"geometry": {"type": "Point", "coordinates": [-93.7643229458, 40.4390807866]}, "type": "Feature", "properties": {"collection_times": [{"days": "Mon-Fri", "time": "3:30pm"}, {"days": "Sat", "time": "3:45pm"}, {"days": "Sun", "time": "Closed"}], "id": "6463200000", "name": "USPS COLLECTION BOX - BLUE BOX", "address": {"city": "CAINSVILLE", "state": "MO", "street": "702 MAIN ST", "postcode": "64632"}}},
{"geometry": {"type": "Point", "coordinates": [-93.7643229458, 40.4390807866]}, "type": "Feature", "properties": {"collection_times": [{"days": "Mon-Fri", "time": "3:30pm"}, {"days": "Sat", "time": "9:45am"}, {"days": "Sun", "time": "Closed"}], "id": "6463200001", "name": "USPS COLLECTION BOX - PO LOBBY", "address": {"city": "CAINSVILLE", "state": "MO", "street": "702 MAIN ST", "postcode": "64632"}}},
{"geometry": {"type": "Point", "coordinates": [-93.7643229458, 40.4390807866]}, "type": "Feature", "properties": {"collection_times": [{"days": "Mon-Fri", "time": "3:30pm"}, {"days": "Sat", "time": "9:45am"}, {"days": "Sun", "time": "Closed"}], "id": "6463200002", "name": "USPS COLLECTION BOX - PO LOBBY", "address": {"city": "CAINSVILLE", "state": "MO", "street": "702 MAIN ST", "postcode": "64632"}}},
{"geometry": {"type": "Point", "coordinates": [-93.4970835587, 39.362315546]}, "type": "Feature", "properties": {"collection_times": [{"days": "Mon-Fri", "time": "5:00pm"}, {"days": "Sat", "time": "4:00pm"}, {"days": "Sun", "time": "Closed"}], "id": "6463300001", "name": "USPS COLLECTION BOX - BLUE BOX", "address": {"city": "CARROLLTON", "state": "MO", "street": "101 N FOLGER ST", "postcode": "64633"}}},
{"geometry": {"type": "Point", "coordinates": [-93.4961295027, 39.3577610024]}, "type": "Feature", "properties": {"collection_times": [{"days": "Mon-Sat", "time": "3:00pm"}, {"days": "Sun", "time": "Closed"}], "id": "6463300004", "name": "USPS COLLECTION BOX - BLUE BOX", "address": {"city": "CARROLLTON", "state": "MO", "street": "7 W WASHINGTON ST", "postcode": "64633"}}},
{"geometry": {"type": "Point", "coordinates": [-93.4959741237, 39.3591847209]}, "type": "Feature", "properties": {"collection_times": [{"days": "Mon-Sat", "time": "3:00pm"}, {"days": "Sun", "time": "Closed"}], "id": "6463300005", "name": "USPS COLLECTION BOX - BLUE BOX", "address": {"city": "CARROLLTON", "state": "MO", "street": "8 S MAIN ST", "postcode": "64633"}}},
{"geometry": {"type": "Point", "coordinates": [-93.4874937168, 39.3631839674]}, "type": "Feature", "properties": {"collection_times": [{"days": "Mon-Sat", "time": "10:30am"}, {"days": "Sun", "time": "Closed"}], "id": "6463300006", "name": "USPS COLLECTION BOX - BLUE BOX", "address": {"city": "CARROLLTON", "state": "MO", "street": "402 N MASON ST", "postcode": "64633"}}},
{"geometry": {"type": "Point", "coordinates": [-93.4849595787, 39.3698354879]}, "type": "Feature", "properties": {"collection_times": [{"days": "Mon-Sat", "time": "2:30pm"}, {"days": "Sun", "time": "Closed"}], "id": "6463300018", "name": "USPS COLLECTION BOX - BLUE BOX", "address": {"city": "CARROLLTON", "state": "MO", "street": "1003 N US HIGHWAY 65", "postcode": "64633"}}},
{"geometry": {"type": "Point", "coordinates": [-93.4970835587, 39.362315546]}, "type": "Feature", "properties": {"collection_times": [{"days": "Mon-Fri", "time": "5:00pm"}, {"days": "Sat", "time": "4:00pm"}, {"days": "Sun", "time": "Closed"}], "id": "6463300022", "name": "USPS COLLECTION BOX - PO LOBBY", "address": {"city": "CARROLLTON", "state": "MO", "street": "101 N FOLGER ST", "postcode": "64633"}}},
{"geometry": {"type": "Point", "coordinates": [-93.4970835587, 39.362315546]}, "type": "Feature", "properties": {"collection_times": [{"days": "Mon-Fri", "time": "5:00pm"}, {"days": "Sat", "time": "4:00pm"}, {"days": "Sun", "time": "Closed"}], "id": "6463300023", "name": "USPS COLLECTION BOX - PO LOBBY", "address": {"city": "CARROLLTON", "state": "MO", "street": "101 N FOLGER ST", "postcode": "64633"}}},
{"geometry": {"type": "Point", "coordinates": [-93.4766164114, 39.9220328213]}, "type": "Feature", "properties": {"collection_times": [{"days": "Mon-Fri", "time": "4:00pm"}, {"days": "Sat", "time": "3:45pm"}, {"days": "Sun", "time": "Closed"}], "id": "6463500000", "name": "USPS COLLECTION BOX - BLUE BOX", "address": {"city": "CHULA", "state": "MO", "street": "640 MANSUR ST", "postcode": "64635"}}},
{"geometry": {"type": "Point", "coordinates": [-93.4766164114, 39.9220328213]}, "type": "Feature", "properties": {"collection_times": [{"days": "Mon-Fri", "time": "1:30pm"}, {"days": "Sat", "time": "9:00am"}, {"days": "Sun", "time": "Closed"}], "id": "6463500002", "name": "USPS COLLECTION BOX - PO LOBBY", "address": {"city": "CHULA", "state": "MO", "street": "640 MANSUR ST", "postcode": "64635"}}},
{"geometry": {"type": "Point", "coordinates": [-93.9946531082, 40.1119966987]}, "type": "Feature", "properties": {"collection_times": [{"days": "Mon-Fri", "time": "4:15pm"}, {"days": "Sat", "time": "2:45pm"}, {"days": "Sun", "time": "Closed"}], "id": "6463600000", "name": "USPS COLLECTION BOX - BLUE BOX", "address": {"city": "COFFEY", "state": "MO", "street": "212 E STATE HIGHWAY B", "postcode": "64636"}}},
{"geometry": {"type": "Point", "coordinates": [-93.9946531082, 40.1119966987]}, "type": "Feature", "properties": {"collection_times": [{"days": "Mon-Fri", "time": "3:15pm"}, {"days": "Sat", "time": "2:45pm"}, {"days": "Sun", "time": "Closed"}], "id": "6463600002", "name": "USPS COLLECTION BOX - PO LOBBY", "address": {"city": "COFFEY", "state": "MO", "street": "212 E STATE HIGHWAY B", "postcode": "64636"}}},
{"geometry": {"type": "Point", "coordinates": [-93.9265395125, 39.5595437155]}, "type": "Feature", "properties": {"collection_times": [{"days": "Mon-Fri", "time": "4:00pm"}, {"days": "Sat", "time": "2:45pm"}, {"days": "Sun", "time": "Closed"}], "id": "6463700000", "name": "USPS COLLECTION BOX - BLUE BOX", "address": {"city": "COWGILL", "state": "MO", "street": "460 MAIN ST", "postcode": "64637"}}},
{"geometry": {"type": "Point", "coordinates": [-93.9265395125, 39.5595437155]}, "type": "Feature", "properties": {"collection_times": [{"days": "Mon-Fri", "time": "1:45pm"}, {"days": "Sat", "time": "8:30am"}, {"days": "Sun", "time": "Closed"}], "id": "6463700001", "name": "USPS COLLECTION BOX - PO LOBBY", "address": {"city": "COWGILL", "state": "MO", "street": "460 MAIN ST", "postcode": "64637"}}},
{"geometry": {"type": "Point", "coordinates": [-93.5929034133, 39.6568794772]}, "type": "Feature", "properties": {"collection_times": [{"days": "Mon-Fri", "time": "3:45pm"}, {"days": "Sat", "time": "5:30pm"}, {"days": "Sun", "time": "Closed"}], "id": "6463800000", "name": "USPS COLLECTION BOX - BLUE BOX", "address": {"city": "DAWN", "state": "MO", "street": "7613 C HWY", "postcode": "64638"}}},
{"geometry": {"type": "Point", "coordinates": [-93.5929034133, 39.6568794772]}, "type": "Feature", "properties": {"collection_times": [{"days": "Mon-Fri", "time": "3:45pm"}, {"days": "Sat", "time": "9:00am"}, {"days": "Sun", "time": "Closed"}], "id": "6463800001", "name": "USPS COLLECTION BOX - PO LOBBY", "address": {"city": "DAWN", "state": "MO", "street": "7613 C HWY", "postcode": "64638"}}},
{"geometry": {"type": "Point", "coordinates": [-93.2217157381, 39.3845116204]}, "type": "Feature", "properties": {"collection_times": [{"days": "Mon-Sat", "time": "10:00am"}, {"days": "Sun", "time": "Closed"}], "id": "6463900000", "name": "USPS COLLECTION BOX - PO LOBBY", "address": {"city": "DEWITT", "state": "MO", "street": "711 JEFFERSON ST", "postcode": "64639"}}},
{"geometry": {"type": "Point", "coordinates": [-93.9613349197, 39.9144378505]}, "type": "Feature", "properties": {"collection_times": [{"days": "Mon-Fri", "time": "4:15pm"}, {"days": "Sat", "time": "3:30pm"}, {"days": "Sun", "time": "Closed"}], "id": "6464000001", "name": "USPS COLLECTION BOX - BLUE BOX", "address": {"city": "GALLATIN", "state": "MO", "street": "111 S MAIN ST", "postcode": "64640"}}},
{"geometry": {"type": "Point", "coordinates": [-93.9613349197, 39.9144378505]}, "type": "Feature", "properties": {"collection_times": [{"days": "Mon-Fri", "time": "4:15pm"}, {"days": "Sat", "time": "10:15am"}, {"days": "Sun", "time": "Closed"}], "id": "6464000003", "name": "USPS COLLECTION BOX - PO LOBBY", "address": {"city": "GALLATIN", "state": "MO", "street": "111 S MAIN ST", "postcode": "64640"}}},
{"geometry": {"type": "Point", "coordinates": [-93.3856887142, 40.1262403839]}, "type": "Feature", "properties": {"collection_times": [{"days": "Mon-Fri", "time": "3:45pm"}, {"days": "Sat", "time": "4:45pm"}, {"days": "Sun", "time": "Closed"}], "id": "6464100000", "name": "USPS COLLECTION BOX - BLUE BOX", "address": {"city": "GALT", "state": "MO", "street": "100 CENTER ST", "postcode": "64641"}}},
{"geometry": {"type": "Point", "coordinates": [-93.3856887142, 40.1262403839]}, "type": "Feature", "properties": {"collection_times": [{"days": "Mon-Fri", "time": "11:15am"}, {"days": "Sat", "time": "9:00am"}, {"days": "Sun", "time": "Closed"}], "id": "6464100002", "name": "USPS COLLECTION BOX - PO LOBBY", "address": {"city": "GALT", "state": "MO", "street": "100 CENTER ST", "postcode": "64641"}}},
{"geometry": {"type": "Point", "coordinates": [-93.3427075625, 39.6037254554]}, "type": "Feature", "properties": {"collection_times": [{"days": "Mon-Fri", "time": "3:45pm"}, {"days": "Sat", "time": "4:15pm"}, {"days": "Sun", "time": "Closed"}], "id": "6464300000", "name": "USPS COLLECTION BOX - BLUE BOX", "address": {"city": "HALE", "state": "MO", "street": "202 MAIN ST", "postcode": "64643"}}},
{"geometry": {"type": "Point", "coordinates": [-93.3427075625, 39.6037254554]}, "type": "Feature", "properties": {"collection_times": [{"days": "Mon-Fri", "time": "2:45pm"}, {"days": "Sat", "time": "9:00am"}, {"days": "Sun", "time": "Closed"}], "id": "6464300001", "name": "USPS COLLECTION BOX - PO LOBBY", "address": {"city": "HALE", "state": "MO", "street": "202 MAIN ST", "postcode": "64643"}}},
{"geometry": {"type": "Point", "coordinates": [-93.9982241201, 39.744303918]}, "type": "Feature", "properties": {"collection_times": [{"days": "Mon-Fri", "time": "4:00pm"}, {"days": "Sat", "time": "3:15pm"}, {"days": "Sun", "time": "Closed"}], "id": "6464400000", "name": "USPS COLLECTION BOX - BLUE BOX", "address": {"city": "HAMILTON", "state": "MO", "street": "106 W BIRD ST", "postcode": "64644"}}},
{"geometry": {"type": "Point", "coordinates": [-93.9982241201, 39.744303918]}, "type": "Feature", "properties": {"collection_times": [{"days": "Mon-Fri", "time": "4:00pm"}, {"days": "Sat", "time": "10:30am"}, {"days": "Sun", "time": "Closed"}], "id": "6464400001", "name": "USPS COLLECTION BOX - PO LOBBY", "address": {"city": "HAMILTON", "state": "MO", "street": "106 W BIRD ST", "postcode": "64644"}}},
{"geometry": {"type": "Point", "coordinates": [-93.9982241201, 39.744303918]}, "type": "Feature", "properties": {"collection_times": [{"days": "Mon-Fri", "time": "4:00pm"}, {"days": "Sat", "time": "10:30am"}, {"days": "Sun", "time": "Closed"}], "id": "6464400002", "name": "USPS COLLECTION BOX - PO LOBBY", "address": {"city": "HAMILTON", "state": "MO", "street": "106 W BIRD ST", "postcode": "64644"}}},
{"geometry": {"type": "Point", "coordinates": [-93.9737007916, 40.0224503025]}, "type": "Feature", "properties": {"collection_times": [{"days": "Mon-Fri", "time": "3:45pm"}, {"days": "Sat", "time": "2:30pm"}, {"days": "Sun", "time": "Closed"}], "id": "6464700000", "name": "USPS COLLECTION BOX - BLUE BOX", "address": {"city": "JAMESON", "state": "MO", "street": "206 N MAIN ST", "postcode": "64647"}}},
{"geometry": {"type": "Point", "coordinates": [-93.9737007916, 40.0224503025]}, "type": "Feature", "properties": {"collection_times": [{"days": "Mon-Fri", "time": "12:15pm"}, {"days": "Sat", "time": "9:45am"}, {"days": "Sun", "time": "Closed"}], "id": "6464700001", "name": "USPS COLLECTION BOX - PO LOBBY", "address": {"city": "JAMESON", "state": "MO", "street": "206 N MAIN ST", "postcode": "64647"}}},
{"geometry": {"type": "Point", "coordinates": [-93.80104443, 39.9749662429]}, "type": "Feature", "properties": {"collection_times": [{"days": "Mon-Fri", "time": "4:30pm"}, {"days": "Sat", "time": "11:30am"}, {"days": "Sun", "time": "Closed"}], "id": "6464800000", "name": "USPS COLLECTION BOX - BLUE BOX", "address": {"city": "JAMESPORT", "state": "MO", "street": "201 S BROADWAY ST", "postcode": "64648"}}},
{"geometry": {"type": "Point", "coordinates": [-93.80104443, 39.9749662429]}, "type": "Feature", "properties": {"collection_times": [{"days": "Mon-Fri", "time": "4:00pm"}, {"days": "Sat", "time": "11:15am"}, {"days": "Sun", "time": "Closed"}], "id": "6464800001", "name": "USPS COLLECTION BOX - PO LOBBY", "address": {"city": "JAMESPORT", "state": "MO", "street": "201 S BROADWAY ST", "postcode": "64648"}}},
{"geometry": {"type": "Point", "coordinates": [-93.80104443, 39.9749662429]}, "type": "Feature", "properties": {"collection_times": [{"days": "Mon-Fri", "time": "4:00pm"}, {"days": "Sat", "time": "11:15am"}, {"days": "Sun", "time": "Closed"}], "id": "6464800002", "name": "USPS COLLECTION BOX - PO LOBBY", "address": {"city": "JAMESPORT", "state": "MO", "street": "201 S BROADWAY ST", "postcode": "64648"}}},
{"geometry": {"type": "Point", "coordinates": [-94.1068051441, 39.7815972545]}, "type": "Feature", "properties": {"collection_times": [{"days": "Mon-Fri", "time": "3:45pm"}, {"days": "Sat", "time": "4:15pm"}, {"days": "Sun", "time": "Closed"}], "id": "6464900000", "name": "USPS COLLECTION BOX - BLUE BOX", "address": {"city": "KIDDER", "state": "MO", "street": "315 E 3RD ST", "postcode": "64649"}}},
{"geometry": {"type": "Point", "coordinates": [-94.1068051441, 39.7815972545]}, "type": "Feature", "properties": {"collection_times": [{"days": "Mon-Fri", "time": "2:45pm"}, {"days": "Sat", "time": "9:45am"}, {"days": "Sun", "time": "Closed"}], "id": "6464900001", "name": "USPS COLLECTION BOX - PO LOBBY", "address": {"city": "KIDDER", "state": "MO", "street": "315 E 3RD ST", "postcode": "64649"}}},
{"geometry": {"type": "Point", "coordinates": [-94.037728739, 39.6434036298]}, "type": "Feature", "properties": {"collection_times": [{"days": "Mon-Fri", "time": "3:45pm"}, {"days": "Sat", "time": "4:15pm"}, {"days": "Sun", "time": "Closed"}], "id": "6465000000", "name": "USPS COLLECTION BOX - BLUE BOX", "address": {"city": "KINGSTON", "state": "MO", "street": "36 N FRANKLIN ST", "postcode": "64650"}}},
{"geometry": {"type": "Point", "coordinates": [-94.037728739, 39.6434036298]}, "type": "Feature", "properties": {"collection_times": [{"days": "Mon-Fri", "time": "2:15pm"}, {"days": "Sat", "time": "10:00am"}, {"days": "Sun", "time": "Closed"}], "id": "6465000001", "name": "USPS COLLECTION BOX - PO LOBBY", "address": {"city": "KINGSTON", "state": "MO", "street": "36 N FRANKLIN ST", "postcode": "64650"}}},
{"geometry": {"type": "Point", "coordinates": [-94.037728739, 39.6434036298]}, "type": "Feature", "properties": {"collection_times": [{"days": "Mon-Fri", "time": "2:15pm"}, {"days": "Sat", "time": "10:00am"}, {"days": "Sun", "time": "Closed"}], "id": "6465000002", "name": "USPS COLLECTION BOX - PO LOBBY", "address": {"city": "KINGSTON", "state": "MO", "street": "36 N FRANKLIN ST", "postcode": "64650"}}},
{"geometry": {"type": "Point", "coordinates": [-93.169103964, 39.7844373528]}, "type": "Feature", "properties": {"collection_times": [{"days": "Mon-Sat", "time": "3:45pm"}, {"days": "Sun", "time": "Closed"}], "id": "6465100000", "name": "USPS COLLECTION BOX - BLUE BOX", "address": {"city": "LACLEDE", "state": "MO", "street": "607 PERSHING DR", "postcode": "64651"}}},
{"geometry": {"type": "Point", "coordinates": [-93.169103964, 39.7844373528]}, "type": "Feature", "properties": {"collection_times": [{"days": "Mon-Fri", "time": "3:45pm"}, {"days": "Sat", "time": "9:15am"}, {"days": "Sun", "time": "Closed"}], "id": "6465100001", "name": "USPS COLLECTION BOX - PO LOBBY", "address": {"city": "LACLEDE", "state": "MO", "street": "607 PERSHING DR", "postcode": "64651"}}},
{"geometry": {"type": "Point", "coordinates": [-93.4469829894, 40.0258232405]}, "type": "Feature", "properties": {"collection_times": [{"days": "Mon-Fri", "time": "4:15pm"}, {"days": "Sat", "time": "4:00pm"}, {"days": "Sun", "time": "Closed"}], "id": "6465200000", "name": "USPS COLLECTION BOX - BLUE BOX", "address": {"city": "LAREDO", "state": "MO", "street": "216 E MAIN ST", "postcode": "64652"}}},
{"geometry": {"type": "Point", "coordinates": [-93.4469829894, 40.0258232405]}, "type": "Feature", "properties": {"collection_times": [{"days": "Mon-Fri", "time": "3:45pm"}, {"days": "Sat", "time": "9:45am"}, {"days": "Sun", "time": "Closed"}], "id": "6465200002", "name": "USPS COLLECTION BOX - PO LOBBY", "address": {"city": "LAREDO", "state": "MO", "street": "216 E MAIN ST", "postcode": "64652"}}},
{"geometry": {"type": "Point", "coordinates": [-93.1896733117, 39.8784253852]}, "type": "Feature", "properties": {"collection_times": [{"days": "Mon-Fri", "time": "4:00pm"}, {"days": "Sat", "time": "3:00pm"}, {"days": "Sun", "time": "Closed"}], "id": "6465300000", "name": "USPS COLLECTION BOX - BLUE BOX", "address": {"city": "LINNEUS", "state": "MO", "street": "200 S HIGH ST", "postcode": "64653"}}},
{"geometry": {"type": "Point", "coordinates": [-93.1896733117, 39.8784253852]}, "type": "Feature", "properties": {"collection_times": [{"days": "Mon-Fri", "time": "11:15am"}, {"days": "Sat", "time": "9:30am"}, {"days": "Sun", "time": "Closed"}], "id": "6465300002", "name": "USPS COLLECTION BOX - PO LOBBY", "address": {"city": "LINNEUS", "state": "MO", "street": "200 S HIGH ST", "postcode": "64653"}}},
{"geometry": {"type": "Point", "coordinates": [-93.2873337599, 40.4299499143]}, "type": "Feature", "properties": {"collection_times": [{"days": "Mon-Sat", "time": "4:00pm"}, {"days": "Sun", "time": "Closed"}], "id": "6465500000", "name": "USPS COLLECTION BOX - BLUE BOX", "address": {"city": "LUCERNE", "state": "MO", "street": "HWY 136", "postcode": "64655"}}},
{"geometry": {"type": "Point", "coordinates": [-93.2873337599, 40.4299499143]}, "type": "Feature", "properties": {"collection_times": [{"days": "Mon-Fri", "time": "12:45pm"}, {"days": "Sat", "time": "9:15am"}, {"days": "Sun", "time": "Closed"}], "id": "6465500001", "name": "USPS COLLECTION BOX - PO LOBBY", "address": {"city": "LUCERNE", "state": "MO", "street": "HWY 136", "postcode": "64655"}}},
{"geometry": {"type": "Point", "coordinates": [-93.2873337599, 40.4299499143]}, "type": "Feature", "properties": {"collection_times": [{"days": "Mon-Fri", "time": "12:45pm"}, {"days": "Sat", "time": "9:15am"}, {"days": "Sun", "time": "Closed"}], "id": "6465500002", "name": "USPS COLLECTION BOX - PO LOBBY", "address": {"city": "LUCERNE", "state": "MO", "street": "HWY 136", "postcode": "64655"}}},
{"geometry": {"type": "Point", "coordinates": [-93.7080296229, 39.6580459417]}, "type": "Feature", "properties": {"collection_times": [{"days": "Mon-Fri", "time": "3:30pm"}, {"days": "Sat", "time": "2:45pm"}, {"days": "Sun", "time": "Closed"}], "id": "6465600000", "name": "USPS COLLECTION BOX - BLUE BOX", "address": {"city": "LUDLOW", "state": "MO", "street": "MAIN STREET ST", "postcode": "64656"}}},
{"geometry": {"type": "Point", "coordinates": [-93.7080296229, 39.6580459417]}, "type": "Feature", "properties": {"collection_times": [{"days": "Mon-Fri", "time": "10:45am"}, {"days": "Sat", "time": "9:30am"}, {"days": "Sun", "time": "Closed"}], "id": "6465600001", "name": "USPS COLLECTION BOX - PO LOBBY", "address": {"city": "LUDLOW", "state": "MO", "street": "210 MAIN ST", "postcode": "64656"}}},
{"geometry": {"type": "Point", "coordinates": [-94.2245102841, 40.1109406773]}, "type": "Feature", "properties": {"collection_times": [{"days": "Mon-Sat", "time": "4:00pm"}, {"days": "Sun", "time": "Closed"}], "id": "6465700000", "name": "USPS COLLECTION BOX - BLUE BOX", "address": {"city": "MC FALL", "state": "MO", "street": "508 MAIN ST", "postcode": "64657"}}},
{"geometry": {"type": "Point", "coordinates": [-94.2245102841, 40.1109406773]}, "type": "Feature", "properties": {"collection_times": [{"days": "Mon-Fri", "time": "11:15am"}, {"days": "Sat", "time": "9:15am"}, {"days": "Sun", "time": "Closed"}], "id": "6465700002", "name": "USPS COLLECTION BOX - PO LOBBY", "address": {"city": "MC FALL", "state": "MO", "street": "508 MAIN ST", "postcode": "64657"}}},
{"geometry": {"type": "Point", "coordinates": [-92.9501723021, 39.7151503043]}, "type": "Feature", "properties": {"collection_times": [{"days": "Mon-Sat", "time": "4:00pm"}, {"days": "Sun", "time": "Closed"}], "id": "6465800004", "name": "USPS COLLECTION BOX - BLUE BOX", "address": {"city": "MARCELINE", "state": "MO", "street": "120 E RITCHIE AVE", "postcode": "64658"}}},
{"geometry": {"type": "Point", "coordinates": [-92.9501723021, 39.7151503043]}, "type": "Feature", "properties": {"collection_times": [{"days": "Mon-Sat", "time": "4:00pm"}, {"days": "Sun", "time": "Closed"}], "id": "6465800005", "name": "USPS COLLECTION BOX - BLUE BOX", "address": {"city": "MARCELINE", "state": "MO", "street": "120 E RITCHIE AVE", "postcode": "64658"}}},
{"geometry": {"type": "Point", "coordinates": [-92.9501723021, 39.7151503043]}, "type": "Feature", "properties": {"collection_times": [{"days": "Mon-Fri", "time": "4:00pm"}, {"days": "Sat", "time": "12:00pm"}, {"days": "Sun", "time": "Closed"}], "id": "6465800009", "name": "USPS COLLECTION BOX - PO LOBBY", "address": {"city": "MARCELINE", "state": "MO", "street": "120 E RITCHIE AVE", "postcode": "64658"}}},
{"geometry": {"type": "Point", "coordinates": [-93.3021101626, 39.7848004948]}, "type": "Feature", "properties": {"collection_times": [{"days": "Mon-Sat", "time": "4:15pm"}, {"days": "Sun", "time": "Closed"}], "id": "6465900000", "name": "USPS COLLECTION BOX - BLUE BOX", "address": {"city": "MEADVILLE", "state": "MO", "street": "212 S MACON ST", "postcode": "64659"}}},
{"geometry": {"type": "Point", "coordinates": [-93.3021101626, 39.7848004948]}, "type": "Feature", "properties": {"collection_times": [{"days": "Mon-Fri", "time": "3:45pm"}, {"days": "Sat", "time": "9:45am"}, {"days": "Sun", "time": "Closed"}], "id": "6465900001", "name": "USPS COLLECTION BOX - PO LOBBY", "address": {"city": "MEADVILLE", "state": "MO", "street": "212 S MACON ST", "postcode": "64659"}}},
{"geometry": {"type": "Point", "coordinates": [-93.135604201, 39.590399651]}, "type": "Feature", "properties": {"collection_times": [{"days": "Mon-Sat", "time": "4:15pm"}, {"days": "Sun", "time": "Closed"}], "id": "6466000000", "name": "USPS COLLECTION BOX - BLUE BOX", "address": {"city": "MENDON", "state": "MO", "street": "202 MAIN ST", "postcode": "64660"}}},
{"geometry": {"type": "Point", "coordinates": [-93.135604201, 39.590399651]}, "type": "Feature", "properties": {"collection_times": [{"days": "Mon-Fri", "time": "12:15pm"}, {"days": "Sat", "time": "9:45am"}, {"days": "Sun", "time": "Closed"}], "id": "6466000002", "name": "USPS COLLECTION BOX - PO LOBBY", "address": {"city": "MENDON", "state": "MO", "street": "202 MAIN ST", "postcode": "64660"}}},
{"geometry": {"type": "Point", "coordinates": [-93.4985021947, 40.5264126919]}, "type": "Feature", "properties": {"collection_times": [{"days": "Mon-Sat", "time": "4:15pm"}, {"days": "Sun", "time": "Closed"}], "id": "6466100000", "name": "USPS COLLECTION BOX - BLUE BOX", "address": {"city": "MERCER", "state": "MO", "street": "101 STATE ST", "postcode": "64661"}}},
{"geometry": {"type": "Point", "coordinates": [-93.4985021947, 40.5264126919]}, "type": "Feature", "properties": {"collection_times": [{"days": "Mon-Fri", "time": "3:30pm"}, {"days": "Sat", "time": "9:00am"}, {"days": "Sun", "time": "Closed"}], "id": "6466100001", "name": "USPS COLLECTION BOX - PO LOBBY", "address": {"city": "MERCER", "state": "MO", "street": "101 STATE ST", "postcode": "64661"}}},
{"geometry": {"type": "Point", "coordinates": [-93.3351117645, 40.3747160974]}, "type": "Feature", "properties": {"collection_times": [{"days": "Mon-Fri", "time": "3:30pm"}, {"days": "Sat", "time": "4:15pm"}, {"days": "Sun", "time": "Closed"}], "id": "6466700000", "name": "USPS COLLECTION BOX - BLUE BOX", "address": {"city": "NEWTOWN", "state": "MO", "street": "109 S MAIN ST", "postcode": "64667"}}},
{"geometry": {"type": "Point", "coordinates": [-93.3351117645, 40.3747160974]}, "type": "Feature", "properties": {"collection_times": [{"days": "Mon-Fri", "time": "10:45am"}, {"days": "Sat", "time": "8:15am"}, {"days": "Sun", "time": "Closed"}], "id": "6466700001", "name": "USPS COLLECTION BOX - PO LOBBY", "address": {"city": "NEWTOWN", "state": "MO", "street": "109 S MAIN ST", "postcode": "64667"}}},
{"geometry": {"type": "Point", "coordinates": [-93.3351117645, 40.3747160974]}, "type": "Feature", "properties": {"collection_times": [{"days": "Mon-Fri", "time": "10:45am"}, {"days": "Sat", "time": "8:15am"}, {"days": "Sun", "time": "Closed"}], "id": "6466700002", "name": "USPS COLLECTION BOX - PO LOBBY", "address": {"city": "NEWTOWN", "state": "MO", "street": "109 S MAIN ST", "postcode": "64667"}}},
{"geometry": {"type": "Point", "coordinates": [-93.6733454147, 39.3031449705]}, "type": "Feature", "properties": {"collection_times": [{"days": "Mon-Fri", "time": "4:30pm"}, {"days": "Sat", "time": "3:45pm"}, {"days": "Sun", "time": "Closed"}], "id": "6466800000", "name": "USPS COLLECTION BOX - BLUE BOX", "address": {"city": "NORBORNE", "state": "MO", "street": "204 E 2ND ST", "postcode": "64668"}}},
{"geometry": {"type": "Point", "coordinates": [-93.6733454147, 39.3031449705]}, "type": "Feature", "properties": {"collection_times": [{"days": "Mon-Fri", "time": "3:45pm"}, {"days": "Sat", "time": "9:45am"}, {"days": "Sun", "time": "Closed"}], "id": "6466800001", "name": "USPS COLLECTION BOX - PO LOBBY", "address": {"city": "NORBORNE", "state": "MO", "street": "204 E 2ND ST", "postcode": "64668"}}},
{"geometry": {"type": "Point", "coordinates": [-94.1005515951, 40.0796651535]}, "type": "Feature", "properties": {"collection_times": [{"days": "Mon-Fri", "time": "3:45pm"}, {"days": "Sat", "time": "9:45am"}, {"days": "Sun", "time": "Closed"}], "id": "6467000002", "name": "USPS COLLECTION BOX - PO LOBBY", "address": {"city": "PATTONSBURG", "state": "MO", "street": "105 2ND AVE", "postcode": "64670"}}},
{"geometry": {"type": "Point", "coordinates": [-94.1005515951, 40.0796651535]}, "type": "Feature", "properties": {"collection_times": [{"days": "Mon-Fri", "time": "3:45pm"}, {"days": "Sat", "time": "4:00pm"}, {"days": "Sun", "time": "Closed"}], "id": "6467000003", "name": "USPS COLLECTION BOX - BLUE BOX", "address": {"city": "PATTONSBURG", "state": "MO", "street": "105 2ND AVE", "postcode": "64670"}}},
{"geometry": {"type": "Point", "coordinates": [-94.0397002826, 39.5541941034]}, "type": "Feature", "properties": {"collection_times": [{"days": "Mon-Fri", "time": "4:00pm"}, {"days": "Sat", "time": "4:30pm"}, {"days": "Sun", "time": "Closed"}], "id": "6467100000", "name": "USPS COLLECTION BOX - BLUE BOX", "address": {"city": "POLO", "state": "MO", "street": "104 W ELM ST", "postcode": "64671"}}},
{"geometry": {"type": "Point", "coordinates": [-94.0397002826, 39.5541941034]}, "type": "Feature", "properties": {"collection_times": [{"days": "Mon-Fri", "time": "4:00pm"}, {"days": "Sat", "time": "10:45am"}, {"days": "Sun", "time": "Closed"}], "id": "6467100001", "name": "USPS COLLECTION BOX - PO LOBBY", "address": {"city": "POLO", "state": "MO", "street": "104 W ELM ST", "postcode": "64671"}}},
{"geometry": {"type": "Point", "coordinates": [-93.3015640592, 40.5493941987]}, "type": "Feature", "properties": {"collection_times": [{"days": "Mon-Fri", "time": "3:45pm"}, {"days": "Sat", "time": "3:30pm"}, {"days": "Sun", "time": "Closed"}], "id": "6467200000", "name": "USPS COLLECTION BOX - BLUE BOX", "address": {"city": "POWERSVILLE", "state": "MO", "street": "203 MAIN ST", "postcode": "64672"}}},
{"geometry": {"type": "Point", "coordinates": [-93.3015640592, 40.5493941987]}, "type": "Feature", "properties": {"collection_times": [{"days": "Mon-Fri", "time": "10:45am"}, {"days": "Sat", "time": "9:15am"}, {"days": "Sun", "time": "Closed"}], "id": "6467200001", "name": "USPS COLLECTION BOX - PO LOBBY", "address": {"city": "POWERSVILLE", "state": "MO", "street": "203 MAIN ST", "postcode": "64672"}}},
{"geometry": {"type": "Point", "coordinates": [-93.3015640592, 40.5493941987]}, "type": "Feature", "properties": {"collection_times": [{"days": "Mon-Fri", "time": "10:45am"}, {"days": "Sat", "time": "9:15am"}, {"days": "Sun", "time": "Closed"}], "id": "6467200002", "name": "USPS COLLECTION BOX - PO LOBBY", "address": {"city": "POWERSVILLE", "state": "MO", "street": "203 MAIN ST", "postcode": "64672"}}},
{"geometry": {"type": "Point", "coordinates": [-93.5861993812, 40.396567085]}, "type": "Feature", "properties": {"collection_times": [{"days": "Mon-Sat", "time": "4:15pm"}, {"days": "Sun", "time": "Closed"}], "id": "6467300002", "name": "USPS COLLECTION BOX - BLUE BOX", "address": {"city": "PRINCETON", "state": "MO", "street": "204 S BROADWAY ST", "postcode": "64673"}}},
{"geometry": {"type": "Point", "coordinates": [-93.5861993812, 40.396567085]}, "type": "Feature", "properties": {"collection_times": [{"days": "Mon-Fri", "time": "4:15pm"}, {"days": "Sat", "time": "10:30am"}, {"days": "Sun", "time": "Closed"}], "id": "6467300006", "name": "USPS COLLECTION BOX - PO LOBBY", "address": {"city": "PRINCETON", "state": "MO", "street": "204 S BROADWAY ST", "postcode": "64673"}}},
{"geometry": {"type": "Point", "coordinates": [-93.165364416, 39.9522796126]}, "type": "Feature", "properties": {"collection_times": [{"days": "Mon-Fri", "time": "4:00pm"}, {"days": "Sat", "time": "3:15pm"}, {"days": "Sun", "time": "Closed"}], "id": "6467400000", "name": "USPS COLLECTION BOX - BLUE BOX", "address": {"city": "PURDIN", "state": "MO", "street": "401 C ST", "postcode": "64674"}}},
{"geometry": {"type": "Point", "coordinates": [-93.165364416, 39.9522796126]}, "type": "Feature", "properties": {"collection_times": [{"days": "Mon-Fri", "time": "11:45am"}, {"days": "Sat", "time": "9:15am"}, {"days": "Sun", "time": "Closed"}], "id": "6467400001", "name": "USPS COLLECTION BOX - PO LOBBY", "address": {"city": "PURDIN", "state": "MO", "street": "401 C ST", "postcode": "64674"}}},
{"geometry": {"type": "Point", "coordinates": [-93.0563296158, 39.6536129495]}, "type": "Feature", "properties": {"collection_times": [{"days": "Mon-Fri", "time": "12:15pm"}, {"days": "Sat", "time": "9:30am"}, {"days": "Sun", "time": "Closed"}], "id": "6467600001", "name": "USPS COLLECTION BOX - PO LOBBY", "address": {"city": "ROTHVILLE", "state": "MO", "street": "209 MAIN ST", "postcode": "64676"}}},
{"geometry": {"type": "Point", "coordinates": [-93.0563296158, 39.6536129495]}, "type": "Feature", "properties": {"collection_times": [{"days": "Mon-Fri", "time": "3:45pm"}, {"days": "Sat", "time": "4:00pm"}, {"days": "Sun", "time": "Closed"}], "id": "6467600003", "name": "USPS COLLECTION BOX - BLUE BOX", "address": {"city": "ROTHVILLE", "state": "MO", "street": "209 MAIN ST", "postcode": "64676"}}},
{"geometry": {"type": "Point", "coordinates": [-93.5957593525, 40.2446676476]}, "type": "Feature", "properties": {"collection_times": [{"days": "Mon-Sat", "time": "4:00pm"}, {"days": "Sun", "time": "Closed"}], "id": "6467900000", "name": "USPS COLLECTION BOX - BLUE BOX", "address": {"city": "SPICKARD", "state": "MO", "street": "303 N 2ND ST", "postcode": "64679"}}},
{"geometry": {"type": "Point", "coordinates": [-93.5957593525, 40.2446676476]}, "type": "Feature", "properties": {"collection_times": [{"days": "Mon-Fri", "time": "12:45pm"}, {"days": "Sat", "time": "9:30am"}, {"days": "Sun", "time": "Closed"}], "id": "6467900001", "name": "USPS COLLECTION BOX - PO LOBBY", "address": {"city": "SPICKARD", "state": "MO", "street": "303 N 2ND ST", "postcode": "64679"}}},
{"geometry": {"type": "Point", "coordinates": [-93.5957593525, 40.2446676476]}, "type": "Feature", "properties": {"collection_times": [{"days": "Mon-Fri", "time": "12:45pm"}, {"days": "Sat", "time": "9:30am"}, {"days": "Sun", "time": "Closed"}], "id": "6467900002", "name": "USPS COLLECTION BOX - PO LOBBY", "address": {"city": "SPICKARD", "state": "MO", "street": "303 N 2ND ST", "postcode": "64679"}}},
{"geometry": {"type": "Point", "coordinates": [-93.2440141572, 39.6562481146]}, "type": "Feature", "properties": {"collection_times": [{"days": "Mon-Sat", "time": "4:00pm"}, {"days": "Sun", "time": "Closed"}], "id": "6468100000", "name": "USPS COLLECTION BOX - BLUE BOX", "address": {"city": "SUMNER", "state": "MO", "street": "200 W CENTER ST", "postcode": "64681"}}},
{"geometry": {"type": "Point", "coordinates": [-93.2440141572, 39.6562481146]}, "type": "Feature", "properties": {"collection_times": [{"days": "Mon-Fri", "time": "4:00pm"}, {"days": "Sat", "time": "9:30am"}, {"days": "Sun", "time": "Closed"}], "id": "6468100001", "name": "USPS COLLECTION BOX - PO LOBBY", "address": {"city": "SUMNER", "state": "MO", "street": "200 W CENTER ST", "postcode": "64681"}}},
{"geometry": {"type": "Point", "coordinates": [-93.4777843077, 39.5715897529]}, "type": "Feature", "properties": {"collection_times": [{"days": "Mon-Fri", "time": "4:00pm"}, {"days": "Sat", "time": "5:30pm"}, {"days": "Sun", "time": "Closed"}], "id": "6468200000", "name": "USPS COLLECTION BOX - BLUE BOX", "address": {"city": "TINA", "state": "MO", "street": "201 N MAIN ST", "postcode": "64682"}}},
{"geometry": {"type": "Point", "coordinates": [-93.4777843077, 39.5715897529]}, "type": "Feature", "properties": {"collection_times": [{"days": "Mon-Fri", "time": "1:45pm"}, {"days": "Sat", "time": "8:30am"}, {"days": "Sun", "time": "Closed"}], "id": "6468200001", "name": "USPS COLLECTION BOX - PO LOBBY", "address": {"city": "TINA", "state": "MO", "street": "201 N MAIN ST", "postcode": "64682"}}},
{"geometry": {"type": "Point", "coordinates": [-93.618420157, 40.0761566973]}, "type": "Feature", "properties": {"collection_times": [{"days": "Mon-Fri", "time": "5:00pm"}, {"days": "Sat", "time": "12:00pm"}, {"days": "Sun", "time": "Closed"}], "id": "6468300001", "name": "USPS COLLECTION BOX - BLUE BOX", "address": {"city": "TRENTON", "state": "MO", "street": "201 W 11TH ST", "postcode": "64683"}}},
{"geometry": {"type": "Point", "coordinates": [-93.6039739276, 40.0891064537]}, "type": "Feature", "properties": {"collection_times": [{"days": "Mon-Fri", "time": "3:00pm"}, {"days": "Sat", "time": "2:30pm"}, {"days": "Sun", "time": "Closed"}], "id": "6468300005", "name": "USPS COLLECTION BOX - BLUE BOX", "address": {"city": "TRENTON", "state": "MO", "street": "2711 OKLAHOMA AVE", "postcode": "64683"}}},
{"geometry": {"type": "Point", "coordinates": [-93.6192529599, 40.0735961365]}, "type": "Feature", "properties": {"collection_times": [{"days": "Mon-Fri", "time": "3:00pm"}, {"days": "Sat", "time": "2:30pm"}, {"days": "Sun", "time": "Closed"}], "id": "6468300011", "name": "USPS COLLECTION BOX - BLUE BOX", "address": {"city": "TRENTON", "state": "MO", "street": "700 MAIN ST", "postcode": "64683"}}},
{"geometry": {"type": "Point", "coordinates": [-93.5995385326, 40.074283387]}, "type": "Feature", "properties": {"collection_times": [{"days": "Mon-Sat", "time": "3:00pm"}, {"days": "Sun", "time": "Closed"}], "id": "6468300012", "name": "USPS COLLECTION BOX - BLUE BOX", "address": {"city": "TRENTON", "state": "MO", "street": "1800 E 9TH ST", "postcode": "64683"}}},
{"geometry": {"type": "Point", "coordinates": [-93.618420157, 40.0761566973]}, "type": "Feature", "properties": {"collection_times": [{"days": "Mon-Fri", "time": "5:00pm"}, {"days": "Sat", "time": "12:00pm"}, {"days": "Sun", "time": "Closed"}], "id": "6468300018", "name": "USPS COLLECTION BOX - PO LOBBY", "address": {"city": "TRENTON", "state": "MO", "street": "201 W 11TH ST", "postcode": "64683"}}},
{"geometry": {"type": "Point", "coordinates": [-93.6163960935, 39.73241125]}, "type": "Feature", "properties": {"collection_times": [{"days": "Mon-Sat", "time": "4:15pm"}, {"days": "Sun", "time": "Closed"}], "id": "6468600000", "name": "USPS COLLECTION BOX - BLUE BOX", "address": {"city": "UTICA", "state": "MO", "street": "509 W THROOP ST", "postcode": "64686"}}},
{"geometry": {"type": "Point", "coordinates": [-93.6163960935, 39.73241125]}, "type": "Feature", "properties": {"collection_times": [{"days": "Mon-Fri", "time": "11:45am"}, {"days": "Sat", "time": "9:45am"}, {"days": "Sun", "time": "Closed"}], "id": "6468600001", "name": "USPS COLLECTION BOX - PO LOBBY", "address": {"city": "UTICA", "state": "MO", "street": "509 W THROOP ST", "postcode": "64686"}}},
{"geometry": {"type": "Point", "coordinates": [-93.3859825366, 39.7855394825]}, "type": "Feature", "properties": {"collection_times": [{"days": "Mon-Fri", "time": "4:00pm"}, {"days": "Sat", "time": "4:30pm"}, {"days": "Sun", "time": "Closed"}], "id": "6468800000", "name": "USPS COLLECTION BOX - BLUE BOX", "address": {"city": "WHEELING", "state": "MO", "street": "104 N GRANT ST", "postcode": "64688"}}},
{"geometry": {"type": "Point", "coordinates": [-93.3859825366, 39.7855394825]}, "type": "Feature", "properties": {"collection_times": [{"days": "Mon-Fri", "time": "2:45pm"}, {"days": "Sat", "time": "9:00am"}, {"days": "Sun", "time": "Closed"}], "id": "6468800001", "name": "USPS COLLECTION BOX - PO LOBBY", "address": {"city": "WHEELING", "state": "MO", "street": "104 N GRANT ST", "postcode": "64688"}}},
{"geometry": {"type": "Point", "coordinates": [-94.14191885, 39.870196907]}, "type": "Feature", "properties": {"collection_times": [{"days": "Mon-Sat", "time": "4:00pm"}, {"days": "Sun", "time": "Closed"}], "id": "6468900000", "name": "USPS COLLECTION BOX - BLUE BOX", "address": {"city": "WINSTON", "state": "MO", "street": "101 W 2ND ST", "postcode": "64689"}}},
{"geometry": {"type": "Point", "coordinates": [-94.14191885, 39.870196907]}, "type": "Feature", "properties": {"collection_times": [{"days": "Mon-Fri", "time": "11:30am"}, {"days": "Sat", "time": "9:15am"}, {"days": "Sun", "time": "Closed"}], "id": "6468900005", "name": "USPS COLLECTION BOX - PO LOBBY", "address": {"city": "WINSTON", "state": "MO", "street": "101 W 2ND ST", "postcode": "64689"}}}
]}
