{"type": "FeatureCollection", "features": [
{"geometry": {"type": "Point", "coordinates": [-94.3398077696, 38.645851272]}, "type": "Feature", "properties": {"collection_times": [{"days": "Mon-Fri", "time": "5:15pm"}, {"days": "Sat", "time": "3:00pm"}, {"days": "Sun", "time": "Closed"}], "id": "6470100001", "name": "USPS COLLECTION BOX - EXPRESS", "address": {"city": "HARRISONVILLE", "state": "MO", "street": "305 E MECHANIC ST", "postcode": "64701"}}},
{"geometry": {"type": "Point", "coordinates": [-94.3669598808, 38.6657090936]}, "type": "Feature", "properties": {"collection_times": [{"days": "Mon-Sat", "time": "11:00am"}, {"days": "Sun", "time": "Closed"}], "id": "6470100009", "name": "USPS COLLECTION BOX - BLUE BOX", "address": {"city": "HARRISONVILLE", "state": "MO", "street": "1700 N 291 HWY", "postcode": "64701"}}},
{"geometry": {"type": "Point", "coordinates": [-94.3651755658, 38.6629872743]}, "type": "Feature", "properties": {"collection_times": [{"days": "Mon-Sat", "time": "11:00am"}, {"days": "Sun", "time": "Closed"}], "id": "6470100010", "name": "USPS COLLECTION BOX - BLUE BOX", "address": {"city": "HARRISONVILLE", "state": "MO", "street": "2001 N COMMERCIAL ST", "postcode": "64701"}}},
{"geometry": {"type": "Point", "coordinates": [-94.3472632106, 38.653063515]}, "type": "Feature", "properties": {"collection_times": [{"days": "Mon-Fri", "time": "5:15pm"}, {"days": "Sat", "time": "3:00pm"}, {"days": "Sun", "time": "Closed"}], "id": "6470100015", "name": "USPS COLLECTION BOX - PO LOBBY", "address": {"city": "HARRISONVILLE", "state": "MO", "street": "305 E MECHANIC ST", "postcode": "64701"}}},
{"geometry": {"type": "Point", "coordinates": [-94.3472632106, 38.653063515]}, "type": "Feature", "properties": {"collection_times": [{"days": "Mon-Fri", "time": "5:15pm"}, {"days": "Sat", "time": "3:00pm"}, {"days": "Sun", "time": "Closed"}], "id": "6470100019", "name": "USPS COLLECTION BOX - BLUE BOX", "address": {"city": "HARRISONVILLE", "state": "MO", "street": "305 E MECHANIC ST", "postcode": "64701"}}},
{"geometry": {"type": "Point", "coordinates": [-94.3767982838, 38.6625747697]}, "type": "Feature", "properties": {"collection_times": [{"days": "Mon-Sat", "time": "10:00am"}, {"days": "Sun", "time": "Closed"}], "id": "6470100023", "name": "USPS COLLECTION BOX - BLUE BOX", "address": {"city": "HARRISONVILLE", "state": "MO", "street": "2600 CANTRELL RD", "postcode": "64701"}}},
{"geometry": {"type": "Point", "coordinates": [-94.3514139562, 38.3973614205]}, "type": "Feature", "properties": {"collection_times": [{"days": "Mon-Sat", "time": "3:45pm"}, {"days": "Sun", "time": "Closed"}], "id": "6472000001", "name": "USPS COLLECTION BOX - BLUE BOX", "address": {"city": "ADRIAN", "state": "MO", "street": "127 E MAIN ST", "postcode": "64720"}}},
{"geometry": {"type": "Point", "coordinates": [-94.3514139562, 38.3973614205]}, "type": "Feature", "properties": {"collection_times": [{"days": "Mon-Fri", "time": "3:45pm"}, {"days": "Sat", "time": "9:45am"}, {"days": "Sun", "time": "Closed"}], "id": "6472000002", "name": "USPS COLLECTION BOX - PO LOBBY", "address": {"city": "ADRIAN", "state": "MO", "street": "127 E MAIN ST", "postcode": "64720"}}},
{"geometry": {"type": "Point", "coordinates": [-94.3514139562, 38.3973614205]}, "type": "Feature", "properties": {"collection_times": [{"days": "Mon-Fri", "time": "3:45pm"}, {"days": "Sat", "time": "9:45am"}, {"days": "Sun", "time": "Closed"}], "id": "6472000003", "name": "USPS COLLECTION BOX - PO LOBBY", "address": {"city": "ADRIAN", "state": "MO", "street": "127 E MAIN ST", "postcode": "64720"}}},
{"geometry": {"type": "Point", "coordinates": [-94.5899952502, 38.2551696357]}, "type": "Feature", "properties": {"collection_times": [{"days": "Mon-Sat", "time": "4:15pm"}, {"days": "Sun", "time": "Closed"}], "id": "6472200000", "name": "USPS COLLECTION BOX - BLUE BOX", "address": {"city": "AMORET", "state": "MO", "street": "101 STATE ROUTE 52", "postcode": "64722"}}},
{"geometry": {"type": "Point", "coordinates": [-94.5899952502, 38.2551696357]}, "type": "Feature", "properties": {"collection_times": [{"days": "Mon-Fri", "time": "2:30pm"}, {"days": "Sat", "time": "9:45am"}, {"days": "Sun", "time": "Closed"}], "id": "6472200001", "name": "USPS COLLECTION BOX - PO LOBBY", "address": {"city": "AMORET", "state": "MO", "street": "101 STATE ROUTE 52", "postcode": "64722"}}},
{"geometry": {"type": "Point", "coordinates": [-94.5850924389, 38.3499072714]}, "type": "Feature", "properties": {"collection_times": [{"days": "Mon-Sat", "time": "4:15pm"}, {"days": "Sun", "time": "Closed"}], "id": "6472300000", "name": "USPS COLLECTION BOX - BLUE BOX", "address": {"city": "AMSTERDAM", "state": "MO", "street": "101 MAIN ST", "postcode": "64723"}}},
{"geometry": {"type": "Point", "coordinates": [-94.5850924389, 38.3499072714]}, "type": "Feature", "properties": {"collection_times": [{"days": "Mon-Fri", "time": "12:00pm"}, {"days": "Sat", "time": "9:30am"}, {"days": "Sun", "time": "Closed"}], "id": "6472300001", "name": "USPS COLLECTION BOX - PO LOBBY", "address": {"city": "AMSTERDAM", "state": "MO", "street": "101 MAIN ST", "postcode": "64723"}}},
{"geometry": {"type": "Point", "coordinates": [-94.0282521215, 38.1904932415]}, "type": "Feature", "properties": {"collection_times": [{"days": "Mon-Fri", "time": "4:15pm"}, {"days": "Sat", "time": "10:15am"}, {"days": "Sun", "time": "Closed"}], "id": "6472400005", "name": "USPS COLLECTION BOX - PO LOBBY", "address": {"city": "APPLETON CITY", "state": "MO", "street": "119 W 4TH ST", "postcode": "64724"}}},
{"geometry": {"type": "Point", "coordinates": [-94.0275904018, 38.1904966609]}, "type": "Feature", "properties": {"collection_times": [{"days": "Mon-Sat", "time": "2:45pm"}, {"days": "Sun", "time": "Closed"}], "id": "6472400006", "name": "USPS COLLECTION BOX - BLUE BOX", "address": {"city": "APPLETON CITY", "state": "MO", "street": "118 E 4TH ST", "postcode": "64724"}}},
{"geometry": {"type": "Point", "coordinates": [-94.0282521215, 38.1904932415]}, "type": "Feature", "properties": {"collection_times": [{"days": "Mon-Fri", "time": "4:15pm"}, {"days": "Sat", "time": "10:15am"}, {"days": "Sun", "time": "Closed"}], "id": "6472400007", "name": "USPS COLLECTION BOX - BLUE BOX", "address": {"city": "APPLETON CITY", "state": "MO", "street": "119 W 4TH ST", "postcode": "64724"}}},
{"geometry": {"type": "Point", "coordinates": [-94.3539282512, 38.4827635903]}, "type": "Feature", "properties": {"collection_times": [{"days": "Mon-Sat", "time": "4:00pm"}, {"days": "Sun", "time": "Closed"}], "id": "6472500000", "name": "USPS COLLECTION BOX - BLUE BOX", "address": {"city": "ARCHIE", "state": "MO", "street": "208 S MAIN ST", "postcode": "64725"}}},
{"geometry": {"type": "Point", "coordinates": [-94.3447718978, 38.4790473455]}, "type": "Feature", "properties": {"collection_times": [{"days": "Mon-Sat", "time": "12:30pm"}, {"days": "Sun", "time": "Closed"}], "id": "6472500001", "name": "USPS COLLECTION BOX - BLUE BOX", "address": {"city": "ARCHIE", "state": "MO", "street": "502 S WEST OUTER RD", "postcode": "64725"}}},
{"geometry": {"type": "Point", "coordinates": [-94.3539282512, 38.4827635903]}, "type": "Feature", "properties": {"collection_times": [{"days": "Mon-Fri", "time": "4:00pm"}, {"days": "Sat", "time": "9:45am"}, {"days": "Sun", "time": "Closed"}], "id": "6472500003", "name": "USPS COLLECTION BOX - PO LOBBY", "address": {"city": "ARCHIE", "state": "MO", "street": "208 S MAIN ST", "postcode": "64725"}}},
{"geometry": {"type": "Point", "coordinates": [-93.9605190379, 38.5548304456]}, "type": "Feature", "properties": {"collection_times": [{"days": "Mon-Fri", "time": "3:30pm"}, {"days": "Sat", "time": "4:00pm"}, {"days": "Sun", "time": "Closed"}], "id": "6472600000", "name": "USPS COLLECTION BOX - BLUE BOX", "address": {"city": "BLAIRSTOWN", "state": "MO", "street": "120 N MAIN ST", "postcode": "64726"}}},
{"geometry": {"type": "Point", "coordinates": [-93.9605190379, 38.5548304456]}, "type": "Feature", "properties": {"collection_times": [{"days": "Mon-Fri", "time": "11:15am"}, {"days": "Sat", "time": "9:15am"}, {"days": "Sun", "time": "Closed"}], "id": "6472600001", "name": "USPS COLLECTION BOX - PO LOBBY", "address": {"city": "BLAIRSTOWN", "state": "MO", "street": "120 N MAIN ST", "postcode": "64726"}}},
{"geometry": {"type": "Point", "coordinates": [-94.5021717225, 37.6869255377]}, "type": "Feature", "properties": {"collection_times": [{"days": "Mon-Fri", "time": "3:30pm"}, {"days": "Sat", "time": "4:00pm"}, {"days": "Sun", "time": "Closed"}], "id": "6472800000", "name": "USPS COLLECTION BOX - BLUE BOX", "address": {"city": "BRONAUGH", "state": "MO", "street": "101 W 4TH ST", "postcode": "64728"}}},
{"geometry": {"type": "Point", "coordinates": [-94.5021717225, 37.6869255377]}, "type": "Feature", "properties": {"collection_times": [{"days": "Mon-Fri", "time": "11:30am"}, {"days": "Sat", "time": "9:30am"}, {"days": "Sun", "time": "Closed"}], "id": "6472800001", "name": "USPS COLLECTION BOX - PO LOBBY", "address": {"city": "BRONAUGH", "state": "MO", "street": "101 W 4TH ST", "postcode": "64728"}}},
{"geometry": {"type": "Point", "coordinates": [-94.3332905447, 38.2585736429]}, "type": "Feature", "properties": {"collection_times": [{"days": "Mon-Sat", "time": "5:00pm"}, {"days": "Sun", "time": "Closed"}], "id": "6473000001", "name": "USPS COLLECTION BOX - BLUE BOX", "address": {"city": "BUTLER", "state": "MO", "street": "114 W OHIO ST", "postcode": "64730"}}},
{"geometry": {"type": "Point", "coordinates": [-94.3317715512, 38.2566767133]}, "type": "Feature", "properties": {"collection_times": [{"days": "Mon-Fri", "time": "2:00pm"}, {"days": "Sat-Sun", "time": "Closed"}], "id": "6473000002", "name": "USPS COLLECTION BOX - BLUE BOX", "address": {"city": "BUTLER", "state": "MO", "street": "15 N MAIN ST", "postcode": "64730"}}},
{"geometry": {"type": "Point", "coordinates": [-94.3497395919, 38.2569476057]}, "type": "Feature", "properties": {"collection_times": [{"days": "Mon-Sat", "time": "10:00am"}, {"days": "Sun", "time": "Closed"}], "id": "6473000007", "name": "USPS COLLECTION BOX - BLUE BOX", "address": {"city": "BUTLER", "state": "MO", "street": "909 W FORT SCOTT ST", "postcode": "64730"}}},
{"geometry": {"type": "Point", "coordinates": [-94.3424592928, 38.2641449567]}, "type": "Feature", "properties": {"collection_times": [{"days": "Mon-Sat", "time": "1:00pm"}, {"days": "Sun", "time": "Closed"}], "id": "6473000010", "name": "USPS COLLECTION BOX - BLUE BOX", "address": {"city": "BUTLER", "state": "MO", "street": "700 W MILL ST", "postcode": "64730"}}},
{"geometry": {"type": "Point", "coordinates": [-94.3332905447, 38.2585736429]}, "type": "Feature", "properties": {"collection_times": [{"days": "Mon-Sat", "time": "5:00pm"}, {"days": "Sun", "time": "Closed"}], "id": "6473000012", "name": "USPS COLLECTION BOX - PO LOBBY", "address": {"city": "BUTLER", "state": "MO", "street": "114 W OHIO ST", "postcode": "64730"}}},
{"geometry": {"type": "Point", "coordinates": [-94.3407428377, 38.2495006422]}, "type": "Feature", "properties": {"collection_times": [{"days": "Mon-Sat", "time": "2:00pm"}, {"days": "Sun", "time": "Closed"}], "id": "6473000015", "name": "USPS COLLECTION BOX - BLUE BOX", "address": {"city": "BUTLER", "state": "MO", "street": "615 W NURSERY ST", "postcode": "64730"}}},
{"geometry": {"type": "Point", "coordinates": [-93.8548870244, 38.5889586506]}, "type": "Feature", "properties": {"collection_times": [{"days": "Mon-Fri", "time": "4:15pm"}, {"days": "Sat", "time": "4:45pm"}, {"days": "Sun", "time": "Closed"}], "id": "6473300000", "name": "USPS COLLECTION BOX - BLUE BOX", "address": {"city": "CHILHOWEE", "state": "MO", "street": "111 E WALNUT ST", "postcode": "64733"}}},
{"geometry": {"type": "Point", "coordinates": [-93.8548870244, 38.5889586506]}, "type": "Feature", "properties": {"collection_times": [{"days": "Mon-Fri", "time": "4:15pm"}, {"days": "Sat", "time": "12:30pm"}, {"days": "Sun", "time": "Closed"}], "id": "6473300001", "name": "USPS COLLECTION BOX - PO LOBBY", "address": {"city": "CHILHOWEE", "state": "MO", "street": "111 E WALNUT ST", "postcode": "64733"}}},
{"geometry": {"type": "Point", "coordinates": [-94.592694994, 38.679146082]}, "type": "Feature", "properties": {"collection_times": [{"days": "Mon-Sat", "time": "4:00pm"}, {"days": "Sun", "time": "Closed"}], "id": "6473400000", "name": "USPS COLLECTION BOX - BLUE BOX", "address": {"city": "CLEVELAND", "state": "MO", "street": "215 MAIN ST", "postcode": "64734"}}},
{"geometry": {"type": "Point", "coordinates": [-94.592694994, 38.679146082]}, "type": "Feature", "properties": {"collection_times": [{"days": "Mon-Fri", "time": "2:15pm"}, {"days": "Sat", "time": "9:00am"}, {"days": "Sun", "time": "Closed"}], "id": "6473400001", "name": "USPS COLLECTION BOX - PO LOBBY", "address": {"city": "CLEVELAND", "state": "MO", "street": "215 MAIN ST", "postcode": "64734"}}},
{"geometry": {"type": "Point", "coordinates": [-93.774099291, 38.3706940423]}, "type": "Feature", "properties": {"collection_times": [{"days": "Mon-Fri", "time": "5:30pm"}, {"days": "Sat", "time": "4:30pm"}, {"days": "Sun", "time": "Closed"}], "id": "6473500011", "name": "USPS COLLECTION BOX - BLUE BOX", "address": {"city": "CLINTON", "state": "MO", "street": "101 S 2ND ST", "postcode": "64735"}}},
{"geometry": {"type": "Point", "coordinates": [-93.774099291, 38.3706940423]}, "type": "Feature", "properties": {"collection_times": [{"days": "Mon-Fri", "time": "5:30pm"}, {"days": "Sat", "time": "4:30pm"}, {"days": "Sun", "time": "Closed"}], "id": "6473500019", "name": "USPS COLLECTION BOX - PO LOBBY", "address": {"city": "CLINTON", "state": "MO", "street": "101 S 2ND ST", "postcode": "64735"}}},
{"geometry": {"type": "Point", "coordinates": [-93.774099291, 38.3706940423]}, "type": "Feature", "properties": {"collection_times": [{"days": "Mon-Fri", "time": "5:30pm"}, {"days": "Sat", "time": "4:30pm"}, {"days": "Sun", "time": "Closed"}], "id": "6473500022", "name": "USPS COLLECTION BOX - BLUE BOX", "address": {"city": "CLINTON", "state": "MO", "street": "101 S 2ND ST", "postcode": "64735"}}},
{"geometry": {"type": "Point", "coordinates": [-93.6239105646, 37.8885402254]}, "type": "Feature", "properties": {"collection_times": [{"days": "Mon-Sat", "time": "4:15pm"}, {"days": "Sun", "time": "Closed"}], "id": "6473800000", "name": "USPS COLLECTION BOX - BLUE BOX", "address": {"city": "COLLINS", "state": "MO", "street": "1312 MAIN ST", "postcode": "64738"}}},
{"geometry": {"type": "Point", "coordinates": [-93.6239105646, 37.8885402254]}, "type": "Feature", "properties": {"collection_times": [{"days": "Mon-Fri", "time": "11:45am"}, {"days": "Sat", "time": "10:00am"}, {"days": "Sun", "time": "Closed"}], "id": "6473800002", "name": "USPS COLLECTION BOX - PO LOBBY", "address": {"city": "COLLINS", "state": "MO", "street": "1312 MAIN ST", "postcode": "64738"}}},
{"geometry": {"type": "Point", "coordinates": [-94.0760380317, 38.4955886719]}, "type": "Feature", "properties": {"collection_times": [{"days": "Mon-Sat", "time": "3:45pm"}, {"days": "Sun", "time": "Closed"}], "id": "6473900000", "name": "USPS COLLECTION BOX - BLUE BOX", "address": {"city": "CREIGHTON", "state": "MO", "street": "200 W 2ND ST", "postcode": "64739"}}},
{"geometry": {"type": "Point", "coordinates": [-94.0760380317, 38.4955886719]}, "type": "Feature", "properties": {"collection_times": [{"days": "Mon-Fri", "time": "3:45pm"}, {"days": "Sat", "time": "9:45am"}, {"days": "Sun", "time": "Closed"}], "id": "6473900001", "name": "USPS COLLECTION BOX - PO LOBBY", "address": {"city": "CREIGHTON", "state": "MO", "street": "200 W 2ND ST", "postcode": "64739"}}},
{"geometry": {"type": "Point", "coordinates": [-93.7789582438, 38.2609299221]}, "type": "Feature", "properties": {"collection_times": [{"days": "Mon-Sat", "time": "4:00pm"}, {"days": "Sun", "time": "Closed"}], "id": "6474000000", "name": "USPS COLLECTION BOX - BLUE BOX", "address": {"city": "DEEPWATER", "state": "MO", "street": "108 S 8TH ST", "postcode": "64740"}}},
{"geometry": {"type": "Point", "coordinates": [-93.7789582438, 38.2609299221]}, "type": "Feature", "properties": {"collection_times": [{"days": "Mon-Fri", "time": "1:45pm"}, {"days": "Sat", "time": "9:45am"}, {"days": "Sun", "time": "Closed"}], "id": "6474000001", "name": "USPS COLLECTION BOX - PO LOBBY", "address": {"city": "DEEPWATER", "state": "MO", "street": "108 S 8TH ST", "postcode": "64740"}}},
{"geometry": {"type": "Point", "coordinates": [-94.5097075662, 37.8118707925]}, "type": "Feature", "properties": {"collection_times": [{"days": "Mon-Sat", "time": "4:00pm"}, {"days": "Sun", "time": "Closed"}], "id": "6474100000", "name": "USPS COLLECTION BOX - BLUE BOX", "address": {"city": "DEERFIELD", "state": "MO", "street": "101 MAIN ST", "postcode": "64741"}}},
{"geometry": {"type": "Point", "coordinates": [-94.5097075662, 37.8118707925]}, "type": "Feature", "properties": {"collection_times": [{"days": "Mon-Fri", "time": "4:00pm"}, {"days": "Sat", "time": "8:30am"}, {"days": "Sun", "time": "Closed"}], "id": "6474100002", "name": "USPS COLLECTION BOX - PO LOBBY", "address": {"city": "DEERFIELD", "state": "MO", "street": "101 MAIN ST", "postcode": "64741"}}},
{"geometry": {"type": "Point", "coordinates": [-94.6087881204, 38.4792200651]}, "type": "Feature", "properties": {"collection_times": [{"days": "Mon-Sat", "time": "4:00pm"}, {"days": "Sun", "time": "Closed"}], "id": "6474200000", "name": "USPS COLLECTION BOX - BLUE BOX", "address": {"city": "DREXEL", "state": "MO", "street": "118 S 2ND ST", "postcode": "64742"}}},
{"geometry": {"type": "Point", "coordinates": [-94.6087881204, 38.4792200651]}, "type": "Feature", "properties": {"collection_times": [{"days": "Mon-Fri", "time": "4:00pm"}, {"days": "Sat", "time": "9:45am"}, {"days": "Sun", "time": "Closed"}], "id": "6474200001", "name": "USPS COLLECTION BOX - PO LOBBY", "address": {"city": "DREXEL", "state": "MO", "street": "118 S 2ND ST", "postcode": "64742"}}},
{"geometry": {"type": "Point", "coordinates": [-94.229482495, 38.6672635076]}, "type": "Feature", "properties": {"collection_times": [{"days": "Mon-Fri", "time": "4:15pm"}, {"days": "Sat", "time": "5:00pm"}, {"days": "Sun", "time": "Closed"}], "id": "6474300000", "name": "USPS COLLECTION BOX - BLUE BOX", "address": {"city": "EAST LYNNE", "state": "MO", "street": "415 MAIN ST", "postcode": "64743"}}},
{"geometry": {"type": "Point", "coordinates": [-94.229482495, 38.6672635076]}, "type": "Feature", "properties": {"collection_times": [{"days": "Mon-Fri", "time": "4:15pm"}, {"days": "Sat", "time": "9:15am"}, {"days": "Sun", "time": "Closed"}], "id": "6474300001", "name": "USPS COLLECTION BOX - PO LOBBY", "address": {"city": "EAST LYNNE", "state": "MO", "street": "415 MAIN ST", "postcode": "64743"}}},
{"geometry": {"type": "Point", "coordinates": [-94.021887254, 37.871970387]}, "type": "Feature", "properties": {"collection_times": [{"days": "Mon-Fri", "time": "5:00pm"}, {"days": "Sat", "time": "4:00pm"}, {"days": "Sun", "time": "Closed"}], "id": "6474400002", "name": "USPS COLLECTION BOX - BLUE BOX", "address": {"city": "EL DORADO SPG", "state": "MO", "street": "407 S MAIN ST", "postcode": "64744"}}},
{"geometry": {"type": "Point", "coordinates": [-94.021887254, 37.871970387]}, "type": "Feature", "properties": {"collection_times": [{"days": "Mon-Fri", "time": "4:45pm"}, {"days": "Sat", "time": "4:15pm"}, {"days": "Sun", "time": "Closed"}], "id": "6474400009", "name": "USPS COLLECTION BOX - PO LOBBY", "address": {"city": "EL DORADO SPG", "state": "MO", "street": "407 S MAIN ST", "postcode": "64744"}}},
{"geometry": {"type": "Point", "coordinates": [-94.5537064364, 38.1710452437]}, "type": "Feature", "properties": {"collection_times": [{"days": "Mon-Fri", "time": "11:00am"}, {"days": "Sat", "time": "9:00am"}, {"days": "Sun", "time": "Closed"}], "id": "6474500000", "name": "USPS COLLECTION BOX - BLUE BOX", "address": {"city": "FOSTER", "state": "MO", "street": "203 MAIN ST", "postcode": "64745"}}},
{"geometry": {"type": "Point", "coordinates": [-94.5537064364, 38.1710452437]}, "type": "Feature", "properties": {"collection_times": [{"days": "Mon-Fri", "time": "10:00am"}, {"days": "Sat", "time": "9:00am"}, {"days": "Sun", "time": "Closed"}], "id": "6474500001", "name": "USPS COLLECTION BOX - PO LOBBY", "address": {"city": "FOSTER", "state": "MO", "street": "203 MAIN ST", "postcode": "64745"}}},
{"geometry": {"type": "Point", "coordinates": [-94.5064397029, 38.6173582572]}, "type": "Feature", "properties": {"collection_times": [{"days": "Mon-Fri", "time": "4:00pm"}, {"days": "Sat", "time": "4:45pm"}, {"days": "Sun", "time": "Closed"}], "id": "6474600000", "name": "USPS COLLECTION BOX - BLUE BOX", "address": {"city": "FREEMAN", "state": "MO", "street": "109 E MAIN ST", "postcode": "64746"}}},
{"geometry": {"type": "Point", "coordinates": [-94.5064397029, 38.6173582572]}, "type": "Feature", "properties": {"collection_times": [{"days": "Mon-Fri", "time": "4:00pm"}, {"days": "Sat", "time": "9:30am"}, {"days": "Sun", "time": "Closed"}], "id": "6474600001", "name": "USPS COLLECTION BOX - PO LOBBY", "address": {"city": "FREEMAN", "state": "MO", "street": "109 E MAIN ST", "postcode": "64746"}}},
{"geometry": {"type": "Point", "coordinates": [-94.1902934483, 38.5615697251]}, "type": "Feature", "properties": {"collection_times": [{"days": "Mon-Fri", "time": "4:30pm"}, {"days": "Sat", "time": "5:00pm"}, {"days": "Sun", "time": "Closed"}], "id": "6474700000", "name": "USPS COLLECTION BOX - BLUE BOX", "address": {"city": "GARDEN CITY", "state": "MO", "street": "201 N 3RD ST", "postcode": "64747"}}},
{"geometry": {"type": "Point", "coordinates": [-94.1902934483, 38.5615697251]}, "type": "Feature", "properties": {"collection_times": [{"days": "Mon-Fri", "time": "4:30pm"}, {"days": "Sat", "time": "10:00am"}, {"days": "Sun", "time": "Closed"}], "id": "6474700001", "name": "USPS COLLECTION BOX - PO LOBBY", "address": {"city": "GARDEN CITY", "state": "MO", "street": "201 N 3RD ST", "postcode": "64747"}}},
{"geometry": {"type": "Point", "coordinates": [-94.1902934483, 38.5615697251]}, "type": "Feature", "properties": {"collection_times": [{"days": "Mon-Fri", "time": "4:30pm"}, {"days": "Sat", "time": "10:00am"}, {"days": "Sun", "time": "Closed"}], "id": "6474700002", "name": "USPS COLLECTION BOX - PO LOBBY", "address": {"city": "GARDEN CITY", "state": "MO", "street": "201 N 3RD ST", "postcode": "64747"}}},
{"geometry": {"type": "Point", "coordinates": [-94.1872198664, 38.570052651]}, "type": "Feature", "properties": {"collection_times": [{"days": "Mon-Sat", "time": "12:00pm"}, {"days": "Sun", "time": "Closed"}], "id": "6474700005", "name": "USPS COLLECTION BOX - BLUE BOX", "address": {"city": "GARDEN CITY", "state": "MO", "street": "31 S COUNTY RD F", "postcode": "64747"}}},
{"geometry": {"type": "Point", "coordinates": [-94.0920472393, 37.3929412298]}, "type": "Feature", "properties": {"collection_times": [{"days": "Mon-Sat", "time": "4:00pm"}, {"days": "Sun", "time": "Closed"}], "id": "6474800000", "name": "USPS COLLECTION BOX - BLUE BOX", "address": {"city": "GOLDEN CITY", "state": "MO", "street": "519 MAIN ST", "postcode": "64748"}}},
{"geometry": {"type": "Point", "coordinates": [-94.0920472393, 37.3929412298]}, "type": "Feature", "properties": {"collection_times": [{"days": "Mon-Fri", "time": "4:00pm"}, {"days": "Sat", "time": "10:00am"}, {"days": "Sun", "time": "Closed"}], "id": "6474800002", "name": "USPS COLLECTION BOX - PO LOBBY", "address": {"city": "GOLDEN CITY", "state": "MO", "street": "519 MAIN ST", "postcode": "64748"}}},
{"geometry": {"type": "Point", "coordinates": [-94.1188140896, 37.9494255143]}, "type": "Feature", "properties": {"collection_times": [{"days": "Mon-Fri", "time": "4:30pm"}, {"days": "Sat", "time": "3:15pm"}, {"days": "Sun", "time": "Closed"}], "id": "6475000000", "name": "USPS COLLECTION BOX - BLUE BOX", "address": {"city": "HARWOOD", "state": "MO", "street": "211 E COATES AVE", "postcode": "64750"}}},
{"geometry": {"type": "Point", "coordinates": [-94.1188140896, 37.9494255143]}, "type": "Feature", "properties": {"collection_times": [{"days": "Mon-Fri", "time": "2:45pm"}, {"days": "Sat", "time": "9:45am"}, {"days": "Sun", "time": "Closed"}], "id": "6475000001", "name": "USPS COLLECTION BOX - PO LOBBY", "address": {"city": "HARWOOD", "state": "MO", "street": "211 E COATES AVE", "postcode": "64750"}}},
{"geometry": {"type": "Point", "coordinates": [-94.5453777947, 38.0384604279]}, "type": "Feature", "properties": {"collection_times": [{"days": "Mon-Sat", "time": "4:15pm"}, {"days": "Sun", "time": "Closed"}], "id": "6475200000", "name": "USPS COLLECTION BOX - BLUE BOX", "address": {"city": "HUME", "state": "MO", "street": "101 MAIN ST", "postcode": "64752"}}},
{"geometry": {"type": "Point", "coordinates": [-94.5453777947, 38.0384604279]}, "type": "Feature", "properties": {"collection_times": [{"days": "Mon-Fri", "time": "11:30am"}, {"days": "Sat", "time": "9:15am"}, {"days": "Sun", "time": "Closed"}], "id": "6475200001", "name": "USPS COLLECTION BOX - PO LOBBY", "address": {"city": "HUME", "state": "MO", "street": "101 MAIN ST", "postcode": "64752"}}},
{"geometry": {"type": "Point", "coordinates": [-94.3022274893, 37.3361274785]}, "type": "Feature", "properties": {"collection_times": [{"days": "Mon-Fri", "time": "4:00pm"}, {"days": "Sat", "time": "4:15pm"}, {"days": "Sun", "time": "Closed"}], "id": "6475500001", "name": "USPS COLLECTION BOX - BLUE BOX", "address": {"city": "JASPER", "state": "MO", "street": "122 W GRAND ST", "postcode": "64755"}}},
{"geometry": {"type": "Point", "coordinates": [-94.3022274893, 37.3361274785]}, "type": "Feature", "properties": {"collection_times": [{"days": "Mon-Fri", "time": "4:00pm"}, {"days": "Sat", "time": "11:00am"}, {"days": "Sun", "time": "Closed"}], "id": "6475500002", "name": "USPS COLLECTION BOX - PO LOBBY", "address": {"city": "JASPER", "state": "MO", "street": "122 W GRAND ST", "postcode": "64755"}}},
{"geometry": {"type": "Point", "coordinates": [-94.0094635336, 37.622361206]}, "type": "Feature", "properties": {"collection_times": [{"days": "Mon-Fri", "time": "4:15pm"}, {"days": "Sat", "time": "3:45pm"}, {"days": "Sun", "time": "Closed"}], "id": "6475600000", "name": "USPS COLLECTION BOX - BLUE BOX", "address": {"city": "JERICO SPRINGS", "state": "MO", "street": "200 E BROADWAY ST", "postcode": "64756"}}},
{"geometry": {"type": "Point", "coordinates": [-94.0094635336, 37.622361206]}, "type": "Feature", "properties": {"collection_times": [{"days": "Mon-Fri", "time": "11:30am"}, {"days": "Sat", "time": "9:30am"}, {"days": "Sun", "time": "Closed"}], "id": "6475600002", "name": "USPS COLLECTION BOX - PO LOBBY", "address": {"city": "JERICO SPRINGS", "state": "MO", "street": "200 E BROADWAY ST", "postcode": "64756"}}},
{"geometry": {"type": "Point", "coordinates": [-94.2766017783, 37.4943453955]}, "type": "Feature", "properties": {"collection_times": [{"days": "Mon-Fri", "time": "4:30pm"}, {"days": "Sat", "time": "3:45pm"}, {"days": "Sun", "time": "Closed"}], "id": "6475900001", "name": "USPS COLLECTION BOX - BLUE BOX", "address": {"city": "LAMAR", "state": "MO", "street": "131 W 11TH ST", "postcode": "64759"}}},
{"geometry": {"type": "Point", "coordinates": [-94.2766017783, 37.4943453955]}, "type": "Feature", "properties": {"collection_times": [{"days": "Mon-Fri", "time": "4:30pm"}, {"days": "Sat", "time": "3:45pm"}, {"days": "Sun", "time": "Closed"}], "id": "6475900002", "name": "USPS COLLECTION BOX - BLUE BOX", "address": {"city": "LAMAR", "state": "MO", "street": "131 W 11TH ST", "postcode": "64759"}}},
{"geometry": {"type": "Point", "coordinates": [-94.2766017783, 37.4943453955]}, "type": "Feature", "properties": {"collection_times": [{"days": "Mon-Fri", "time": "4:30pm"}, {"days": "Sat", "time": "3:45pm"}, {"days": "Sun", "time": "Closed"}], "id": "6475900003", "name": "USPS COLLECTION BOX - PO LOBBY", "address": {"city": "LAMAR", "state": "MO", "street": "131 W 11TH ST", "postcode": "64759"}}},
{"geometry": {"type": "Point", "coordinates": [-93.6959122835, 38.5836601267]}, "type": "Feature", "properties": {"collection_times": [{"days": "Mon-Sat", "time": "4:15pm"}, {"days": "Sun", "time": "Closed"}], "id": "6476100000", "name": "USPS COLLECTION BOX - BLUE BOX", "address": {"city": "LEETON", "state": "MO", "street": "103 N MAIN ST", "postcode": "64761"}}},
{"geometry": {"type": "Point", "coordinates": [-93.6959122835, 38.5836601267]}, "type": "Feature", "properties": {"collection_times": [{"days": "Mon-Fri", "time": "11:00am"}, {"days": "Sat", "time": "10:00am"}, {"days": "Sun", "time": "Closed"}], "id": "6476100001", "name": "USPS COLLECTION BOX - PO LOBBY", "address": {"city": "LEETON", "state": "MO", "street": "103 N MAIN ST", "postcode": "64761"}}},
{"geometry": {"type": "Point", "coordinates": [-94.5201348967, 37.5592748323]}, "type": "Feature", "properties": {"collection_times": [{"days": "Mon-Fri", "time": "4:00pm"}, {"days": "Sat", "time": "3:45pm"}, {"days": "Sun", "time": "Closed"}], "id": "6476200001", "name": "USPS COLLECTION BOX - BLUE BOX", "address": {"city": "LIBERAL", "state": "MO", "street": "128 S MAIN ST", "postcode": "64762"}}},
{"geometry": {"type": "Point", "coordinates": [-94.5201348967, 37.5592748323]}, "type": "Feature", "properties": {"collection_times": [{"days": "Mon-Fri", "time": "4:00pm"}, {"days": "Sat", "time": "10:15am"}, {"days": "Sun", "time": "Closed"}], "id": "6476200003", "name": "USPS COLLECTION BOX - PO LOBBY", "address": {"city": "LIBERAL", "state": "MO", "street": "128 S MAIN ST", "postcode": "64762"}}},
{"geometry": {"type": "Point", "coordinates": [-93.727589941, 38.1428487996]}, "type": "Feature", "properties": {"collection_times": [{"days": "Mon-Sat", "time": "4:30pm"}, {"days": "Sun", "time": "Closed"}], "id": "6476300000", "name": "USPS COLLECTION BOX - BLUE BOX", "address": {"city": "LOWRY CITY", "state": "MO", "street": "204 S MAIN ST", "postcode": "64763"}}},
{"geometry": {"type": "Point", "coordinates": [-93.727589941, 38.1428487996]}, "type": "Feature", "properties": {"collection_times": [{"days": "Mon-Fri", "time": "4:30pm"}, {"days": "Sat", "time": "9:45am"}, {"days": "Sun", "time": "Closed"}], "id": "6476300002", "name": "USPS COLLECTION BOX - PO LOBBY", "address": {"city": "LOWRY CITY", "state": "MO", "street": "204 S MAIN ST", "postcode": "64763"}}},
{"geometry": {"type": "Point", "coordinates": [-94.4434409335, 37.9955782851]}, "type": "Feature", "properties": {"collection_times": [{"days": "Mon-Sat", "time": "3:45pm"}, {"days": "Sun", "time": "Closed"}], "id": "6476500000", "name": "USPS COLLECTION BOX - BLUE BOX", "address": {"city": "METZ", "state": "MO", "street": "117 S MAIN ST", "postcode": "64765"}}},
{"geometry": {"type": "Point", "coordinates": [-94.4434409335, 37.9955782851]}, "type": "Feature", "properties": {"collection_times": [{"days": "Mon-Fri", "time": "1:15pm"}, {"days": "Sat", "time": "9:15am"}, {"days": "Sun", "time": "Closed"}], "id": "6476500001", "name": "USPS COLLECTION BOX - PO LOBBY", "address": {"city": "METZ", "state": "MO", "street": "117 S MAIN ST", "postcode": "64765"}}},
{"geometry": {"type": "Point", "coordinates": [-94.2029574764, 37.7392919444]}, "type": "Feature", "properties": {"collection_times": [{"days": "Mon-Fri", "time": "4:30pm"}, {"days": "Sat", "time": "5:00pm"}, {"days": "Sun", "time": "Closed"}], "id": "6476700000", "name": "USPS COLLECTION BOX - BLUE BOX", "address": {"city": "MILO", "state": "MO", "street": "162 E MAIN ST", "postcode": "64767"}}},
{"geometry": {"type": "Point", "coordinates": [-94.2029574764, 37.7392919444]}, "type": "Feature", "properties": {"collection_times": [{"days": "Mon-Sat", "time": "2:30pm"}, {"days": "Sun", "time": "Closed"}], "id": "6476700001", "name": "USPS COLLECTION BOX - PO LOBBY", "address": {"city": "MILO", "state": "MO", "street": "162 E MAIN ST", "postcode": "64767"}}},
{"geometry": {"type": "Point", "coordinates": [-94.5890471614, 37.4733296083]}, "type": "Feature", "properties": {"collection_times": [{"days": "Mon-Sat", "time": "3:30pm"}, {"days": "Sun", "time": "Closed"}], "id": "6476900000", "name": "USPS COLLECTION BOX - BLUE BOX", "address": {"city": "MINDENMINES", "state": "MO", "street": "604 MAIN ST", "postcode": "64769"}}},
{"geometry": {"type": "Point", "coordinates": [-94.5890471614, 37.4733296083]}, "type": "Feature", "properties": {"collection_times": [{"days": "Mon-Fri", "time": "12:45pm"}, {"days": "Sat", "time": "10:00am"}, {"days": "Sun", "time": "Closed"}], "id": "6476900001", "name": "USPS COLLECTION BOX - PO LOBBY", "address": {"city": "MINDENMINES", "state": "MO", "street": "604 MAIN ST", "postcode": "64769"}}},
{"geometry": {"type": "Point", "coordinates": [-93.9798092024, 38.2568969671]}, "type": "Feature", "properties": {"collection_times": [{"days": "Mon-Sat", "time": "3:45pm"}, {"days": "Sun", "time": "Closed"}], "id": "6477000000", "name": "USPS COLLECTION BOX - BLUE BOX", "address": {"city": "MONTROSE", "state": "MO", "street": "307 ILLINOIS AVE", "postcode": "64770"}}},
{"geometry": {"type": "Point", "coordinates": [-93.9798092024, 38.2568969671]}, "type": "Feature", "properties": {"collection_times": [{"days": "Mon-Fri", "time": "3:45pm"}, {"days": "Sat", "time": "9:15am"}, {"days": "Sun", "time": "Closed"}], "id": "6477000001", "name": "USPS COLLECTION BOX - PO LOBBY", "address": {"city": "MONTROSE", "state": "MO", "street": "307 ILLINOIS AVE", "postcode": "64770"}}},
{"geometry": {"type": "Point", "coordinates": [-94.4502360844, 37.7701110684]}, "type": "Feature", "properties": {"collection_times": [{"days": "Mon-Fri", "time": "3:45pm"}, {"days": "Sat", "time": "4:00pm"}, {"days": "Sun", "time": "Closed"}], "id": "6477100000", "name": "USPS COLLECTION BOX - BLUE BOX", "address": {"city": "MOUNDVILLE", "state": "MO", "street": "101 S MAIN ST", "postcode": "64771"}}},
{"geometry": {"type": "Point", "coordinates": [-94.4532227291, 37.7643859767]}, "type": "Feature", "properties": {"collection_times": [{"days": "Mon-Fri", "time": "11:00am"}, {"days": "Sat", "time": "9:00am"}, {"days": "Sun", "time": "Closed"}], "id": "6477100001", "name": "USPS COLLECTION BOX - PO LOBBY", "address": {"city": "MOUNDVILLE", "state": "MO", "street": "101 S MAIN ST", "postcode": "64771"}}},
{"geometry": {"type": "Point", "coordinates": [-94.353988529, 37.8380681304]}, "type": "Feature", "properties": {"collection_times": [{"days": "Mon-Fri", "time": "5:15pm"}, {"days": "Sat", "time": "5:00pm"}, {"days": "Sun", "time": "Closed"}], "id": "6477200002", "name": "USPS COLLECTION BOX - BLUE BOX", "address": {"city": "NEVADA", "state": "MO", "street": "104 S OAK ST", "postcode": "64772"}}},
{"geometry": {"type": "Point", "coordinates": [-94.3566928335, 37.8382815272]}, "type": "Feature", "properties": {"collection_times": [{"days": "Mon-Fri", "time": "3:15pm"}, {"days": "Sat", "time": "2:30pm"}, {"days": "Sun", "time": "Closed"}], "id": "6477200003", "name": "USPS COLLECTION BOX - BLUE BOX", "address": {"city": "NEVADA", "state": "MO", "street": "100 W CHERRY ST", "postcode": "64772"}}},
{"geometry": {"type": "Point", "coordinates": [-94.3547458985, 37.836094322]}, "type": "Feature", "properties": {"collection_times": [{"days": "Mon-Fri", "time": "2:45pm"}, {"days": "Sat", "time": "2:30pm"}, {"days": "Sun", "time": "Closed"}], "id": "6477200007", "name": "USPS COLLECTION BOX - BLUE BOX", "address": {"city": "NEVADA", "state": "MO", "street": "1407 W AUSTIN BLVD", "postcode": "64772"}}},
{"geometry": {"type": "Point", "coordinates": [-94.3436604218, 37.8497560249]}, "type": "Feature", "properties": {"collection_times": [{"days": "Mon-Sat", "time": "2:30pm"}, {"days": "Sun", "time": "Closed"}], "id": "6477200008", "name": "USPS COLLECTION BOX - BLUE BOX", "address": {"city": "NEVADA", "state": "MO", "street": "2250 LINCOLN AVE", "postcode": "64772"}}},
{"geometry": {"type": "Point", "coordinates": [-94.353988529, 37.8380681304]}, "type": "Feature", "properties": {"collection_times": [{"days": "Mon-Fri", "time": "5:15pm"}, {"days": "Sat", "time": "5:00pm"}, {"days": "Sun", "time": "Closed"}], "id": "6477200011", "name": "USPS COLLECTION BOX - PO LOBBY", "address": {"city": "NEVADA", "state": "MO", "street": "104 S OAK ST", "postcode": "64772"}}},
{"geometry": {"type": "Point", "coordinates": [-93.7021213187, 38.0473222181]}, "type": "Feature", "properties": {"collection_times": [{"days": "Mon-Fri", "time": "4:15pm"}, {"days": "Sat", "time": "3:45pm"}, {"days": "Sun", "time": "Closed"}], "id": "6477600000", "name": "USPS COLLECTION BOX - BLUE BOX", "address": {"city": "OSCEOLA", "state": "MO", "street": "565 3RD ST", "postcode": "64776"}}},
{"geometry": {"type": "Point", "coordinates": [-93.7021213187, 38.0473222181]}, "type": "Feature", "properties": {"collection_times": [{"days": "Mon-Fri", "time": "4:15pm"}, {"days": "Sat", "time": "10:15am"}, {"days": "Sun", "time": "Closed"}], "id": "6477600001", "name": "USPS COLLECTION BOX - PO LOBBY", "address": {"city": "OSCEOLA", "state": "MO", "street": "565 3RD ST", "postcode": "64776"}}},
{"geometry": {"type": "Point", "coordinates": [-93.7021213187, 38.0473222181]}, "type": "Feature", "properties": {"collection_times": [{"days": "Mon-Fri", "time": "4:15pm"}, {"days": "Sat", "time": "10:15am"}, {"days": "Sun", "time": "Closed"}], "id": "6477600002", "name": "USPS COLLECTION BOX - PO LOBBY", "address": {"city": "OSCEOLA", "state": "MO", "street": "565 3RD ST", "postcode": "64776"}}},
{"geometry": {"type": "Point", "coordinates": [-94.4482870301, 37.9984283894]}, "type": "Feature", "properties": {"collection_times": [{"days": "Mon-Sat", "time": "4:00pm"}, {"days": "Sun", "time": "Closed"}], "id": "6477800000", "name": "USPS COLLECTION BOX - BLUE BOX", "address": {"city": "RICHARDS", "state": "MO", "street": "12309 S MAIN ST", "postcode": "64778"}}},
{"geometry": {"type": "Point", "coordinates": [-94.4482870301, 37.9984283894]}, "type": "Feature", "properties": {"collection_times": [{"days": "Mon-Fri", "time": "11:00am"}, {"days": "Sat", "time": "9:30am"}, {"days": "Sun", "time": "Closed"}], "id": "6477800001", "name": "USPS COLLECTION BOX - PO LOBBY", "address": {"city": "RICHARDS", "state": "MO", "street": "12309 S MAIN ST", "postcode": "64778"}}},
{"geometry": {"type": "Point", "coordinates": [-94.3628716871, 38.0965811028]}, "type": "Feature", "properties": {"collection_times": [{"days": "Mon-Sat", "time": "4:30pm"}, {"days": "Sun", "time": "Closed"}], "id": "6477900001", "name": "USPS COLLECTION BOX - BLUE BOX", "address": {"city": "RICH HILL", "state": "MO", "street": "114 N 6TH ST", "postcode": "64779"}}},
{"geometry": {"type": "Point", "coordinates": [-94.3628716871, 38.0965811028]}, "type": "Feature", "properties": {"collection_times": [{"days": "Mon-Fri", "time": "4:30pm"}, {"days": "Sat", "time": "9:45am"}, {"days": "Sun", "time": "Closed"}], "id": "6477900004", "name": "USPS COLLECTION BOX - PO LOBBY", "address": {"city": "RICH HILL", "state": "MO", "street": "114 N 6TH ST", "postcode": "64779"}}},
{"geometry": {"type": "Point", "coordinates": [-94.0835096454, 38.0701904315]}, "type": "Feature", "properties": {"collection_times": [{"days": "Mon-Sat", "time": "4:00pm"}, {"days": "Sun", "time": "Closed"}], "id": "6478000000", "name": "USPS COLLECTION BOX - BLUE BOX", "address": {"city": "ROCKVILLE", "state": "MO", "street": "318 W OSAGE AVE", "postcode": "64780"}}},
{"geometry": {"type": "Point", "coordinates": [-94.0835096454, 38.0701904315]}, "type": "Feature", "properties": {"collection_times": [{"days": "Mon-Fri", "time": "12:00pm"}, {"days": "Sat", "time": "9:15am"}, {"days": "Sun", "time": "Closed"}], "id": "6478000002", "name": "USPS COLLECTION BOX - PO LOBBY", "address": {"city": "ROCKVILLE", "state": "MO", "street": "318 W OSAGE AVE", "postcode": "64780"}}},
{"geometry": {"type": "Point", "coordinates": [-93.8098402353, 37.9759302587]}, "type": "Feature", "properties": {"collection_times": [{"days": "Mon-Fri", "time": "3:15pm"}, {"days": "Sat", "time": "1:30pm"}, {"days": "Sun", "time": "Closed"}], "id": "6478100000", "name": "USPS COLLECTION BOX - BLUE BOX", "address": {"city": "ROSCOE", "state": "MO", "street": "100 PECAN ST", "postcode": "64781"}}},
{"geometry": {"type": "Point", "coordinates": [-93.8098402353, 37.9759302587]}, "type": "Feature", "properties": {"collection_times": [{"days": "Mon-Fri", "time": "3:15pm"}, {"days": "Sat", "time": "10:00am"}, {"days": "Sun", "time": "Closed"}], "id": "6478100001", "name": "USPS COLLECTION BOX - PO LOBBY", "address": {"city": "ROSCOE", "state": "MO", "street": "100 PECAN ST", "postcode": "64781"}}},
{"geometry": {"type": "Point", "coordinates": [-94.2292275553, 37.9804000483]}, "type": "Feature", "properties": {"collection_times": [{"days": "Mon-Fri", "time": "3:45pm"}, {"days": "Sat", "time": "3:00pm"}, {"days": "Sun", "time": "Closed"}], "id": "6478300000", "name": "USPS COLLECTION BOX - BLUE BOX", "address": {"city": "SCHELL CITY", "state": "MO", "street": "101 W 1ST ST", "postcode": "64783"}}},
{"geometry": {"type": "Point", "coordinates": [-94.2292275553, 37.9804000483]}, "type": "Feature", "properties": {"collection_times": [{"days": "Mon-Fri", "time": "11:30am"}, {"days": "Sat", "time": "9:00am"}, {"days": "Sun", "time": "Closed"}], "id": "6478300001", "name": "USPS COLLECTION BOX - PO LOBBY", "address": {"city": "SCHELL CITY", "state": "MO", "street": "101 W 1ST ST", "postcode": "64783"}}},
{"geometry": {"type": "Point", "coordinates": [-94.2945399389, 37.6581182596]}, "type": "Feature", "properties": {"collection_times": [{"days": "Mon-Fri", "time": "4:00pm"}, {"days": "Sat", "time": "3:00pm"}, {"days": "Sun", "time": "Closed"}], "id": "6478400000", "name": "USPS COLLECTION BOX - BLUE BOX", "address": {"city": "SHELDON", "state": "MO", "street": "300 W MAIN ST", "postcode": "64784"}}},
{"geometry": {"type": "Point", "coordinates": [-94.2945399389, 37.6581182596]}, "type": "Feature", "properties": {"collection_times": [{"days": "Mon-Fri", "time": "2:30pm"}, {"days": "Sat", "time": "9:00am"}, {"days": "Sun", "time": "Closed"}], "id": "6478400002", "name": "USPS COLLECTION BOX - PO LOBBY", "address": {"city": "SHELDON", "state": "MO", "street": "300 W MAIN ST", "postcode": "64784"}}},
{"geometry": {"type": "Point", "coordinates": [-94.0011219256, 38.4585876005]}, "type": "Feature", "properties": {"collection_times": [{"days": "Mon-Fri", "time": "4:00pm"}, {"days": "Sat", "time": "4:15pm"}, {"days": "Sun", "time": "Closed"}], "id": "6478800000", "name": "USPS COLLECTION BOX - BLUE BOX", "address": {"city": "URICH", "state": "MO", "street": "310 N MAIN ST", "postcode": "64788"}}},
{"geometry": {"type": "Point", "coordinates": [-94.0011219256, 38.4585876005]}, "type": "Feature", "properties": {"collection_times": [{"days": "Mon-Fri", "time": "11:30am"}, {"days": "Sat", "time": "9:45am"}, {"days": "Sun", "time": "Closed"}], "id": "6478800003", "name": "USPS COLLECTION BOX - PO LOBBY", "address": {"city": "URICH", "state": "MO", "street": "310 N MAIN ST", "postcode": "64788"}}},
{"geometry": {"type": "Point", "coordinates": [-94.2320107329, 37.8984813663]}, "type": "Feature", "properties": {"collection_times": [{"days": "Mon-Fri", "time": "4:00pm"}, {"days": "Sat", "time": "4:30pm"}, {"days": "Sun", "time": "Closed"}], "id": "6479000000", "name": "USPS COLLECTION BOX - BLUE BOX", "address": {"city": "WALKER", "state": "MO", "street": "116 E MARVIN AVE", "postcode": "64790"}}},
{"geometry": {"type": "Point", "coordinates": [-94.2320107329, 37.8984813663]}, "type": "Feature", "properties": {"collection_times": [{"days": "Mon-Fri", "time": "11:30am"}, {"days": "Sat", "time": "9:00am"}, {"days": "Sun", "time": "Closed"}], "id": "6479000001", "name": "USPS COLLECTION BOX - PO LOBBY", "address": {"city": "WALKER", "state": "MO", "street": "116 E MARVIN AVE", "postcode": "64790"}}}
]}
