{"type": "FeatureCollection", "features": [
{"geometry": {"type": "Point", "coordinates": [-94.458639381, 37.0967295611]}, "type": "Feature", "properties": {"collection_times": [{"days": "Mon-Sat", "time": "1:00pm"}, {"days": "Sun", "time": "Closed"}], "id": "6480100008", "name": "USPS COLLECTION BOX - BLUE BOX", "address": {"city": "JOPLIN", "state": "MO", "street": "701 DUQUESNE RD", "postcode": "64801"}}},
{"geometry": {"type": "Point", "coordinates": [-94.5024813029, 37.083821994]}, "type": "Feature", "properties": {"collection_times": [{"days": "Mon-Sat", "time": "11:00am"}, {"days": "Sun", "time": "Closed"}], "id": "6480100011", "name": "USPS COLLECTION BOX - BLUE BOX", "address": {"city": "JOPLIN", "state": "MO", "street": "705 ILLINOIS AVE", "postcode": "64801"}}},
{"geometry": {"type": "Point", "coordinates": [-94.5131382845, 37.0906493393]}, "type": "Feature", "properties": {"collection_times": [{"days": "Mon-Sat", "time": "4:30pm"}, {"days": "Sun", "time": "Closed"}], "id": "6480100028", "name": "USPS COLLECTION BOX - BLUE BOX", "address": {"city": "JOPLIN", "state": "MO", "street": "101 N MAIN ST", "postcode": "64801"}}},
{"geometry": {"type": "Point", "coordinates": [-94.5131382845, 37.0906493393]}, "type": "Feature", "properties": {"collection_times": [{"days": "Mon-Sat", "time": "4:30pm"}, {"days": "Sun", "time": "Closed"}], "id": "6480100031", "name": "USPS COLLECTION BOX - BLUE BOX", "address": {"city": "JOPLIN", "state": "MO", "street": "101 N MAIN ST", "postcode": "64801"}}},
{"geometry": {"type": "Point", "coordinates": [-94.5131382845, 37.0906493393]}, "type": "Feature", "properties": {"collection_times": [{"days": "Mon-Sat", "time": "4:30pm"}, {"days": "Sun", "time": "Closed"}], "id": "6480100032", "name": "USPS COLLECTION BOX - BLUE BOX", "address": {"city": "JOPLIN", "state": "MO", "street": "101 N MAIN ST", "postcode": "64801"}}},
{"geometry": {"type": "Point", "coordinates": [-94.5014771745, 37.0838447472]}, "type": "Feature", "properties": {"collection_times": [{"days": "Mon-Sat", "time": "11:00am"}, {"days": "Sun", "time": "Closed"}], "id": "6480100078", "name": "USPS COLLECTION BOX - BLUE BOX", "address": {"city": "JOPLIN", "state": "MO", "street": "1110 E 7TH ST", "postcode": "64801"}}},
{"geometry": {"type": "Point", "coordinates": [-94.4686462658, 37.0980781338]}, "type": "Feature", "properties": {"collection_times": [{"days": "Mon-Sat", "time": "11:00am"}, {"days": "Sun", "time": "Closed"}], "id": "6480100107", "name": "USPS COLLECTION BOX - BLUE BOX", "address": {"city": "JOPLIN", "state": "MO", "street": "3502 NEWMAN RD", "postcode": "64801"}}},
{"geometry": {"type": "Point", "coordinates": [-94.531120845, 37.0868622565]}, "type": "Feature", "properties": {"collection_times": [{"days": "Mon-Fri", "time": "2:45pm"}, {"days": "Sat", "time": "2:30pm"}, {"days": "Sun", "time": "Closed"}], "id": "6480100119", "name": "USPS COLLECTION BOX - BLUE BOX", "address": {"city": "JOPLIN", "state": "MO", "street": "530 S MAIDEN LN", "postcode": "64801"}}},
{"geometry": {"type": "Point", "coordinates": [-94.5311208451, 37.0868622563]}, "type": "Feature", "properties": {"collection_times": [{"days": "Mon-Fri", "time": "2:45pm"}, {"days": "Sat", "time": "2:30pm"}, {"days": "Sun", "time": "Closed"}], "id": "6480100120", "name": "USPS COLLECTION BOX - BLUE BOX", "address": {"city": "JOPLIN", "state": "MO", "street": "530 S MAIDEN LN", "postcode": "64801"}}},
{"geometry": {"type": "Point", "coordinates": [-94.4769459035, 37.0913092851]}, "type": "Feature", "properties": {"collection_times": [{"days": "Mon-Sat", "time": "9:30am"}, {"days": "Sun", "time": "Closed"}], "id": "6480100122", "name": "USPS COLLECTION BOX - BLUE BOX", "address": {"city": "JOPLIN", "state": "MO", "street": "101 N RANGE LINE RD", "postcode": "64801"}}},
{"geometry": {"type": "Point", "coordinates": [-94.5131382845, 37.0906493393]}, "type": "Feature", "properties": {"collection_times": [{"days": "Mon-Sat", "time": "4:30pm"}, {"days": "Sun", "time": "Closed"}], "id": "6480100127", "name": "USPS COLLECTION BOX - PO LOBBY", "address": {"city": "JOPLIN", "state": "MO", "street": "101 N MAIN ST", "postcode": "64801"}}},
{"geometry": {"type": "Point", "coordinates": [-94.5131382845, 37.0906493393]}, "type": "Feature", "properties": {"collection_times": [{"days": "Mon-Sat", "time": "4:30pm"}, {"days": "Sun", "time": "Closed"}], "id": "6480100128", "name": "USPS COLLECTION BOX - PO LOBBY", "address": {"city": "JOPLIN", "state": "MO", "street": "101 N MAIN ST", "postcode": "64801"}}},
{"geometry": {"type": "Point", "coordinates": [-94.5131382845, 37.0906493393]}, "type": "Feature", "properties": {"collection_times": [{"days": "Mon-Sat", "time": "4:30pm"}, {"days": "Sun", "time": "Closed"}], "id": "6480100129", "name": "USPS COLLECTION BOX - PO LOBBY", "address": {"city": "JOPLIN", "state": "MO", "street": "101 N MAIN ST", "postcode": "64801"}}},
{"geometry": {"type": "Point", "coordinates": [-94.5465509298, 37.0846837097]}, "type": "Feature", "properties": {"collection_times": [{"days": "Mon-Sat", "time": "9:00am"}, {"days": "Sun", "time": "Closed"}], "id": "6480100130", "name": "USPS COLLECTION BOX - BLUE BOX", "address": {"city": "JOPLIN", "state": "MO", "street": "2623 W 7TH ST", "postcode": "64801"}}},
{"geometry": {"type": "Point", "coordinates": [-94.4762243669, 37.1105259279]}, "type": "Feature", "properties": {"collection_times": [{"days": "Mon-Sat", "time": "2:30pm"}, {"days": "Sun", "time": "Closed"}], "id": "6480100132", "name": "USPS COLLECTION BOX - BLUE BOX", "address": {"city": "JOPLIN", "state": "MO", "street": "2530 N RANGELINE RD", "postcode": "64801"}}},
{"geometry": {"type": "Point", "coordinates": [-94.5112743683, 37.1275999732]}, "type": "Feature", "properties": {"collection_times": [{"days": "Mon-Sat", "time": "10:00am"}, {"days": "Sun", "time": "Closed"}], "id": "6480100133", "name": "USPS COLLECTION BOX - BLUE BOX", "address": {"city": "JOPLIN", "state": "MO", "street": "5935 N MAIN ST", "postcode": "64801"}}},
{"geometry": {"type": "Point", "coordinates": [-94.5167755637, 37.0855368099]}, "type": "Feature", "properties": {"collection_times": [{"days": "Mon-Fri", "time": "10:00am"}, {"days": "Sat-Sun", "time": "Closed"}], "id": "6480100134", "name": "USPS COLLECTION BOX - BLUE BOX", "address": {"city": "JOPLIN", "state": "MO", "street": "601 S PEARL AVE", "postcode": "64801"}}},
{"geometry": {"type": "Point", "coordinates": [-94.5167755637, 37.0855368099]}, "type": "Feature", "properties": {"collection_times": [{"days": "Mon-Fri", "time": "10:00am"}, {"days": "Sat-Sun", "time": "Closed"}], "id": "6480100135", "name": "USPS COLLECTION BOX - BLUE BOX", "address": {"city": "JOPLIN", "state": "MO", "street": "601 S PEARL AVE", "postcode": "64801"}}},
{"geometry": {"type": "Point", "coordinates": [-94.5150277664, 37.0727285047]}, "type": "Feature", "properties": {"collection_times": [{"days": "Mon-Sat", "time": "2:45pm"}, {"days": "Sun", "time": "Closed"}], "id": "6480400000", "name": "USPS COLLECTION BOX - BLUE BOX", "address": {"city": "JOPLIN", "state": "MO", "street": "1731 S JOPLIN AVE", "postcode": "64804"}}},
{"geometry": {"type": "Point", "coordinates": [-94.5150277664, 37.0727285047]}, "type": "Feature", "properties": {"collection_times": [{"days": "Mon-Sat", "time": "2:45pm"}, {"days": "Sun", "time": "Closed"}], "id": "6480400001", "name": "USPS COLLECTION BOX - BLUE BOX", "address": {"city": "JOPLIN", "state": "MO", "street": "1731 S JOPLIN AVE", "postcode": "64804"}}},
{"geometry": {"type": "Point", "coordinates": [-94.5146751513, 37.0559733186]}, "type": "Feature", "properties": {"collection_times": [{"days": "Mon-Fri", "time": "4:00pm"}, {"days": "Sat", "time": "12:00pm"}, {"days": "Sun", "time": "Closed"}], "id": "6480400011", "name": "USPS COLLECTION BOX - BLUE BOX", "address": {"city": "JOPLIN", "state": "MO", "street": "3115 S MAIN ST", "postcode": "64804"}}},
{"geometry": {"type": "Point", "coordinates": [-94.4784657468, 37.0559759172]}, "type": "Feature", "properties": {"collection_times": [{"days": "Mon-Sat", "time": "10:00am"}, {"days": "Sun", "time": "Closed"}], "id": "6480400028", "name": "USPS COLLECTION BOX - BLUE BOX", "address": {"city": "JOPLIN", "state": "MO", "street": "3132 S RANGE LINE RD", "postcode": "64804"}}},
{"geometry": {"type": "Point", "coordinates": [-94.4784657468, 37.0559759172]}, "type": "Feature", "properties": {"collection_times": [{"days": "Mon-Sat", "time": "10:00am"}, {"days": "Sun", "time": "Closed"}], "id": "6480400029", "name": "USPS COLLECTION BOX - BLUE BOX", "address": {"city": "JOPLIN", "state": "MO", "street": "3132 S RANGE LINE RD", "postcode": "64804"}}},
{"geometry": {"type": "Point", "coordinates": [-94.5256310216, 37.0547267559]}, "type": "Feature", "properties": {"collection_times": [{"days": "Mon-Sat", "time": "11:15am"}, {"days": "Sun", "time": "Closed"}], "id": "6480400031", "name": "USPS COLLECTION BOX - BLUE BOX", "address": {"city": "JOPLIN", "state": "MO", "street": "1102 W 32ND ST", "postcode": "64804"}}},
{"geometry": {"type": "Point", "coordinates": [-94.5335681707, 37.0551033507]}, "type": "Feature", "properties": {"collection_times": [{"days": "Mon-Sat", "time": "2:45pm"}, {"days": "Sun", "time": "Closed"}], "id": "6480400032", "name": "USPS COLLECTION BOX - BLUE BOX", "address": {"city": "JOPLIN", "state": "MO", "street": "1800 W 32ND ST", "postcode": "64804"}}},
{"geometry": {"type": "Point", "coordinates": [-94.5512911952, 37.0063701125]}, "type": "Feature", "properties": {"collection_times": [{"days": "Mon-Sat", "time": "10:00am"}, {"days": "Sun", "time": "Closed"}], "id": "6480400034", "name": "USPS COLLECTION BOX - BLUE BOX", "address": {"city": "JOPLIN", "state": "MO", "street": "4240 HIGHWAY 43", "postcode": "64804"}}},
{"geometry": {"type": "Point", "coordinates": [-94.5146751513, 37.0559733186]}, "type": "Feature", "properties": {"collection_times": [{"days": "Mon-Fri", "time": "4:00pm"}, {"days": "Sat", "time": "12:00pm"}, {"days": "Sun", "time": "Closed"}], "id": "6480400048", "name": "USPS COLLECTION BOX - PO LOBBY", "address": {"city": "JOPLIN", "state": "MO", "street": "3115 S MAIN ST", "postcode": "64804"}}},
{"geometry": {"type": "Point", "coordinates": [-94.5674261313, 36.9979613056]}, "type": "Feature", "properties": {"collection_times": [{"days": "Mon-Sat", "time": "11:00am"}, {"days": "Sun", "time": "Closed"}], "id": "6480400051", "name": "USPS COLLECTION BOX - BLUE BOX", "address": {"city": "JOPLIN", "state": "MO", "street": "5000 BUTTERFIELD DR", "postcode": "64804"}}},
{"geometry": {"type": "Point", "coordinates": [-94.4937278249, 37.0692339605]}, "type": "Feature", "properties": {"collection_times": [{"days": "Mon-Sat", "time": "10:00am"}, {"days": "Sun", "time": "Closed"}], "id": "6480400054", "name": "USPS COLLECTION BOX - BLUE BOX", "address": {"city": "JOPLIN", "state": "MO", "street": "1904 E 20TH ST", "postcode": "64804"}}},
{"geometry": {"type": "Point", "coordinates": [-94.5360141004, 37.0554317125]}, "type": "Feature", "properties": {"collection_times": [{"days": "Mon-Fri", "time": "1:30pm"}, {"days": "Sat", "time": "12:30pm"}, {"days": "Sun", "time": "Closed"}], "id": "6480400056", "name": "USPS COLLECTION BOX - BLUE BOX", "address": {"city": "JOPLIN", "state": "MO", "street": "1905 W 32ND ST", "postcode": "64804"}}},
{"geometry": {"type": "Point", "coordinates": [-94.5146751513, 37.0559733186]}, "type": "Feature", "properties": {"collection_times": [{"days": "Mon-Fri", "time": "4:00pm"}, {"days": "Sat", "time": "12:00pm"}, {"days": "Sun", "time": "Closed"}], "id": "6480400058", "name": "USPS COLLECTION BOX - APC", "address": {"city": "JOPLIN", "state": "MO", "street": "3115 S MAIN ST", "postcode": "64804"}}},
{"geometry": {"type": "Point", "coordinates": [-94.417759418, 37.2383702581]}, "type": "Feature", "properties": {"collection_times": [{"days": "Mon-Sat", "time": "10:15am"}, {"days": "Sun", "time": "Closed"}], "id": "6483000000", "name": "USPS COLLECTION BOX - BLUE BOX", "address": {"city": "ALBA", "state": "MO", "street": "210 N MAIN ST", "postcode": "64830"}}},
{"geometry": {"type": "Point", "coordinates": [-94.417759418, 37.2383702581]}, "type": "Feature", "properties": {"collection_times": [{"days": "Mon-Sat", "time": "10:00am"}, {"days": "Sun", "time": "Closed"}], "id": "6483000001", "name": "USPS COLLECTION BOX - PO LOBBY", "address": {"city": "ALBA", "state": "MO", "street": "210 N MAIN ST", "postcode": "64830"}}},
{"geometry": {"type": "Point", "coordinates": [-94.4396604733, 36.6508352317]}, "type": "Feature", "properties": {"collection_times": [{"days": "Mon-Fri", "time": "3:00pm"}, {"days": "Sat", "time": "10:15am"}, {"days": "Sun", "time": "Closed"}], "id": "6483100002", "name": "USPS COLLECTION BOX - PO LOBBY", "address": {"city": "ANDERSON", "state": "MO", "street": "200 E MAIN ST", "postcode": "64831"}}},
{"geometry": {"type": "Point", "coordinates": [-94.4396604733, 36.6508352317]}, "type": "Feature", "properties": {"collection_times": [{"days": "Mon-Fri", "time": "3:00pm"}, {"days": "Sat", "time": "10:15am"}, {"days": "Sun", "time": "Closed"}], "id": "6483100004", "name": "USPS COLLECTION BOX - BLUE BOX", "address": {"city": "ANDERSON", "state": "MO", "street": "200 E MAIN ST", "postcode": "64831"}}},
{"geometry": {"type": "Point", "coordinates": [-94.6004328309, 37.2458794442]}, "type": "Feature", "properties": {"collection_times": [{"days": "Mon-Fri", "time": "11:00am"}, {"days": "Sat", "time": "9:00am"}, {"days": "Sun", "time": "Closed"}], "id": "6483200000", "name": "USPS COLLECTION BOX - PO LOBBY", "address": {"city": "ASBURY", "state": "MO", "street": "497 MAIN ST", "postcode": "64832"}}},
{"geometry": {"type": "Point", "coordinates": [-94.6004328309, 37.2458794442]}, "type": "Feature", "properties": {"collection_times": [{"days": "Mon-Fri", "time": "11:00am"}, {"days": "Sat", "time": "9:00am"}, {"days": "Sun", "time": "Closed"}], "id": "6483200001", "name": "USPS COLLECTION BOX - PO LOBBY", "address": {"city": "ASBURY", "state": "MO", "street": "497 MAIN ST", "postcode": "64832"}}},
{"geometry": {"type": "Point", "coordinates": [-94.6004328309, 37.2458794442]}, "type": "Feature", "properties": {"collection_times": [{"days": "Mon-Fri", "time": "11:00am"}, {"days": "Sat", "time": "9:00am"}, {"days": "Sun", "time": "Closed"}], "id": "6483200002", "name": "USPS COLLECTION BOX - BLUE BOX", "address": {"city": "ASBURY", "state": "MO", "street": "497 MAIN ST", "postcode": "64832"}}},
{"geometry": {"type": "Point", "coordinates": [-94.1446638521, 37.2104553383]}, "type": "Feature", "properties": {"collection_times": [{"days": "Mon-Fri", "time": "2:45pm"}, {"days": "Sat", "time": "11:00am"}, {"days": "Sun", "time": "Closed"}], "id": "6483300000", "name": "USPS COLLECTION BOX - BLUE BOX", "address": {"city": "AVILLA", "state": "MO", "street": "205 GREENFIELD ST", "postcode": "64833"}}},
{"geometry": {"type": "Point", "coordinates": [-94.1446638521, 37.2104553383]}, "type": "Feature", "properties": {"collection_times": [{"days": "Mon-Fri", "time": "2:45pm"}, {"days": "Sat", "time": "11:00am"}, {"days": "Sun", "time": "Closed"}], "id": "6483300002", "name": "USPS COLLECTION BOX - PO LOBBY", "address": {"city": "AVILLA", "state": "MO", "street": "205 GREENFIELD ST", "postcode": "64833"}}},
{"geometry": {"type": "Point", "coordinates": [-94.5648839499, 37.1766446455]}, "type": "Feature", "properties": {"collection_times": [{"days": "Mon-Fri", "time": "4:00pm"}, {"days": "Sat", "time": "9:45am"}, {"days": "Sun", "time": "Closed"}], "id": "6483400000", "name": "USPS COLLECTION BOX - BLUE BOX", "address": {"city": "CARL JUNCTION", "state": "MO", "street": "111 S MAIN ST", "postcode": "64834"}}},
{"geometry": {"type": "Point", "coordinates": [-94.5648839499, 37.1766446455]}, "type": "Feature", "properties": {"collection_times": [{"days": "Mon-Fri", "time": "4:00pm"}, {"days": "Sat", "time": "9:45am"}, {"days": "Sun", "time": "Closed"}], "id": "6483400001", "name": "USPS COLLECTION BOX - PO LOBBY", "address": {"city": "CARL JUNCTION", "state": "MO", "street": "111 S MAIN ST", "postcode": "64834"}}},
{"geometry": {"type": "Point", "coordinates": [-94.4426595215, 37.1491869813]}, "type": "Feature", "properties": {"collection_times": [{"days": "Mon-Fri", "time": "4:00pm"}, {"days": "Sat", "time": "9:30am"}, {"days": "Sun", "time": "Closed"}], "id": "6483500000", "name": "USPS COLLECTION BOX - BLUE BOX", "address": {"city": "CARTERVILLE", "state": "MO", "street": "121 E MAIN ST", "postcode": "64835"}}},
{"geometry": {"type": "Point", "coordinates": [-94.4426595215, 37.1491869813]}, "type": "Feature", "properties": {"collection_times": [{"days": "Mon-Fri", "time": "4:00pm"}, {"days": "Sat", "time": "9:30am"}, {"days": "Sun", "time": "Closed"}], "id": "6483500003", "name": "USPS COLLECTION BOX - PO LOBBY", "address": {"city": "CARTERVILLE", "state": "MO", "street": "121 E MAIN ST", "postcode": "64835"}}},
{"geometry": {"type": "Point", "coordinates": [-94.3120330396, 37.1770145011]}, "type": "Feature", "properties": {"collection_times": [{"days": "Mon-Fri", "time": "4:00pm"}, {"days": "Sat", "time": "3:30pm"}, {"days": "Sun", "time": "Closed"}], "id": "6483600000", "name": "USPS COLLECTION BOX - PO LOBBY", "address": {"city": "CARTHAGE", "state": "MO", "street": "226 W 3RD ST", "postcode": "64836"}}},
{"geometry": {"type": "Point", "coordinates": [-94.3120330396, 37.1770145011]}, "type": "Feature", "properties": {"collection_times": [{"days": "Mon-Fri", "time": "4:00pm"}, {"days": "Sat", "time": "3:30pm"}, {"days": "Sun", "time": "Closed"}], "id": "6483600001", "name": "USPS COLLECTION BOX - PO LOBBY", "address": {"city": "CARTHAGE", "state": "MO", "street": "226 W 3RD ST", "postcode": "64836"}}},
{"geometry": {"type": "Point", "coordinates": [-94.3120330396, 37.1770145011]}, "type": "Feature", "properties": {"collection_times": [{"days": "Mon-Fri", "time": "4:00pm"}, {"days": "Sat", "time": "3:30pm"}, {"days": "Sun", "time": "Closed"}], "id": "6483600002", "name": "USPS COLLECTION BOX - BLUE BOX", "address": {"city": "CARTHAGE", "state": "MO", "street": "226 W 3RD ST", "postcode": "64836"}}},
{"geometry": {"type": "Point", "coordinates": [-94.3120330396, 37.1770145011]}, "type": "Feature", "properties": {"collection_times": [{"days": "Mon-Fri", "time": "4:00pm"}, {"days": "Sat", "time": "3:30pm"}, {"days": "Sun", "time": "Closed"}], "id": "6483600003", "name": "USPS COLLECTION BOX - BLUE BOX", "address": {"city": "CARTHAGE", "state": "MO", "street": "226 W 3RD ST", "postcode": "64836"}}},
{"geometry": {"type": "Point", "coordinates": [-94.3120330396, 37.1770145011]}, "type": "Feature", "properties": {"collection_times": [{"days": "Mon-Fri", "time": "4:00pm"}, {"days": "Sat", "time": "3:30pm"}, {"days": "Sun", "time": "Closed"}], "id": "6483600004", "name": "USPS COLLECTION BOX - BLUE BOX", "address": {"city": "CARTHAGE", "state": "MO", "street": "226 W 3RD ST", "postcode": "64836"}}},
{"geometry": {"type": "Point", "coordinates": [-94.3120330396, 37.1770145011]}, "type": "Feature", "properties": {"collection_times": [{"days": "Mon-Fri", "time": "4:00pm"}, {"days": "Sat", "time": "3:30pm"}, {"days": "Sun", "time": "Closed"}], "id": "6483600005", "name": "USPS COLLECTION BOX - BLUE BOX", "address": {"city": "CARTHAGE", "state": "MO", "street": "226 W 3RD ST", "postcode": "64836"}}},
{"geometry": {"type": "Point", "coordinates": [-94.3105705416, 37.1421604924]}, "type": "Feature", "properties": {"collection_times": [{"days": "Mon-Sat", "time": "9:30am"}, {"days": "Sun", "time": "Closed"}], "id": "6483600019", "name": "USPS COLLECTION BOX - BLUE BOX", "address": {"city": "CARTHAGE", "state": "MO", "street": "2705 GRAND AVE", "postcode": "64836"}}},
{"geometry": {"type": "Point", "coordinates": [-94.3104342542, 37.1463505592]}, "type": "Feature", "properties": {"collection_times": [{"days": "Mon-Sat", "time": "9:00am"}, {"days": "Sun", "time": "Closed"}], "id": "6483600029", "name": "USPS COLLECTION BOX - BLUE BOX", "address": {"city": "CARTHAGE", "state": "MO", "street": "2417 GRAND AVE", "postcode": "64836"}}},
{"geometry": {"type": "Point", "coordinates": [-94.3148208685, 36.9949499536]}, "type": "Feature", "properties": {"collection_times": [{"days": "Mon-Fri", "time": "3:45pm"}, {"days": "Sat", "time": "9:15am"}, {"days": "Sun", "time": "Closed"}], "id": "6484000000", "name": "USPS COLLECTION BOX - BLUE BOX", "address": {"city": "DIAMOND", "state": "MO", "street": "103 E MARKET ST", "postcode": "64840"}}},
{"geometry": {"type": "Point", "coordinates": [-94.3148208685, 36.9949499536]}, "type": "Feature", "properties": {"collection_times": [{"days": "Mon-Fri", "time": "3:45pm"}, {"days": "Sat", "time": "9:15am"}, {"days": "Sun", "time": "Closed"}], "id": "6484000004", "name": "USPS COLLECTION BOX - PO LOBBY", "address": {"city": "DIAMOND", "state": "MO", "street": "103 E MARKET ST", "postcode": "64840"}}},
{"geometry": {"type": "Point", "coordinates": [-94.4093291936, 37.0823696328]}, "type": "Feature", "properties": {"collection_times": [{"days": "Mon-Fri", "time": "4:00pm"}, {"days": "Sat", "time": "10:00am"}, {"days": "Sun", "time": "Closed"}], "id": "6484100000", "name": "USPS COLLECTION BOX - BLUE BOX", "address": {"city": "DUENWEG", "state": "MO", "street": "201 WOLFE DR", "postcode": "64841"}}},
{"geometry": {"type": "Point", "coordinates": [-94.4093291936, 37.0823696328]}, "type": "Feature", "properties": {"collection_times": [{"days": "Mon-Fri", "time": "4:00pm"}, {"days": "Sat", "time": "10:00am"}, {"days": "Sun", "time": "Closed"}], "id": "6484100001", "name": "USPS COLLECTION BOX - PO LOBBY", "address": {"city": "DUENWEG", "state": "MO", "street": "201 WOLFE DR", "postcode": "64841"}}},
{"geometry": {"type": "Point", "coordinates": [-94.0883168085, 36.8175753278]}, "type": "Feature", "properties": {"collection_times": [{"days": "Mon-Fri", "time": "2:45pm"}, {"days": "Sat", "time": "9:00am"}, {"days": "Sun", "time": "Closed"}], "id": "6484200000", "name": "USPS COLLECTION BOX - BLUE BOX", "address": {"city": "FAIRVIEW", "state": "MO", "street": "101 W MAIN ST", "postcode": "64842"}}},
{"geometry": {"type": "Point", "coordinates": [-94.0883168085, 36.8175753278]}, "type": "Feature", "properties": {"collection_times": [{"days": "Mon-Fri", "time": "2:45pm"}, {"days": "Sat", "time": "9:00am"}, {"days": "Sun", "time": "Closed"}], "id": "6484200001", "name": "USPS COLLECTION BOX - PO LOBBY", "address": {"city": "FAIRVIEW", "state": "MO", "street": "101 W MAIN ST", "postcode": "64842"}}},
{"geometry": {"type": "Point", "coordinates": [-94.4084022909, 36.7376617224]}, "type": "Feature", "properties": {"collection_times": [{"days": "Mon-Fri", "time": "3:15pm"}, {"days": "Sat", "time": "11:00am"}, {"days": "Sun", "time": "Closed"}], "id": "6484300000", "name": "USPS COLLECTION BOX - BLUE BOX", "address": {"city": "GOODMAN", "state": "MO", "street": "103 W SPLITLOG ST", "postcode": "64843"}}},
{"geometry": {"type": "Point", "coordinates": [-94.4084022909, 36.7376617224]}, "type": "Feature", "properties": {"collection_times": [{"days": "Mon-Fri", "time": "3:15pm"}, {"days": "Sat", "time": "11:00am"}, {"days": "Sun", "time": "Closed"}], "id": "6484300002", "name": "USPS COLLECTION BOX - PO LOBBY", "address": {"city": "GOODMAN", "state": "MO", "street": "103 W SPLITLOG ST", "postcode": "64843"}}},
{"geometry": {"type": "Point", "coordinates": [-94.2552520819, 36.9187875919]}, "type": "Feature", "properties": {"collection_times": [{"days": "Mon-Fri", "time": "3:30pm"}, {"days": "Sat", "time": "11:00am"}, {"days": "Sun", "time": "Closed"}], "id": "6484400000", "name": "USPS COLLECTION BOX - BLUE BOX", "address": {"city": "GRANBY", "state": "MO", "street": "126 S MAIN ST", "postcode": "64844"}}},
{"geometry": {"type": "Point", "coordinates": [-94.2552520819, 36.9187875919]}, "type": "Feature", "properties": {"collection_times": [{"days": "Mon-Fri", "time": "3:30pm"}, {"days": "Sat", "time": "11:00am"}, {"days": "Sun", "time": "Closed"}], "id": "6484400001", "name": "USPS COLLECTION BOX - PO LOBBY", "address": {"city": "GRANBY", "state": "MO", "street": "126 S MAIN ST", "postcode": "64844"}}},
{"geometry": {"type": "Point", "coordinates": [-94.4484534167, 36.6073938367]}, "type": "Feature", "properties": {"collection_times": [{"days": "Mon-Fri", "time": "3:00pm"}, {"days": "Sat", "time": "12:00pm"}, {"days": "Sun", "time": "Closed"}], "id": "6484700000", "name": "USPS COLLECTION BOX - BLUE BOX", "address": {"city": "LANAGAN", "state": "MO", "street": "117 N MAIN ST", "postcode": "64847"}}},
{"geometry": {"type": "Point", "coordinates": [-94.4484534167, 36.6073938367]}, "type": "Feature", "properties": {"collection_times": [{"days": "Mon-Fri", "time": "3:00pm"}, {"days": "Sat", "time": "12:00pm"}, {"days": "Sun", "time": "Closed"}], "id": "6484700001", "name": "USPS COLLECTION BOX - PO LOBBY", "address": {"city": "LANAGAN", "state": "MO", "street": "117 N MAIN ST", "postcode": "64847"}}},
{"geometry": {"type": "Point", "coordinates": [-94.0617952361, 37.1413025598]}, "type": "Feature", "properties": {"collection_times": [{"days": "Mon-Fri", "time": "3:00pm"}, {"days": "Sat", "time": "9:00am"}, {"days": "Sun", "time": "Closed"}], "id": "6484800000", "name": "USPS COLLECTION BOX - BLUE BOX", "address": {"city": "LA RUSSELL", "state": "MO", "street": "311 S MAIN ST", "postcode": "64848"}}},
{"geometry": {"type": "Point", "coordinates": [-94.0617952361, 37.1413025598]}, "type": "Feature", "properties": {"collection_times": [{"days": "Mon-Fri", "time": "3:00pm"}, {"days": "Sat", "time": "9:00am"}, {"days": "Sun", "time": "Closed"}], "id": "6484800002", "name": "USPS COLLECTION BOX - PO LOBBY", "address": {"city": "LA RUSSELL", "state": "MO", "street": "311 S MAIN ST", "postcode": "64848"}}},
{"geometry": {"type": "Point", "coordinates": [-94.4445042995, 37.2544378123]}, "type": "Feature", "properties": {"collection_times": [{"days": "Mon-Fri", "time": "3:30pm"}, {"days": "Sat", "time": "1:15pm"}, {"days": "Sun", "time": "Closed"}], "id": "6484900000", "name": "USPS COLLECTION BOX - BLUE BOX", "address": {"city": "NECK CITY", "state": "MO", "street": "200 GRAND AVE", "postcode": "64849"}}},
{"geometry": {"type": "Point", "coordinates": [-94.4445042995, 37.2544378123]}, "type": "Feature", "properties": {"collection_times": [{"days": "Mon-Fri", "time": "3:30pm"}, {"days": "Sat", "time": "1:15pm"}, {"days": "Sun", "time": "Closed"}], "id": "6484900001", "name": "USPS COLLECTION BOX - PO LOBBY", "address": {"city": "NECK CITY", "state": "MO", "street": "200 GRAND AVE", "postcode": "64849"}}},
{"geometry": {"type": "Point", "coordinates": [-94.3685987063, 36.8675569819]}, "type": "Feature", "properties": {"collection_times": [{"days": "Mon-Sat", "time": "3:45pm"}, {"days": "Sun", "time": "Closed"}], "id": "6485000002", "name": "USPS COLLECTION BOX - BLUE BOX", "address": {"city": "NEOSHO", "state": "MO", "street": "101 E HICKORY ST", "postcode": "64850"}}},
{"geometry": {"type": "Point", "coordinates": [-94.3969663169, 36.8702604294]}, "type": "Feature", "properties": {"collection_times": [{"days": "Mon-Fri", "time": "10:00am"}, {"days": "Sat", "time": "10:30am"}, {"days": "Sun", "time": "Closed"}], "id": "6485000015", "name": "USPS COLLECTION BOX - BLUE BOX", "address": {"city": "NEOSHO", "state": "MO", "street": "3200 LUSK DR", "postcode": "64850"}}},
{"geometry": {"type": "Point", "coordinates": [-94.3685987063, 36.8675569819]}, "type": "Feature", "properties": {"collection_times": [{"days": "Mon-Sat", "time": "3:45pm"}, {"days": "Sun", "time": "Closed"}], "id": "6485000023", "name": "USPS COLLECTION BOX - PO LOBBY", "address": {"city": "NEOSHO", "state": "MO", "street": "101 E HICKORY ST", "postcode": "64850"}}},
{"geometry": {"type": "Point", "coordinates": [-94.3685987063, 36.8675569819]}, "type": "Feature", "properties": {"collection_times": [{"days": "Mon-Sat", "time": "3:45pm"}, {"days": "Sun", "time": "Closed"}], "id": "6485000024", "name": "USPS COLLECTION BOX - PO LOBBY", "address": {"city": "NEOSHO", "state": "MO", "street": "101 E HICKORY ST", "postcode": "64850"}}},
{"geometry": {"type": "Point", "coordinates": [-94.4006253761, 36.8656720185]}, "type": "Feature", "properties": {"collection_times": [{"days": "Mon-Sat", "time": "12:30pm"}, {"days": "Sun", "time": "Closed"}], "id": "6485000028", "name": "USPS COLLECTION BOX - BLUE BOX", "address": {"city": "NEOSHO", "state": "MO", "street": "12033 E HIGHWAY 86", "postcode": "64850"}}},
{"geometry": {"type": "Point", "coordinates": [-94.3803758363, 36.8706828861]}, "type": "Feature", "properties": {"collection_times": [{"days": "Mon-Fri", "time": "10:00am"}, {"days": "Sat", "time": "10:30am"}, {"days": "Sun", "time": "Closed"}], "id": "6485000032", "name": "USPS COLLECTION BOX - BLUE BOX", "address": {"city": "NEOSHO", "state": "MO", "street": "110 N NEOSHO BLVD", "postcode": "64850"}}},
{"geometry": {"type": "Point", "coordinates": [-94.484895645, 36.5450016172]}, "type": "Feature", "properties": {"collection_times": [{"days": "Mon-Fri", "time": "2:45pm"}, {"days": "Sat", "time": "11:00am"}, {"days": "Sun", "time": "Closed"}], "id": "6485400000", "name": "USPS COLLECTION BOX - BLUE BOX", "address": {"city": "NOEL", "state": "MO", "street": "318 MAIN ST", "postcode": "64854"}}},
{"geometry": {"type": "Point", "coordinates": [-94.484895645, 36.5450016172]}, "type": "Feature", "properties": {"collection_times": [{"days": "Mon-Fri", "time": "2:45pm"}, {"days": "Sat", "time": "11:00am"}, {"days": "Sun", "time": "Closed"}], "id": "6485400005", "name": "USPS COLLECTION BOX - PO LOBBY", "address": {"city": "NOEL", "state": "MO", "street": "318 MAIN ST", "postcode": "64854"}}},
{"geometry": {"type": "Point", "coordinates": [-94.4383782218, 37.2443156085]}, "type": "Feature", "properties": {"collection_times": [{"days": "Mon-Fri", "time": "4:00pm"}, {"days": "Sat", "time": "9:15am"}, {"days": "Sun", "time": "Closed"}], "id": "6485500000", "name": "USPS COLLECTION BOX - BLUE BOX", "address": {"city": "ORONOGO", "state": "MO", "street": "101 S 2ND ST", "postcode": "64855"}}},
{"geometry": {"type": "Point", "coordinates": [-94.4383782218, 37.2443156085]}, "type": "Feature", "properties": {"collection_times": [{"days": "Mon-Fri", "time": "4:00pm"}, {"days": "Sat", "time": "9:15am"}, {"days": "Sun", "time": "Closed"}], "id": "6485500001", "name": "USPS COLLECTION BOX - PO LOBBY", "address": {"city": "ORONOGO", "state": "MO", "street": "101 S 2ND ST", "postcode": "64855"}}},
{"geometry": {"type": "Point", "coordinates": [-94.3831585775, 36.5943072011]}, "type": "Feature", "properties": {"collection_times": [{"days": "Mon-Fri", "time": "2:45pm"}, {"days": "Sat", "time": "11:00am"}, {"days": "Sun", "time": "Closed"}], "id": "6485600000", "name": "USPS COLLECTION BOX - BLUE BOX", "address": {"city": "PINEVILLE", "state": "MO", "street": "304 HARMON ST", "postcode": "64856"}}},
{"geometry": {"type": "Point", "coordinates": [-94.2410001799, 36.5503714085]}, "type": "Feature", "properties": {"collection_times": [{"days": "Mon-Sat", "time": "1:00pm"}, {"days": "Sun", "time": "Closed"}], "id": "6485600001", "name": "USPS COLLECTION BOX - BLUE BOX", "address": {"city": "PINEVILLE", "state": "MO", "street": "100 COMMERCIAL LN", "postcode": "64856"}}},
{"geometry": {"type": "Point", "coordinates": [-94.3831585775, 36.5943072011]}, "type": "Feature", "properties": {"collection_times": [{"days": "Mon-Fri", "time": "2:45pm"}, {"days": "Sat", "time": "11:00am"}, {"days": "Sun", "time": "Closed"}], "id": "6485600003", "name": "USPS COLLECTION BOX - PO LOBBY", "address": {"city": "PINEVILLE", "state": "MO", "street": "304 HARMON ST", "postcode": "64856"}}},
{"geometry": {"type": "Point", "coordinates": [-94.4357812804, 37.2407535787]}, "type": "Feature", "properties": {"collection_times": [{"days": "Mon-Fri", "time": "3:45pm"}, {"days": "Sat", "time": "9:45am"}, {"days": "Sun", "time": "Closed"}], "id": "6485700000", "name": "USPS COLLECTION BOX - BLUE BOX", "address": {"city": "PURCELL", "state": "MO", "street": "104 W 4TH ST", "postcode": "64857"}}},
{"geometry": {"type": "Point", "coordinates": [-94.4357812804, 37.2407535787]}, "type": "Feature", "properties": {"collection_times": [{"days": "Mon-Fri", "time": "3:45pm"}, {"days": "Sat", "time": "9:45am"}, {"days": "Sun", "time": "Closed"}], "id": "6485700001", "name": "USPS COLLECTION BOX - PO LOBBY", "address": {"city": "PURCELL", "state": "MO", "street": "104 W 4TH ST", "postcode": "64857"}}},
{"geometry": {"type": "Point", "coordinates": [-94.5272130583, 36.8963354006]}, "type": "Feature", "properties": {"collection_times": [{"days": "Mon-Fri", "time": "11:00am"}, {"days": "Sat", "time": "9:00am"}, {"days": "Sun", "time": "Closed"}], "id": "6485800000", "name": "USPS COLLECTION BOX - BLUE BOX", "address": {"city": "RACINE", "state": "MO", "street": "11945 W HIGHWAY 86", "postcode": "64858"}}},
{"geometry": {"type": "Point", "coordinates": [-94.5272130583, 36.8963354006]}, "type": "Feature", "properties": {"collection_times": [{"days": "Mon-Fri", "time": "11:00am"}, {"days": "Sat", "time": "9:00am"}, {"days": "Sun", "time": "Closed"}], "id": "6485800001", "name": "USPS COLLECTION BOX - PO LOBBY", "address": {"city": "RACINE", "state": "MO", "street": "11945 W HIGHWAY 86", "postcode": "64858"}}},
{"geometry": {"type": "Point", "coordinates": [-94.1687980026, 37.116471164]}, "type": "Feature", "properties": {"collection_times": [{"days": "Mon-Fri", "time": "3:30pm"}, {"days": "Sat", "time": "10:30am"}, {"days": "Sun", "time": "Closed"}], "id": "6485900000", "name": "USPS COLLECTION BOX - BLUE BOX", "address": {"city": "REEDS", "state": "MO", "street": "5970 5TH ST", "postcode": "64859"}}},
{"geometry": {"type": "Point", "coordinates": [-94.1687980026, 37.116471164]}, "type": "Feature", "properties": {"collection_times": [{"days": "Mon-Fri", "time": "3:30pm"}, {"days": "Sat", "time": "10:30am"}, {"days": "Sun", "time": "Closed"}], "id": "6485900001", "name": "USPS COLLECTION BOX - PO LOBBY", "address": {"city": "REEDS", "state": "MO", "street": "5970 5TH ST", "postcode": "64859"}}},
{"geometry": {"type": "Point", "coordinates": [-94.125413636, 36.706326717]}, "type": "Feature", "properties": {"collection_times": [{"days": "Mon-Fri", "time": "2:45pm"}, {"days": "Sat", "time": "9:30am"}, {"days": "Sun", "time": "Closed"}], "id": "6486100000", "name": "USPS COLLECTION BOX - BLUE BOX", "address": {"city": "ROCKY COMFORT", "state": "MO", "street": "121 MAIN ST", "postcode": "64861"}}},
{"geometry": {"type": "Point", "coordinates": [-94.0894126609, 36.7461346945]}, "type": "Feature", "properties": {"collection_times": [{"days": "Mon-Fri", "time": "2:45pm"}, {"days": "Sat", "time": "9:30am"}, {"days": "Sun", "time": "Closed"}], "id": "6486100002", "name": "USPS COLLECTION BOX - PO LOBBY", "address": {"city": "ROCKY COMFORT", "state": "MO", "street": "121 MAIN ST", "postcode": "64861"}}},
{"geometry": {"type": "Point", "coordinates": [-94.1160664091, 37.0698924169]}, "type": "Feature", "properties": {"collection_times": [{"days": "Mon-Fri", "time": "3:15pm"}, {"days": "Sat", "time": "10:45am"}, {"days": "Sun", "time": "Closed"}], "id": "6486200002", "name": "USPS COLLECTION BOX - BLUE BOX", "address": {"city": "SARCOXIE", "state": "MO", "street": "216 N 5TH ST", "postcode": "64862"}}},
{"geometry": {"type": "Point", "coordinates": [-94.1160664091, 37.0698924169]}, "type": "Feature", "properties": {"collection_times": [{"days": "Mon-Fri", "time": "3:15pm"}, {"days": "Sat", "time": "10:45am"}, {"days": "Sun", "time": "Closed"}], "id": "6486200003", "name": "USPS COLLECTION BOX - PO LOBBY", "address": {"city": "SARCOXIE", "state": "MO", "street": "216 N 5TH ST", "postcode": "64862"}}},
{"geometry": {"type": "Point", "coordinates": [-94.6115050163, 36.5137628734]}, "type": "Feature", "properties": {"collection_times": [{"days": "Mon-Fri", "time": "2:45pm"}, {"days": "Sat", "time": "11:00am"}, {"days": "Sun", "time": "Closed"}], "id": "6486300000", "name": "USPS COLLECTION BOX - BLUE BOX", "address": {"city": "SOUTHWEST CITY", "state": "MO", "street": "214 S MAIN ST", "postcode": "64863"}}},
{"geometry": {"type": "Point", "coordinates": [-94.6115050163, 36.5137628734]}, "type": "Feature", "properties": {"collection_times": [{"days": "Mon-Fri", "time": "2:45pm"}, {"days": "Sat", "time": "11:00am"}, {"days": "Sun", "time": "Closed"}], "id": "6486300001", "name": "USPS COLLECTION BOX - PO LOBBY", "address": {"city": "SOUTHWEST CITY", "state": "MO", "street": "214 S MAIN ST", "postcode": "64863"}}},
{"geometry": {"type": "Point", "coordinates": [-94.4790612335, 37.0333942685]}, "type": "Feature", "properties": {"collection_times": [{"days": "Mon-Fri", "time": "4:00pm"}, {"days": "Sat", "time": "9:45am"}, {"days": "Sun", "time": "Closed"}], "id": "6486400000", "name": "USPS COLLECTION BOX - BLUE BOX", "address": {"city": "SAGINAW", "state": "MO", "street": "5301 S RANGE LINE RD", "postcode": "64864"}}},
{"geometry": {"type": "Point", "coordinates": [-94.4790612335, 37.0333942685]}, "type": "Feature", "properties": {"collection_times": [{"days": "Mon-Fri", "time": "4:00pm"}, {"days": "Sat", "time": "9:45am"}, {"days": "Sun", "time": "Closed"}], "id": "6486400001", "name": "USPS COLLECTION BOX - PO LOBBY", "address": {"city": "SAGINAW", "state": "MO", "street": "5301 S RANGE LINE RD", "postcode": "64864"}}},
{"geometry": {"type": "Point", "coordinates": [-94.6111066165, 36.843205576]}, "type": "Feature", "properties": {"collection_times": [{"days": "Mon-Fri", "time": "3:45pm"}, {"days": "Sat", "time": "10:30am"}, {"days": "Sun", "time": "Closed"}], "id": "6486500000", "name": "USPS COLLECTION BOX - BLUE BOX", "address": {"city": "SENECA", "state": "MO", "street": "1205 CHEROKEE AVE", "postcode": "64865"}}},
{"geometry": {"type": "Point", "coordinates": [-94.6111066165, 36.843205576]}, "type": "Feature", "properties": {"collection_times": [{"days": "Mon-Fri", "time": "3:45pm"}, {"days": "Sat", "time": "10:30am"}, {"days": "Sun", "time": "Closed"}], "id": "6486500003", "name": "USPS COLLECTION BOX - PO LOBBY", "address": {"city": "SENECA", "state": "MO", "street": "1205 CHEROKEE AVE", "postcode": "64865"}}},
{"geometry": {"type": "Point", "coordinates": [-94.1899126518, 36.8615525883]}, "type": "Feature", "properties": {"collection_times": [{"days": "Mon-Fri", "time": "3:00pm"}, {"days": "Sat", "time": "9:15am"}, {"days": "Sun", "time": "Closed"}], "id": "6486600000", "name": "USPS COLLECTION BOX - BLUE BOX", "address": {"city": "STARK CITY", "state": "MO", "street": "302 KENT ST", "postcode": "64866"}}},
{"geometry": {"type": "Point", "coordinates": [-94.1899126518, 36.8615525883]}, "type": "Feature", "properties": {"collection_times": [{"days": "Mon-Fri", "time": "3:00pm"}, {"days": "Sat", "time": "9:15am"}, {"days": "Sun", "time": "Closed"}], "id": "6486600001", "name": "USPS COLLECTION BOX - PO LOBBY", "address": {"city": "STARK CITY", "state": "MO", "street": "302 KENT ST", "postcode": "64866"}}},
{"geometry": {"type": "Point", "coordinates": [-94.1930446922, 36.7560777843]}, "type": "Feature", "properties": {"collection_times": [{"days": "Mon-Fri", "time": "3:00pm"}, {"days": "Sat", "time": "9:45am"}, {"days": "Sun", "time": "Closed"}], "id": "6486700000", "name": "USPS COLLECTION BOX - BLUE BOX", "address": {"city": "STELLA", "state": "MO", "street": "774 OZARK ST", "postcode": "64867"}}},
{"geometry": {"type": "Point", "coordinates": [-94.1930446922, 36.7560777843]}, "type": "Feature", "properties": {"collection_times": [{"days": "Mon-Fri", "time": "3:00pm"}, {"days": "Sat", "time": "9:45am"}, {"days": "Sun", "time": "Closed"}], "id": "6486700001", "name": "USPS COLLECTION BOX - PO LOBBY", "address": {"city": "STELLA", "state": "MO", "street": "774 OZARK ST", "postcode": "64867"}}},
{"geometry": {"type": "Point", "coordinates": [-94.6176361113, 36.6680916685]}, "type": "Feature", "properties": {"collection_times": [{"days": "Mon-Fri", "time": "12:45pm"}, {"days": "Sat", "time": "11:45am"}, {"days": "Sun", "time": "Closed"}], "id": "6486800000", "name": "USPS COLLECTION BOX - BLUE BOX", "address": {"city": "TIFF CITY", "state": "MO", "street": "10703 W STATE HIGHWAY 76", "postcode": "64868"}}},
{"geometry": {"type": "Point", "coordinates": [-94.6176361113, 36.6680916685]}, "type": "Feature", "properties": {"collection_times": [{"days": "Mon-Fri", "time": "12:45pm"}, {"days": "Sat", "time": "11:45am"}, {"days": "Sun", "time": "Closed"}], "id": "6486800001", "name": "USPS COLLECTION BOX - PO LOBBY", "address": {"city": "TIFF CITY", "state": "MO", "street": "10703 W STATE HIGHWAY 76", "postcode": "64868"}}},
{"geometry": {"type": "Point", "coordinates": [-94.4642477022, 37.1472923]}, "type": "Feature", "properties": {"collection_times": [{"days": "Mon-Fri", "time": "4:00pm"}, {"days": "Sat", "time": "3:00pm"}, {"days": "Sun", "time": "Closed"}], "id": "6487000015", "name": "USPS COLLECTION BOX - BLUE BOX", "address": {"city": "WEBB CITY", "state": "MO", "street": "220 W DAUGHERTY ST", "postcode": "64870"}}},
{"geometry": {"type": "Point", "coordinates": [-94.4642477022, 37.1472923]}, "type": "Feature", "properties": {"collection_times": [{"days": "Mon-Fri", "time": "4:00pm"}, {"days": "Sat", "time": "3:00pm"}, {"days": "Sun", "time": "Closed"}], "id": "6487000017", "name": "USPS COLLECTION BOX - PO LOBBY", "address": {"city": "WEBB CITY", "state": "MO", "street": "220 W DAUGHERTY ST", "postcode": "64870"}}},
{"geometry": {"type": "Point", "coordinates": [-94.4642477022, 37.1472923]}, "type": "Feature", "properties": {"collection_times": [{"days": "Mon-Fri", "time": "4:00pm"}, {"days": "Sat", "time": "3:00pm"}, {"days": "Sun", "time": "Closed"}], "id": "6487000018", "name": "USPS COLLECTION BOX - PO LOBBY", "address": {"city": "WEBB CITY", "state": "MO", "street": "220 W DAUGHERTY ST", "postcode": "64870"}}},
{"geometry": {"type": "Point", "coordinates": [-94.4752238151, 37.1335747561]}, "type": "Feature", "properties": {"collection_times": [{"days": "Mon-Sat", "time": "10:30am"}, {"days": "Sun", "time": "Closed"}], "id": "6487000019", "name": "USPS COLLECTION BOX - BLUE BOX", "address": {"city": "WEBB CITY", "state": "MO", "street": "1212 S MADISON ST", "postcode": "64870"}}},
{"geometry": {"type": "Point", "coordinates": [-94.0592346965, 36.7591794554]}, "type": "Feature", "properties": {"collection_times": [{"days": "Mon-Fri", "time": "2:30pm"}, {"days": "Sat", "time": "10:15am"}, {"days": "Sun", "time": "Closed"}], "id": "6487400000", "name": "USPS COLLECTION BOX - BLUE BOX", "address": {"city": "WHEATON", "state": "MO", "street": "300 S GILMAN ST", "postcode": "64874"}}},
{"geometry": {"type": "Point", "coordinates": [-94.0592346965, 36.7591794554]}, "type": "Feature", "properties": {"collection_times": [{"days": "Mon-Fri", "time": "2:30pm"}, {"days": "Sat", "time": "10:15am"}, {"days": "Sun", "time": "Closed"}], "id": "6487400001", "name": "USPS COLLECTION BOX - PO LOBBY", "address": {"city": "WHEATON", "state": "MO", "street": "300 S GILMAN ST", "postcode": "64874"}}}
]}
