{"type": "FeatureCollection", "features": [
{"geometry": {"type": "Point", "coordinates": [-92.0247990098, 38.2946623127]}, "type": "Feature", "properties": {"collection_times": [{"days": "Mon-Fri", "time": "12:45pm"}, {"days": "Sat", "time": "9:30am"}, {"days": "Sun", "time": "Closed"}], "id": "6500100001", "name": "USPS COLLECTION BOX - BLUE BOX", "address": {"city": "ARGYLE", "state": "MO", "street": "3 2ND ST", "postcode": "65001"}}},
{"geometry": {"type": "Point", "coordinates": [-92.0247990098, 38.2946623127]}, "type": "Feature", "properties": {"collection_times": [{"days": "Mon-Fri", "time": "11:45am"}, {"days": "Sat", "time": "10:45am"}, {"days": "Sun", "time": "Closed"}], "id": "6500100002", "name": "USPS COLLECTION BOX - PO LOBBY", "address": {"city": "ARGYLE", "state": "MO", "street": "3 2ND ST", "postcode": "65001"}}},
{"geometry": {"type": "Point", "coordinates": [-92.2519293737, 38.7789060011]}, "type": "Feature", "properties": {"collection_times": [{"days": "Mon-Sat", "time": "12:30pm"}, {"days": "Sun", "time": "Closed"}], "id": "6501000001", "name": "USPS COLLECTION BOX - BLUE BOX", "address": {"city": "ASHLAND", "state": "MO", "street": "109 EASTSIDE DR", "postcode": "65010"}}},
{"geometry": {"type": "Point", "coordinates": [-92.2615943922, 38.7747434771]}, "type": "Feature", "properties": {"collection_times": [{"days": "Mon-Fri", "time": "3:45pm"}, {"days": "Sat", "time": "8:45am"}, {"days": "Sun", "time": "Closed"}], "id": "6501000002", "name": "USPS COLLECTION BOX - BLUE BOX", "address": {"city": "ASHLAND", "state": "MO", "street": "131 E BROADWAY", "postcode": "65010"}}},
{"geometry": {"type": "Point", "coordinates": [-92.2615943922, 38.7747434771]}, "type": "Feature", "properties": {"collection_times": [{"days": "Mon-Fri", "time": "3:45pm"}, {"days": "Sat", "time": "8:45am"}, {"days": "Sun", "time": "Closed"}], "id": "6501000003", "name": "USPS COLLECTION BOX - PO LOBBY", "address": {"city": "ASHLAND", "state": "MO", "street": "131 E BROADWAY", "postcode": "65010"}}},
{"geometry": {"type": "Point", "coordinates": [-92.6744562889, 38.3784221655]}, "type": "Feature", "properties": {"collection_times": [{"days": "Mon-Fri", "time": "4:00pm"}, {"days": "Sat", "time": "9:00am"}, {"days": "Sun", "time": "Closed"}], "id": "6501100001", "name": "USPS COLLECTION BOX - BLUE BOX", "address": {"city": "BARNETT", "state": "MO", "street": "409 2ND ST", "postcode": "65011"}}},
{"geometry": {"type": "Point", "coordinates": [-92.6744562889, 38.3784221655]}, "type": "Feature", "properties": {"collection_times": [{"days": "Mon-Fri", "time": "4:00pm"}, {"days": "Sat", "time": "9:00am"}, {"days": "Sun", "time": "Closed"}], "id": "6501100002", "name": "USPS COLLECTION BOX - PO LOBBY", "address": {"city": "BARNETT", "state": "MO", "street": "409 2ND ST", "postcode": "65011"}}},
{"geometry": {"type": "Point", "coordinates": [-91.7195893942, 38.2870895589]}, "type": "Feature", "properties": {"collection_times": [{"days": "Mon-Fri", "time": "3:45pm"}, {"days": "Sat", "time": "9:30am"}, {"days": "Sun", "time": "Closed"}], "id": "6501300001", "name": "USPS COLLECTION BOX - BLUE BOX", "address": {"city": "BELLE", "state": "MO", "street": "203 E 3RD ST", "postcode": "65013"}}},
{"geometry": {"type": "Point", "coordinates": [-91.7195893942, 38.2870895589]}, "type": "Feature", "properties": {"collection_times": [{"days": "Mon-Fri", "time": "3:45pm"}, {"days": "Sat", "time": "9:30am"}, {"days": "Sun", "time": "Closed"}], "id": "6501300003", "name": "USPS COLLECTION BOX - PO LOBBY", "address": {"city": "BELLE", "state": "MO", "street": "203 E 3RD ST", "postcode": "65013"}}},
{"geometry": {"type": "Point", "coordinates": [-91.635195938, 38.303277401]}, "type": "Feature", "properties": {"collection_times": [{"days": "Mon-Sat", "time": "10:30am"}, {"days": "Sun", "time": "Closed"}], "id": "6501400002", "name": "USPS COLLECTION BOX - BLUE BOX", "address": {"city": "BLAND", "state": "MO", "street": "208 W COLORADO AVE", "postcode": "65014"}}},
{"geometry": {"type": "Point", "coordinates": [-91.635195938, 38.303277401]}, "type": "Feature", "properties": {"collection_times": [{"days": "Mon-Fri", "time": "2:30pm"}, {"days": "Sat", "time": "10:45am"}, {"days": "Sun", "time": "Closed"}], "id": "6501400006", "name": "USPS COLLECTION BOX - PO LOBBY", "address": {"city": "BLAND", "state": "MO", "street": "208 W COLORADO AVE", "postcode": "65014"}}},
{"geometry": {"type": "Point", "coordinates": [-91.9653491343, 38.57834337]}, "type": "Feature", "properties": {"collection_times": [{"days": "Mon-Fri", "time": "3:45pm"}, {"days": "Sat", "time": "8:15am"}, {"days": "Sun", "time": "Closed"}], "id": "6501600001", "name": "USPS COLLECTION BOX - BLUE BOX", "address": {"city": "BONNOTS MILL", "state": "MO", "street": "110 RIVERVIEW DR", "postcode": "65016"}}},
{"geometry": {"type": "Point", "coordinates": [-91.9653491343, 38.57834337]}, "type": "Feature", "properties": {"collection_times": [{"days": "Mon-Fri", "time": "10:45am"}, {"days": "Sat", "time": "9:30am"}, {"days": "Sun", "time": "Closed"}], "id": "6501600002", "name": "USPS COLLECTION BOX - PO LOBBY", "address": {"city": "BONNOTS MILL", "state": "MO", "street": "110 RIVERVIEW DR", "postcode": "65016"}}},
{"geometry": {"type": "Point", "coordinates": [-92.4854432398, 38.0879433797]}, "type": "Feature", "properties": {"collection_times": [{"days": "Mon-Fri", "time": "11:15am"}, {"days": "Sat", "time": "9:00am"}, {"days": "Sun", "time": "Closed"}], "id": "6501700001", "name": "USPS COLLECTION BOX - BLUE BOX", "address": {"city": "BRUMLEY", "state": "MO", "street": "859 HIGHWAY C", "postcode": "65017"}}},
{"geometry": {"type": "Point", "coordinates": [-92.4854432398, 38.0879433797]}, "type": "Feature", "properties": {"collection_times": [{"days": "Mon-Fri", "time": "11:15am"}, {"days": "Sat", "time": "9:00am"}, {"days": "Sun", "time": "Closed"}], "id": "6501700002", "name": "USPS COLLECTION BOX - PO LOBBY", "address": {"city": "BRUMLEY", "state": "MO", "street": "859 HIGHWAY C", "postcode": "65017"}}},
{"geometry": {"type": "Point", "coordinates": [-92.565308729, 38.6342737863]}, "type": "Feature", "properties": {"collection_times": [{"days": "Mon-Fri", "time": "4:30pm"}, {"days": "Sat", "time": "10:00am"}, {"days": "Sun", "time": "Closed"}], "id": "6501800001", "name": "USPS COLLECTION BOX - BLUE BOX", "address": {"city": "CALIFORNIA", "state": "MO", "street": "200 N HIGH ST", "postcode": "65018"}}},
{"geometry": {"type": "Point", "coordinates": [-92.565308729, 38.6342737863]}, "type": "Feature", "properties": {"collection_times": [{"days": "Mon-Fri", "time": "4:30pm"}, {"days": "Sat", "time": "10:00am"}, {"days": "Sun", "time": "Closed"}], "id": "6501800004", "name": "USPS COLLECTION BOX - BLUE BOX", "address": {"city": "CALIFORNIA", "state": "MO", "street": "200 N HIGH ST", "postcode": "65018"}}},
{"geometry": {"type": "Point", "coordinates": [-92.5648753816, 38.6362140295]}, "type": "Feature", "properties": {"collection_times": [{"days": "Mon-Sat", "time": "2:30pm"}, {"days": "Sun", "time": "Closed"}], "id": "6501800006", "name": "USPS COLLECTION BOX - BLUE BOX", "address": {"city": "CALIFORNIA", "state": "MO", "street": "200 E MAIN ST", "postcode": "65018"}}},
{"geometry": {"type": "Point", "coordinates": [-92.5840657629, 38.6328940971]}, "type": "Feature", "properties": {"collection_times": [{"days": "Mon-Sat", "time": "9:15am"}, {"days": "Sun", "time": "Closed"}], "id": "6501800007", "name": "USPS COLLECTION BOX - BLUE BOX", "address": {"city": "CALIFORNIA", "state": "MO", "street": "1305 W BUCHANAN ST", "postcode": "65018"}}},
{"geometry": {"type": "Point", "coordinates": [-92.5800318361, 38.6303616189]}, "type": "Feature", "properties": {"collection_times": [{"days": "Mon-Sat", "time": "2:30pm"}, {"days": "Sun", "time": "Closed"}], "id": "6501800012", "name": "USPS COLLECTION BOX - BLUE BOX", "address": {"city": "CALIFORNIA", "state": "MO", "street": "1021 W BUCHANAN ST", "postcode": "65018"}}},
{"geometry": {"type": "Point", "coordinates": [-92.5040725061, 38.5086563647]}, "type": "Feature", "properties": {"collection_times": [{"days": "Mon-Sat", "time": "10:30am"}, {"days": "Sun", "time": "Closed"}], "id": "6501800015", "name": "USPS COLLECTION BOX - BLUE BOX", "address": {"city": "CALIFORNIA", "state": "MO", "street": "61241 HIGHWAY C", "postcode": "65018"}}},
{"geometry": {"type": "Point", "coordinates": [-92.5860777331, 38.6345563219]}, "type": "Feature", "properties": {"collection_times": [{"days": "Mon-Sat", "time": "8:45am"}, {"days": "Sun", "time": "Closed"}], "id": "6501800016", "name": "USPS COLLECTION BOX - BLUE BOX", "address": {"city": "CALIFORNIA", "state": "MO", "street": "100 S GERHART RD", "postcode": "65018"}}},
{"geometry": {"type": "Point", "coordinates": [-92.565308729, 38.6342737863]}, "type": "Feature", "properties": {"collection_times": [{"days": "Mon-Fri", "time": "4:30pm"}, {"days": "Sat", "time": "10:00am"}, {"days": "Sun", "time": "Closed"}], "id": "6501800017", "name": "USPS COLLECTION BOX - PO LOBBY", "address": {"city": "CALIFORNIA", "state": "MO", "street": "200 N HIGH ST", "postcode": "65018"}}},
{"geometry": {"type": "Point", "coordinates": [-92.7565045024, 38.0023775294]}, "type": "Feature", "properties": {"collection_times": [{"days": "Mon-Fri", "time": "4:15pm"}, {"days": "Sat", "time": "3:30pm"}, {"days": "Sun", "time": "Closed"}], "id": "6502000001", "name": "USPS COLLECTION BOX - BLUE BOX", "address": {"city": "CAMDENTON", "state": "MO", "street": "625 W US HIGHWAY 54", "postcode": "65020"}}},
{"geometry": {"type": "Point", "coordinates": [-92.7773657122, 38.0044667257]}, "type": "Feature", "properties": {"collection_times": [{"days": "Mon-Fri", "time": "12:30pm"}, {"days": "Sat", "time": "11:30am"}, {"days": "Sun", "time": "Closed"}], "id": "6502000002", "name": "USPS COLLECTION BOX - BLUE BOX", "address": {"city": "CAMDENTON", "state": "MO", "street": "105 N BUSINESS ROUTE 5", "postcode": "65020"}}},
{"geometry": {"type": "Point", "coordinates": [-92.8191374798, 38.1125387022]}, "type": "Feature", "properties": {"collection_times": [{"days": "Mon-Fri", "time": "11:30am"}, {"days": "Sat", "time": "10:30am"}, {"days": "Sun", "time": "Closed"}], "id": "6502000005", "name": "USPS COLLECTION BOX - BLUE BOX", "address": {"city": "CAMDENTON", "state": "MO", "street": "8736 N STATE HIGHWAY 5", "postcode": "65020"}}},
{"geometry": {"type": "Point", "coordinates": [-92.7565045024, 38.0023775294]}, "type": "Feature", "properties": {"collection_times": [{"days": "Mon-Fri", "time": "4:15pm"}, {"days": "Sat", "time": "3:30pm"}, {"days": "Sun", "time": "Closed"}], "id": "6502000006", "name": "USPS COLLECTION BOX - BLUE BOX", "address": {"city": "CAMDENTON", "state": "MO", "street": "625 W US HIGHWAY 54", "postcode": "65020"}}},
{"geometry": {"type": "Point", "coordinates": [-92.7565045024, 38.0023775294]}, "type": "Feature", "properties": {"collection_times": [{"days": "Mon-Fri", "time": "4:15pm"}, {"days": "Sat", "time": "3:30pm"}, {"days": "Sun", "time": "Closed"}], "id": "6502000008", "name": "USPS COLLECTION BOX - PO LOBBY", "address": {"city": "CAMDENTON", "state": "MO", "street": "625 W US HIGHWAY 54", "postcode": "65020"}}},
{"geometry": {"type": "Point", "coordinates": [-92.4138457654, 38.6191397258]}, "type": "Feature", "properties": {"collection_times": [{"days": "Mon-Fri", "time": "2:30pm"}, {"days": "Sat", "time": "9:30am"}, {"days": "Sun", "time": "Closed"}], "id": "6502300001", "name": "USPS COLLECTION BOX - BLUE BOX", "address": {"city": "CENTERTOWN", "state": "MO", "street": "11917 MAIN ST", "postcode": "65023"}}},
{"geometry": {"type": "Point", "coordinates": [-92.4138457654, 38.6191397258]}, "type": "Feature", "properties": {"collection_times": [{"days": "Mon-Fri", "time": "2:30pm"}, {"days": "Sat", "time": "9:30am"}, {"days": "Sun", "time": "Closed"}], "id": "6502300002", "name": "USPS COLLECTION BOX - PO LOBBY", "address": {"city": "CENTERTOWN", "state": "MO", "street": "11917 MAIN ST", "postcode": "65023"}}},
{"geometry": {"type": "Point", "coordinates": [-91.7694772105, 38.6754455788]}, "type": "Feature", "properties": {"collection_times": [{"days": "Mon-Fri", "time": "11:15am"}, {"days": "Sat", "time": "10:00am"}, {"days": "Sun", "time": "Closed"}], "id": "6502400001", "name": "USPS COLLECTION BOX - BLUE BOX", "address": {"city": "CHAMOIS", "state": "MO", "street": "102 MAIN ST", "postcode": "65024"}}},
{"geometry": {"type": "Point", "coordinates": [-91.7694772105, 38.6754455788]}, "type": "Feature", "properties": {"collection_times": [{"days": "Mon-Fri", "time": "11:15am"}, {"days": "Sat", "time": "10:15am"}, {"days": "Sun", "time": "Closed"}], "id": "6502400002", "name": "USPS COLLECTION BOX - PO LOBBY", "address": {"city": "CHAMOIS", "state": "MO", "street": "102 MAIN ST", "postcode": "65024"}}},
{"geometry": {"type": "Point", "coordinates": [-92.6675350846, 38.6612587345]}, "type": "Feature", "properties": {"collection_times": [{"days": "Mon-Fri", "time": "11:45am"}, {"days": "Sat", "time": "8:00am"}, {"days": "Sun", "time": "Closed"}], "id": "6502500001", "name": "USPS COLLECTION BOX - BLUE BOX", "address": {"city": "CLARKSBURG", "state": "MO", "street": "112 W STATE ST", "postcode": "65025"}}},
{"geometry": {"type": "Point", "coordinates": [-92.6675350846, 38.6612587345]}, "type": "Feature", "properties": {"collection_times": [{"days": "Mon-Fri", "time": "11:45am"}, {"days": "Sat", "time": "10:15am"}, {"days": "Sun", "time": "Closed"}], "id": "6502500002", "name": "USPS COLLECTION BOX - PO LOBBY", "address": {"city": "CLARKSBURG", "state": "MO", "street": "112 W STATE ST", "postcode": "65025"}}},
{"geometry": {"type": "Point", "coordinates": [-92.5797535745, 38.3496655596]}, "type": "Feature", "properties": {"collection_times": [{"days": "Mon-Fri", "time": "4:30pm"}, {"days": "Sat", "time": "10:45am"}, {"days": "Sun", "time": "Closed"}], "id": "6502600003", "name": "USPS COLLECTION BOX - BLUE BOX", "address": {"city": "ELDON", "state": "MO", "street": "202 E 1ST ST", "postcode": "65026"}}},
{"geometry": {"type": "Point", "coordinates": [-92.6214146661, 38.3313779908]}, "type": "Feature", "properties": {"collection_times": [{"days": "Mon-Sat", "time": "9:00am"}, {"days": "Sun", "time": "Closed"}], "id": "6502600004", "name": "USPS COLLECTION BOX - BLUE BOX", "address": {"city": "ELDON", "state": "MO", "street": "1102 S HIGHWAY 54", "postcode": "65026"}}},
{"geometry": {"type": "Point", "coordinates": [-92.5771086197, 38.350332216]}, "type": "Feature", "properties": {"collection_times": [{"days": "Mon-Fri", "time": "1:30pm"}, {"days": "Sat", "time": "1:00pm"}, {"days": "Sun", "time": "Closed"}], "id": "6502600005", "name": "USPS COLLECTION BOX - BLUE BOX", "address": {"city": "ELDON", "state": "MO", "street": "402 E NORTH ST", "postcode": "65026"}}},
{"geometry": {"type": "Point", "coordinates": [-92.5858090953, 38.3349219425]}, "type": "Feature", "properties": {"collection_times": [{"days": "Mon-Sat", "time": "10:00am"}, {"days": "Sun", "time": "Closed"}], "id": "6502600007", "name": "USPS COLLECTION BOX - BLUE BOX", "address": {"city": "ELDON", "state": "MO", "street": "1814 S BUSINESS 54", "postcode": "65026"}}},
{"geometry": {"type": "Point", "coordinates": [-92.5797535745, 38.3496655596]}, "type": "Feature", "properties": {"collection_times": [{"days": "Mon-Fri", "time": "4:30pm"}, {"days": "Sat", "time": "10:45am"}, {"days": "Sun", "time": "Closed"}], "id": "6502600008", "name": "USPS COLLECTION BOX - PO LOBBY", "address": {"city": "ELDON", "state": "MO", "street": "202 E 1ST ST", "postcode": "65026"}}},
{"geometry": {"type": "Point", "coordinates": [-92.4017864965, 38.3545594167]}, "type": "Feature", "properties": {"collection_times": [{"days": "Mon-Fri", "time": "10:45am"}, {"days": "Sat", "time": "8:45am"}, {"days": "Sun", "time": "Closed"}], "id": "6503200001", "name": "USPS COLLECTION BOX - BLUE BOX", "address": {"city": "EUGENE", "state": "MO", "street": "16106 BERRY ST", "postcode": "65032"}}},
{"geometry": {"type": "Point", "coordinates": [-92.4017864965, 38.3545594167]}, "type": "Feature", "properties": {"collection_times": [{"days": "Mon-Fri", "time": "10:45am"}, {"days": "Sat", "time": "9:30am"}, {"days": "Sun", "time": "Closed"}], "id": "6503200002", "name": "USPS COLLECTION BOX - PO LOBBY", "address": {"city": "EUGENE", "state": "MO", "street": "16106 BERRY ST", "postcode": "65032"}}},
{"geometry": {"type": "Point", "coordinates": [-92.7695783896, 38.5422111203]}, "type": "Feature", "properties": {"collection_times": [{"days": "Mon-Fri", "time": "12:15pm"}, {"days": "Sat", "time": "8:30am"}, {"days": "Sun", "time": "Closed"}], "id": "6503400001", "name": "USPS COLLECTION BOX - BLUE BOX", "address": {"city": "FORTUNA", "state": "MO", "street": "72456 WEBER ST", "postcode": "65034"}}},
{"geometry": {"type": "Point", "coordinates": [-92.7695783896, 38.5422111203]}, "type": "Feature", "properties": {"collection_times": [{"days": "Mon-Fri", "time": "12:15pm"}, {"days": "Sat", "time": "10:00am"}, {"days": "Sun", "time": "Closed"}], "id": "6503400002", "name": "USPS COLLECTION BOX - PO LOBBY", "address": {"city": "FORTUNA", "state": "MO", "street": "72456 WEBER ST", "postcode": "65034"}}},
{"geometry": {"type": "Point", "coordinates": [-91.9232732848, 38.3171573391]}, "type": "Feature", "properties": {"collection_times": [{"days": "Mon-Fri", "time": "2:45pm"}, {"days": "Sat", "time": "7:45am"}, {"days": "Sun", "time": "Closed"}], "id": "6503500001", "name": "USPS COLLECTION BOX - BLUE BOX", "address": {"city": "FREEBURG", "state": "MO", "street": "100 HARRISON ST", "postcode": "65035"}}},
{"geometry": {"type": "Point", "coordinates": [-91.9232732848, 38.3171573391]}, "type": "Feature", "properties": {"collection_times": [{"days": "Mon-Fri", "time": "2:45pm"}, {"days": "Sat", "time": "9:15am"}, {"days": "Sun", "time": "Closed"}], "id": "6503500002", "name": "USPS COLLECTION BOX - PO LOBBY", "address": {"city": "FREEBURG", "state": "MO", "street": "100 HARRISON ST", "postcode": "65035"}}},
{"geometry": {"type": "Point", "coordinates": [-92.8334986429, 38.2238904078]}, "type": "Feature", "properties": {"collection_times": [{"days": "Mon-Fri", "time": "3:45pm"}, {"days": "Sat", "time": "10:45am"}, {"days": "Sun", "time": "Closed"}], "id": "6503700003", "name": "USPS COLLECTION BOX - BLUE BOX", "address": {"city": "GRAVOIS MILLS", "state": "MO", "street": "25707 HIGHWAY 5", "postcode": "65037"}}},
{"geometry": {"type": "Point", "coordinates": [-92.8440981125, 38.2180333016]}, "type": "Feature", "properties": {"collection_times": [{"days": "Mon-Sat", "time": "12:00pm"}, {"days": "Sun", "time": "Closed"}], "id": "6503700005", "name": "USPS COLLECTION BOX - BLUE BOX", "address": {"city": "GRAVOIS MILLS", "state": "MO", "street": "401 N MAIN ST", "postcode": "65037"}}},
{"geometry": {"type": "Point", "coordinates": [-92.8447544392, 38.2111034895]}, "type": "Feature", "properties": {"collection_times": [{"days": "Mon-Sat", "time": "12:30pm"}, {"days": "Sun", "time": "Closed"}], "id": "6503700006", "name": "USPS COLLECTION BOX - BLUE BOX", "address": {"city": "GRAVOIS MILLS", "state": "MO", "street": "716 N MAIN ST", "postcode": "65037"}}},
{"geometry": {"type": "Point", "coordinates": [-92.8334986429, 38.2238904078]}, "type": "Feature", "properties": {"collection_times": [{"days": "Mon-Fri", "time": "3:45pm"}, {"days": "Sat", "time": "10:00am"}, {"days": "Sun", "time": "Closed"}], "id": "6503700008", "name": "USPS COLLECTION BOX - PO LOBBY", "address": {"city": "GRAVOIS MILLS", "state": "MO", "street": "25707 HIGHWAY 5", "postcode": "65037"}}},
{"geometry": {"type": "Point", "coordinates": [-92.3091503925, 38.6954465058]}, "type": "Feature", "properties": {"collection_times": [{"days": "Mon-Fri", "time": "11:15am"}, {"days": "Sat", "time": "8:15am"}, {"days": "Sun", "time": "Closed"}], "id": "6503900001", "name": "USPS COLLECTION BOX - BLUE BOX", "address": {"city": "HARTSBURG", "state": "MO", "street": "11 N 2ND ST", "postcode": "65039"}}},
{"geometry": {"type": "Point", "coordinates": [-92.3091503925, 38.6954465058]}, "type": "Feature", "properties": {"collection_times": [{"days": "Mon-Fri", "time": "11:15am"}, {"days": "Sat", "time": "9:00am"}, {"days": "Sun", "time": "Closed"}], "id": "6503900002", "name": "USPS COLLECTION BOX - PO LOBBY", "address": {"city": "HARTSBURG", "state": "MO", "street": "11 N 2ND ST", "postcode": "65039"}}},
{"geometry": {"type": "Point", "coordinates": [-92.3235766939, 38.3444542384]}, "type": "Feature", "properties": {"collection_times": [{"days": "Mon-Fri", "time": "11:45am"}, {"days": "Sat", "time": "9:45am"}, {"days": "Sun", "time": "Closed"}], "id": "6504000001", "name": "USPS COLLECTION BOX - BLUE BOX", "address": {"city": "HENLEY", "state": "MO", "street": "16503 PIT RD", "postcode": "65040"}}},
{"geometry": {"type": "Point", "coordinates": [-92.3235766939, 38.3444542384]}, "type": "Feature", "properties": {"collection_times": [{"days": "Mon-Fri", "time": "11:45am"}, {"days": "Sat", "time": "9:45am"}, {"days": "Sun", "time": "Closed"}], "id": "6504000002", "name": "USPS COLLECTION BOX - PO LOBBY", "address": {"city": "HENLEY", "state": "MO", "street": "16503 PIT RD", "postcode": "65040"}}},
{"geometry": {"type": "Point", "coordinates": [-91.446360445, 38.6943902141]}, "type": "Feature", "properties": {"collection_times": [{"days": "Mon-Fri", "time": "4:15pm"}, {"days": "Sat", "time": "1:00pm"}, {"days": "Sun", "time": "Closed"}], "id": "6504100001", "name": "USPS COLLECTION BOX - BLUE BOX", "address": {"city": "HERMANN", "state": "MO", "street": "412 W 16TH ST", "postcode": "65041"}}},
{"geometry": {"type": "Point", "coordinates": [-91.4355696803, 38.706862761]}, "type": "Feature", "properties": {"collection_times": [{"days": "Mon-Fri", "time": "10:45am"}, {"days": "Sat", "time": "9:00am"}, {"days": "Sun", "time": "Closed"}], "id": "6504100002", "name": "USPS COLLECTION BOX - BLUE BOX", "address": {"city": "HERMANN", "state": "MO", "street": "217 E 1ST ST", "postcode": "65041"}}},
{"geometry": {"type": "Point", "coordinates": [-91.446360445, 38.6943902141]}, "type": "Feature", "properties": {"collection_times": [{"days": "Mon-Fri", "time": "4:15pm"}, {"days": "Sat", "time": "1:00pm"}, {"days": "Sun", "time": "Closed"}], "id": "6504100003", "name": "USPS COLLECTION BOX - BLUE BOX", "address": {"city": "HERMANN", "state": "MO", "street": "412 W 16TH ST", "postcode": "65041"}}},
{"geometry": {"type": "Point", "coordinates": [-91.4378185575, 38.7042805924]}, "type": "Feature", "properties": {"collection_times": [{"days": "Mon-Fri", "time": "10:45am"}, {"days": "Sat", "time": "9:00am"}, {"days": "Sun", "time": "Closed"}], "id": "6504100006", "name": "USPS COLLECTION BOX - BLUE BOX", "address": {"city": "HERMANN", "state": "MO", "street": "101 E 4TH ST", "postcode": "65041"}}},
{"geometry": {"type": "Point", "coordinates": [-91.4351430521, 38.7068459412]}, "type": "Feature", "properties": {"collection_times": [{"days": "Mon-Fri", "time": "10:45am"}, {"days": "Sat", "time": "9:00am"}, {"days": "Sun", "time": "Closed"}], "id": "6504100009", "name": "USPS COLLECTION BOX - BLUE BOX", "address": {"city": "HERMANN", "state": "MO", "street": "237 E 1ST ST", "postcode": "65041"}}},
{"geometry": {"type": "Point", "coordinates": [-91.446360445, 38.6943902141]}, "type": "Feature", "properties": {"collection_times": [{"days": "Mon-Fri", "time": "4:30pm"}, {"days": "Sat", "time": "1:00pm"}, {"days": "Sun", "time": "Closed"}], "id": "6504100010", "name": "USPS COLLECTION BOX - PO LOBBY", "address": {"city": "HERMANN", "state": "MO", "street": "412 W 16TH ST", "postcode": "65041"}}},
{"geometry": {"type": "Point", "coordinates": [-92.1180703572, 38.650226645]}, "type": "Feature", "properties": {"collection_times": [{"days": "Mon-Fri", "time": "3:30pm"}, {"days": "Sat", "time": "9:00am"}, {"days": "Sun", "time": "Closed"}], "id": "6504300001", "name": "USPS COLLECTION BOX - BLUE BOX", "address": {"city": "HOLTS SUMMIT", "state": "MO", "street": "357 S SUMMIT DR", "postcode": "65043"}}},
{"geometry": {"type": "Point", "coordinates": [-92.1176175005, 38.6549608819]}, "type": "Feature", "properties": {"collection_times": [{"days": "Mon-Fri", "time": "11:30am"}, {"days": "Sat-Sun", "time": "Closed"}], "id": "6504300003", "name": "USPS COLLECTION BOX - BLUE BOX", "address": {"city": "HOLTS SUMMIT", "state": "MO", "street": "170 W SIMON BLVD", "postcode": "65043"}}},
{"geometry": {"type": "Point", "coordinates": [-92.1204928908, 38.6550439329]}, "type": "Feature", "properties": {"collection_times": [{"days": "Mon-Fri", "time": "11:30am"}, {"days": "Sat-Sun", "time": "Closed"}], "id": "6504300004", "name": "USPS COLLECTION BOX - BLUE BOX", "address": {"city": "HOLTS SUMMIT", "state": "MO", "street": "252 W SIMON BLVD", "postcode": "65043"}}},
{"geometry": {"type": "Point", "coordinates": [-92.1180703572, 38.650226645]}, "type": "Feature", "properties": {"collection_times": [{"days": "Mon-Fri", "time": "3:30pm"}, {"days": "Sat", "time": "9:00am"}, {"days": "Sun", "time": "Closed"}], "id": "6504300005", "name": "USPS COLLECTION BOX - PO LOBBY", "address": {"city": "HOLTS SUMMIT", "state": "MO", "street": "357 S SUMMIT DR", "postcode": "65043"}}},
{"geometry": {"type": "Point", "coordinates": [-92.4807079515, 38.765520061]}, "type": "Feature", "properties": {"collection_times": [{"days": "Mon-Fri", "time": "11:15am"}, {"days": "Sat", "time": "9:30am"}, {"days": "Sun", "time": "Closed"}], "id": "6504600001", "name": "USPS COLLECTION BOX - BLUE BOX", "address": {"city": "JAMESTOWN", "state": "MO", "street": "100 W ROW ST", "postcode": "65046"}}},
{"geometry": {"type": "Point", "coordinates": [-92.4806481094, 38.7655453959]}, "type": "Feature", "properties": {"collection_times": [{"days": "Mon-Fri", "time": "11:15am"}, {"days": "Sat", "time": "9:15am"}, {"days": "Sun", "time": "Closed"}], "id": "6504600002", "name": "USPS COLLECTION BOX - PO LOBBY", "address": {"city": "JAMESTOWN", "state": "MO", "street": "100 W ROW ST", "postcode": "65046"}}},
{"geometry": {"type": "Point", "coordinates": [-92.591458691, 38.1430296211]}, "type": "Feature", "properties": {"collection_times": [{"days": "Mon-Fri", "time": "2:45pm"}, {"days": "Sat", "time": "9:45am"}, {"days": "Sun", "time": "Closed"}], "id": "6504700001", "name": "USPS COLLECTION BOX - BLUE BOX", "address": {"city": "KAISER", "state": "MO", "street": "405 HIGHWAY 42", "postcode": "65047"}}},
{"geometry": {"type": "Point", "coordinates": [-92.591458691, 38.1430296211]}, "type": "Feature", "properties": {"collection_times": [{"days": "Mon-Fri", "time": "2:45pm"}, {"days": "Sat", "time": "9:45am"}, {"days": "Sun", "time": "Closed"}], "id": "6504700002", "name": "USPS COLLECTION BOX - PO LOBBY", "address": {"city": "KAISER", "state": "MO", "street": "405 HIGHWAY 42", "postcode": "65047"}}},
{"geometry": {"type": "Point", "coordinates": [-92.6411121805, 38.1976624761]}, "type": "Feature", "properties": {"collection_times": [{"days": "Mon-Fri", "time": "4:15pm"}, {"days": "Sat", "time": "11:45am"}, {"days": "Sun", "time": "Closed"}], "id": "6504900001", "name": "USPS COLLECTION BOX - BLUE BOX", "address": {"city": "LAKE OZARK", "state": "MO", "street": "2111 BAGNELL DAM BLVD", "postcode": "65049"}}},
{"geometry": {"type": "Point", "coordinates": [-92.6226563594, 38.2110405565]}, "type": "Feature", "properties": {"collection_times": [{"days": "Mon-Sat", "time": "9:00am"}, {"days": "Sun", "time": "Closed"}], "id": "6504900004", "name": "USPS COLLECTION BOX - BLUE BOX", "address": {"city": "LAKE OZARK", "state": "MO", "street": "1220 BAGNELL DAM BLVD", "postcode": "65049"}}},
{"geometry": {"type": "Point", "coordinates": [-92.6257821592, 38.2020893962]}, "type": "Feature", "properties": {"collection_times": [{"days": "Mon-Sat", "time": "10:30am"}, {"days": "Sun", "time": "Closed"}], "id": "6504900006", "name": "USPS COLLECTION BOX - BLUE BOX", "address": {"city": "LAKE OZARK", "state": "MO", "street": "4467 HORSESHOE BEND PKWY", "postcode": "65049"}}},
{"geometry": {"type": "Point", "coordinates": [-92.6413956605, 38.1873846883]}, "type": "Feature", "properties": {"collection_times": [{"days": "Mon-Sat", "time": "9:45am"}, {"days": "Sun", "time": "Closed"}], "id": "6504900007", "name": "USPS COLLECTION BOX - BLUE BOX", "address": {"city": "LAKE OZARK", "state": "MO", "street": "2565 BAGNELL DAM BLVD", "postcode": "65049"}}},
{"geometry": {"type": "Point", "coordinates": [-92.6257821592, 38.2020893962]}, "type": "Feature", "properties": {"collection_times": [{"days": "Mon-Sat", "time": "10:00am"}, {"days": "Sun", "time": "Closed"}], "id": "6504900008", "name": "USPS COLLECTION BOX - BLUE BOX", "address": {"city": "LAKE OZARK", "state": "MO", "street": "4314 HORSESHOE BEND PKWY", "postcode": "65049"}}},
{"geometry": {"type": "Point", "coordinates": [-92.6411121805, 38.1976624761]}, "type": "Feature", "properties": {"collection_times": [{"days": "Mon-Fri", "time": "4:30pm"}, {"days": "Sat", "time": "2:00pm"}, {"days": "Sun", "time": "Closed"}], "id": "6504900010", "name": "USPS COLLECTION BOX - PO LOBBY", "address": {"city": "LAKE OZARK", "state": "MO", "street": "2111 BAGNELL DAM BLVD", "postcode": "65049"}}},
{"geometry": {"type": "Point", "coordinates": [-92.6883884942, 38.2025607758]}, "type": "Feature", "properties": {"collection_times": [{"days": "Mon-Sat", "time": "10:30am"}, {"days": "Sun", "time": "Closed"}], "id": "6504900012", "name": "USPS COLLECTION BOX - BLUE BOX", "address": {"city": "LAKE OZARK", "state": "MO", "street": "308 N SHORE DR", "postcode": "65049"}}},
{"geometry": {"type": "Point", "coordinates": [-92.6852562198, 38.5407548157]}, "type": "Feature", "properties": {"collection_times": [{"days": "Mon-Sat", "time": "2:15pm"}, {"days": "Sun", "time": "Closed"}], "id": "6505000001", "name": "USPS COLLECTION BOX - BLUE BOX", "address": {"city": "LATHAM", "state": "MO", "street": "100 STATE ROUTE E", "postcode": "65050"}}},
{"geometry": {"type": "Point", "coordinates": [-92.6852562198, 38.5407548157]}, "type": "Feature", "properties": {"collection_times": [{"days": "Mon-Sat", "time": "2:15pm"}, {"days": "Sun", "time": "Closed"}], "id": "6505000002", "name": "USPS COLLECTION BOX - PO LOBBY", "address": {"city": "LATHAM", "state": "MO", "street": "100 STATE ROUTE E", "postcode": "65050"}}},
{"geometry": {"type": "Point", "coordinates": [-91.8433777784, 38.4805027542]}, "type": "Feature", "properties": {"collection_times": [{"days": "Mon-Fri", "time": "3:30pm"}, {"days": "Sat", "time": "9:30am"}, {"days": "Sun", "time": "Closed"}], "id": "6505100001", "name": "USPS COLLECTION BOX - PO LOBBY", "address": {"city": "LINN", "state": "MO", "street": "1009 E MAIN ST", "postcode": "65051"}}},
{"geometry": {"type": "Point", "coordinates": [-91.8433777784, 38.4805027542]}, "type": "Feature", "properties": {"collection_times": [{"days": "Mon-Fri", "time": "3:30pm"}, {"days": "Sat", "time": "9:30am"}, {"days": "Sun", "time": "Closed"}], "id": "6505100003", "name": "USPS COLLECTION BOX - BLUE BOX", "address": {"city": "LINN", "state": "MO", "street": "1009 E MAIN ST", "postcode": "65051"}}},
{"geometry": {"type": "Point", "coordinates": [-91.8523931974, 38.4863825207]}, "type": "Feature", "properties": {"collection_times": [{"days": "Mon-Fri", "time": "1:15pm"}, {"days": "Sat-Sun", "time": "Closed"}], "id": "6505100004", "name": "USPS COLLECTION BOX - BLUE BOX", "address": {"city": "LINN", "state": "MO", "street": "206 E MAIN ST", "postcode": "65051"}}},
{"geometry": {"type": "Point", "coordinates": [-91.8560857111, 38.4916001019]}, "type": "Feature", "properties": {"collection_times": [{"days": "Mon-Fri", "time": "1:00pm"}, {"days": "Sat-Sun", "time": "Closed"}], "id": "6505100007", "name": "USPS COLLECTION BOX - BLUE BOX", "address": {"city": "LINN", "state": "MO", "street": "318 W MAIN ST", "postcode": "65051"}}},
{"geometry": {"type": "Point", "coordinates": [-92.6399630144, 38.0611375774]}, "type": "Feature", "properties": {"collection_times": [{"days": "Mon-Fri", "time": "4:00pm"}, {"days": "Sat", "time": "10:30am"}, {"days": "Sun", "time": "Closed"}], "id": "6505200002", "name": "USPS COLLECTION BOX - PO LOBBY", "address": {"city": "LINN CREEK", "state": "MO", "street": "17 INDUSTRIAL PARK RD", "postcode": "65052"}}},
{"geometry": {"type": "Point", "coordinates": [-92.6399630144, 38.0611375774]}, "type": "Feature", "properties": {"collection_times": [{"days": "Mon-Fri", "time": "4:00pm"}, {"days": "Sat", "time": "10:30am"}, {"days": "Sun", "time": "Closed"}], "id": "6505200004", "name": "USPS COLLECTION BOX - BLUE BOX", "address": {"city": "LINN CREEK", "state": "MO", "street": "17 INDUSTRIAL PARK RD", "postcode": "65052"}}},
{"geometry": {"type": "Point", "coordinates": [-92.3641338291, 38.5410497185]}, "type": "Feature", "properties": {"collection_times": [{"days": "Mon-Fri", "time": "11:00am"}, {"days": "Sat", "time": "8:45am"}, {"days": "Sun", "time": "Closed"}], "id": "6505300001", "name": "USPS COLLECTION BOX - BLUE BOX", "address": {"city": "LOHMAN", "state": "MO", "street": "2922 MAIN ST", "postcode": "65053"}}},
{"geometry": {"type": "Point", "coordinates": [-92.3641338291, 38.5410497185]}, "type": "Feature", "properties": {"collection_times": [{"days": "Mon-Fri", "time": "11:00am"}, {"days": "Sat", "time": "8:45am"}, {"days": "Sun", "time": "Closed"}], "id": "6505300002", "name": "USPS COLLECTION BOX - PO LOBBY", "address": {"city": "LOHMAN", "state": "MO", "street": "2922 MAIN ST", "postcode": "65053"}}},
{"geometry": {"type": "Point", "coordinates": [-91.9521055793, 38.4609677917]}, "type": "Feature", "properties": {"collection_times": [{"days": "Mon-Fri", "time": "10:45am"}, {"days": "Sat", "time": "9:30am"}, {"days": "Sun", "time": "Closed"}], "id": "6505400001", "name": "USPS COLLECTION BOX - BLUE BOX", "address": {"city": "LOOSE CREEK", "state": "MO", "street": "162 COUNTY ROAD 402 STE 1", "postcode": "65054"}}},
{"geometry": {"type": "Point", "coordinates": [-91.9521055793, 38.4609677917]}, "type": "Feature", "properties": {"collection_times": [{"days": "Mon-Fri", "time": "10:45am"}, {"days": "Sat", "time": "9:30am"}, {"days": "Sun", "time": "Closed"}], "id": "6505400002", "name": "USPS COLLECTION BOX - PO LOBBY", "address": {"city": "LOOSE CREEK", "state": "MO", "street": "162 COUNTY ROAD 402 STE 1", "postcode": "65054"}}},
{"geometry": {"type": "Point", "coordinates": [-92.5077873847, 38.6098561156]}, "type": "Feature", "properties": {"collection_times": [{"days": "Mon-Fri", "time": "4:00pm"}, {"days": "Sat", "time": "10:00am"}, {"days": "Sun", "time": "Closed"}], "id": "6505500001", "name": "USPS COLLECTION BOX - BLUE BOX", "address": {"city": "MCGIRK", "state": "MO", "street": "31461 EAST ST", "postcode": "65055"}}},
{"geometry": {"type": "Point", "coordinates": [-92.5077873847, 38.6098561156]}, "type": "Feature", "properties": {"collection_times": [{"days": "Mon-Fri", "time": "4:00pm"}, {"days": "Sat", "time": "10:00am"}, {"days": "Sun", "time": "Closed"}], "id": "6505500002", "name": "USPS COLLECTION BOX - PO LOBBY", "address": {"city": "MCGIRK", "state": "MO", "street": "31461 EAST ST", "postcode": "65055"}}},
{"geometry": {"type": "Point", "coordinates": [-92.1660365246, 38.3120864156]}, "type": "Feature", "properties": {"collection_times": [{"days": "Mon-Fri", "time": "2:45pm"}, {"days": "Sat", "time": "10:00am"}, {"days": "Sun", "time": "Closed"}], "id": "6505800001", "name": "USPS COLLECTION BOX - BLUE BOX", "address": {"city": "META", "state": "MO", "street": "201 3RD ST", "postcode": "65058"}}},
{"geometry": {"type": "Point", "coordinates": [-92.1660365246, 38.3120864156]}, "type": "Feature", "properties": {"collection_times": [{"days": "Mon-Fri", "time": "2:45pm"}, {"days": "Sat", "time": "9:45am"}, {"days": "Sun", "time": "Closed"}], "id": "6505800002", "name": "USPS COLLECTION BOX - PO LOBBY", "address": {"city": "META", "state": "MO", "street": "201 3RD ST", "postcode": "65058"}}},
{"geometry": {"type": "Point", "coordinates": [-91.8761154538, 38.6762652025]}, "type": "Feature", "properties": {"collection_times": [{"days": "Mon-Fri", "time": "11:15am"}, {"days": "Sat", "time": "9:30am"}, {"days": "Sun", "time": "Closed"}], "id": "6505900001", "name": "USPS COLLECTION BOX - BLUE BOX", "address": {"city": "MOKANE", "state": "MO", "street": "212 FULTON AVE", "postcode": "65059"}}},
{"geometry": {"type": "Point", "coordinates": [-91.8761154538, 38.6762652025]}, "type": "Feature", "properties": {"collection_times": [{"days": "Mon-Fri", "time": "11:15am"}, {"days": "Sat", "time": "9:30am"}, {"days": "Sun", "time": "Closed"}], "id": "6505900002", "name": "USPS COLLECTION BOX - PO LOBBY", "address": {"city": "MOKANE", "state": "MO", "street": "212 FULTON AVE", "postcode": "65059"}}},
{"geometry": {"type": "Point", "coordinates": [-91.635683501, 38.6745136001]}, "type": "Feature", "properties": {"collection_times": [{"days": "Mon-Fri", "time": "11:15am"}, {"days": "Sat", "time": "9:00am"}, {"days": "Sun", "time": "Closed"}], "id": "6506100001", "name": "USPS COLLECTION BOX - BLUE BOX", "address": {"city": "MORRISON", "state": "MO", "street": "155 MAIN ST", "postcode": "65061"}}},
{"geometry": {"type": "Point", "coordinates": [-91.635683501, 38.6745136001]}, "type": "Feature", "properties": {"collection_times": [{"days": "Mon-Fri", "time": "11:15am"}, {"days": "Sat", "time": "9:00am"}, {"days": "Sun", "time": "Closed"}], "id": "6506100002", "name": "USPS COLLECTION BOX - PO LOBBY", "address": {"city": "MORRISON", "state": "MO", "street": "155 MAIN ST", "postcode": "65061"}}},
{"geometry": {"type": "Point", "coordinates": [-92.0916010071, 38.719187351]}, "type": "Feature", "properties": {"collection_times": [{"days": "Mon-Fri", "time": "1:15pm"}, {"days": "Sat", "time": "8:45am"}, {"days": "Sun", "time": "Closed"}], "id": "6506300002", "name": "USPS COLLECTION BOX - BLUE BOX", "address": {"city": "NEW BLOOMFIELD", "state": "MO", "street": "150 CHESTNUT ST", "postcode": "65063"}}},
{"geometry": {"type": "Point", "coordinates": [-92.0838478695, 38.7244012241]}, "type": "Feature", "properties": {"collection_times": [{"days": "Mon-Sat", "time": "8:30am"}, {"days": "Sun", "time": "Closed"}], "id": "6506300003", "name": "USPS COLLECTION BOX - BLUE BOX", "address": {"city": "NEW BLOOMFIELD", "state": "MO", "street": "712 GOLDEN VILLAGE DR", "postcode": "65063"}}},
{"geometry": {"type": "Point", "coordinates": [-92.0916010071, 38.719187351]}, "type": "Feature", "properties": {"collection_times": [{"days": "Mon-Fri", "time": "1:15pm"}, {"days": "Sat", "time": "12:15pm"}, {"days": "Sun", "time": "Closed"}], "id": "6506300004", "name": "USPS COLLECTION BOX - PO LOBBY", "address": {"city": "NEW BLOOMFIELD", "state": "MO", "street": "150 CHESTNUT ST", "postcode": "65063"}}},
{"geometry": {"type": "Point", "coordinates": [-92.5288007, 38.4107478587]}, "type": "Feature", "properties": {"collection_times": [{"days": "Mon-Fri", "time": "1:45pm"}, {"days": "Sat", "time": "9:30am"}, {"days": "Sun", "time": "Closed"}], "id": "6506400001", "name": "USPS COLLECTION BOX - BLUE BOX", "address": {"city": "OLEAN", "state": "MO", "street": "252 MAIN ST", "postcode": "65064"}}},
{"geometry": {"type": "Point", "coordinates": [-92.5288007, 38.4107478587]}, "type": "Feature", "properties": {"collection_times": [{"days": "Mon-Fri", "time": "1:45pm"}, {"days": "Sat", "time": "12:30pm"}, {"days": "Sun", "time": "Closed"}], "id": "6506400002", "name": "USPS COLLECTION BOX - PO LOBBY", "address": {"city": "OLEAN", "state": "MO", "street": "252 MAIN ST", "postcode": "65064"}}},
{"geometry": {"type": "Point", "coordinates": [-92.6742593438, 38.1294318714]}, "type": "Feature", "properties": {"collection_times": [{"days": "Mon-Sat", "time": "9:45am"}, {"days": "Sun", "time": "Closed"}], "id": "6506500004", "name": "USPS COLLECTION BOX - BLUE BOX", "address": {"city": "OSAGE BEACH", "state": "MO", "street": "6011 OSAGE BEACH PKWY", "postcode": "65065"}}},
{"geometry": {"type": "Point", "coordinates": [-92.6742593438, 38.1294318714]}, "type": "Feature", "properties": {"collection_times": [{"days": "Mon-Sat", "time": "9:00am"}, {"days": "Sun", "time": "Closed"}], "id": "6506500006", "name": "USPS COLLECTION BOX - BLUE BOX", "address": {"city": "OSAGE BEACH", "state": "MO", "street": "4540 OSAGE BEACH PKWY", "postcode": "65065"}}},
{"geometry": {"type": "Point", "coordinates": [-92.6742593438, 38.1294318714]}, "type": "Feature", "properties": {"collection_times": [{"days": "Mon-Sat", "time": "10:30am"}, {"days": "Sun", "time": "Closed"}], "id": "6506500007", "name": "USPS COLLECTION BOX - BLUE BOX", "address": {"city": "OSAGE BEACH", "state": "MO", "street": "3797 OSAGE BEACH PKWY", "postcode": "65065"}}},
{"geometry": {"type": "Point", "coordinates": [-92.6742593438, 38.1294318714]}, "type": "Feature", "properties": {"collection_times": [{"days": "Mon-Sat", "time": "9:00am"}, {"days": "Sun", "time": "Closed"}], "id": "6506500008", "name": "USPS COLLECTION BOX - BLUE BOX", "address": {"city": "OSAGE BEACH", "state": "MO", "street": "4252 OSAGE BEACH PKWY", "postcode": "65065"}}},
{"geometry": {"type": "Point", "coordinates": [-92.6742593438, 38.1294318714]}, "type": "Feature", "properties": {"collection_times": [{"days": "Mon-Fri", "time": "4:30pm"}, {"days": "Sat", "time": "2:00pm"}, {"days": "Sun", "time": "Closed"}], "id": "6506500011", "name": "USPS COLLECTION BOX - PO LOBBY", "address": {"city": "OSAGE BEACH", "state": "MO", "street": "5545 OSAGE BEACH PKWY", "postcode": "65065"}}},
{"geometry": {"type": "Point", "coordinates": [-92.6742593438, 38.1294318714]}, "type": "Feature", "properties": {"collection_times": [{"days": "Mon-Fri", "time": "4:30pm"}, {"days": "Sat", "time": "2:00pm"}, {"days": "Sun", "time": "Closed"}], "id": "6506500015", "name": "USPS COLLECTION BOX - BLUE BOX", "address": {"city": "OSAGE BEACH", "state": "MO", "street": "5545 OSAGE BEACH PKWY", "postcode": "65065"}}},
{"geometry": {"type": "Point", "coordinates": [-91.5016688766, 38.344967619]}, "type": "Feature", "properties": {"collection_times": [{"days": "Mon-Fri", "time": "4:15pm"}, {"days": "Sat", "time": "12:00pm"}, {"days": "Sun", "time": "Closed"}], "id": "6506600005", "name": "USPS COLLECTION BOX - BLUE BOX", "address": {"city": "OWENSVILLE", "state": "MO", "street": "200 S 2ND ST", "postcode": "65066"}}},
{"geometry": {"type": "Point", "coordinates": [-91.5004378264, 38.3449505964]}, "type": "Feature", "properties": {"collection_times": [{"days": "Mon-Sat", "time": "12:00pm"}, {"days": "Sun", "time": "Closed"}], "id": "6506600006", "name": "USPS COLLECTION BOX - BLUE BOX", "address": {"city": "OWENSVILLE", "state": "MO", "street": "202 S 1ST ST", "postcode": "65066"}}},
{"geometry": {"type": "Point", "coordinates": [-91.5016688766, 38.344967619]}, "type": "Feature", "properties": {"collection_times": [{"days": "Mon-Fri", "time": "4:15pm"}, {"days": "Sat", "time": "12:00pm"}, {"days": "Sun", "time": "Closed"}], "id": "6506600014", "name": "USPS COLLECTION BOX - BLUE BOX", "address": {"city": "OWENSVILLE", "state": "MO", "street": "200 S 2ND ST", "postcode": "65066"}}},
{"geometry": {"type": "Point", "coordinates": [-91.5019201015, 38.3449434344]}, "type": "Feature", "properties": {"collection_times": [{"days": "Mon-Fri", "time": "4:15pm"}, {"days": "Sat", "time": "12:00pm"}, {"days": "Sun", "time": "Closed"}], "id": "6506600015", "name": "USPS COLLECTION BOX - PO LOBBY", "address": {"city": "OWENSVILLE", "state": "MO", "street": "201 W LINCOLN AVE", "postcode": "65066"}}},
{"geometry": {"type": "Point", "coordinates": [-91.719482266, 38.710689703]}, "type": "Feature", "properties": {"collection_times": [{"days": "Mon-Fri", "time": "9:15am"}, {"days": "Sat", "time": "8:30am"}, {"days": "Sun", "time": "Closed"}], "id": "6506700001", "name": "USPS COLLECTION BOX - BLUE BOX", "address": {"city": "PORTLAND", "state": "MO", "street": "10452 STATE ROUTE 94", "postcode": "65067"}}},
{"geometry": {"type": "Point", "coordinates": [-91.719482266, 38.710689703]}, "type": "Feature", "properties": {"collection_times": [{"days": "Mon-Fri", "time": "9:15am"}, {"days": "Sat", "time": "8:45am"}, {"days": "Sun", "time": "Closed"}], "id": "6506700002", "name": "USPS COLLECTION BOX - PO LOBBY", "address": {"city": "PORTLAND", "state": "MO", "street": "10452 STATE ROUTE 94", "postcode": "65067"}}},
{"geometry": {"type": "Point", "coordinates": [-92.5906153671, 38.8155233086]}, "type": "Feature", "properties": {"collection_times": [{"days": "Mon-Fri", "time": "11:15am"}, {"days": "Sat", "time": "9:15am"}, {"days": "Sun", "time": "Closed"}], "id": "6506800001", "name": "USPS COLLECTION BOX - BLUE BOX", "address": {"city": "PRAIRIE HOME", "state": "MO", "street": "484 MAIN ST", "postcode": "65068"}}},
{"geometry": {"type": "Point", "coordinates": [-92.5906153671, 38.8155233086]}, "type": "Feature", "properties": {"collection_times": [{"days": "Mon-Fri", "time": "11:15am"}, {"days": "Sat", "time": "9:15am"}, {"days": "Sun", "time": "Closed"}], "id": "6506800002", "name": "USPS COLLECTION BOX - PO LOBBY", "address": {"city": "PRAIRIE HOME", "state": "MO", "street": "484 MAIN ST", "postcode": "65068"}}},
{"geometry": {"type": "Point", "coordinates": [-91.5170706141, 38.719030732]}, "type": "Feature", "properties": {"collection_times": [{"days": "Mon-Fri", "time": "11:45am"}, {"days": "Sat", "time": "9:30am"}, {"days": "Sun", "time": "Closed"}], "id": "6506900001", "name": "USPS COLLECTION BOX - BLUE BOX", "address": {"city": "RHINELAND", "state": "MO", "street": "102 BLUFF ST", "postcode": "65069"}}},
{"geometry": {"type": "Point", "coordinates": [-91.517070614, 38.719030732]}, "type": "Feature", "properties": {"collection_times": [{"days": "Mon-Fri", "time": "11:45am"}, {"days": "Sat", "time": "9:45am"}, {"days": "Sun", "time": "Closed"}], "id": "6506900002", "name": "USPS COLLECTION BOX - PO LOBBY", "address": {"city": "RHINELAND", "state": "MO", "street": "102 BLUFF ST", "postcode": "65069"}}},
{"geometry": {"type": "Point", "coordinates": [-92.4401153906, 38.5092478006]}, "type": "Feature", "properties": {"collection_times": [{"days": "Mon-Fri", "time": "2:30pm"}, {"days": "Sat", "time": "9:45am"}, {"days": "Sun", "time": "Closed"}], "id": "6507400001", "name": "USPS COLLECTION BOX - BLUE BOX", "address": {"city": "RUSSELLVILLE", "state": "MO", "street": "5103 SIMPSON ST", "postcode": "65074"}}},
{"geometry": {"type": "Point", "coordinates": [-92.4401153906, 38.5092478006]}, "type": "Feature", "properties": {"collection_times": [{"days": "Mon-Fri", "time": "2:30pm"}, {"days": "Sat", "time": "9:30am"}, {"days": "Sun", "time": "Closed"}], "id": "6507400002", "name": "USPS COLLECTION BOX - PO LOBBY", "address": {"city": "RUSSELLVILLE", "state": "MO", "street": "5103 SIMPSON ST", "postcode": "65074"}}},
{"geometry": {"type": "Point", "coordinates": [-92.267925158, 38.2555806153]}, "type": "Feature", "properties": {"collection_times": [{"days": "Mon-Fri", "time": "11:45am"}, {"days": "Sat", "time": "10:15am"}, {"days": "Sun", "time": "Closed"}], "id": "6507500001", "name": "USPS COLLECTION BOX - BLUE BOX", "address": {"city": "SAINT ELIZABETH", "state": "MO", "street": "140 S WALNUT ST", "postcode": "65075"}}},
{"geometry": {"type": "Point", "coordinates": [-92.267925158, 38.2555806153]}, "type": "Feature", "properties": {"collection_times": [{"days": "Mon-Fri", "time": "11:45am"}, {"days": "Sat", "time": "10:15am"}, {"days": "Sun", "time": "Closed"}], "id": "6507500002", "name": "USPS COLLECTION BOX - PO LOBBY", "address": {"city": "SAINT ELIZABETH", "state": "MO", "street": "140 S WALNUT ST", "postcode": "65075"}}},
{"geometry": {"type": "Point", "coordinates": [-92.2164406715, 38.3693973729]}, "type": "Feature", "properties": {"collection_times": [{"days": "Mon-Fri", "time": "3:30pm"}, {"days": "Sat", "time": "10:45am"}, {"days": "Sun", "time": "Closed"}], "id": "6507600001", "name": "USPS COLLECTION BOX - BLUE BOX", "address": {"city": "SAINT THOMAS", "state": "MO", "street": "14807 ROUTE B", "postcode": "65076"}}},
{"geometry": {"type": "Point", "coordinates": [-92.2164406715, 38.3693973729]}, "type": "Feature", "properties": {"collection_times": [{"days": "Mon-Fri", "time": "3:30pm"}, {"days": "Sat", "time": "10:45am"}, {"days": "Sun", "time": "Closed"}], "id": "6507600002", "name": "USPS COLLECTION BOX - PO LOBBY", "address": {"city": "SAINT THOMAS", "state": "MO", "street": "14807 ROUTE B", "postcode": "65076"}}},
{"geometry": {"type": "Point", "coordinates": [-91.817074697, 38.705537576]}, "type": "Feature", "properties": {"collection_times": [{"days": "Mon-Fri", "time": "4:30pm"}, {"days": "Sat", "time": "9:45am"}, {"days": "Sun", "time": "Closed"}], "id": "6507700001", "name": "USPS COLLECTION BOX - BLUE BOX", "address": {"city": "STEEDMAN", "state": "MO", "street": "9635 STATE ROAD CC", "postcode": "65077"}}},
{"geometry": {"type": "Point", "coordinates": [-91.817074697, 38.705537576]}, "type": "Feature", "properties": {"collection_times": [{"days": "Mon-Fri", "time": "4:30pm"}, {"days": "Sat", "time": "9:30am"}, {"days": "Sun", "time": "Closed"}], "id": "6507700002", "name": "USPS COLLECTION BOX - PO LOBBY", "address": {"city": "STEEDMAN", "state": "MO", "street": "9635 STATE ROAD CC", "postcode": "65077"}}},
{"geometry": {"type": "Point", "coordinates": [-92.992107263, 38.4408033963]}, "type": "Feature", "properties": {"collection_times": [{"days": "Mon-Fri", "time": "4:00pm"}, {"days": "Sat", "time": "11:00am"}, {"days": "Sun", "time": "Closed"}], "id": "6507800001", "name": "USPS COLLECTION BOX - BLUE BOX", "address": {"city": "STOVER", "state": "MO", "street": "300 W 2ND ST", "postcode": "65078"}}},
{"geometry": {"type": "Point", "coordinates": [-92.992107263, 38.4408033963]}, "type": "Feature", "properties": {"collection_times": [{"days": "Mon-Fri", "time": "4:00pm"}, {"days": "Sat", "time": "11:00am"}, {"days": "Sun", "time": "Closed"}], "id": "6507800002", "name": "USPS COLLECTION BOX - PO LOBBY", "address": {"city": "STOVER", "state": "MO", "street": "300 W 2ND ST", "postcode": "65078"}}},
{"geometry": {"type": "Point", "coordinates": [-92.7770901534, 38.1593891524]}, "type": "Feature", "properties": {"collection_times": [{"days": "Mon-Fri", "time": "3:30pm"}, {"days": "Sat", "time": "11:00am"}, {"days": "Sun", "time": "Closed"}], "id": "6507900001", "name": "USPS COLLECTION BOX - BLUE BOX", "address": {"city": "SUNRISE BEACH", "state": "MO", "street": "14190 N STATE HIGHWAY 5", "postcode": "65079"}}},
{"geometry": {"type": "Point", "coordinates": [-92.7770901534, 38.1593891524]}, "type": "Feature", "properties": {"collection_times": [{"days": "Mon-Fri", "time": "3:30pm"}, {"days": "Sat", "time": "11:00am"}, {"days": "Sun", "time": "Closed"}], "id": "6507900004", "name": "USPS COLLECTION BOX - PO LOBBY", "address": {"city": "SUNRISE BEACH", "state": "MO", "street": "14190 N STATE HIGHWAY 5", "postcode": "65079"}}},
{"geometry": {"type": "Point", "coordinates": [-92.7510999586, 38.15844159]}, "type": "Feature", "properties": {"collection_times": [{"days": "Mon-Sat", "time": "12:00pm"}, {"days": "Sun", "time": "Closed"}], "id": "6507900007", "name": "USPS COLLECTION BOX - BLUE BOX", "address": {"city": "SUNRISE BEACH", "state": "MO", "street": "13655 N STATE HIGHWAY 5", "postcode": "65079"}}},
{"geometry": {"type": "Point", "coordinates": [-91.948444155, 38.621579242]}, "type": "Feature", "properties": {"collection_times": [{"days": "Mon-Fri", "time": "10:45am"}, {"days": "Sat", "time": "9:00am"}, {"days": "Sun", "time": "Closed"}], "id": "6508000001", "name": "USPS COLLECTION BOX - BLUE BOX", "address": {"city": "TEBBETTS", "state": "MO", "street": "5599 COUNTY ROAD 4011", "postcode": "65080"}}},
{"geometry": {"type": "Point", "coordinates": [-91.948444155, 38.621579242]}, "type": "Feature", "properties": {"collection_times": [{"days": "Mon-Fri", "time": "10:45am"}, {"days": "Sat", "time": "9:00am"}, {"days": "Sun", "time": "Closed"}], "id": "6508000002", "name": "USPS COLLECTION BOX - PO LOBBY", "address": {"city": "TEBBETTS", "state": "MO", "street": "5599 COUNTY ROAD 4011", "postcode": "65080"}}},
{"geometry": {"type": "Point", "coordinates": [-92.7797773562, 38.656388132]}, "type": "Feature", "properties": {"collection_times": [{"days": "Mon-Fri", "time": "3:45pm"}, {"days": "Sat", "time": "12:00pm"}, {"days": "Sun", "time": "Closed"}], "id": "6508100002", "name": "USPS COLLECTION BOX - BLUE BOX", "address": {"city": "TIPTON", "state": "MO", "street": "235 S OSAGE AVE", "postcode": "65081"}}},
{"geometry": {"type": "Point", "coordinates": [-92.7797773562, 38.656388132]}, "type": "Feature", "properties": {"collection_times": [{"days": "Mon-Fri", "time": "3:45pm"}, {"days": "Sat", "time": "12:00pm"}, {"days": "Sun", "time": "Closed"}], "id": "6508100003", "name": "USPS COLLECTION BOX - PO LOBBY", "address": {"city": "TIPTON", "state": "MO", "street": "235 S OSAGE AVE", "postcode": "65081"}}},
{"geometry": {"type": "Point", "coordinates": [-92.461696173, 38.236994431]}, "type": "Feature", "properties": {"collection_times": [{"days": "Mon-Fri", "time": "11:00am"}, {"days": "Sat", "time": "9:45am"}, {"days": "Sun", "time": "Closed"}], "id": "6508200001", "name": "USPS COLLECTION BOX - BLUE BOX", "address": {"city": "TUSCUMBIA", "state": "MO", "street": "1972 HIGHWAY 52", "postcode": "65082"}}},
{"geometry": {"type": "Point", "coordinates": [-92.5004351718, 38.2557966716]}, "type": "Feature", "properties": {"collection_times": [{"days": "Mon-Fri", "time": "11:00am"}, {"days": "Sat", "time": "9:45am"}, {"days": "Sun", "time": "Closed"}], "id": "6508200002", "name": "USPS COLLECTION BOX - PO LOBBY", "address": {"city": "TUSCUMBIA", "state": "MO", "street": "1972 HIGHWAY 52", "postcode": "65082"}}},
{"geometry": {"type": "Point", "coordinates": [-92.4459198159, 38.1522195896]}, "type": "Feature", "properties": {"collection_times": [{"days": "Mon-Fri", "time": "2:00pm"}, {"days": "Sat", "time": "8:00am"}, {"days": "Sun", "time": "Closed"}], "id": "6508300001", "name": "USPS COLLECTION BOX - BLUE BOX", "address": {"city": "ULMAN", "state": "MO", "street": "357 STATE ROUTE C", "postcode": "65083"}}},
{"geometry": {"type": "Point", "coordinates": [-92.4459198159, 38.1522195896]}, "type": "Feature", "properties": {"collection_times": [{"days": "Mon-Fri", "time": "2:00pm"}, {"days": "Sat", "time": "11:30am"}, {"days": "Sun", "time": "Closed"}], "id": "6508300002", "name": "USPS COLLECTION BOX - PO LOBBY", "address": {"city": "ULMAN", "state": "MO", "street": "357 STATE ROUTE C", "postcode": "65083"}}},
{"geometry": {"type": "Point", "coordinates": [-92.8419763393, 38.4309467085]}, "type": "Feature", "properties": {"collection_times": [{"days": "Mon-Fri", "time": "3:30pm"}, {"days": "Sat", "time": "10:30am"}, {"days": "Sun", "time": "Closed"}], "id": "6508400001", "name": "USPS COLLECTION BOX - BLUE BOX", "address": {"city": "VERSAILLES", "state": "MO", "street": "205 S MONROE ST", "postcode": "65084"}}},
{"geometry": {"type": "Point", "coordinates": [-92.8419763393, 38.4309467085]}, "type": "Feature", "properties": {"collection_times": [{"days": "Mon-Fri", "time": "3:30pm"}, {"days": "Sat", "time": "10:30am"}, {"days": "Sun", "time": "Closed"}], "id": "6508400009", "name": "USPS COLLECTION BOX - PO LOBBY", "address": {"city": "VERSAILLES", "state": "MO", "street": "205 S MONROE ST", "postcode": "65084"}}},
{"geometry": {"type": "Point", "coordinates": [-91.9903083317, 38.4361181841]}, "type": "Feature", "properties": {"collection_times": [{"days": "Mon-Fri", "time": "2:30pm"}, {"days": "Sat", "time": "9:30am"}, {"days": "Sun", "time": "Closed"}], "id": "6508500001", "name": "USPS COLLECTION BOX - BLUE BOX", "address": {"city": "WESTPHALIA", "state": "MO", "street": "126 E MAIN ST", "postcode": "65085"}}},
{"geometry": {"type": "Point", "coordinates": [-91.9903083317, 38.4361181841]}, "type": "Feature", "properties": {"collection_times": [{"days": "Mon-Fri", "time": "2:30pm"}, {"days": "Sat", "time": "9:00am"}, {"days": "Sun", "time": "Closed"}], "id": "6508500002", "name": "USPS COLLECTION BOX - PO LOBBY", "address": {"city": "WESTPHALIA", "state": "MO", "street": "126 E MAIN ST", "postcode": "65085"}}},
{"geometry": {"type": "Point", "coordinates": [-91.9903083317, 38.4361181841]}, "type": "Feature", "properties": {"collection_times": [{"days": "Mon-Fri", "time": "2:30pm"}, {"days": "Sat", "time": "9:00am"}, {"days": "Sun", "time": "Closed"}], "id": "6508500003", "name": "USPS COLLECTION BOX - PO LOBBY", "address": {"city": "WESTPHALIA", "state": "MO", "street": "126 E MAIN ST", "postcode": "65085"}}}
]}
