{"type": "FeatureCollection", "features": [
{"geometry": {"type": "Point", "coordinates": [-92.1728938791, 38.5772460602]}, "type": "Feature", "properties": {"collection_times": [{"days": "Mon-Fri", "time": "5:00pm"}, {"days": "Sat", "time": "2:45pm"}, {"days": "Sun", "time": "Closed"}], "id": "6510100001", "name": "USPS COLLECTION BOX - BLUE BOX", "address": {"city": "JEFFERSON CITY", "state": "MO", "street": "131 W HIGH ST", "postcode": "65101"}}},
{"geometry": {"type": "Point", "coordinates": [-92.1728938791, 38.5772460602]}, "type": "Feature", "properties": {"collection_times": [{"days": "Mon-Fri", "time": "5:00pm"}, {"days": "Sat", "time": "2:15pm"}, {"days": "Sun", "time": "Closed"}], "id": "6510100006", "name": "USPS COLLECTION BOX - PO LOBBY", "address": {"city": "JEFFERSON CITY", "state": "MO", "street": "131 W HIGH ST", "postcode": "65101"}}},
{"geometry": {"type": "Point", "coordinates": [-92.1707523154, 38.5738932246]}, "type": "Feature", "properties": {"collection_times": [{"days": "Mon-Sat", "time": "2:30pm"}, {"days": "Sun", "time": "Closed"}], "id": "6510100015", "name": "USPS COLLECTION BOX - BLUE BOX", "address": {"city": "JEFFERSON CITY", "state": "MO", "street": "320 E MCCARTY ST", "postcode": "65101"}}},
{"geometry": {"type": "Point", "coordinates": [-92.1698157179, 38.5770847385]}, "type": "Feature", "properties": {"collection_times": [{"days": "Mon-Sat", "time": "3:00pm"}, {"days": "Sun", "time": "Closed"}], "id": "6510100022", "name": "USPS COLLECTION BOX - BLUE BOX", "address": {"city": "JEFFERSON CITY", "state": "MO", "street": "205 E CAPITOL AVE", "postcode": "65101"}}},
{"geometry": {"type": "Point", "coordinates": [-92.1921457851, 38.55171636]}, "type": "Feature", "properties": {"collection_times": [{"days": "Mon-Sat", "time": "10:00am"}, {"days": "Sun", "time": "Closed"}], "id": "6510100024", "name": "USPS COLLECTION BOX - BLUE BOX", "address": {"city": "JEFFERSON CITY", "state": "MO", "street": "520 ELLIS BLVD", "postcode": "65101"}}},
{"geometry": {"type": "Point", "coordinates": [-92.1883556435, 38.561087757]}, "type": "Feature", "properties": {"collection_times": [{"days": "Mon-Sat", "time": "1:30pm"}, {"days": "Sun", "time": "Closed"}], "id": "6510100025", "name": "USPS COLLECTION BOX - BLUE BOX", "address": {"city": "JEFFERSON CITY", "state": "MO", "street": "1445 CHRISTY DR", "postcode": "65101"}}},
{"geometry": {"type": "Point", "coordinates": [-92.1656196628, 38.5720741255]}, "type": "Feature", "properties": {"collection_times": [{"days": "Mon-Sat", "time": "2:30pm"}, {"days": "Sun", "time": "Closed"}], "id": "6510100034", "name": "USPS COLLECTION BOX - BLUE BOX", "address": {"city": "JEFFERSON CITY", "state": "MO", "street": "628 E HIGH ST", "postcode": "65101"}}},
{"geometry": {"type": "Point", "coordinates": [-92.1720563055, 38.5766353829]}, "type": "Feature", "properties": {"collection_times": [{"days": "Mon-Sat", "time": "3:00pm"}, {"days": "Sun", "time": "Closed"}], "id": "6510100035", "name": "USPS COLLECTION BOX - BLUE BOX", "address": {"city": "JEFFERSON CITY", "state": "MO", "street": "132 E HIGH ST", "postcode": "65101"}}},
{"geometry": {"type": "Point", "coordinates": [-92.1706142583, 38.5757634063]}, "type": "Feature", "properties": {"collection_times": [{"days": "Mon-Sat", "time": "3:00pm"}, {"days": "Sun", "time": "Closed"}], "id": "6510100037", "name": "USPS COLLECTION BOX - BLUE BOX", "address": {"city": "JEFFERSON CITY", "state": "MO", "street": "237 E HIGH ST", "postcode": "65101"}}},
{"geometry": {"type": "Point", "coordinates": [-92.1728938791, 38.5772460602]}, "type": "Feature", "properties": {"collection_times": [{"days": "Mon-Fri", "time": "5:00pm"}, {"days": "Sat", "time": "2:45pm"}, {"days": "Sun", "time": "Closed"}], "id": "6510100054", "name": "USPS COLLECTION BOX - BLUE BOX", "address": {"city": "JEFFERSON CITY", "state": "MO", "street": "131 W HIGH ST", "postcode": "65101"}}},
{"geometry": {"type": "Point", "coordinates": [-92.1728938791, 38.5772460602]}, "type": "Feature", "properties": {"collection_times": [{"days": "Mon-Fri", "time": "5:00pm"}, {"days": "Sat", "time": "2:45pm"}, {"days": "Sun", "time": "Closed"}], "id": "6510100055", "name": "USPS COLLECTION BOX - BLUE BOX", "address": {"city": "JEFFERSON CITY", "state": "MO", "street": "131 W HIGH ST", "postcode": "65101"}}},
{"geometry": {"type": "Point", "coordinates": [-92.1728938791, 38.5772460602]}, "type": "Feature", "properties": {"collection_times": [{"days": "Mon-Fri", "time": "5:00pm"}, {"days": "Sat", "time": "2:45pm"}, {"days": "Sun", "time": "Closed"}], "id": "6510100056", "name": "USPS COLLECTION BOX - BLUE BOX", "address": {"city": "JEFFERSON CITY", "state": "MO", "street": "131 W HIGH ST", "postcode": "65101"}}},
{"geometry": {"type": "Point", "coordinates": [-92.1728938791, 38.5772460602]}, "type": "Feature", "properties": {"collection_times": [{"days": "Mon-Fri", "time": "5:00pm"}, {"days": "Sat", "time": "2:45pm"}, {"days": "Sun", "time": "Closed"}], "id": "6510100057", "name": "USPS COLLECTION BOX - BLUE BOX", "address": {"city": "JEFFERSON CITY", "state": "MO", "street": "131 W HIGH ST", "postcode": "65101"}}},
{"geometry": {"type": "Point", "coordinates": [-92.1728938791, 38.5772460602]}, "type": "Feature", "properties": {"collection_times": [{"days": "Mon-Fri", "time": "5:00pm"}, {"days": "Sat", "time": "2:45pm"}, {"days": "Sun", "time": "Closed"}], "id": "6510100058", "name": "USPS COLLECTION BOX - BLUE BOX", "address": {"city": "JEFFERSON CITY", "state": "MO", "street": "131 W HIGH ST", "postcode": "65101"}}},
{"geometry": {"type": "Point", "coordinates": [-92.1453013743, 38.5529122438]}, "type": "Feature", "properties": {"collection_times": [{"days": "Mon-Sat", "time": "12:00pm"}, {"days": "Sun", "time": "Closed"}], "id": "6510100060", "name": "USPS COLLECTION BOX - BLUE BOX", "address": {"city": "JEFFERSON CITY", "state": "MO", "street": "821 EASTLAND DR", "postcode": "65101"}}},
{"geometry": {"type": "Point", "coordinates": [-92.1733392862, 38.5720658604]}, "type": "Feature", "properties": {"collection_times": [{"days": "Mon-Sat", "time": "10:00am"}, {"days": "Sun", "time": "Closed"}], "id": "6510100072", "name": "USPS COLLECTION BOX - BLUE BOX", "address": {"city": "JEFFERSON CITY", "state": "MO", "street": "601 MONROE ST", "postcode": "65101"}}},
{"geometry": {"type": "Point", "coordinates": [-92.1669878629, 38.5731931958]}, "type": "Feature", "properties": {"collection_times": [{"days": "Mon-Sat", "time": "2:30pm"}, {"days": "Sun", "time": "Closed"}], "id": "6510100074", "name": "USPS COLLECTION BOX - BLUE BOX", "address": {"city": "JEFFERSON CITY", "state": "MO", "street": "515 E HIGH ST", "postcode": "65101"}}},
{"geometry": {"type": "Point", "coordinates": [-92.1944867163, 38.5558062198]}, "type": "Feature", "properties": {"collection_times": [{"days": "Mon-Sat", "time": "1:30pm"}, {"days": "Sun", "time": "Closed"}], "id": "6510100077", "name": "USPS COLLECTION BOX - BLUE BOX", "address": {"city": "JEFFERSON CITY", "state": "MO", "street": "1705 CHRISTY DR", "postcode": "65101"}}},
{"geometry": {"type": "Point", "coordinates": [-92.1750859522, 38.578857955]}, "type": "Feature", "properties": {"collection_times": [{"days": "Mon-Fri", "time": "2:30pm"}, {"days": "Sat-Sun", "time": "Closed"}], "id": "6510100084", "name": "USPS COLLECTION BOX - BLUE BOX", "address": {"city": "JEFFERSON CITY", "state": "MO", "street": "301 W HIGH ST", "postcode": "65101"}}},
{"geometry": {"type": "Point", "coordinates": [-92.1723320119, 38.5784934745]}, "type": "Feature", "properties": {"collection_times": [{"days": "Mon-Fri", "time": "2:30pm"}, {"days": "Sat-Sun", "time": "Closed"}], "id": "6510100085", "name": "USPS COLLECTION BOX - BLUE BOX", "address": {"city": "JEFFERSON CITY", "state": "MO", "street": "201 W CAPITOL AVE", "postcode": "65101"}}},
{"geometry": {"type": "Point", "coordinates": [-92.1619389378, 38.5306912462]}, "type": "Feature", "properties": {"collection_times": [{"days": "Mon-Sat", "time": "2:30pm"}, {"days": "Sun", "time": "Closed"}], "id": "6510100087", "name": "USPS COLLECTION BOX - BLUE BOX", "address": {"city": "JEFFERSON CITY", "state": "MO", "street": "428 E CAPITOL AVE", "postcode": "65101"}}},
{"geometry": {"type": "Point", "coordinates": [-92.1961329853, 38.5552830674]}, "type": "Feature", "properties": {"collection_times": [{"days": "Mon-Fri", "time": "5:00pm"}, {"days": "Sat", "time": "2:45pm"}, {"days": "Sun", "time": "Closed"}], "id": "6510900001", "name": "USPS COLLECTION BOX - BLUE BOX", "address": {"city": "JEFFERSON CITY", "state": "MO", "street": "1750 JEFFERSON ST", "postcode": "65109"}}},
{"geometry": {"type": "Point", "coordinates": [-92.1961329853, 38.5552830674]}, "type": "Feature", "properties": {"collection_times": [{"days": "Mon-Fri", "time": "5:00pm"}, {"days": "Sat", "time": "2:45pm"}, {"days": "Sun", "time": "Closed"}], "id": "6510900002", "name": "USPS COLLECTION BOX - BLUE BOX", "address": {"city": "JEFFERSON CITY", "state": "MO", "street": "1750 JEFFERSON ST", "postcode": "65109"}}},
{"geometry": {"type": "Point", "coordinates": [-92.1924901042, 38.5783703826]}, "type": "Feature", "properties": {"collection_times": [{"days": "Mon-Sat", "time": "3:00pm"}, {"days": "Sun", "time": "Closed"}], "id": "6510900008", "name": "USPS COLLECTION BOX - BLUE BOX", "address": {"city": "JEFFERSON CITY", "state": "MO", "street": "1412 MO BLVD", "postcode": "65109"}}},
{"geometry": {"type": "Point", "coordinates": [-92.200062301, 38.5643695569]}, "type": "Feature", "properties": {"collection_times": [{"days": "Mon-Sat", "time": "11:00am"}, {"days": "Sun", "time": "Closed"}], "id": "6510900009", "name": "USPS COLLECTION BOX - BLUE BOX", "address": {"city": "JEFFERSON CITY", "state": "MO", "street": "1431 SOUTHWEST BLVD", "postcode": "65109"}}},
{"geometry": {"type": "Point", "coordinates": [-92.2780024039, 38.5740651203]}, "type": "Feature", "properties": {"collection_times": [{"days": "Mon-Sat", "time": "10:00am"}, {"days": "Sun", "time": "Closed"}], "id": "6510900010", "name": "USPS COLLECTION BOX - BLUE BOX", "address": {"city": "JEFFERSON CITY", "state": "MO", "street": "1705 WOODCLIFT DR", "postcode": "65109"}}},
{"geometry": {"type": "Point", "coordinates": [-92.2000550844, 38.5561719963]}, "type": "Feature", "properties": {"collection_times": [{"days": "Mon-Sat", "time": "3:00pm"}, {"days": "Sun", "time": "Closed"}], "id": "6510900015", "name": "USPS COLLECTION BOX - BLUE BOX", "address": {"city": "JEFFERSON CITY", "state": "MO", "street": "1904 SOUTHWEST BLVD", "postcode": "65109"}}},
{"geometry": {"type": "Point", "coordinates": [-92.1961329853, 38.5552830674]}, "type": "Feature", "properties": {"collection_times": [{"days": "Mon-Fri", "time": "5:00pm"}, {"days": "Sat", "time": "2:45pm"}, {"days": "Sun", "time": "Closed"}], "id": "6510900034", "name": "USPS COLLECTION BOX - BLUE BOX", "address": {"city": "JEFFERSON CITY", "state": "MO", "street": "1750 JEFFERSON ST", "postcode": "65109"}}},
{"geometry": {"type": "Point", "coordinates": [-92.2561831998, 38.5863607304]}, "type": "Feature", "properties": {"collection_times": [{"days": "Mon-Fri", "time": "4:30pm"}, {"days": "Sat", "time": "2:30pm"}, {"days": "Sun", "time": "Closed"}], "id": "6510900035", "name": "USPS COLLECTION BOX - BLUE BOX", "address": {"city": "JEFFERSON CITY", "state": "MO", "street": "3721 W TRUMAN BLVD", "postcode": "65109"}}},
{"geometry": {"type": "Point", "coordinates": [-92.2258997773, 38.5949738236]}, "type": "Feature", "properties": {"collection_times": [{"days": "Mon-Sat", "time": "3:00pm"}, {"days": "Sun", "time": "Closed"}], "id": "6510900037", "name": "USPS COLLECTION BOX - BLUE BOX", "address": {"city": "JEFFERSON CITY", "state": "MO", "street": "2805 W TRUMAN BLVD", "postcode": "65109"}}},
{"geometry": {"type": "Point", "coordinates": [-92.2134765529, 38.5774040204]}, "type": "Feature", "properties": {"collection_times": [{"days": "Mon-Sat", "time": "10:00am"}, {"days": "Sun", "time": "Closed"}], "id": "6510900038", "name": "USPS COLLECTION BOX - BLUE BOX", "address": {"city": "JEFFERSON CITY", "state": "MO", "street": "2421 HYDE PARK RD", "postcode": "65109"}}},
{"geometry": {"type": "Point", "coordinates": [-92.201673619, 38.5809873475]}, "type": "Feature", "properties": {"collection_times": [{"days": "Mon-Sat", "time": "12:00pm"}, {"days": "Sun", "time": "Closed"}], "id": "6510900039", "name": "USPS COLLECTION BOX - BLUE BOX", "address": {"city": "JEFFERSON CITY", "state": "MO", "street": "2002 MO BLVD", "postcode": "65109"}}},
{"geometry": {"type": "Point", "coordinates": [-92.1961329853, 38.5552830674]}, "type": "Feature", "properties": {"collection_times": [{"days": "Mon-Fri", "time": "5:00pm"}, {"days": "Sat", "time": "2:45pm"}, {"days": "Sun", "time": "Closed"}], "id": "6510900040", "name": "USPS COLLECTION BOX - PO LOBBY", "address": {"city": "JEFFERSON CITY", "state": "MO", "street": "1750 JEFFERSON ST", "postcode": "65109"}}},
{"geometry": {"type": "Point", "coordinates": [-92.1961329853, 38.5552830674]}, "type": "Feature", "properties": {"collection_times": [{"days": "Mon-Fri", "time": "5:00pm"}, {"days": "Sat", "time": "2:45pm"}, {"days": "Sun", "time": "Closed"}], "id": "6510900047", "name": "USPS COLLECTION BOX - APC", "address": {"city": "JEFFERSON CITY", "state": "MO", "street": "1750 JEFFERSON ST", "postcode": "65109"}}},
{"geometry": {"type": "Point", "coordinates": [-92.2561940243, 38.5863286548]}, "type": "Feature", "properties": {"collection_times": [{"days": "Mon-Fri", "time": "4:30pm"}, {"days": "Sat", "time": "2:30pm"}, {"days": "Sun", "time": "Closed"}], "id": "6510900048", "name": "USPS COLLECTION BOX - BLUE BOX", "address": {"city": "JEFFERSON CITY", "state": "MO", "street": "3723 W TRUMAN BLVD", "postcode": "65109"}}},
{"geometry": {"type": "Point", "coordinates": [-92.2382468671, 38.5704524196]}, "type": "Feature", "properties": {"collection_times": [{"days": "Mon-Sat", "time": "3:00pm"}, {"days": "Sun", "time": "Closed"}], "id": "6510900049", "name": "USPS COLLECTION BOX - BLUE BOX", "address": {"city": "JEFFERSON CITY", "state": "MO", "street": "1000 DIAMOND RDG", "postcode": "65109"}}},
{"geometry": {"type": "Point", "coordinates": [-92.2382468671, 38.5704524196]}, "type": "Feature", "properties": {"collection_times": [{"days": "Mon-Sat", "time": "3:00pm"}, {"days": "Sun", "time": "Closed"}], "id": "6510900050", "name": "USPS COLLECTION BOX - BLUE BOX", "address": {"city": "JEFFERSON CITY", "state": "MO", "street": "1000 DIAMOND RDG", "postcode": "65109"}}},
{"geometry": {"type": "Point", "coordinates": [-92.1994618979, 38.5807376163]}, "type": "Feature", "properties": {"collection_times": [{"days": "Mon-Sat", "time": "11:00am"}, {"days": "Sun", "time": "Closed"}], "id": "6510900051", "name": "USPS COLLECTION BOX - BLUE BOX", "address": {"city": "JEFFERSON CITY", "state": "MO", "street": "1801 MO BLVD", "postcode": "65109"}}},
{"geometry": {"type": "Point", "coordinates": [-92.2170920118, 38.5726085977]}, "type": "Feature", "properties": {"collection_times": [{"days": "Mon-Sat", "time": "2:30pm"}, {"days": "Sun", "time": "Closed"}], "id": "6510900052", "name": "USPS COLLECTION BOX - BLUE BOX", "address": {"city": "JEFFERSON CITY", "state": "MO", "street": "1241 W STADIUM BLVD", "postcode": "65109"}}}
]}
