{"type": "FeatureCollection", "features": [
{"geometry": {"type": "Point", "coordinates": [-92.3196197457, 38.9712937495]}, "type": "Feature", "properties": {"collection_times": [{"days": "Mon-Sat", "time": "12:30pm"}, {"days": "Sun", "time": "Closed"}], "id": "6520100022", "name": "USPS COLLECTION BOX - BLUE BOX", "address": {"city": "COLUMBIA", "state": "MO", "street": "1301 VANDIVER DR", "postcode": "65201"}}},
{"geometry": {"type": "Point", "coordinates": [-92.3069399094, 38.9658705226]}, "type": "Feature", "properties": {"collection_times": [{"days": "Mon-Fri", "time": "1:30pm"}, {"days": "Sat-Sun", "time": "Closed"}], "id": "6520100023", "name": "USPS COLLECTION BOX - BLUE BOX", "address": {"city": "COLUMBIA", "state": "MO", "street": "1401 HATHMAN PL", "postcode": "65201"}}},
{"geometry": {"type": "Point", "coordinates": [-92.2936995578, 38.9546164046]}, "type": "Feature", "properties": {"collection_times": [{"days": "Mon-Sat", "time": "12:00pm"}, {"days": "Sun", "time": "Closed"}], "id": "6520100028", "name": "USPS COLLECTION BOX - BLUE BOX", "address": {"city": "COLUMBIA", "state": "MO", "street": "415 CONLEY RD", "postcode": "65201"}}},
{"geometry": {"type": "Point", "coordinates": [-92.3332673843, 38.9099236834]}, "type": "Feature", "properties": {"collection_times": [{"days": "Mon-Fri", "time": "5:00pm"}, {"days": "Sat", "time": "1:30pm"}, {"days": "Sun", "time": "Closed"}], "id": "6520100032", "name": "USPS COLLECTION BOX - BLUE BOX", "address": {"city": "COLUMBIA", "state": "MO", "street": "3709 SANDMAN LN", "postcode": "65201"}}},
{"geometry": {"type": "Point", "coordinates": [-92.2753172587, 38.9374483492]}, "type": "Feature", "properties": {"collection_times": [{"days": "Mon-Sat", "time": "10:30am"}, {"days": "Sun", "time": "Closed"}], "id": "6520100034", "name": "USPS COLLECTION BOX - BLUE BOX", "address": {"city": "COLUMBIA", "state": "MO", "street": "1079 S EL CHAPARRAL AVE", "postcode": "65201"}}},
{"geometry": {"type": "Point", "coordinates": [-92.2457164852, 38.8922627109]}, "type": "Feature", "properties": {"collection_times": [{"days": "Mon-Sat", "time": "11:00am"}, {"days": "Sun", "time": "Closed"}], "id": "6520100042", "name": "USPS COLLECTION BOX - BLUE BOX", "address": {"city": "COLUMBIA", "state": "MO", "street": "600 E STEWART", "postcode": "65201"}}},
{"geometry": {"type": "Point", "coordinates": [-92.3275144097, 38.9465176363]}, "type": "Feature", "properties": {"collection_times": [{"days": "Mon-Fri", "time": "1:30pm"}, {"days": "Sat", "time": "11:00am"}, {"days": "Sun", "time": "Closed"}], "id": "6520100051", "name": "USPS COLLECTION BOX - BLUE BOX", "address": {"city": "COLUMBIA", "state": "MO", "street": "903 UNIVERSITY AVE", "postcode": "65201"}}},
{"geometry": {"type": "Point", "coordinates": [-92.3098886327, 38.968536648]}, "type": "Feature", "properties": {"collection_times": [{"days": "Mon-Fri", "time": "12:30pm"}, {"days": "Sat", "time": "12:00pm"}, {"days": "Sun", "time": "Closed"}], "id": "6520100056", "name": "USPS COLLECTION BOX - BLUE BOX", "address": {"city": "COLUMBIA", "state": "MO", "street": "1611 BURLINGTON ST", "postcode": "65201"}}},
{"geometry": {"type": "Point", "coordinates": [-92.2898716346, 38.955565908]}, "type": "Feature", "properties": {"collection_times": [{"days": "Mon-Fri", "time": "1:15pm"}, {"days": "Sat", "time": "12:00pm"}, {"days": "Sun", "time": "Closed"}], "id": "6520100063", "name": "USPS COLLECTION BOX - BLUE BOX", "address": {"city": "COLUMBIA", "state": "MO", "street": "404 N KEENE ST", "postcode": "65201"}}},
{"geometry": {"type": "Point", "coordinates": [-92.2958892095, 38.9143278116]}, "type": "Feature", "properties": {"collection_times": [{"days": "Mon-Fri", "time": "3:30pm"}, {"days": "Sat", "time": "10:00am"}, {"days": "Sun", "time": "Closed"}], "id": "6520100071", "name": "USPS COLLECTION BOX - BLUE BOX", "address": {"city": "COLUMBIA", "state": "MO", "street": "2909 FALLING LEAF LN", "postcode": "65201"}}},
{"geometry": {"type": "Point", "coordinates": [-92.3364289709, 38.9163379124]}, "type": "Feature", "properties": {"collection_times": [{"days": "Mon-Fri", "time": "2:15pm"}, {"days": "Sat", "time": "1:15pm"}, {"days": "Sun", "time": "Closed"}], "id": "6520100074", "name": "USPS COLLECTION BOX - BLUE BOX", "address": {"city": "COLUMBIA", "state": "MO", "street": "212 E GREEN MEADOWS RD", "postcode": "65201"}}},
{"geometry": {"type": "Point", "coordinates": [-92.3108458384, 38.9645570187]}, "type": "Feature", "properties": {"collection_times": [{"days": "Mon-Fri", "time": "3:45pm"}, {"days": "Sat", "time": "10:00am"}, {"days": "Sun", "time": "Closed"}], "id": "6520100076", "name": "USPS COLLECTION BOX - BLUE BOX", "address": {"city": "COLUMBIA", "state": "MO", "street": "1812 PARIS RD", "postcode": "65201"}}},
{"geometry": {"type": "Point", "coordinates": [-92.3326838701, 38.9395310564]}, "type": "Feature", "properties": {"collection_times": [{"days": "Mon-Sat", "time": "11:00am"}, {"days": "Sun", "time": "Closed"}], "id": "6520100084", "name": "USPS COLLECTION BOX - BLUE BOX", "address": {"city": "COLUMBIA", "state": "MO", "street": "502 KENTUCKY BLVD", "postcode": "65201"}}},
{"geometry": {"type": "Point", "coordinates": [-92.4321280853, 38.9729087589]}, "type": "Feature", "properties": {"collection_times": [{"days": "Mon-Sat", "time": "10:00am"}, {"days": "Sun", "time": "Closed"}], "id": "6520100085", "name": "USPS COLLECTION BOX - BLUE BOX", "address": {"city": "COLUMBIA", "state": "MO", "street": "6401 HIGHWAY 40 WEST RD", "postcode": "65201"}}},
{"geometry": {"type": "Point", "coordinates": [-92.3293164644, 38.9096075787]}, "type": "Feature", "properties": {"collection_times": [{"days": "Mon-Sat", "time": "11:30am"}, {"days": "Sun", "time": "Closed"}], "id": "6520100089", "name": "USPS COLLECTION BOX - BLUE BOX", "address": {"city": "COLUMBIA", "state": "MO", "street": "3700 HYDE PARK AVE", "postcode": "65201"}}},
{"geometry": {"type": "Point", "coordinates": [-92.2888996307, 38.9593631675]}, "type": "Feature", "properties": {"collection_times": [{"days": "Mon-Fri", "time": "4:00pm"}, {"days": "Sat", "time": "10:00am"}, {"days": "Sun", "time": "Closed"}], "id": "6520100090", "name": "USPS COLLECTION BOX - BLUE BOX", "address": {"city": "COLUMBIA", "state": "MO", "street": "900 N KEENE ST", "postcode": "65201"}}},
{"geometry": {"type": "Point", "coordinates": [-92.3315945477, 38.9132438913]}, "type": "Feature", "properties": {"collection_times": [{"days": "Mon-Fri", "time": "4:00pm"}, {"days": "Sat", "time": "1:30pm"}, {"days": "Sun", "time": "Closed"}], "id": "6520100091", "name": "USPS COLLECTION BOX - BLUE BOX", "address": {"city": "COLUMBIA", "state": "MO", "street": "3610 BUTTONWOOD DR", "postcode": "65201"}}},
{"geometry": {"type": "Point", "coordinates": [-92.3235423874, 38.9639220997]}, "type": "Feature", "properties": {"collection_times": [{"days": "Mon-Sat", "time": "12:00pm"}, {"days": "Sun", "time": "Closed"}], "id": "6520100097", "name": "USPS COLLECTION BOX - BLUE BOX", "address": {"city": "COLUMBIA", "state": "MO", "street": "1102 BUSINESS LOOP 70 E", "postcode": "65201"}}},
{"geometry": {"type": "Point", "coordinates": [-92.2942573903, 38.9355805837]}, "type": "Feature", "properties": {"collection_times": [{"days": "Mon-Sat", "time": "10:00am"}, {"days": "Sun", "time": "Closed"}], "id": "6520100098", "name": "USPS COLLECTION BOX - BLUE BOX", "address": {"city": "COLUMBIA", "state": "MO", "street": "912 OLD 63 S", "postcode": "65201"}}},
{"geometry": {"type": "Point", "coordinates": [-92.3167776795, 38.9351204825]}, "type": "Feature", "properties": {"collection_times": [{"days": "Mon-Sat", "time": "11:00am"}, {"days": "Sun", "time": "Closed"}], "id": "6520100099", "name": "USPS COLLECTION BOX - BLUE BOX", "address": {"city": "COLUMBIA", "state": "MO", "street": "1133 ASHLAND RD", "postcode": "65201"}}},
{"geometry": {"type": "Point", "coordinates": [-92.3050428019, 38.9671847409]}, "type": "Feature", "properties": {"collection_times": [{"days": "Mon-Fri", "time": "1:30pm"}, {"days": "Sat", "time": "12:00pm"}, {"days": "Sun", "time": "Closed"}], "id": "6520100104", "name": "USPS COLLECTION BOX - BLUE BOX", "address": {"city": "COLUMBIA", "state": "MO", "street": "1548 TOWNE DR", "postcode": "65201"}}},
{"geometry": {"type": "Point", "coordinates": [-92.3219262434, 38.9421273351]}, "type": "Feature", "properties": {"collection_times": [{"days": "Mon-Sat", "time": "11:00am"}, {"days": "Sun", "time": "Closed"}], "id": "6520100113", "name": "USPS COLLECTION BOX - BLUE BOX", "address": {"city": "COLUMBIA", "state": "MO", "street": "1306 E ROLLINS ST", "postcode": "65201"}}},
{"geometry": {"type": "Point", "coordinates": [-92.3096157423, 38.9082414611]}, "type": "Feature", "properties": {"collection_times": [{"days": "Mon-Sat", "time": "11:00am"}, {"days": "Sun", "time": "Closed"}], "id": "6520100114", "name": "USPS COLLECTION BOX - BLUE BOX", "address": {"city": "COLUMBIA", "state": "MO", "street": "3800 HERMITAGE RD", "postcode": "65201"}}},
{"geometry": {"type": "Point", "coordinates": [-92.3270799734, 38.9095829102]}, "type": "Feature", "properties": {"collection_times": [{"days": "Mon-Fri", "time": "2:30pm"}, {"days": "Sat", "time": "10:00am"}, {"days": "Sun", "time": "Closed"}], "id": "6520100117", "name": "USPS COLLECTION BOX - BLUE BOX", "address": {"city": "COLUMBIA", "state": "MO", "street": "1000 W NIFONG BLVD", "postcode": "65201"}}},
{"geometry": {"type": "Point", "coordinates": [-92.2233679841, 38.8168240189]}, "type": "Feature", "properties": {"collection_times": [{"days": "Mon-Sat", "time": "10:00am"}, {"days": "Sun", "time": "Closed"}], "id": "6520100118", "name": "USPS COLLECTION BOX - BLUE BOX", "address": {"city": "COLUMBIA", "state": "MO", "street": "11200 S AIRPORT DR", "postcode": "65201"}}},
{"geometry": {"type": "Point", "coordinates": [-92.3321077485, 38.9100389748]}, "type": "Feature", "properties": {"collection_times": [{"days": "Mon-Fri", "time": "2:30pm"}, {"days": "Sat", "time": "11:00am"}, {"days": "Sun", "time": "Closed"}], "id": "6520100133", "name": "USPS COLLECTION BOX - BLUE BOX", "address": {"city": "COLUMBIA", "state": "MO", "street": "601 W NIFONG BLVD", "postcode": "65201"}}},
{"geometry": {"type": "Point", "coordinates": [-92.3158521099, 38.9711548577]}, "type": "Feature", "properties": {"collection_times": [{"days": "Mon-Fri", "time": "4:30pm"}, {"days": "Sat-Sun", "time": "Closed"}], "id": "6520100137", "name": "USPS COLLECTION BOX - BLUE BOX", "address": {"city": "COLUMBIA", "state": "MO", "street": "1500 VANDIVER DR", "postcode": "65201"}}},
{"geometry": {"type": "Point", "coordinates": [-92.2916932752, 38.9164045645]}, "type": "Feature", "properties": {"collection_times": [{"days": "Mon-Fri", "time": "4:30pm"}, {"days": "Sat", "time": "1:30pm"}, {"days": "Sun", "time": "Closed"}], "id": "6520100139", "name": "USPS COLLECTION BOX - BLUE BOX", "address": {"city": "COLUMBIA", "state": "MO", "street": "3212B LEMONE INDUSTRIAL BLVD", "postcode": "65201"}}},
{"geometry": {"type": "Point", "coordinates": [-92.3307919872, 38.9377023813]}, "type": "Feature", "properties": {"collection_times": [{"days": "Mon-Fri", "time": "4:00pm"}, {"days": "Sat", "time": "10:00am"}, {"days": "Sun", "time": "Closed"}], "id": "6520100140", "name": "USPS COLLECTION BOX - BLUE BOX", "address": {"city": "COLUMBIA", "state": "MO", "street": "1 HOSPITAL DR", "postcode": "65201"}}},
{"geometry": {"type": "Point", "coordinates": [-92.2457164852, 38.8922627109]}, "type": "Feature", "properties": {"collection_times": [{"days": "Mon-Fri", "time": "4:30pm"}, {"days": "Sat-Sun", "time": "Closed"}], "id": "6520100148", "name": "USPS COLLECTION BOX - BLUE BOX", "address": {"city": "COLUMBIA", "state": "MO", "street": "1512 HERIFORD RD", "postcode": "65201"}}},
{"geometry": {"type": "Point", "coordinates": [-92.2457164852, 38.8922627109]}, "type": "Feature", "properties": {"collection_times": [{"days": "Mon-Fri", "time": "2:15pm"}, {"days": "Sat", "time": "1:00pm"}, {"days": "Sun", "time": "Closed"}], "id": "6520100149", "name": "USPS COLLECTION BOX - BLUE BOX", "address": {"city": "COLUMBIA", "state": "MO", "street": "2620 COLONY", "postcode": "65201"}}},
{"geometry": {"type": "Point", "coordinates": [-92.365035613, 38.9218801894]}, "type": "Feature", "properties": {"collection_times": [{"days": "Mon-Fri", "time": "2:15pm"}, {"days": "Sat", "time": "11:30am"}, {"days": "Sun", "time": "Closed"}], "id": "6520100150", "name": "USPS COLLECTION BOX - BLUE BOX", "address": {"city": "COLUMBIA", "state": "MO", "street": "2718 FORUM BLVD", "postcode": "65201"}}},
{"geometry": {"type": "Point", "coordinates": [-92.3458376237, 38.9532167081]}, "type": "Feature", "properties": {"collection_times": [{"days": "Mon-Fri", "time": "5:00pm"}, {"days": "Sat", "time": "3:00pm"}, {"days": "Sun", "time": "Closed"}], "id": "6520300000", "name": "USPS COLLECTION BOX - BLUE BOX", "address": {"city": "COLUMBIA", "state": "MO", "street": "511 E WALNUT ST", "postcode": "65203"}}},
{"geometry": {"type": "Point", "coordinates": [-92.3458376237, 38.9532167081]}, "type": "Feature", "properties": {"collection_times": [{"days": "Mon-Fri", "time": "5:00pm"}, {"days": "Sat", "time": "3:00pm"}, {"days": "Sun", "time": "Closed"}], "id": "6520300001", "name": "USPS COLLECTION BOX - BLUE BOX", "address": {"city": "COLUMBIA", "state": "MO", "street": "511 E WALNUT ST", "postcode": "65203"}}},
{"geometry": {"type": "Point", "coordinates": [-92.3458376237, 38.9532167081]}, "type": "Feature", "properties": {"collection_times": [{"days": "Mon-Fri", "time": "5:00pm"}, {"days": "Sat", "time": "3:00pm"}, {"days": "Sun", "time": "Closed"}], "id": "6520300003", "name": "USPS COLLECTION BOX - BLUE BOX", "address": {"city": "COLUMBIA", "state": "MO", "street": "511 E WALNUT ST", "postcode": "65203"}}},
{"geometry": {"type": "Point", "coordinates": [-92.3458376237, 38.9532167081]}, "type": "Feature", "properties": {"collection_times": [{"days": "Mon-Fri", "time": "5:00pm"}, {"days": "Sat", "time": "3:00pm"}, {"days": "Sun", "time": "Closed"}], "id": "6520300004", "name": "USPS COLLECTION BOX - BLUE BOX", "address": {"city": "COLUMBIA", "state": "MO", "street": "511 E WALNUT ST", "postcode": "65203"}}},
{"geometry": {"type": "Point", "coordinates": [-92.3458376237, 38.9532167081]}, "type": "Feature", "properties": {"collection_times": [{"days": "Mon-Fri", "time": "5:00pm"}, {"days": "Sat", "time": "3:00pm"}, {"days": "Sun", "time": "Closed"}], "id": "6520300005", "name": "USPS COLLECTION BOX - BLUE BOX", "address": {"city": "COLUMBIA", "state": "MO", "street": "511 E WALNUT ST", "postcode": "65203"}}},
{"geometry": {"type": "Point", "coordinates": [-92.3458376237, 38.9532167081]}, "type": "Feature", "properties": {"collection_times": [{"days": "Mon-Fri", "time": "5:00pm"}, {"days": "Sat", "time": "3:00pm"}, {"days": "Sun", "time": "Closed"}], "id": "6520300006", "name": "USPS COLLECTION BOX - BLUE BOX", "address": {"city": "COLUMBIA", "state": "MO", "street": "511 E WALNUT ST", "postcode": "65203"}}},
{"geometry": {"type": "Point", "coordinates": [-92.3458376237, 38.9532167081]}, "type": "Feature", "properties": {"collection_times": [{"days": "Mon-Fri", "time": "5:00pm"}, {"days": "Sat", "time": "3:00pm"}, {"days": "Sun", "time": "Closed"}], "id": "6520300008", "name": "USPS COLLECTION BOX - PO LOBBY", "address": {"city": "COLUMBIA", "state": "MO", "street": "511 E WALNUT ST", "postcode": "65203"}}},
{"geometry": {"type": "Point", "coordinates": [-92.326509023, 38.9536142758]}, "type": "Feature", "properties": {"collection_times": [{"days": "Mon-Fri", "time": "12:00pm"}, {"days": "Sat-Sun", "time": "Closed"}], "id": "6520300010", "name": "USPS COLLECTION BOX - BLUE BOX", "address": {"city": "COLUMBIA", "state": "MO", "street": "201 N 10TH ST", "postcode": "65203"}}},
{"geometry": {"type": "Point", "coordinates": [-92.3330396612, 38.9496219915]}, "type": "Feature", "properties": {"collection_times": [{"days": "Mon-Fri", "time": "4:45pm"}, {"days": "Sat", "time": "12:00pm"}, {"days": "Sun", "time": "Closed"}], "id": "6520300013", "name": "USPS COLLECTION BOX - BLUE BOX", "address": {"city": "COLUMBIA", "state": "MO", "street": "401 LOCUST ST", "postcode": "65203"}}},
{"geometry": {"type": "Point", "coordinates": [-92.369899591, 38.9269122977]}, "type": "Feature", "properties": {"collection_times": [{"days": "Mon-Fri", "time": "5:00pm"}, {"days": "Sat", "time": "12:00pm"}, {"days": "Sun", "time": "Closed"}], "id": "6520300016", "name": "USPS COLLECTION BOX - BLUE BOX", "address": {"city": "COLUMBIA", "state": "MO", "street": "608 CHERRY ST", "postcode": "65203"}}},
{"geometry": {"type": "Point", "coordinates": [-92.3698995909, 38.926903654]}, "type": "Feature", "properties": {"collection_times": [{"days": "Mon-Fri", "time": "5:00pm"}, {"days": "Sat", "time": "12:00pm"}, {"days": "Sun", "time": "Closed"}], "id": "6520300018", "name": "USPS COLLECTION BOX - BLUE BOX", "address": {"city": "COLUMBIA", "state": "MO", "street": "1 S 7TH ST", "postcode": "65203"}}},
{"geometry": {"type": "Point", "coordinates": [-92.3285942661, 38.9504396085]}, "type": "Feature", "properties": {"collection_times": [{"days": "Mon-Fri", "time": "5:00pm"}, {"days": "Sat", "time": "12:00pm"}, {"days": "Sun", "time": "Closed"}], "id": "6520300019", "name": "USPS COLLECTION BOX - BLUE BOX", "address": {"city": "COLUMBIA", "state": "MO", "street": "800 CHERRY ST", "postcode": "65203"}}},
{"geometry": {"type": "Point", "coordinates": [-92.3496007525, 38.9518626015]}, "type": "Feature", "properties": {"collection_times": [{"days": "Mon-Fri", "time": "5:00pm"}, {"days": "Sat", "time": "12:00pm"}, {"days": "Sun", "time": "Closed"}], "id": "6520300020", "name": "USPS COLLECTION BOX - BLUE BOX", "address": {"city": "COLUMBIA", "state": "MO", "street": "827 E BROADWAY", "postcode": "65203"}}},
{"geometry": {"type": "Point", "coordinates": [-92.3276123546, 38.952742554]}, "type": "Feature", "properties": {"collection_times": [{"days": "Mon-Fri", "time": "5:00pm"}, {"days": "Sat", "time": "12:00pm"}, {"days": "Sun", "time": "Closed"}], "id": "6520300022", "name": "USPS COLLECTION BOX - BLUE BOX", "address": {"city": "COLUMBIA", "state": "MO", "street": "111 S 9TH ST", "postcode": "65203"}}},
{"geometry": {"type": "Point", "coordinates": [-92.3276275593, 38.951917271]}, "type": "Feature", "properties": {"collection_times": [{"days": "Mon-Fri", "time": "4:45pm"}, {"days": "Sat", "time": "12:00pm"}, {"days": "Sun", "time": "Closed"}], "id": "6520300023", "name": "USPS COLLECTION BOX - BLUE BOX", "address": {"city": "COLUMBIA", "state": "MO", "street": "33 N 9TH ST", "postcode": "65203"}}},
{"geometry": {"type": "Point", "coordinates": [-92.3295963431, 38.9526937806]}, "type": "Feature", "properties": {"collection_times": [{"days": "Mon-Fri", "time": "4:30pm"}, {"days": "Sat-Sun", "time": "Closed"}], "id": "6520300026", "name": "USPS COLLECTION BOX - BLUE BOX", "address": {"city": "COLUMBIA", "state": "MO", "street": "705 E WALNUT ST", "postcode": "65203"}}},
{"geometry": {"type": "Point", "coordinates": [-92.3719404035, 38.9540682175]}, "type": "Feature", "properties": {"collection_times": [{"days": "Mon-Fri", "time": "4:00pm"}, {"days": "Sat", "time": "10:00am"}, {"days": "Sun", "time": "Closed"}], "id": "6520300027", "name": "USPS COLLECTION BOX - BLUE BOX", "address": {"city": "COLUMBIA", "state": "MO", "street": "2101 W BROADWAY", "postcode": "65203"}}},
{"geometry": {"type": "Point", "coordinates": [-92.3529116969, 38.9521721201]}, "type": "Feature", "properties": {"collection_times": [{"days": "Mon-Fri", "time": "11:30am"}, {"days": "Sat", "time": "12:00pm"}, {"days": "Sun", "time": "Closed"}], "id": "6520300028", "name": "USPS COLLECTION BOX - BLUE BOX", "address": {"city": "COLUMBIA", "state": "MO", "street": "1001 W BROADWAY", "postcode": "65203"}}},
{"geometry": {"type": "Point", "coordinates": [-92.36050101, 38.9349655825]}, "type": "Feature", "properties": {"collection_times": [{"days": "Mon-Fri", "time": "1:45pm"}, {"days": "Sat", "time": "1:00pm"}, {"days": "Sun", "time": "Closed"}], "id": "6520300029", "name": "USPS COLLECTION BOX - BLUE BOX", "address": {"city": "COLUMBIA", "state": "MO", "street": "1400 FORUM BLVD", "postcode": "65203"}}},
{"geometry": {"type": "Point", "coordinates": [-92.328515072, 38.9518575896]}, "type": "Feature", "properties": {"collection_times": [{"days": "Mon-Fri", "time": "5:00pm"}, {"days": "Sat-Sun", "time": "Closed"}], "id": "6520300031", "name": "USPS COLLECTION BOX - BLUE BOX", "address": {"city": "COLUMBIA", "state": "MO", "street": "28 N 8TH ST", "postcode": "65203"}}},
{"geometry": {"type": "Point", "coordinates": [-92.3531646533, 38.9520935091]}, "type": "Feature", "properties": {"collection_times": [{"days": "Mon-Sat", "time": "12:00pm"}, {"days": "Sun", "time": "Closed"}], "id": "6520300032", "name": "USPS COLLECTION BOX - BLUE BOX", "address": {"city": "COLUMBIA", "state": "MO", "street": "1020 E BROADWAY", "postcode": "65203"}}},
{"geometry": {"type": "Point", "coordinates": [-92.3619655018, 38.9315395968]}, "type": "Feature", "properties": {"collection_times": [{"days": "Mon-Fri", "time": "2:00pm"}, {"days": "Sat", "time": "1:00pm"}, {"days": "Sun", "time": "Closed"}], "id": "6520300034", "name": "USPS COLLECTION BOX - BLUE BOX", "address": {"city": "COLUMBIA", "state": "MO", "street": "1700 FORUM BLVD", "postcode": "65203"}}},
{"geometry": {"type": "Point", "coordinates": [-92.371255554, 38.9665976649]}, "type": "Feature", "properties": {"collection_times": [{"days": "Mon-Fri", "time": "4:00pm"}, {"days": "Sat-Sun", "time": "Closed"}], "id": "6520300035", "name": "USPS COLLECTION BOX - BLUE BOX", "address": {"city": "COLUMBIA", "state": "MO", "street": "2100 INTERSTATE 70 DR SW", "postcode": "65203"}}},
{"geometry": {"type": "Point", "coordinates": [-92.3361091901, 38.9516988819]}, "type": "Feature", "properties": {"collection_times": [{"days": "Mon-Fri", "time": "5:00pm"}, {"days": "Sat", "time": "12:00pm"}, {"days": "Sun", "time": "Closed"}], "id": "6520300036", "name": "USPS COLLECTION BOX - BLUE BOX", "address": {"city": "COLUMBIA", "state": "MO", "street": "111 E BROADWAY", "postcode": "65203"}}},
{"geometry": {"type": "Point", "coordinates": [-92.3339918183, 38.9603178022]}, "type": "Feature", "properties": {"collection_times": [{"days": "Mon-Fri", "time": "12:00pm"}, {"days": "Sat", "time": "9:30am"}, {"days": "Sun", "time": "Closed"}], "id": "6520300038", "name": "USPS COLLECTION BOX - BLUE BOX", "address": {"city": "COLUMBIA", "state": "MO", "street": "806 N PROVIDENCE RD", "postcode": "65203"}}},
{"geometry": {"type": "Point", "coordinates": [-92.3694257498, 38.9610069321]}, "type": "Feature", "properties": {"collection_times": [{"days": "Mon-Fri", "time": "4:00pm"}, {"days": "Sat", "time": "11:00am"}, {"days": "Sun", "time": "Closed"}], "id": "6520300041", "name": "USPS COLLECTION BOX - BLUE BOX", "address": {"city": "COLUMBIA", "state": "MO", "street": "2001 W WORLEY ST", "postcode": "65203"}}},
{"geometry": {"type": "Point", "coordinates": [-92.3749961496, 38.9667658579]}, "type": "Feature", "properties": {"collection_times": [{"days": "Mon-Fri", "time": "4:00pm"}, {"days": "Sat-Sun", "time": "Closed"}], "id": "6520300042", "name": "USPS COLLECTION BOX - BLUE BOX", "address": {"city": "COLUMBIA", "state": "MO", "street": "1101 HUTCHENS DR", "postcode": "65203"}}},
{"geometry": {"type": "Point", "coordinates": [-92.3531454734, 38.9122973809]}, "type": "Feature", "properties": {"collection_times": [{"days": "Mon-Sat", "time": "11:00am"}, {"days": "Sun", "time": "Closed"}], "id": "6520300043", "name": "USPS COLLECTION BOX - BLUE BOX", "address": {"city": "COLUMBIA", "state": "MO", "street": "3705 FORUM BLVD", "postcode": "65203"}}},
{"geometry": {"type": "Point", "coordinates": [-92.3743606833, 38.965792395]}, "type": "Feature", "properties": {"collection_times": [{"days": "Mon-Fri", "time": "4:00pm"}, {"days": "Sat", "time": "12:30pm"}, {"days": "Sun", "time": "Closed"}], "id": "6520300044", "name": "USPS COLLECTION BOX - PO LOBBY", "address": {"city": "COLUMBIA", "state": "MO", "street": "2300 BERNADETTE DR", "postcode": "65203"}}},
{"geometry": {"type": "Point", "coordinates": [-92.338079951, 38.9516557935]}, "type": "Feature", "properties": {"collection_times": [{"days": "Mon-Fri", "time": "4:00pm"}, {"days": "Sat-Sun", "time": "Closed"}], "id": "6520300047", "name": "USPS COLLECTION BOX - BLUE BOX", "address": {"city": "COLUMBIA", "state": "MO", "street": "33 E BROADWAY", "postcode": "65203"}}},
{"geometry": {"type": "Point", "coordinates": [-92.3975388207, 38.9336312859]}, "type": "Feature", "properties": {"collection_times": [{"days": "Mon-Fri", "time": "11:30am"}, {"days": "Sat", "time": "12:00pm"}, {"days": "Sun", "time": "Closed"}], "id": "6520300048", "name": "USPS COLLECTION BOX - BLUE BOX", "address": {"city": "COLUMBIA", "state": "MO", "street": "2012 CHERRY HILL DR", "postcode": "65203"}}},
{"geometry": {"type": "Point", "coordinates": [-92.3287404535, 38.9494861116]}, "type": "Feature", "properties": {"collection_times": [{"days": "Mon-Fri", "time": "5:00pm"}, {"days": "Sat", "time": "12:00pm"}, {"days": "Sun", "time": "Closed"}], "id": "6520300052", "name": "USPS COLLECTION BOX - BLUE BOX", "address": {"city": "COLUMBIA", "state": "MO", "street": "201 S 8TH ST", "postcode": "65203"}}},
{"geometry": {"type": "Point", "coordinates": [-92.3994255326, 38.8958501931]}, "type": "Feature", "properties": {"collection_times": [{"days": "Mon-Fri", "time": "4:15pm"}, {"days": "Sat", "time": "12:00pm"}, {"days": "Sun", "time": "Closed"}], "id": "6520300053", "name": "USPS COLLECTION BOX - BLUE BOX", "address": {"city": "COLUMBIA", "state": "MO", "street": "601 BUS 70 LOOP W", "postcode": "65203"}}},
{"geometry": {"type": "Point", "coordinates": [-92.35867727, 38.9642021675]}, "type": "Feature", "properties": {"collection_times": [{"days": "Mon-Fri", "time": "4:15pm"}, {"days": "Sat", "time": "10:00am"}, {"days": "Sun", "time": "Closed"}], "id": "6520300055", "name": "USPS COLLECTION BOX - BLUE BOX", "address": {"city": "COLUMBIA", "state": "MO", "street": "1408 I 70 DR SW", "postcode": "65203"}}},
{"geometry": {"type": "Point", "coordinates": [-92.3382960153, 38.9292099904]}, "type": "Feature", "properties": {"collection_times": [{"days": "Mon-Fri", "time": "4:30pm"}, {"days": "Sat", "time": "11:00am"}, {"days": "Sun", "time": "Closed"}], "id": "6520300059", "name": "USPS COLLECTION BOX - BLUE BOX", "address": {"city": "COLUMBIA", "state": "MO", "street": "1900 N PROVIDENCE RD", "postcode": "65203"}}},
{"geometry": {"type": "Point", "coordinates": [-92.3458376237, 38.9532167081]}, "type": "Feature", "properties": {"collection_times": [{"days": "Mon-Fri", "time": "5:00pm"}, {"days": "Sat", "time": "3:00pm"}, {"days": "Sun", "time": "Closed"}], "id": "6520300060", "name": "USPS COLLECTION BOX - APC", "address": {"city": "COLUMBIA", "state": "MO", "street": "511 E WALNUT ST", "postcode": "65203"}}},
{"geometry": {"type": "Point", "coordinates": [-92.3899649802, 38.9556812246]}, "type": "Feature", "properties": {"collection_times": [{"days": "Mon-Fri", "time": "11:30am"}, {"days": "Sat", "time": "12:00pm"}, {"days": "Sun", "time": "Closed"}], "id": "6520300061", "name": "USPS COLLECTION BOX - BLUE BOX", "address": {"city": "COLUMBIA", "state": "MO", "street": "3601 W BROADWAY", "postcode": "65203"}}},
{"geometry": {"type": "Point", "coordinates": [-92.7012118601, 39.2698036217]}, "type": "Feature", "properties": {"collection_times": [{"days": "Mon-Fri", "time": "11:45am"}, {"days": "Sat", "time": "8:45am"}, {"days": "Sun", "time": "Closed"}], "id": "6523000001", "name": "USPS COLLECTION BOX - BLUE BOX", "address": {"city": "ARMSTRONG", "state": "MO", "street": "106 S CENTRAL ST", "postcode": "65230"}}},
{"geometry": {"type": "Point", "coordinates": [-92.7012118601, 39.2698036217]}, "type": "Feature", "properties": {"collection_times": [{"days": "Mon-Fri", "time": "11:45am"}, {"days": "Sat", "time": "9:30am"}, {"days": "Sun", "time": "Closed"}], "id": "6523000002", "name": "USPS COLLECTION BOX - PO LOBBY", "address": {"city": "ARMSTRONG", "state": "MO", "street": "106 S CENTRAL ST", "postcode": "65230"}}},
{"geometry": {"type": "Point", "coordinates": [-91.8973434711, 39.017137516]}, "type": "Feature", "properties": {"collection_times": [{"days": "Mon-Fri", "time": "3:30pm"}, {"days": "Sat", "time": "8:30am"}, {"days": "Sun", "time": "Closed"}], "id": "6523100001", "name": "USPS COLLECTION BOX - BLUE BOX", "address": {"city": "AUXVASSE", "state": "MO", "street": "207 S MAIN ST", "postcode": "65231"}}},
{"geometry": {"type": "Point", "coordinates": [-91.8973434711, 39.017137516]}, "type": "Feature", "properties": {"collection_times": [{"days": "Mon-Fri", "time": "3:30pm"}, {"days": "Sat", "time": "8:30am"}, {"days": "Sun", "time": "Closed"}], "id": "6523100002", "name": "USPS COLLECTION BOX - PO LOBBY", "address": {"city": "AUXVASSE", "state": "MO", "street": "207 S MAIN ST", "postcode": "65231"}}},
{"geometry": {"type": "Point", "coordinates": [-91.763757579, 39.1350258567]}, "type": "Feature", "properties": {"collection_times": [{"days": "Mon-Fri", "time": "11:15am"}, {"days": "Sat", "time": "10:00am"}, {"days": "Sun", "time": "Closed"}], "id": "6523200001", "name": "USPS COLLECTION BOX - BLUE BOX", "address": {"city": "BENTON CITY", "state": "MO", "street": "203 FRONT ST", "postcode": "65232"}}},
{"geometry": {"type": "Point", "coordinates": [-91.763757579, 39.1350258567]}, "type": "Feature", "properties": {"collection_times": [{"days": "Mon-Fri", "time": "11:15am"}, {"days": "Sat", "time": "10:15am"}, {"days": "Sun", "time": "Closed"}], "id": "6523200002", "name": "USPS COLLECTION BOX - PO LOBBY", "address": {"city": "BENTON CITY", "state": "MO", "street": "203 FRONT ST", "postcode": "65232"}}},
{"geometry": {"type": "Point", "coordinates": [-92.7434052888, 38.9755928351]}, "type": "Feature", "properties": {"collection_times": [{"days": "Mon-Fri", "time": "5:00pm"}, {"days": "Sat", "time": "2:30pm"}, {"days": "Sun", "time": "Closed"}], "id": "6523300004", "name": "USPS COLLECTION BOX - BLUE BOX", "address": {"city": "BOONVILLE", "state": "MO", "street": "526 E SPRING ST", "postcode": "65233"}}},
{"geometry": {"type": "Point", "coordinates": [-92.7292678772, 38.9137123023]}, "type": "Feature", "properties": {"collection_times": [{"days": "Mon-Sat", "time": "11:30am"}, {"days": "Sun", "time": "Closed"}], "id": "6523300010", "name": "USPS COLLECTION BOX - BLUE BOX", "address": {"city": "BOONVILLE", "state": "MO", "street": "1911 BOONE VILLAGE SHOPPING CTR", "postcode": "65233"}}},
{"geometry": {"type": "Point", "coordinates": [-92.7442496639, 38.9771861262]}, "type": "Feature", "properties": {"collection_times": [{"days": "Mon-Fri", "time": "5:00pm"}, {"days": "Sat", "time": "2:00pm"}, {"days": "Sun", "time": "Closed"}], "id": "6523300013", "name": "USPS COLLECTION BOX - BLUE BOX", "address": {"city": "BOONVILLE", "state": "MO", "street": "225 MAIN ST", "postcode": "65233"}}},
{"geometry": {"type": "Point", "coordinates": [-92.743644819, 38.9751207345]}, "type": "Feature", "properties": {"collection_times": [{"days": "Mon-Sat", "time": "2:45pm"}, {"days": "Sun", "time": "Closed"}], "id": "6523300014", "name": "USPS COLLECTION BOX - BLUE BOX", "address": {"city": "BOONVILLE", "state": "MO", "street": "401 MAIN ST", "postcode": "65233"}}},
{"geometry": {"type": "Point", "coordinates": [-92.7434052888, 38.9755928351]}, "type": "Feature", "properties": {"collection_times": [{"days": "Mon-Fri", "time": "5:00pm"}, {"days": "Sat", "time": "2:30pm"}, {"days": "Sun", "time": "Closed"}], "id": "6523300017", "name": "USPS COLLECTION BOX - PO LOBBY", "address": {"city": "BOONVILLE", "state": "MO", "street": "526 E SPRING ST", "postcode": "65233"}}},
{"geometry": {"type": "Point", "coordinates": [-92.7434052888, 38.9755928351]}, "type": "Feature", "properties": {"collection_times": [{"days": "Mon-Fri", "time": "5:00pm"}, {"days": "Sat", "time": "2:30pm"}, {"days": "Sun", "time": "Closed"}], "id": "6523300019", "name": "USPS COLLECTION BOX - BLUE BOX", "address": {"city": "BOONVILLE", "state": "MO", "street": "526 E SPRING ST", "postcode": "65233"}}},
{"geometry": {"type": "Point", "coordinates": [-93.1305472975, 39.4233135526]}, "type": "Feature", "properties": {"collection_times": [{"days": "Mon-Sat", "time": "4:15pm"}, {"days": "Sun", "time": "Closed"}], "id": "6523600001", "name": "USPS COLLECTION BOX - BLUE BOX", "address": {"city": "BRUNSWICK", "state": "MO", "street": "101 W BROADWAY ST", "postcode": "65236"}}},
{"geometry": {"type": "Point", "coordinates": [-93.1305472975, 39.4233135526]}, "type": "Feature", "properties": {"collection_times": [{"days": "Mon-Sat", "time": "4:15pm"}, {"days": "Sun", "time": "Closed"}], "id": "6523600009", "name": "USPS COLLECTION BOX - PO LOBBY", "address": {"city": "BRUNSWICK", "state": "MO", "street": "101 W BROADWAY ST", "postcode": "65236"}}},
{"geometry": {"type": "Point", "coordinates": [-92.7996644806, 38.7881125525]}, "type": "Feature", "properties": {"collection_times": [{"days": "Mon-Fri", "time": "11:45am"}, {"days": "Sat", "time": "9:15am"}, {"days": "Sun", "time": "Closed"}], "id": "6523700001", "name": "USPS COLLECTION BOX - BLUE BOX", "address": {"city": "BUNCETON", "state": "MO", "street": "112 W MAIN ST", "postcode": "65237"}}},
{"geometry": {"type": "Point", "coordinates": [-92.7996644806, 38.7881125525]}, "type": "Feature", "properties": {"collection_times": [{"days": "Mon-Fri", "time": "11:45am"}, {"days": "Sat", "time": "9:30am"}, {"days": "Sun", "time": "Closed"}], "id": "6523700002", "name": "USPS COLLECTION BOX - PO LOBBY", "address": {"city": "BUNCETON", "state": "MO", "street": "112 W MAIN ST", "postcode": "65237"}}},
{"geometry": {"type": "Point", "coordinates": [-92.4406536636, 39.5117025349]}, "type": "Feature", "properties": {"collection_times": [{"days": "Mon-Fri", "time": "11:45am"}, {"days": "Sat", "time": "8:45am"}, {"days": "Sun", "time": "Closed"}], "id": "6523900001", "name": "USPS COLLECTION BOX - BLUE BOX", "address": {"city": "CAIRO", "state": "MO", "street": "105 S MAIN ST", "postcode": "65239"}}},
{"geometry": {"type": "Point", "coordinates": [-92.4406536636, 39.5117025349]}, "type": "Feature", "properties": {"collection_times": [{"days": "Mon-Fri", "time": "11:45am"}, {"days": "Sat", "time": "8:45am"}, {"days": "Sun", "time": "Closed"}], "id": "6523900002", "name": "USPS COLLECTION BOX - PO LOBBY", "address": {"city": "CAIRO", "state": "MO", "street": "105 S MAIN ST", "postcode": "65239"}}},
{"geometry": {"type": "Point", "coordinates": [-92.1380236136, 39.2104730466]}, "type": "Feature", "properties": {"collection_times": [{"days": "Mon-Fri", "time": "4:00pm"}, {"days": "Sat", "time": "10:30am"}, {"days": "Sun", "time": "Closed"}], "id": "6524000003", "name": "USPS COLLECTION BOX - BLUE BOX", "address": {"city": "CENTRALIA", "state": "MO", "street": "104 W SNEED ST", "postcode": "65240"}}},
{"geometry": {"type": "Point", "coordinates": [-92.1380236136, 39.2104730466]}, "type": "Feature", "properties": {"collection_times": [{"days": "Mon-Fri", "time": "4:00pm"}, {"days": "Sat", "time": "10:30am"}, {"days": "Sun", "time": "Closed"}], "id": "6524000012", "name": "USPS COLLECTION BOX - PO LOBBY", "address": {"city": "CENTRALIA", "state": "MO", "street": "104 W SNEED ST", "postcode": "65240"}}},
{"geometry": {"type": "Point", "coordinates": [-92.1341298454, 39.2034604434]}, "type": "Feature", "properties": {"collection_times": [{"days": "Mon-Fri", "time": "11:00am"}, {"days": "Sat-Sun", "time": "Closed"}], "id": "6524000014", "name": "USPS COLLECTION BOX - BLUE BOX", "address": {"city": "CENTRALIA", "state": "MO", "street": "635 S JEFFERSON ST", "postcode": "65240"}}},
{"geometry": {"type": "Point", "coordinates": [-92.3431550272, 39.2803109091]}, "type": "Feature", "properties": {"collection_times": [{"days": "Mon-Fri", "time": "2:45pm"}, {"days": "Sat", "time": "9:30am"}, {"days": "Sun", "time": "Closed"}], "id": "6524300001", "name": "USPS COLLECTION BOX - BLUE BOX", "address": {"city": "CLARK", "state": "MO", "street": "104 HUBBARD ST", "postcode": "65243"}}},
{"geometry": {"type": "Point", "coordinates": [-92.3431550272, 39.2803109091]}, "type": "Feature", "properties": {"collection_times": [{"days": "Mon-Fri", "time": "2:45pm"}, {"days": "Sat", "time": "9:30am"}, {"days": "Sun", "time": "Closed"}], "id": "6524300002", "name": "USPS COLLECTION BOX - PO LOBBY", "address": {"city": "CLARK", "state": "MO", "street": "104 HUBBARD ST", "postcode": "65243"}}},
{"geometry": {"type": "Point", "coordinates": [-92.6654249936, 39.4419672598]}, "type": "Feature", "properties": {"collection_times": [{"days": "Mon-Fri", "time": "11:45am"}, {"days": "Sat", "time": "9:00am"}, {"days": "Sun", "time": "Closed"}], "id": "6524400001", "name": "USPS COLLECTION BOX - BLUE BOX", "address": {"city": "CLIFTON HILL", "state": "MO", "street": "639 HARLAN ST", "postcode": "65244"}}},
{"geometry": {"type": "Point", "coordinates": [-92.6654249936, 39.4419672598]}, "type": "Feature", "properties": {"collection_times": [{"days": "Mon-Fri", "time": "11:45am"}, {"days": "Sat", "time": "9:30am"}, {"days": "Sun", "time": "Closed"}], "id": "6524400002", "name": "USPS COLLECTION BOX - PO LOBBY", "address": {"city": "CLIFTON HILL", "state": "MO", "street": "639 HARLAN ST", "postcode": "65244"}}},
{"geometry": {"type": "Point", "coordinates": [-92.4754992367, 39.6354846553]}, "type": "Feature", "properties": {"collection_times": [{"days": "Mon-Fri", "time": "9:45am"}, {"days": "Sat", "time": "8:15am"}, {"days": "Sun", "time": "Closed"}], "id": "6524700001", "name": "USPS COLLECTION BOX - BLUE BOX", "address": {"city": "EXCELLO", "state": "MO", "street": "38129 KAYAK AVE", "postcode": "65247"}}},
{"geometry": {"type": "Point", "coordinates": [-92.4754992367, 39.6354846553]}, "type": "Feature", "properties": {"collection_times": [{"days": "Mon-Fri", "time": "9:45am"}, {"days": "Sat", "time": "9:15am"}, {"days": "Sun", "time": "Closed"}], "id": "6524700002", "name": "USPS COLLECTION BOX - PO LOBBY", "address": {"city": "EXCELLO", "state": "MO", "street": "38129 KAYAK AVE", "postcode": "65247"}}},
{"geometry": {"type": "Point", "coordinates": [-92.6836175181, 39.1456999114]}, "type": "Feature", "properties": {"collection_times": [{"days": "Mon-Sat", "time": "3:30pm"}, {"days": "Sun", "time": "Closed"}], "id": "6524800001", "name": "USPS COLLECTION BOX - BLUE BOX", "address": {"city": "FAYETTE", "state": "MO", "street": "103 W MORRISON ST", "postcode": "65248"}}},
{"geometry": {"type": "Point", "coordinates": [-92.6836175181, 39.1456999114]}, "type": "Feature", "properties": {"collection_times": [{"days": "Mon-Sat", "time": "3:30pm"}, {"days": "Sun", "time": "Closed"}], "id": "6524800015", "name": "USPS COLLECTION BOX - PO LOBBY", "address": {"city": "FAYETTE", "state": "MO", "street": "103 W MORRISON ST", "postcode": "65248"}}},
{"geometry": {"type": "Point", "coordinates": [-92.7513478226, 39.0116945989]}, "type": "Feature", "properties": {"collection_times": [{"days": "Mon-Fri", "time": "11:45am"}, {"days": "Sat", "time": "9:45am"}, {"days": "Sun", "time": "Closed"}], "id": "6525000001", "name": "USPS COLLECTION BOX - BLUE BOX", "address": {"city": "FRANKLIN", "state": "MO", "street": "107 2ND ST", "postcode": "65250"}}},
{"geometry": {"type": "Point", "coordinates": [-92.7513478226, 39.0116945989]}, "type": "Feature", "properties": {"collection_times": [{"days": "Mon-Fri", "time": "11:45am"}, {"days": "Sat", "time": "11:30am"}, {"days": "Sun", "time": "Closed"}], "id": "6525000002", "name": "USPS COLLECTION BOX - PO LOBBY", "address": {"city": "FRANKLIN", "state": "MO", "street": "107 2ND ST", "postcode": "65250"}}},
{"geometry": {"type": "Point", "coordinates": [-91.9481476765, 38.845634616]}, "type": "Feature", "properties": {"collection_times": [{"days": "Mon-Sat", "time": "5:00pm"}, {"days": "Sun", "time": "Closed"}], "id": "6525100002", "name": "USPS COLLECTION BOX - BLUE BOX", "address": {"city": "FULTON", "state": "MO", "street": "301 COURT ST", "postcode": "65251"}}},
{"geometry": {"type": "Point", "coordinates": [-91.9481476765, 38.845634616]}, "type": "Feature", "properties": {"collection_times": [{"days": "Mon-Sat", "time": "5:00pm"}, {"days": "Sun", "time": "Closed"}], "id": "6525100003", "name": "USPS COLLECTION BOX - BLUE BOX", "address": {"city": "FULTON", "state": "MO", "street": "301 COURT ST", "postcode": "65251"}}},
{"geometry": {"type": "Point", "coordinates": [-91.943974043, 38.8630331255]}, "type": "Feature", "properties": {"collection_times": [{"days": "Mon-Fri", "time": "2:00pm"}, {"days": "Sat", "time": "1:00pm"}, {"days": "Sun", "time": "Closed"}], "id": "6525100009", "name": "USPS COLLECTION BOX - BLUE BOX", "address": {"city": "FULTON", "state": "MO", "street": "1701 N BLUFF ST", "postcode": "65251"}}},
{"geometry": {"type": "Point", "coordinates": [-91.9481476765, 38.845634616]}, "type": "Feature", "properties": {"collection_times": [{"days": "Mon-Sat", "time": "5:00pm"}, {"days": "Sun", "time": "Closed"}], "id": "6525100013", "name": "USPS COLLECTION BOX - BLUE BOX", "address": {"city": "FULTON", "state": "MO", "street": "301 COURT ST", "postcode": "65251"}}},
{"geometry": {"type": "Point", "coordinates": [-91.9481476765, 38.845634616]}, "type": "Feature", "properties": {"collection_times": [{"days": "Mon-Sat", "time": "5:00pm"}, {"days": "Sun", "time": "Closed"}], "id": "6525100031", "name": "USPS COLLECTION BOX - PO LOBBY", "address": {"city": "FULTON", "state": "MO", "street": "301 COURT ST", "postcode": "65251"}}},
{"geometry": {"type": "Point", "coordinates": [-91.9646557902, 38.8789223879]}, "type": "Feature", "properties": {"collection_times": [{"days": "Mon-Sat", "time": "9:00am"}, {"days": "Sun", "time": "Closed"}], "id": "6525100036", "name": "USPS COLLECTION BOX - BLUE BOX", "address": {"city": "FULTON", "state": "MO", "street": "2625 FAIRWAY DR", "postcode": "65251"}}},
{"geometry": {"type": "Point", "coordinates": [-92.8473992734, 39.2238117281]}, "type": "Feature", "properties": {"collection_times": [{"days": "Mon-Fri", "time": "2:45pm"}, {"days": "Sat", "time": "9:00am"}, {"days": "Sun", "time": "Closed"}], "id": "6525400002", "name": "USPS COLLECTION BOX - BLUE BOX", "address": {"city": "GLASGOW", "state": "MO", "street": "404 1ST ST", "postcode": "65254"}}},
{"geometry": {"type": "Point", "coordinates": [-92.8473992734, 39.2238117281]}, "type": "Feature", "properties": {"collection_times": [{"days": "Mon-Fri", "time": "2:45pm"}, {"days": "Sat", "time": "9:45am"}, {"days": "Sun", "time": "Closed"}], "id": "6525400007", "name": "USPS COLLECTION BOX - PO LOBBY", "address": {"city": "GLASGOW", "state": "MO", "street": "404 1ST ST", "postcode": "65254"}}},
{"geometry": {"type": "Point", "coordinates": [-92.319710421, 39.1199661096]}, "type": "Feature", "properties": {"collection_times": [{"days": "Mon-Fri", "time": "4:00pm"}, {"days": "Sat", "time": "9:30am"}, {"days": "Sun", "time": "Closed"}], "id": "6525500001", "name": "USPS COLLECTION BOX - BLUE BOX", "address": {"city": "HALLSVILLE", "state": "MO", "street": "319 HWY 124 E", "postcode": "65255"}}},
{"geometry": {"type": "Point", "coordinates": [-92.319710421, 39.1199661096]}, "type": "Feature", "properties": {"collection_times": [{"days": "Mon-Fri", "time": "4:00pm"}, {"days": "Sat", "time": "9:30am"}, {"days": "Sun", "time": "Closed"}], "id": "6525500002", "name": "USPS COLLECTION BOX - PO LOBBY", "address": {"city": "HALLSVILLE", "state": "MO", "street": "319 HWY 124 E", "postcode": "65255"}}},
{"geometry": {"type": "Point", "coordinates": [-92.4649614017, 39.1435776386]}, "type": "Feature", "properties": {"collection_times": [{"days": "Mon-Fri", "time": "2:15pm"}, {"days": "Sat", "time": "9:45am"}, {"days": "Sun", "time": "Closed"}], "id": "6525600001", "name": "USPS COLLECTION BOX - BLUE BOX", "address": {"city": "HARRISBURG", "state": "MO", "street": "181 W SEXTON ST", "postcode": "65256"}}},
{"geometry": {"type": "Point", "coordinates": [-92.4649614017, 39.1435776386]}, "type": "Feature", "properties": {"collection_times": [{"days": "Mon-Fri", "time": "2:15pm"}, {"days": "Sat", "time": "9:45am"}, {"days": "Sun", "time": "Closed"}], "id": "6525600002", "name": "USPS COLLECTION BOX - PO LOBBY", "address": {"city": "HARRISBURG", "state": "MO", "street": "181 W SEXTON ST", "postcode": "65256"}}},
{"geometry": {"type": "Point", "coordinates": [-92.5147309118, 39.3043849587]}, "type": "Feature", "properties": {"collection_times": [{"days": "Mon-Fri", "time": "10:45am"}, {"days": "Sat", "time": "9:15am"}, {"days": "Sun", "time": "Closed"}], "id": "6525700001", "name": "USPS COLLECTION BOX - BLUE BOX", "address": {"city": "HIGBEE", "state": "MO", "street": "503 DIVISION ST", "postcode": "65257"}}},
{"geometry": {"type": "Point", "coordinates": [-92.5147309118, 39.3043849587]}, "type": "Feature", "properties": {"collection_times": [{"days": "Mon-Fri", "time": "10:45am"}, {"days": "Sat", "time": "9:15am"}, {"days": "Sun", "time": "Closed"}], "id": "6525700002", "name": "USPS COLLECTION BOX - PO LOBBY", "address": {"city": "HIGBEE", "state": "MO", "street": "503 DIVISION ST", "postcode": "65257"}}},
{"geometry": {"type": "Point", "coordinates": [-92.1288721756, 39.4922983661]}, "type": "Feature", "properties": {"collection_times": [{"days": "Mon-Fri", "time": "11:15am"}, {"days": "Sat", "time": "8:30am"}, {"days": "Sun", "time": "Closed"}], "id": "6525800001", "name": "USPS COLLECTION BOX - BLUE BOX", "address": {"city": "HOLLIDAY", "state": "MO", "street": "305 MAIN ST", "postcode": "65258"}}},
{"geometry": {"type": "Point", "coordinates": [-92.1288721756, 39.4922983661]}, "type": "Feature", "properties": {"collection_times": [{"days": "Mon-Fri", "time": "11:15am"}, {"days": "Sat", "time": "9:00am"}, {"days": "Sun", "time": "Closed"}], "id": "6525800002", "name": "USPS COLLECTION BOX - PO LOBBY", "address": {"city": "HOLLIDAY", "state": "MO", "street": "305 MAIN ST", "postcode": "65258"}}},
{"geometry": {"type": "Point", "coordinates": [-92.5450735042, 39.4404009718]}, "type": "Feature", "properties": {"collection_times": [{"days": "Mon-Fri", "time": "4:00pm"}, {"days": "Sat", "time": "10:00am"}, {"days": "Sun", "time": "Closed"}], "id": "6525900001", "name": "USPS COLLECTION BOX - BLUE BOX", "address": {"city": "HUNTSVILLE", "state": "MO", "street": "121 S MAIN ST", "postcode": "65259"}}},
{"geometry": {"type": "Point", "coordinates": [-92.5450735042, 39.4404009718]}, "type": "Feature", "properties": {"collection_times": [{"days": "Mon-Fri", "time": "3:45pm"}, {"days": "Sat", "time": "9:30am"}, {"days": "Sun", "time": "Closed"}], "id": "6525900004", "name": "USPS COLLECTION BOX - PO LOBBY", "address": {"city": "HUNTSVILLE", "state": "MO", "street": "121 S MAIN ST", "postcode": "65259"}}},
{"geometry": {"type": "Point", "coordinates": [-92.4163172456, 39.5772885216]}, "type": "Feature", "properties": {"collection_times": [{"days": "Mon-Fri", "time": "11:15am"}, {"days": "Sat", "time": "8:30am"}, {"days": "Sun", "time": "Closed"}], "id": "6526000001", "name": "USPS COLLECTION BOX - BLUE BOX", "address": {"city": "JACKSONVILLE", "state": "MO", "street": "124 W RANDOLPH ST", "postcode": "65260"}}},
{"geometry": {"type": "Point", "coordinates": [-92.4163172456, 39.5772885216]}, "type": "Feature", "properties": {"collection_times": [{"days": "Mon-Fri", "time": "11:15am"}, {"days": "Sat", "time": "8:30am"}, {"days": "Sun", "time": "Closed"}], "id": "6526000002", "name": "USPS COLLECTION BOX - PO LOBBY", "address": {"city": "JACKSONVILLE", "state": "MO", "street": "124 W RANDOLPH ST", "postcode": "65260"}}},
{"geometry": {"type": "Point", "coordinates": [-92.9391010711, 39.4345360245]}, "type": "Feature", "properties": {"collection_times": [{"days": "Mon-Fri", "time": "3:00pm"}, {"days": "Sat", "time": "9:00am"}, {"days": "Sun", "time": "Closed"}], "id": "6526100001", "name": "USPS COLLECTION BOX - BLUE BOX", "address": {"city": "KEYTESVILLE", "state": "MO", "street": "418 W BRIDGE ST", "postcode": "65261"}}},
{"geometry": {"type": "Point", "coordinates": [-92.9391010711, 39.4345360245]}, "type": "Feature", "properties": {"collection_times": [{"days": "Mon-Fri", "time": "3:00pm"}, {"days": "Sat", "time": "9:00am"}, {"days": "Sun", "time": "Closed"}], "id": "6526100004", "name": "USPS COLLECTION BOX - PO LOBBY", "address": {"city": "KEYTESVILLE", "state": "MO", "street": "418 W BRIDGE ST", "postcode": "65261"}}},
{"geometry": {"type": "Point", "coordinates": [-92.0064087715, 38.9525615762]}, "type": "Feature", "properties": {"collection_times": [{"days": "Mon-Fri", "time": "3:00pm"}, {"days": "Sat", "time": "9:00am"}, {"days": "Sun", "time": "Closed"}], "id": "6526200001", "name": "USPS COLLECTION BOX - BLUE BOX", "address": {"city": "KINGDOM CITY", "state": "MO", "street": "5500 OLD US HIGHWAY 40", "postcode": "65262"}}},
{"geometry": {"type": "Point", "coordinates": [-91.9421056042, 38.9387690627]}, "type": "Feature", "properties": {"collection_times": [{"days": "Mon-Sat", "time": "12:00pm"}, {"days": "Sun", "time": "Closed"}], "id": "6526200004", "name": "USPS COLLECTION BOX - BLUE BOX", "address": {"city": "KINGDOM CITY", "state": "MO", "street": "3301 COUNTY ROAD 211", "postcode": "65262"}}},
{"geometry": {"type": "Point", "coordinates": [-91.9365111349, 38.9405940477]}, "type": "Feature", "properties": {"collection_times": [{"days": "Mon-Sat", "time": "12:00pm"}, {"days": "Sun", "time": "Closed"}], "id": "6526200005", "name": "USPS COLLECTION BOX - BLUE BOX", "address": {"city": "KINGDOM CITY", "state": "MO", "street": "3304 GOLD AVE", "postcode": "65262"}}},
{"geometry": {"type": "Point", "coordinates": [-92.0064087715, 38.9525615762]}, "type": "Feature", "properties": {"collection_times": [{"days": "Mon-Fri", "time": "2:45pm"}, {"days": "Sat", "time": "9:00am"}, {"days": "Sun", "time": "Closed"}], "id": "6526200008", "name": "USPS COLLECTION BOX - PO LOBBY", "address": {"city": "KINGDOM CITY", "state": "MO", "street": "5500 OLD US HIGHWAY 40", "postcode": "65262"}}},
{"geometry": {"type": "Point", "coordinates": [-91.9420383745, 38.9381329977]}, "type": "Feature", "properties": {"collection_times": [{"days": "Mon-Sat", "time": "12:00pm"}, {"days": "Sun", "time": "Closed"}], "id": "6526200009", "name": "USPS COLLECTION BOX - BLUE BOX", "address": {"city": "KINGDOM CITY", "state": "MO", "street": "3325 COUNTY ROAD 211", "postcode": "65262"}}},
{"geometry": {"type": "Point", "coordinates": [-92.2102465175, 39.4734500806]}, "type": "Feature", "properties": {"collection_times": [{"days": "Mon-Fri", "time": "11:15am"}, {"days": "Sat", "time": "9:15am"}, {"days": "Sun", "time": "Closed"}], "id": "6526300001", "name": "USPS COLLECTION BOX - BLUE BOX", "address": {"city": "MADISON", "state": "MO", "street": "101 N MAIN ST", "postcode": "65263"}}},
{"geometry": {"type": "Point", "coordinates": [-92.2102465175, 39.4734500806]}, "type": "Feature", "properties": {"collection_times": [{"days": "Mon-Fri", "time": "11:15am"}, {"days": "Sat", "time": "9:15am"}, {"days": "Sun", "time": "Closed"}], "id": "6526300002", "name": "USPS COLLECTION BOX - PO LOBBY", "address": {"city": "MADISON", "state": "MO", "street": "101 N MAIN ST", "postcode": "65263"}}},
{"geometry": {"type": "Point", "coordinates": [-91.6462888808, 39.0996624805]}, "type": "Feature", "properties": {"collection_times": [{"days": "Mon-Fri", "time": "11:15am"}, {"days": "Sat", "time": "9:00am"}, {"days": "Sun", "time": "Closed"}], "id": "6526400001", "name": "USPS COLLECTION BOX - BLUE BOX", "address": {"city": "MARTINSBURG", "state": "MO", "street": "208 E JEFFERSON ST", "postcode": "65264"}}},
{"geometry": {"type": "Point", "coordinates": [-91.6462888808, 39.0996624805]}, "type": "Feature", "properties": {"collection_times": [{"days": "Mon-Fri", "time": "11:15am"}, {"days": "Sat", "time": "9:00am"}, {"days": "Sun", "time": "Closed"}], "id": "6526400002", "name": "USPS COLLECTION BOX - PO LOBBY", "address": {"city": "MARTINSBURG", "state": "MO", "street": "208 E JEFFERSON ST", "postcode": "65264"}}},
{"geometry": {"type": "Point", "coordinates": [-91.8865835281, 39.1722521114]}, "type": "Feature", "properties": {"collection_times": [{"days": "Mon-Fri", "time": "5:00pm"}, {"days": "Sat", "time": "4:00pm"}, {"days": "Sun", "time": "Closed"}], "id": "6526500001", "name": "USPS COLLECTION BOX - BLUE BOX", "address": {"city": "MEXICO", "state": "MO", "street": "420 W JACKSON ST", "postcode": "65265"}}},
{"geometry": {"type": "Point", "coordinates": [-91.8865835281, 39.1722521114]}, "type": "Feature", "properties": {"collection_times": [{"days": "Mon-Fri", "time": "5:00pm"}, {"days": "Sat", "time": "4:00pm"}, {"days": "Sun", "time": "Closed"}], "id": "6526500002", "name": "USPS COLLECTION BOX - BLUE BOX", "address": {"city": "MEXICO", "state": "MO", "street": "420 W JACKSON ST", "postcode": "65265"}}},
{"geometry": {"type": "Point", "coordinates": [-91.8828082339, 39.1705329633]}, "type": "Feature", "properties": {"collection_times": [{"days": "Mon-Fri", "time": "2:00pm"}, {"days": "Sat", "time": "1:00pm"}, {"days": "Sun", "time": "Closed"}], "id": "6526500003", "name": "USPS COLLECTION BOX - BLUE BOX", "address": {"city": "MEXICO", "state": "MO", "street": "100 N JEFFERSON ST", "postcode": "65265"}}},
{"geometry": {"type": "Point", "coordinates": [-91.8865835281, 39.1722521114]}, "type": "Feature", "properties": {"collection_times": [{"days": "Mon-Fri", "time": "5:00pm"}, {"days": "Sat", "time": "4:00pm"}, {"days": "Sun", "time": "Closed"}], "id": "6526500040", "name": "USPS COLLECTION BOX - PO LOBBY", "address": {"city": "MEXICO", "state": "MO", "street": "420 W JACKSON ST", "postcode": "65265"}}},
{"geometry": {"type": "Point", "coordinates": [-91.8829440408, 39.1705635726]}, "type": "Feature", "properties": {"collection_times": [{"days": "Mon-Fri", "time": "2:00pm"}, {"days": "Sat", "time": "1:00pm"}, {"days": "Sun", "time": "Closed"}], "id": "6526500044", "name": "USPS COLLECTION BOX - BLUE BOX", "address": {"city": "MEXICO", "state": "MO", "street": "101 N JEFFERSON ST", "postcode": "65265"}}},
{"geometry": {"type": "Point", "coordinates": [-92.4434762334, 39.4190395331]}, "type": "Feature", "properties": {"collection_times": [{"days": "Mon-Fri", "time": "5:00pm"}, {"days": "Sat", "time": "3:00pm"}, {"days": "Sun", "time": "Closed"}], "id": "6527000001", "name": "USPS COLLECTION BOX - BLUE BOX", "address": {"city": "MOBERLY", "state": "MO", "street": "121 JOHNSON ST", "postcode": "65270"}}},
{"geometry": {"type": "Point", "coordinates": [-92.4367352029, 39.4196446374]}, "type": "Feature", "properties": {"collection_times": [{"days": "Mon-Fri", "time": "5:00pm"}, {"days": "Sat", "time": "3:00pm"}, {"days": "Sun", "time": "Closed"}], "id": "6527000003", "name": "USPS COLLECTION BOX - BLUE BOX", "address": {"city": "MOBERLY", "state": "MO", "street": "101 W REED ST", "postcode": "65270"}}},
{"geometry": {"type": "Point", "coordinates": [-92.413383334, 39.4238039354]}, "type": "Feature", "properties": {"collection_times": [{"days": "Mon-Sat", "time": "10:00am"}, {"days": "Sun", "time": "Closed"}], "id": "6527000010", "name": "USPS COLLECTION BOX - BLUE BOX", "address": {"city": "MOBERLY", "state": "MO", "street": "1515 UNION AVE", "postcode": "65270"}}},
{"geometry": {"type": "Point", "coordinates": [-92.4392241541, 39.4200197953]}, "type": "Feature", "properties": {"collection_times": [{"days": "Mon-Sat", "time": "10:00am"}, {"days": "Sun", "time": "Closed"}], "id": "6527000016", "name": "USPS COLLECTION BOX - BLUE BOX", "address": {"city": "MOBERLY", "state": "MO", "street": "223 N WILLIAMS ST", "postcode": "65270"}}},
{"geometry": {"type": "Point", "coordinates": [-92.4394376822, 39.4198243531]}, "type": "Feature", "properties": {"collection_times": [{"days": "Mon-Fri", "time": "5:00pm"}, {"days": "Sat", "time": "3:00pm"}, {"days": "Sun", "time": "Closed"}], "id": "6527000021", "name": "USPS COLLECTION BOX - BLUE BOX", "address": {"city": "MOBERLY", "state": "MO", "street": "322 W REED ST", "postcode": "65270"}}},
{"geometry": {"type": "Point", "coordinates": [-92.4415140188, 39.4208963141]}, "type": "Feature", "properties": {"collection_times": [{"days": "Mon-Fri", "time": "5:00pm"}, {"days": "Sat", "time": "3:00pm"}, {"days": "Sun", "time": "Closed"}], "id": "6527000027", "name": "USPS COLLECTION BOX - BLUE BOX", "address": {"city": "MOBERLY", "state": "MO", "street": "500 W COATES ST", "postcode": "65270"}}},
{"geometry": {"type": "Point", "coordinates": [-92.3783932626, 39.4549777946]}, "type": "Feature", "properties": {"collection_times": [{"days": "Mon-Fri", "time": "4:45pm"}, {"days": "Sat", "time": "3:00pm"}, {"days": "Sun", "time": "Closed"}], "id": "6527000045", "name": "USPS COLLECTION BOX - BLUE BOX", "address": {"city": "MOBERLY", "state": "MO", "street": "1301 E HIGHWAY 24", "postcode": "65270"}}},
{"geometry": {"type": "Point", "coordinates": [-92.4274611673, 39.4432607954]}, "type": "Feature", "properties": {"collection_times": [{"days": "Mon-Fri", "time": "4:45pm"}, {"days": "Sat", "time": "3:00pm"}, {"days": "Sun", "time": "Closed"}], "id": "6527000046", "name": "USPS COLLECTION BOX - BLUE BOX", "address": {"city": "MOBERLY", "state": "MO", "street": "314 E HIGHWAY 24", "postcode": "65270"}}},
{"geometry": {"type": "Point", "coordinates": [-92.4434762334, 39.4190395331]}, "type": "Feature", "properties": {"collection_times": [{"days": "Mon-Fri", "time": "5:00pm"}, {"days": "Sat", "time": "3:00pm"}, {"days": "Sun", "time": "Closed"}], "id": "6527000048", "name": "USPS COLLECTION BOX - PO LOBBY", "address": {"city": "MOBERLY", "state": "MO", "street": "121 JOHNSON ST", "postcode": "65270"}}},
{"geometry": {"type": "Point", "coordinates": [-92.7367259027, 39.0173219333]}, "type": "Feature", "properties": {"collection_times": [{"days": "Mon-Fri", "time": "2:45pm"}, {"days": "Sat", "time": "9:30am"}, {"days": "Sun", "time": "Closed"}], "id": "6527400001", "name": "USPS COLLECTION BOX - BLUE BOX", "address": {"city": "NEW FRANKLIN", "state": "MO", "street": "128 E BROADWAY", "postcode": "65274"}}},
{"geometry": {"type": "Point", "coordinates": [-92.7367259027, 39.0173219333]}, "type": "Feature", "properties": {"collection_times": [{"days": "Mon-Fri", "time": "2:45pm"}, {"days": "Sat", "time": "9:30am"}, {"days": "Sun", "time": "Closed"}], "id": "6527400002", "name": "USPS COLLECTION BOX - PO LOBBY", "address": {"city": "NEW FRANKLIN", "state": "MO", "street": "128 E BROADWAY", "postcode": "65274"}}},
{"geometry": {"type": "Point", "coordinates": [-92.0015256696, 39.4826363303]}, "type": "Feature", "properties": {"collection_times": [{"days": "Mon-Fri", "time": "3:00pm"}, {"days": "Sat", "time": "9:00am"}, {"days": "Sun", "time": "Closed"}], "id": "6527500001", "name": "USPS COLLECTION BOX - BLUE BOX", "address": {"city": "PARIS", "state": "MO", "street": "307 N WASHINGTON ST", "postcode": "65275"}}},
{"geometry": {"type": "Point", "coordinates": [-92.0015256696, 39.4826363303]}, "type": "Feature", "properties": {"collection_times": [{"days": "Mon-Fri", "time": "3:45pm"}, {"days": "Sat", "time": "9:00am"}, {"days": "Sun", "time": "Closed"}], "id": "6527500004", "name": "USPS COLLECTION BOX - PO LOBBY", "address": {"city": "PARIS", "state": "MO", "street": "307 N WASHINGTON ST", "postcode": "65275"}}},
{"geometry": {"type": "Point", "coordinates": [-92.9117631213, 38.8746928235]}, "type": "Feature", "properties": {"collection_times": [{"days": "Mon-Fri", "time": "2:30pm"}, {"days": "Sat", "time": "9:00am"}, {"days": "Sun", "time": "Closed"}], "id": "6527600001", "name": "USPS COLLECTION BOX - BLUE BOX", "address": {"city": "PILOT GROVE", "state": "MO", "street": "206 ROE ST", "postcode": "65276"}}},
{"geometry": {"type": "Point", "coordinates": [-92.9117631213, 38.8746928235]}, "type": "Feature", "properties": {"collection_times": [{"days": "Mon-Fri", "time": "2:30pm"}, {"days": "Sat", "time": "9:00am"}, {"days": "Sun", "time": "Closed"}], "id": "6527600002", "name": "USPS COLLECTION BOX - PO LOBBY", "address": {"city": "PILOT GROVE", "state": "MO", "street": "206 ROE ST", "postcode": "65276"}}},
{"geometry": {"type": "Point", "coordinates": [-92.4132430729, 39.3412133842]}, "type": "Feature", "properties": {"collection_times": [{"days": "Mon-Fri", "time": "4:45pm"}, {"days": "Sat", "time": "9:45am"}, {"days": "Sun", "time": "Closed"}], "id": "6527800001", "name": "USPS COLLECTION BOX - BLUE BOX", "address": {"city": "RENICK", "state": "MO", "street": "200 ROBINSON ST", "postcode": "65278"}}},
{"geometry": {"type": "Point", "coordinates": [-92.4132430729, 39.3412133842]}, "type": "Feature", "properties": {"collection_times": [{"days": "Mon-Fri", "time": "4:45pm"}, {"days": "Sat", "time": "9:45am"}, {"days": "Sun", "time": "Closed"}], "id": "6527800002", "name": "USPS COLLECTION BOX - PO LOBBY", "address": {"city": "RENICK", "state": "MO", "street": "200 ROBINSON ST", "postcode": "65278"}}},
{"geometry": {"type": "Point", "coordinates": [-92.5663157366, 38.979106347]}, "type": "Feature", "properties": {"collection_times": [{"days": "Mon-Fri", "time": "1:45pm"}, {"days": "Sat", "time": "10:15am"}, {"days": "Sun", "time": "Closed"}], "id": "6527900001", "name": "USPS COLLECTION BOX - BLUE BOX", "address": {"city": "ROCHEPORT", "state": "MO", "street": "200 CENTRAL ST", "postcode": "65279"}}},
{"geometry": {"type": "Point", "coordinates": [-92.5663157366, 38.979106347]}, "type": "Feature", "properties": {"collection_times": [{"days": "Mon-Fri", "time": "1:45pm"}, {"days": "Sat", "time": "10:00am"}, {"days": "Sun", "time": "Closed"}], "id": "6527900002", "name": "USPS COLLECTION BOX - PO LOBBY", "address": {"city": "ROCHEPORT", "state": "MO", "street": "200 CENTRAL ST", "postcode": "65279"}}},
{"geometry": {"type": "Point", "coordinates": [-91.7250335474, 39.2106152199]}, "type": "Feature", "properties": {"collection_times": [{"days": "Mon-Fri", "time": "2:00pm"}, {"days": "Sat", "time": "10:00am"}, {"days": "Sun", "time": "Closed"}], "id": "6528000001", "name": "USPS COLLECTION BOX - BLUE BOX", "address": {"city": "RUSH HILL", "state": "MO", "street": "301 N CENTER ST", "postcode": "65280"}}},
{"geometry": {"type": "Point", "coordinates": [-91.7250335474, 39.2106152199]}, "type": "Feature", "properties": {"collection_times": [{"days": "Mon-Fri", "time": "3:45pm"}, {"days": "Sat", "time": "10:45am"}, {"days": "Sun", "time": "Closed"}], "id": "6528000002", "name": "USPS COLLECTION BOX - PO LOBBY", "address": {"city": "RUSH HILL", "state": "MO", "street": "301 N CENTER ST", "postcode": "65280"}}},
{"geometry": {"type": "Point", "coordinates": [-92.8012935378, 39.4218662413]}, "type": "Feature", "properties": {"collection_times": [{"days": "Mon-Fri", "time": "4:45pm"}, {"days": "Sat", "time": "3:30pm"}, {"days": "Sun", "time": "Closed"}], "id": "6528100003", "name": "USPS COLLECTION BOX - BLUE BOX", "address": {"city": "SALISBURY", "state": "MO", "street": "110 E 4TH ST", "postcode": "65281"}}},
{"geometry": {"type": "Point", "coordinates": [-92.8012935378, 39.4218662413]}, "type": "Feature", "properties": {"collection_times": [{"days": "Mon-Fri", "time": "4:45pm"}, {"days": "Sat", "time": "3:30pm"}, {"days": "Sun", "time": "Closed"}], "id": "6528100009", "name": "USPS COLLECTION BOX - PO LOBBY", "address": {"city": "SALISBURY", "state": "MO", "street": "110 E 4TH ST", "postcode": "65281"}}},
{"geometry": {"type": "Point", "coordinates": [-91.8206237093, 39.3693262039]}, "type": "Feature", "properties": {"collection_times": [{"days": "Mon-Sat", "time": "12:30pm"}, {"days": "Sun", "time": "Closed"}], "id": "6528200001", "name": "USPS COLLECTION BOX - BLUE BOX", "address": {"city": "SANTA FE", "state": "MO", "street": "35595 ROUTE D", "postcode": "65282"}}},
{"geometry": {"type": "Point", "coordinates": [-91.8206237093, 39.3693262039]}, "type": "Feature", "properties": {"collection_times": [{"days": "Mon-Sat", "time": "12:30pm"}, {"days": "Sun", "time": "Closed"}], "id": "6528200002", "name": "USPS COLLECTION BOX - PO LOBBY", "address": {"city": "SANTA FE", "state": "MO", "street": "35595 ROUTE D", "postcode": "65282"}}},
{"geometry": {"type": "Point", "coordinates": [-91.8238101134, 39.5218196539]}, "type": "Feature", "properties": {"collection_times": [{"days": "Mon-Fri", "time": "11:45am"}, {"days": "Sat", "time": "9:00am"}, {"days": "Sun", "time": "Closed"}], "id": "6528300001", "name": "USPS COLLECTION BOX - BLUE BOX", "address": {"city": "STOUTSVILLE", "state": "MO", "street": "24599 MONROE ROAD 473", "postcode": "65283"}}},
{"geometry": {"type": "Point", "coordinates": [-92.2812129339, 39.2381883492]}, "type": "Feature", "properties": {"collection_times": [{"days": "Mon-Fri", "time": "2:15pm"}, {"days": "Sat", "time": "9:30am"}, {"days": "Sun", "time": "Closed"}], "id": "6528400001", "name": "USPS COLLECTION BOX - BLUE BOX", "address": {"city": "STURGEON", "state": "MO", "street": "111 N WENTZ ST", "postcode": "65284"}}},
{"geometry": {"type": "Point", "coordinates": [-92.2812129339, 39.2381883492]}, "type": "Feature", "properties": {"collection_times": [{"days": "Mon-Fri", "time": "2:15pm"}, {"days": "Sat", "time": "10:00am"}, {"days": "Sun", "time": "Closed"}], "id": "6528400002", "name": "USPS COLLECTION BOX - PO LOBBY", "address": {"city": "STURGEON", "state": "MO", "street": "111 N WENTZ ST", "postcode": "65284"}}},
{"geometry": {"type": "Point", "coordinates": [-91.983166909, 39.1875682126]}, "type": "Feature", "properties": {"collection_times": [{"days": "Mon-Fri", "time": "1:45pm"}, {"days": "Sat", "time": "8:30am"}, {"days": "Sun", "time": "Closed"}], "id": "6528500001", "name": "USPS COLLECTION BOX - BLUE BOX", "address": {"city": "THOMPSON", "state": "MO", "street": "10339 AUDRAIN ROAD 945", "postcode": "65285"}}},
{"geometry": {"type": "Point", "coordinates": [-91.983166909, 39.1875682126]}, "type": "Feature", "properties": {"collection_times": [{"days": "Mon-Fri", "time": "1:45pm"}, {"days": "Sat", "time": "10:15am"}, {"days": "Sun", "time": "Closed"}], "id": "6528500002", "name": "USPS COLLECTION BOX - PO LOBBY", "address": {"city": "THOMPSON", "state": "MO", "street": "10339 AUDRAIN ROAD 945", "postcode": "65285"}}},
{"geometry": {"type": "Point", "coordinates": [-92.5215579315, 38.9062817785]}, "type": "Feature", "properties": {"collection_times": [{"days": "Mon-Sat", "time": "12:30pm"}, {"days": "Sun", "time": "Closed"}], "id": "6528700001", "name": "USPS COLLECTION BOX - BLUE BOX", "address": {"city": "WOOLDRIDGE", "state": "MO", "street": "103 W MAIN ST", "postcode": "65287"}}},
{"geometry": {"type": "Point", "coordinates": [-92.5215579315, 38.9062817785]}, "type": "Feature", "properties": {"collection_times": [{"days": "Mon-Sat", "time": "12:30pm"}, {"days": "Sun", "time": "Closed"}], "id": "6528700002", "name": "USPS COLLECTION BOX - PO LOBBY", "address": {"city": "WOOLDRIDGE", "state": "MO", "street": "103 W MAIN ST", "postcode": "65287"}}}
]}
