{"type": "FeatureCollection", "features": [
{"geometry": {"type": "Point", "coordinates": [-93.2652323131, 38.7035653207]}, "type": "Feature", "properties": {"collection_times": [{"days": "Mon-Sat", "time": "3:00pm"}, {"days": "Sun", "time": "Closed"}], "id": "6530100003", "name": "USPS COLLECTION BOX - BLUE BOX", "address": {"city": "SEDALIA", "state": "MO", "street": "1020 THOMPSON BLVD", "postcode": "65301"}}},
{"geometry": {"type": "Point", "coordinates": [-93.2414005095, 38.6980183872]}, "type": "Feature", "properties": {"collection_times": [{"days": "Mon-Sat", "time": "10:00am"}, {"days": "Sun", "time": "Closed"}], "id": "6530100006", "name": "USPS COLLECTION BOX - BLUE BOX", "address": {"city": "SEDALIA", "state": "MO", "street": "1200 W 16TH ST", "postcode": "65301"}}},
{"geometry": {"type": "Point", "coordinates": [-93.2687348717, 38.7097240973]}, "type": "Feature", "properties": {"collection_times": [{"days": "Mon-Sat", "time": "2:45pm"}, {"days": "Sun", "time": "Closed"}], "id": "6530100012", "name": "USPS COLLECTION BOX - BLUE BOX", "address": {"city": "SEDALIA", "state": "MO", "street": "3201 W BROADWAY BLVD", "postcode": "65301"}}},
{"geometry": {"type": "Point", "coordinates": [-93.2279020488, 38.7094145701]}, "type": "Feature", "properties": {"collection_times": [{"days": "Mon-Sat", "time": "2:45pm"}, {"days": "Sun", "time": "Closed"}], "id": "6530100013", "name": "USPS COLLECTION BOX - BLUE BOX", "address": {"city": "SEDALIA", "state": "MO", "street": "231 S OHIO AVE", "postcode": "65301"}}},
{"geometry": {"type": "Point", "coordinates": [-93.2281806736, 38.7075981706]}, "type": "Feature", "properties": {"collection_times": [{"days": "Mon-Sat", "time": "2:45pm"}, {"days": "Sun", "time": "Closed"}], "id": "6530100015", "name": "USPS COLLECTION BOX - BLUE BOX", "address": {"city": "SEDALIA", "state": "MO", "street": "415 S OHIO AVE", "postcode": "65301"}}},
{"geometry": {"type": "Point", "coordinates": [-93.2302090785, 38.7068874419]}, "type": "Feature", "properties": {"collection_times": [{"days": "Mon-Sat", "time": "3:00pm"}, {"days": "Sun", "time": "Closed"}], "id": "6530100017", "name": "USPS COLLECTION BOX - BLUE BOX", "address": {"city": "SEDALIA", "state": "MO", "street": "505 S KENTUCKY AVE", "postcode": "65301"}}},
{"geometry": {"type": "Point", "coordinates": [-93.2227201139, 38.6990678335]}, "type": "Feature", "properties": {"collection_times": [{"days": "Mon-Sat", "time": "2:30pm"}, {"days": "Sun", "time": "Closed"}], "id": "6530100019", "name": "USPS COLLECTION BOX - BLUE BOX", "address": {"city": "SEDALIA", "state": "MO", "street": "601 E 14TH ST", "postcode": "65301"}}},
{"geometry": {"type": "Point", "coordinates": [-93.2070975019, 38.7034319039]}, "type": "Feature", "properties": {"collection_times": [{"days": "Mon-Sat", "time": "2:30pm"}, {"days": "Sun", "time": "Closed"}], "id": "6530100028", "name": "USPS COLLECTION BOX - BLUE BOX", "address": {"city": "SEDALIA", "state": "MO", "street": "1650 E BROADWAY BLVD", "postcode": "65301"}}},
{"geometry": {"type": "Point", "coordinates": [-93.2246647597, 38.7068037097]}, "type": "Feature", "properties": {"collection_times": [{"days": "Mon-Fri", "time": "5:30pm"}, {"days": "Sat", "time": "5:00pm"}, {"days": "Sun", "time": "Closed"}], "id": "6530100043", "name": "USPS COLLECTION BOX - BLUE BOX", "address": {"city": "SEDALIA", "state": "MO", "street": "405 E 5TH ST", "postcode": "65301"}}},
{"geometry": {"type": "Point", "coordinates": [-93.250588383, 38.7006595349]}, "type": "Feature", "properties": {"collection_times": [{"days": "Mon-Fri", "time": "5:00pm"}, {"days": "Sat", "time": "3:00pm"}, {"days": "Sun", "time": "Closed"}], "id": "6530100045", "name": "USPS COLLECTION BOX - BLUE BOX", "address": {"city": "SEDALIA", "state": "MO", "street": "1400 S LIMIT AVE", "postcode": "65301"}}},
{"geometry": {"type": "Point", "coordinates": [-93.2651806781, 38.705849841]}, "type": "Feature", "properties": {"collection_times": [{"days": "Mon-Fri", "time": "5:00pm"}, {"days": "Sat", "time": "2:45pm"}, {"days": "Sun", "time": "Closed"}], "id": "6530100050", "name": "USPS COLLECTION BOX - BLUE BOX", "address": {"city": "SEDALIA", "state": "MO", "street": "912 THOMPSON BLVD", "postcode": "65301"}}},
{"geometry": {"type": "Point", "coordinates": [-93.2505753064, 38.6983142749]}, "type": "Feature", "properties": {"collection_times": [{"days": "Mon-Fri", "time": "5:00pm"}, {"days": "Sat", "time": "3:00pm"}, {"days": "Sun", "time": "Closed"}], "id": "6530100055", "name": "USPS COLLECTION BOX - BLUE BOX", "address": {"city": "SEDALIA", "state": "MO", "street": "1601 S LIMIT AVE", "postcode": "65301"}}},
{"geometry": {"type": "Point", "coordinates": [-93.2246647597, 38.7068037097]}, "type": "Feature", "properties": {"collection_times": [{"days": "Mon-Fri", "time": "5:30pm"}, {"days": "Sat", "time": "5:00pm"}, {"days": "Sun", "time": "Closed"}], "id": "6530100056", "name": "USPS COLLECTION BOX - PO LOBBY", "address": {"city": "SEDALIA", "state": "MO", "street": "405 E 5TH ST", "postcode": "65301"}}},
{"geometry": {"type": "Point", "coordinates": [-93.2066041825, 38.7035229161]}, "type": "Feature", "properties": {"collection_times": [{"days": "Mon-Sat", "time": "2:30pm"}, {"days": "Sun", "time": "Closed"}], "id": "6530100062", "name": "USPS COLLECTION BOX - BLUE BOX", "address": {"city": "SEDALIA", "state": "MO", "street": "1701 E BROADWAY BLVD", "postcode": "65301"}}},
{"geometry": {"type": "Point", "coordinates": [-93.5625636518, 38.7249178528]}, "type": "Feature", "properties": {"collection_times": [{"days": "Mon-Fri", "time": "4:00pm"}, {"days": "Sat", "time": "11:00am"}, {"days": "Sun", "time": "Closed"}], "id": "6530500002", "name": "USPS COLLECTION BOX - BLUE BOX", "address": {"city": "WHITEMAN AFB", "state": "MO", "street": "740 ARNOLD AVE", "postcode": "65305"}}},
{"geometry": {"type": "Point", "coordinates": [-93.5625636518, 38.7249178528]}, "type": "Feature", "properties": {"collection_times": [{"days": "Mon-Fri", "time": "4:00pm"}, {"days": "Sat", "time": "11:00am"}, {"days": "Sun", "time": "Closed"}], "id": "6530500006", "name": "USPS COLLECTION BOX - PO LOBBY", "address": {"city": "WHITEMAN AFB", "state": "MO", "street": "740 ARNOLD AVE", "postcode": "65305"}}},
{"geometry": {"type": "Point", "coordinates": [-92.9470597066, 39.0707841199]}, "type": "Feature", "properties": {"collection_times": [{"days": "Mon-Fri", "time": "4:00pm"}, {"days": "Sat", "time": "9:30am"}, {"days": "Sun", "time": "Closed"}], "id": "6532000002", "name": "USPS COLLECTION BOX - PO LOBBY", "address": {"city": "ARROW ROCK", "state": "MO", "street": "304 MAIN ST", "postcode": "65320"}}},
{"geometry": {"type": "Point", "coordinates": [-93.4835115669, 39.1109338646]}, "type": "Feature", "properties": {"collection_times": [{"days": "Mon-Fri", "time": "11:15am"}, {"days": "Sat", "time": "9:30am"}, {"days": "Sun", "time": "Closed"}], "id": "6532100001", "name": "USPS COLLECTION BOX - BLUE BOX", "address": {"city": "BLACKBURN", "state": "MO", "street": "210 N MAIN ST", "postcode": "65321"}}},
{"geometry": {"type": "Point", "coordinates": [-93.4013048712, 39.0899322674]}, "type": "Feature", "properties": {"collection_times": [{"days": "Mon-Fri", "time": "10:00am"}, {"days": "Sat", "time": "9:30am"}, {"days": "Sun", "time": "Closed"}], "id": "6532100002", "name": "USPS COLLECTION BOX - BLUE BOX", "address": {"city": "BLACKBURN", "state": "MO", "street": "310 CHURCHILL ST", "postcode": "65321"}}},
{"geometry": {"type": "Point", "coordinates": [-93.4835115669, 39.1109338646]}, "type": "Feature", "properties": {"collection_times": [{"days": "Mon-Fri", "time": "11:15am"}, {"days": "Sat", "time": "9:30am"}, {"days": "Sun", "time": "Closed"}], "id": "6532100003", "name": "USPS COLLECTION BOX - PO LOBBY", "address": {"city": "BLACKBURN", "state": "MO", "street": "210 N MAIN ST", "postcode": "65321"}}},
{"geometry": {"type": "Point", "coordinates": [-92.9901877196, 38.9810228454]}, "type": "Feature", "properties": {"collection_times": [{"days": "Mon-Fri", "time": "11:15am"}, {"days": "Sat", "time": "9:00am"}, {"days": "Sun", "time": "Closed"}], "id": "6532200001", "name": "USPS COLLECTION BOX - BLUE BOX", "address": {"city": "BLACKWATER", "state": "MO", "street": "100 MAIN ST", "postcode": "65322"}}},
{"geometry": {"type": "Point", "coordinates": [-92.9901877196, 38.9810228454]}, "type": "Feature", "properties": {"collection_times": [{"days": "Mon-Fri", "time": "11:15am"}, {"days": "Sat", "time": "9:00am"}, {"days": "Sun", "time": "Closed"}], "id": "6532200002", "name": "USPS COLLECTION BOX - PO LOBBY", "address": {"city": "BLACKWATER", "state": "MO", "street": "100 MAIN ST", "postcode": "65322"}}},
{"geometry": {"type": "Point", "coordinates": [-93.6240304429, 38.466372967]}, "type": "Feature", "properties": {"collection_times": [{"days": "Mon-Fri", "time": "11:15am"}, {"days": "Sat", "time": "8:30am"}, {"days": "Sun", "time": "Closed"}], "id": "6532300001", "name": "USPS COLLECTION BOX - BLUE BOX", "address": {"city": "CALHOUN", "state": "MO", "street": "200 E 5TH ST", "postcode": "65323"}}},
{"geometry": {"type": "Point", "coordinates": [-93.6239019816, 38.4663535758]}, "type": "Feature", "properties": {"collection_times": [{"days": "Mon-Fri", "time": "11:15am"}, {"days": "Sat", "time": "8:30am"}, {"days": "Sun", "time": "Closed"}], "id": "6532300002", "name": "USPS COLLECTION BOX - PO LOBBY", "address": {"city": "CALHOUN", "state": "MO", "street": "200 E 5TH ST", "postcode": "65323"}}},
{"geometry": {"type": "Point", "coordinates": [-93.0483557381, 38.0965949975]}, "type": "Feature", "properties": {"collection_times": [{"days": "Mon-Fri", "time": "3:30pm"}, {"days": "Sat", "time": "8:00am"}, {"days": "Sun", "time": "Closed"}], "id": "6532400001", "name": "USPS COLLECTION BOX - BLUE BOX", "address": {"city": "CLIMAX SPRINGS", "state": "MO", "street": "14389 N STATE HIGHWAY 7", "postcode": "65324"}}},
{"geometry": {"type": "Point", "coordinates": [-93.0483557381, 38.0965949975]}, "type": "Feature", "properties": {"collection_times": [{"days": "Mon-Fri", "time": "3:00pm"}, {"days": "Sat", "time": "9:15am"}, {"days": "Sun", "time": "Closed"}], "id": "6532400002", "name": "USPS COLLECTION BOX - PO LOBBY", "address": {"city": "CLIMAX SPRINGS", "state": "MO", "street": "14389 N STATE HIGHWAY 7", "postcode": "65324"}}},
{"geometry": {"type": "Point", "coordinates": [-93.2050079373, 38.4602475695]}, "type": "Feature", "properties": {"collection_times": [{"days": "Mon-Fri", "time": "4:30pm"}, {"days": "Sat", "time": "9:30am"}, {"days": "Sun", "time": "Closed"}], "id": "6532500001", "name": "USPS COLLECTION BOX - BLUE BOX", "address": {"city": "COLE CAMP", "state": "MO", "street": "201 W MAIN ST", "postcode": "65325"}}},
{"geometry": {"type": "Point", "coordinates": [-93.2050079373, 38.4602475695]}, "type": "Feature", "properties": {"collection_times": [{"days": "Mon-Fri", "time": "4:30pm"}, {"days": "Sat", "time": "9:30am"}, {"days": "Sun", "time": "Closed"}], "id": "6532500003", "name": "USPS COLLECTION BOX - PO LOBBY", "address": {"city": "COLE CAMP", "state": "MO", "street": "201 W MAIN ST", "postcode": "65325"}}},
{"geometry": {"type": "Point", "coordinates": [-93.1595313064, 38.1599290217]}, "type": "Feature", "properties": {"collection_times": [{"days": "Mon-Fri", "time": "2:45pm"}, {"days": "Sat", "time": "9:30am"}, {"days": "Sun", "time": "Closed"}], "id": "6532600001", "name": "USPS COLLECTION BOX - BLUE BOX", "address": {"city": "EDWARDS", "state": "MO", "street": "29184 HIGHWAY 7", "postcode": "65326"}}},
{"geometry": {"type": "Point", "coordinates": [-93.1595313064, 38.1599290217]}, "type": "Feature", "properties": {"collection_times": [{"days": "Mon-Fri", "time": "2:45pm"}, {"days": "Sat", "time": "10:15am"}, {"days": "Sun", "time": "Closed"}], "id": "6532600002", "name": "USPS COLLECTION BOX - PO LOBBY", "address": {"city": "EDWARDS", "state": "MO", "street": "29184 HIGHWAY 7", "postcode": "65326"}}},
{"geometry": {"type": "Point", "coordinates": [-93.4942858703, 38.9831753326]}, "type": "Feature", "properties": {"collection_times": [{"days": "Mon-Fri", "time": "4:30pm"}, {"days": "Sat", "time": "9:30am"}, {"days": "Sun", "time": "Closed"}], "id": "6532700001", "name": "USPS COLLECTION BOX - BLUE BOX", "address": {"city": "EMMA", "state": "MO", "street": "204 N ELM ST", "postcode": "65327"}}},
{"geometry": {"type": "Point", "coordinates": [-93.4942858703, 38.9831753326]}, "type": "Feature", "properties": {"collection_times": [{"days": "Mon-Fri", "time": "4:40pm"}, {"days": "Sat", "time": "9:30am"}, {"days": "Sun", "time": "Closed"}], "id": "6532700002", "name": "USPS COLLECTION BOX - PO LOBBY", "address": {"city": "EMMA", "state": "MO", "street": "204 N ELM ST", "postcode": "65327"}}},
{"geometry": {"type": "Point", "coordinates": [-92.9745826408, 38.5951039969]}, "type": "Feature", "properties": {"collection_times": [{"days": "Mon-Fri", "time": "12:30pm"}, {"days": "Sat", "time": "10:15am"}, {"days": "Sun", "time": "Closed"}], "id": "6532900003", "name": "USPS COLLECTION BOX - BLUE BOX", "address": {"city": "FLORENCE", "state": "MO", "street": "6628 HIGHWAY JJ", "postcode": "65329"}}},
{"geometry": {"type": "Point", "coordinates": [-92.9745826408, 38.5951039969]}, "type": "Feature", "properties": {"collection_times": [{"days": "Mon-Fri", "time": "12:30pm"}, {"days": "Sat", "time": "10:15am"}, {"days": "Sun", "time": "Closed"}], "id": "6532900004", "name": "USPS COLLECTION BOX - PO LOBBY", "address": {"city": "FLORENCE", "state": "MO", "street": "6628 HIGHWAY JJ", "postcode": "65329"}}},
{"geometry": {"type": "Point", "coordinates": [-93.0045628999, 39.2342811769]}, "type": "Feature", "properties": {"collection_times": [{"days": "Mon-Fri", "time": "3:00pm"}, {"days": "Sat", "time": "10:15am"}, {"days": "Sun", "time": "Closed"}], "id": "6533000001", "name": "USPS COLLECTION BOX - BLUE BOX", "address": {"city": "GILLIAM", "state": "MO", "street": "103 N BARTLETT ST", "postcode": "65330"}}},
{"geometry": {"type": "Point", "coordinates": [-93.0045628999, 39.2342811769]}, "type": "Feature", "properties": {"collection_times": [{"days": "Mon-Fri", "time": "2:45pm"}, {"days": "Sat", "time": "12:45pm"}, {"days": "Sun", "time": "Closed"}], "id": "6533000002", "name": "USPS COLLECTION BOX - PO LOBBY", "address": {"city": "GILLIAM", "state": "MO", "street": "103 N BARTLETT ST", "postcode": "65330"}}},
{"geometry": {"type": "Point", "coordinates": [-93.4092304015, 38.6207406857]}, "type": "Feature", "properties": {"collection_times": [{"days": "Mon-Fri", "time": "2:45pm"}, {"days": "Sat", "time": "8:00am"}, {"days": "Sun", "time": "Closed"}], "id": "6533200001", "name": "USPS COLLECTION BOX - BLUE BOX", "address": {"city": "GREEN RIDGE", "state": "MO", "street": "106 N MAIN ST", "postcode": "65332"}}},
{"geometry": {"type": "Point", "coordinates": [-93.4092304015, 38.6207406857]}, "type": "Feature", "properties": {"collection_times": [{"days": "Mon-Fri", "time": "2:45pm"}, {"days": "Sat", "time": "9:30am"}, {"days": "Sun", "time": "Closed"}], "id": "6533200002", "name": "USPS COLLECTION BOX - PO LOBBY", "address": {"city": "GREEN RIDGE", "state": "MO", "street": "106 N MAIN ST", "postcode": "65332"}}},
{"geometry": {"type": "Point", "coordinates": [-93.3569789542, 38.8980448308]}, "type": "Feature", "properties": {"collection_times": [{"days": "Mon-Fri", "time": "3:30pm"}, {"days": "Sat", "time": "8:00am"}, {"days": "Sun", "time": "Closed"}], "id": "6533300001", "name": "USPS COLLECTION BOX - BLUE BOX", "address": {"city": "HOUSTONIA", "state": "MO", "street": "103 N WALNUT ST", "postcode": "65333"}}},
{"geometry": {"type": "Point", "coordinates": [-93.3569789542, 38.8980448308]}, "type": "Feature", "properties": {"collection_times": [{"days": "Mon-Fri", "time": "11:45am"}, {"days": "Sat", "time": "11:30am"}, {"days": "Sun", "time": "Closed"}], "id": "6533300002", "name": "USPS COLLECTION BOX - PO LOBBY", "address": {"city": "HOUSTONIA", "state": "MO", "street": "103 N WALNUT ST", "postcode": "65333"}}},
{"geometry": {"type": "Point", "coordinates": [-93.2935917544, 38.8370835699]}, "type": "Feature", "properties": {"collection_times": [{"days": "Mon-Fri", "time": "12:00pm"}, {"days": "Sat", "time": "7:30am"}, {"days": "Sun", "time": "Closed"}], "id": "6533400001", "name": "USPS COLLECTION BOX - BLUE BOX", "address": {"city": "HUGHESVILLE", "state": "MO", "street": "102 MOCKBEE ST", "postcode": "65334"}}},
{"geometry": {"type": "Point", "coordinates": [-93.2935917544, 38.8370835699]}, "type": "Feature", "properties": {"collection_times": [{"days": "Mon-Fri", "time": "10:45am"}, {"days": "Sat", "time": "8:30am"}, {"days": "Sun", "time": "Closed"}], "id": "6533400002", "name": "USPS COLLECTION BOX - PO LOBBY", "address": {"city": "HUGHESVILLE", "state": "MO", "street": "102 MOCKBEE ST", "postcode": "65334"}}},
{"geometry": {"type": "Point", "coordinates": [-93.3237494783, 38.5025654045]}, "type": "Feature", "properties": {"collection_times": [{"days": "Mon-Sat", "time": "12:15pm"}, {"days": "Sun", "time": "Closed"}], "id": "6533500001", "name": "USPS COLLECTION BOX - BLUE BOX", "address": {"city": "IONIA", "state": "MO", "street": "206 N MAIN ST", "postcode": "65335"}}},
{"geometry": {"type": "Point", "coordinates": [-93.3237494783, 38.5025654045]}, "type": "Feature", "properties": {"collection_times": [{"days": "Mon-Sat", "time": "12:15pm"}, {"days": "Sun", "time": "Closed"}], "id": "6533500002", "name": "USPS COLLECTION BOX - PO LOBBY", "address": {"city": "IONIA", "state": "MO", "street": "206 N MAIN ST", "postcode": "65335"}}},
{"geometry": {"type": "Point", "coordinates": [-93.560640143, 38.7652680539]}, "type": "Feature", "properties": {"collection_times": [{"days": "Mon-Fri", "time": "4:30pm"}, {"days": "Sat", "time": "4:00pm"}, {"days": "Sun", "time": "Closed"}], "id": "6533600002", "name": "USPS COLLECTION BOX - BLUE BOX", "address": {"city": "KNOB NOSTER", "state": "MO", "street": "505 W MCPHERSON ST", "postcode": "65336"}}},
{"geometry": {"type": "Point", "coordinates": [-93.560640143, 38.7652680539]}, "type": "Feature", "properties": {"collection_times": [{"days": "Mon-Fri", "time": "4:30pm"}, {"days": "Sat", "time": "4:00pm"}, {"days": "Sun", "time": "Closed"}], "id": "6533600007", "name": "USPS COLLECTION BOX - PO LOBBY", "address": {"city": "KNOB NOSTER", "state": "MO", "street": "505 W MCPHERSON ST", "postcode": "65336"}}},
{"geometry": {"type": "Point", "coordinates": [-93.4245366075, 38.7742767017]}, "type": "Feature", "properties": {"collection_times": [{"days": "Mon-Fri", "time": "2:30pm"}, {"days": "Sat", "time": "9:30am"}, {"days": "Sun", "time": "Closed"}], "id": "6533700002", "name": "USPS COLLECTION BOX - BLUE BOX", "address": {"city": "LA MONTE", "state": "MO", "street": "111 S MAIN ST", "postcode": "65337"}}},
{"geometry": {"type": "Point", "coordinates": [-93.4245366075, 38.7742767017]}, "type": "Feature", "properties": {"collection_times": [{"days": "Mon-Fri", "time": "2:30pm"}, {"days": "Sat", "time": "9:30am"}, {"days": "Sun", "time": "Closed"}], "id": "6533700003", "name": "USPS COLLECTION BOX - PO LOBBY", "address": {"city": "LA MONTE", "state": "MO", "street": "111 S MAIN ST", "postcode": "65337"}}},
{"geometry": {"type": "Point", "coordinates": [-93.3342851894, 38.3908886012]}, "type": "Feature", "properties": {"collection_times": [{"days": "Mon-Fri", "time": "3:45pm"}, {"days": "Sat", "time": "9:30am"}, {"days": "Sun", "time": "Closed"}], "id": "6533800001", "name": "USPS COLLECTION BOX - BLUE BOX", "address": {"city": "LINCOLN", "state": "MO", "street": "214 E MAIN ST", "postcode": "65338"}}},
{"geometry": {"type": "Point", "coordinates": [-93.338182613, 38.391048301]}, "type": "Feature", "properties": {"collection_times": [{"days": "Mon-Fri", "time": "3:45pm"}, {"days": "Sat", "time": "9:30am"}, {"days": "Sun", "time": "Closed"}], "id": "6533800002", "name": "USPS COLLECTION BOX - PO LOBBY", "address": {"city": "LINCOLN", "state": "MO", "street": "214 MAIN ST", "postcode": "65338"}}},
{"geometry": {"type": "Point", "coordinates": [-93.3630802, 39.1897954883]}, "type": "Feature", "properties": {"collection_times": [{"days": "Mon-Fri", "time": "11:45am"}, {"days": "Sat", "time": "9:00am"}, {"days": "Sun", "time": "Closed"}], "id": "6533900001", "name": "USPS COLLECTION BOX - BLUE BOX", "address": {"city": "MALTA BEND", "state": "MO", "street": "106 N LINN ST", "postcode": "65339"}}},
{"geometry": {"type": "Point", "coordinates": [-93.3630802, 39.1897954883]}, "type": "Feature", "properties": {"collection_times": [{"days": "Mon-Fri", "time": "11:45am"}, {"days": "Sat", "time": "9:00am"}, {"days": "Sun", "time": "Closed"}], "id": "6533900002", "name": "USPS COLLECTION BOX - PO LOBBY", "address": {"city": "MALTA BEND", "state": "MO", "street": "106 N LINN ST", "postcode": "65339"}}},
{"geometry": {"type": "Point", "coordinates": [-93.1943870093, 39.13323944]}, "type": "Feature", "properties": {"collection_times": [{"days": "Mon-Sat", "time": "10:00am"}, {"days": "Sun", "time": "Closed"}], "id": "6534000003", "name": "USPS COLLECTION BOX - BLUE BOX", "address": {"city": "MARSHALL", "state": "MO", "street": "1201 N ODELL AVE", "postcode": "65340"}}},
{"geometry": {"type": "Point", "coordinates": [-93.1950738995, 39.1081530657]}, "type": "Feature", "properties": {"collection_times": [{"days": "Mon-Fri", "time": "3:30pm"}, {"days": "Sat", "time": "3:15pm"}, {"days": "Sun", "time": "Closed"}], "id": "6534000004", "name": "USPS COLLECTION BOX - BLUE BOX", "address": {"city": "MARSHALL", "state": "MO", "street": "1255 S ODELL AVE", "postcode": "65340"}}},
{"geometry": {"type": "Point", "coordinates": [-93.1951423888, 39.1053022468]}, "type": "Feature", "properties": {"collection_times": [{"days": "Mon-Sat", "time": "10:30am"}, {"days": "Sun", "time": "Closed"}], "id": "6534000006", "name": "USPS COLLECTION BOX - BLUE BOX", "address": {"city": "MARSHALL", "state": "MO", "street": "1573 S ODELL AVE", "postcode": "65340"}}},
{"geometry": {"type": "Point", "coordinates": [-93.1915713657, 39.1186117256]}, "type": "Feature", "properties": {"collection_times": [{"days": "Mon-Sat", "time": "9:00am"}, {"days": "Sun", "time": "Closed"}], "id": "6534000009", "name": "USPS COLLECTION BOX - BLUE BOX", "address": {"city": "MARSHALL", "state": "MO", "street": "275 S REDMAN AVE", "postcode": "65340"}}},
{"geometry": {"type": "Point", "coordinates": [-93.209609091, 39.1083826883]}, "type": "Feature", "properties": {"collection_times": [{"days": "Mon-Sat", "time": "3:30pm"}, {"days": "Sun", "time": "Closed"}], "id": "6534000012", "name": "USPS COLLECTION BOX - BLUE BOX", "address": {"city": "MARSHALL", "state": "MO", "street": "925 W COLLEGE ST", "postcode": "65340"}}},
{"geometry": {"type": "Point", "coordinates": [-93.2133882493, 39.1137565568]}, "type": "Feature", "properties": {"collection_times": [{"days": "Mon-Fri", "time": "3:30pm"}, {"days": "Sat", "time": "3:15pm"}, {"days": "Sun", "time": "Closed"}], "id": "6534000013", "name": "USPS COLLECTION BOX - BLUE BOX", "address": {"city": "MARSHALL", "state": "MO", "street": "855 CHEROKEE DR", "postcode": "65340"}}},
{"geometry": {"type": "Point", "coordinates": [-93.1919343279, 39.107880881]}, "type": "Feature", "properties": {"collection_times": [{"days": "Mon-Sat", "time": "10:30am"}, {"days": "Sun", "time": "Closed"}], "id": "6534000016", "name": "USPS COLLECTION BOX - BLUE BOX", "address": {"city": "MARSHALL", "state": "MO", "street": "1300 S REDMAN AVE", "postcode": "65340"}}},
{"geometry": {"type": "Point", "coordinates": [-93.1960136984, 39.1194326052]}, "type": "Feature", "properties": {"collection_times": [{"days": "Mon-Fri", "time": "4:00pm"}, {"days": "Sat", "time": "2:30pm"}, {"days": "Sun", "time": "Closed"}], "id": "6534000017", "name": "USPS COLLECTION BOX - BLUE BOX", "address": {"city": "MARSHALL", "state": "MO", "street": "101 S JEFFERSON AVE", "postcode": "65340"}}},
{"geometry": {"type": "Point", "coordinates": [-93.2087918066, 39.089902788]}, "type": "Feature", "properties": {"collection_times": [{"days": "Mon-Sat", "time": "3:30pm"}, {"days": "Sun", "time": "Closed"}], "id": "6534000021", "name": "USPS COLLECTION BOX - BLUE BOX", "address": {"city": "MARSHALL", "state": "MO", "street": "2305 S 65 HWY", "postcode": "65340"}}},
{"geometry": {"type": "Point", "coordinates": [-93.1958670048, 39.1203558415]}, "type": "Feature", "properties": {"collection_times": [{"days": "Mon-Sat", "time": "4:00pm"}, {"days": "Sun", "time": "Closed"}], "id": "6534000022", "name": "USPS COLLECTION BOX - BLUE BOX", "address": {"city": "MARSHALL", "state": "MO", "street": "4 N JEFFERSON AVE", "postcode": "65340"}}},
{"geometry": {"type": "Point", "coordinates": [-93.1957588288, 39.1214171458]}, "type": "Feature", "properties": {"collection_times": [{"days": "Mon-Sat", "time": "4:00pm"}, {"days": "Sun", "time": "Closed"}], "id": "6534000023", "name": "USPS COLLECTION BOX - BLUE BOX", "address": {"city": "MARSHALL", "state": "MO", "street": "27 E NORTH ST", "postcode": "65340"}}},
{"geometry": {"type": "Point", "coordinates": [-93.1973127318, 39.1222982641]}, "type": "Feature", "properties": {"collection_times": [{"days": "Mon-Fri", "time": "4:30pm"}, {"days": "Sat", "time": "4:00pm"}, {"days": "Sun", "time": "Closed"}], "id": "6534000036", "name": "USPS COLLECTION BOX - PO LOBBY", "address": {"city": "MARSHALL", "state": "MO", "street": "205 N LAFAYETTE AVE", "postcode": "65340"}}},
{"geometry": {"type": "Point", "coordinates": [-93.2281048852, 39.3213960644]}, "type": "Feature", "properties": {"collection_times": [{"days": "Mon-Fri", "time": "3:30pm"}, {"days": "Sat", "time": "9:15am"}, {"days": "Sun", "time": "Closed"}], "id": "6534400001", "name": "USPS COLLECTION BOX - BLUE BOX", "address": {"city": "MIAMI", "state": "MO", "street": "212 N HIGH ST", "postcode": "65344"}}},
{"geometry": {"type": "Point", "coordinates": [-93.2281048852, 39.3213960644]}, "type": "Feature", "properties": {"collection_times": [{"days": "Mon-Fri", "time": "3:15pm"}, {"days": "Sat", "time": "1:45pm"}, {"days": "Sun", "time": "Closed"}], "id": "6534400002", "name": "USPS COLLECTION BOX - PO LOBBY", "address": {"city": "MIAMI", "state": "MO", "street": "212 N HIGH ST", "postcode": "65344"}}},
{"geometry": {"type": "Point", "coordinates": [-93.0015168612, 38.6991131397]}, "type": "Feature", "properties": {"collection_times": [{"days": "Mon-Fri", "time": "11:15am"}, {"days": "Sat", "time": "8:00am"}, {"days": "Sun", "time": "Closed"}], "id": "6534800001", "name": "USPS COLLECTION BOX - BLUE BOX", "address": {"city": "OTTERVILLE", "state": "MO", "street": "204 E GROVER ST", "postcode": "65348"}}},
{"geometry": {"type": "Point", "coordinates": [-93.0015168612, 38.6991131397]}, "type": "Feature", "properties": {"collection_times": [{"days": "Mon-Fri", "time": "11:15am"}, {"days": "Sat", "time": "9:15am"}, {"days": "Sun", "time": "Closed"}], "id": "6534800002", "name": "USPS COLLECTION BOX - PO LOBBY", "address": {"city": "OTTERVILLE", "state": "MO", "street": "204 E GROVER ST", "postcode": "65348"}}},
{"geometry": {"type": "Point", "coordinates": [-93.0618471818, 39.2199352163]}, "type": "Feature", "properties": {"collection_times": [{"days": "Mon-Fri", "time": "4:15pm"}, {"days": "Sat", "time": "2:00pm"}, {"days": "Sun", "time": "Closed"}], "id": "6534900001", "name": "USPS COLLECTION BOX - BLUE BOX", "address": {"city": "SLATER", "state": "MO", "street": "159 W MAPLE ST", "postcode": "65349"}}},
{"geometry": {"type": "Point", "coordinates": [-93.061175013, 39.2205926351]}, "type": "Feature", "properties": {"collection_times": [{"days": "Mon-Sat", "time": "2:00pm"}, {"days": "Sun", "time": "Closed"}], "id": "6534900002", "name": "USPS COLLECTION BOX - BLUE BOX", "address": {"city": "SLATER", "state": "MO", "street": "229 MAIN ST", "postcode": "65349"}}},
{"geometry": {"type": "Point", "coordinates": [-93.0618471818, 39.2199352163]}, "type": "Feature", "properties": {"collection_times": [{"days": "Mon-Fri", "time": "4:15pm"}, {"days": "Sat", "time": "9:15am"}, {"days": "Sun", "time": "Closed"}], "id": "6534900003", "name": "USPS COLLECTION BOX - PO LOBBY", "address": {"city": "SLATER", "state": "MO", "street": "159 W MAPLE ST", "postcode": "65349"}}},
{"geometry": {"type": "Point", "coordinates": [-93.0946349142, 38.6832021904]}, "type": "Feature", "properties": {"collection_times": [{"days": "Mon-Fri", "time": "4:15pm"}, {"days": "Sat", "time": "9:00am"}, {"days": "Sun", "time": "Closed"}], "id": "6535000002", "name": "USPS COLLECTION BOX - BLUE BOX", "address": {"city": "SMITHTON", "state": "MO", "street": "104 S WALNUT AVE", "postcode": "65350"}}},
{"geometry": {"type": "Point", "coordinates": [-93.4189399432, 38.9648841613]}, "type": "Feature", "properties": {"collection_times": [{"days": "Mon-Fri", "time": "2:15pm"}, {"days": "Sat", "time": "10:15am"}, {"days": "Sun", "time": "Closed"}], "id": "6535100002", "name": "USPS COLLECTION BOX - BLUE BOX", "address": {"city": "SWEET SPRINGS", "state": "MO", "street": "311 SPRING ST", "postcode": "65351"}}},
{"geometry": {"type": "Point", "coordinates": [-93.4189399432, 38.9648841613]}, "type": "Feature", "properties": {"collection_times": [{"days": "Mon-Fri", "time": "2:15pm"}, {"days": "Sat", "time": "10:15am"}, {"days": "Sun", "time": "Closed"}], "id": "6535100003", "name": "USPS COLLECTION BOX - PO LOBBY", "address": {"city": "SWEET SPRINGS", "state": "MO", "street": "311 SPRING ST", "postcode": "65351"}}},
{"geometry": {"type": "Point", "coordinates": [-92.87486164, 38.6695880315]}, "type": "Feature", "properties": {"collection_times": [{"days": "Mon-Fri", "time": "3:45pm"}, {"days": "Sat", "time": "9:30am"}, {"days": "Sun", "time": "Closed"}], "id": "6535400001", "name": "USPS COLLECTION BOX - BLUE BOX", "address": {"city": "SYRACUSE", "state": "MO", "street": "214 E FRONT ST", "postcode": "65354"}}},
{"geometry": {"type": "Point", "coordinates": [-92.87486164, 38.6695880315]}, "type": "Feature", "properties": {"collection_times": [{"days": "Mon-Fri", "time": "3:45pm"}, {"days": "Sat", "time": "12:30pm"}, {"days": "Sun", "time": "Closed"}], "id": "6535400002", "name": "USPS COLLECTION BOX - PO LOBBY", "address": {"city": "SYRACUSE", "state": "MO", "street": "214 E FRONT ST", "postcode": "65354"}}},
{"geometry": {"type": "Point", "coordinates": [-93.3815293694, 38.2427859102]}, "type": "Feature", "properties": {"collection_times": [{"days": "Mon-Fri", "time": "4:30pm"}, {"days": "Sat", "time": "2:30pm"}, {"days": "Sun", "time": "Closed"}], "id": "6535500001", "name": "USPS COLLECTION BOX - BLUE BOX", "address": {"city": "WARSAW", "state": "MO", "street": "406 BENTON ST", "postcode": "65355"}}},
{"geometry": {"type": "Point", "coordinates": [-93.3815293694, 38.2427859102]}, "type": "Feature", "properties": {"collection_times": [{"days": "Mon-Fri", "time": "4:30pm"}, {"days": "Sat", "time": "2:30pm"}, {"days": "Sun", "time": "Closed"}], "id": "6535500004", "name": "USPS COLLECTION BOX - PO LOBBY", "address": {"city": "WARSAW", "state": "MO", "street": "406 BENTON ST", "postcode": "65355"}}},
{"geometry": {"type": "Point", "coordinates": [-93.3364076742, 38.2372467213]}, "type": "Feature", "properties": {"collection_times": [{"days": "Mon-Sat", "time": "10:00am"}, {"days": "Sun", "time": "Closed"}], "id": "6535500006", "name": "USPS COLLECTION BOX - BLUE BOX", "address": {"city": "WARSAW", "state": "MO", "street": "103 W POLK ST", "postcode": "65355"}}},
{"geometry": {"type": "Point", "coordinates": [-93.5219376245, 38.5323144183]}, "type": "Feature", "properties": {"collection_times": [{"days": "Mon-Fri", "time": "4:30pm"}, {"days": "Sat", "time": "1:30pm"}, {"days": "Sun", "time": "Closed"}], "id": "6536000002", "name": "USPS COLLECTION BOX - BLUE BOX", "address": {"city": "WINDSOR", "state": "MO", "street": "101 N MAIN ST", "postcode": "65360"}}},
{"geometry": {"type": "Point", "coordinates": [-93.5219376245, 38.5323144183]}, "type": "Feature", "properties": {"collection_times": [{"days": "Mon-Fri", "time": "4:30pm"}, {"days": "Sat", "time": "1:30pm"}, {"days": "Sun", "time": "Closed"}], "id": "6536000003", "name": "USPS COLLECTION BOX - BLUE BOX", "address": {"city": "WINDSOR", "state": "MO", "street": "101 N MAIN ST", "postcode": "65360"}}},
{"geometry": {"type": "Point", "coordinates": [-93.5218770586, 38.5323583029]}, "type": "Feature", "properties": {"collection_times": [{"days": "Mon-Fri", "time": "4:30pm"}, {"days": "Sat", "time": "1:30pm"}, {"days": "Sun", "time": "Closed"}], "id": "6536000007", "name": "USPS COLLECTION BOX - PO LOBBY", "address": {"city": "WINDSOR", "state": "MO", "street": "107 N MAIN ST", "postcode": "65360"}}}
]}
