{"type": "FeatureCollection", "features": [
{"geometry": {"type": "Point", "coordinates": [-91.77423529, 37.9492632229]}, "type": "Feature", "properties": {"collection_times": [{"days": "Mon-Sat", "time": "2:00pm"}, {"days": "Sun", "time": "Closed"}], "id": "6540100000", "name": "USPS COLLECTION BOX - BLUE BOX", "address": {"city": "ROLLA", "state": "MO", "street": "501 W 8TH ST", "postcode": "65401"}}},
{"geometry": {"type": "Point", "coordinates": [-91.77423529, 37.9492632229]}, "type": "Feature", "properties": {"collection_times": [{"days": "Mon-Sat", "time": "2:00pm"}, {"days": "Sun", "time": "Closed"}], "id": "6540100001", "name": "USPS COLLECTION BOX - BLUE BOX", "address": {"city": "ROLLA", "state": "MO", "street": "501 W 8TH ST", "postcode": "65401"}}},
{"geometry": {"type": "Point", "coordinates": [-91.7750847288, 37.9492575745]}, "type": "Feature", "properties": {"collection_times": [{"days": "Mon-Sat", "time": "2:00pm"}, {"days": "Sun", "time": "Closed"}], "id": "6540100003", "name": "USPS COLLECTION BOX - BLUE BOX", "address": {"city": "ROLLA", "state": "MO", "street": "501 W 8TH ST", "postcode": "65401"}}},
{"geometry": {"type": "Point", "coordinates": [-91.7849407619, 37.9515043651]}, "type": "Feature", "properties": {"collection_times": [{"days": "Mon-Sat", "time": "12:00pm"}, {"days": "Sun", "time": "Closed"}], "id": "6540100007", "name": "USPS COLLECTION BOX - BLUE BOX", "address": {"city": "ROLLA", "state": "MO", "street": "1000 W 10TH ST", "postcode": "65401"}}},
{"geometry": {"type": "Point", "coordinates": [-91.7773846399, 37.9391550271]}, "type": "Feature", "properties": {"collection_times": [{"days": "Mon-Sat", "time": "10:00am"}, {"days": "Sun", "time": "Closed"}], "id": "6540100011", "name": "USPS COLLECTION BOX - BLUE BOX", "address": {"city": "ROLLA", "state": "MO", "street": "500 S BISHOP AVE", "postcode": "65401"}}},
{"geometry": {"type": "Point", "coordinates": [-91.7735706152, 37.945337145]}, "type": "Feature", "properties": {"collection_times": [{"days": "Mon-Sat", "time": "1:00pm"}, {"days": "Sun", "time": "Closed"}], "id": "6540100016", "name": "USPS COLLECTION BOX - BLUE BOX", "address": {"city": "ROLLA", "state": "MO", "street": "200 N MAIN ST", "postcode": "65401"}}},
{"geometry": {"type": "Point", "coordinates": [-91.7802093699, 37.9553295682]}, "type": "Feature", "properties": {"collection_times": [{"days": "Mon-Sat", "time": "12:00pm"}, {"days": "Sun", "time": "Closed"}], "id": "6540100018", "name": "USPS COLLECTION BOX - BLUE BOX", "address": {"city": "ROLLA", "state": "MO", "street": "1400 E STATE ROUTE 72", "postcode": "65401"}}},
{"geometry": {"type": "Point", "coordinates": [-91.7522510301, 37.9519268602]}, "type": "Feature", "properties": {"collection_times": [{"days": "Mon-Sat", "time": "1:00pm"}, {"days": "Sun", "time": "Closed"}], "id": "6540100020", "name": "USPS COLLECTION BOX - BLUE BOX", "address": {"city": "ROLLA", "state": "MO", "street": "1040 FORUM DR", "postcode": "65401"}}},
{"geometry": {"type": "Point", "coordinates": [-91.7851592478, 37.9443428726]}, "type": "Feature", "properties": {"collection_times": [{"days": "Mon-Sat", "time": "10:00am"}, {"days": "Sun", "time": "Closed"}], "id": "6540100023", "name": "USPS COLLECTION BOX - BLUE BOX", "address": {"city": "ROLLA", "state": "MO", "street": "1111 KINGSHIGHWAY ST", "postcode": "65401"}}},
{"geometry": {"type": "Point", "coordinates": [-91.7714909042, 37.9500594155]}, "type": "Feature", "properties": {"collection_times": [{"days": "Mon-Sat", "time": "11:30am"}, {"days": "Sun", "time": "Closed"}], "id": "6540100024", "name": "USPS COLLECTION BOX - BLUE BOX", "address": {"city": "ROLLA", "state": "MO", "street": "810 N PINE ST", "postcode": "65401"}}},
{"geometry": {"type": "Point", "coordinates": [-91.7750847288, 37.9492575745]}, "type": "Feature", "properties": {"collection_times": [{"days": "Mon-Sat", "time": "2:00pm"}, {"days": "Sun", "time": "Closed"}], "id": "6540100028", "name": "USPS COLLECTION BOX - BLUE BOX", "address": {"city": "ROLLA", "state": "MO", "street": "501 W 8TH ST", "postcode": "65401"}}},
{"geometry": {"type": "Point", "coordinates": [-91.7741679552, 37.9499105628]}, "type": "Feature", "properties": {"collection_times": [{"days": "Mon-Sat", "time": "2:00pm"}, {"days": "Sun", "time": "Closed"}], "id": "6540100029", "name": "USPS COLLECTION BOX - PO LOBBY", "address": {"city": "ROLLA", "state": "MO", "street": "501 W 8TH ST", "postcode": "65401"}}},
{"geometry": {"type": "Point", "coordinates": [-91.7741679552, 37.9499105628]}, "type": "Feature", "properties": {"collection_times": [{"days": "Mon-Sat", "time": "2:00pm"}, {"days": "Sun", "time": "Closed"}], "id": "6540100030", "name": "USPS COLLECTION BOX - PO LOBBY", "address": {"city": "ROLLA", "state": "MO", "street": "501 W 8TH ST", "postcode": "65401"}}},
{"geometry": {"type": "Point", "coordinates": [-91.7741679552, 37.9499105628]}, "type": "Feature", "properties": {"collection_times": [{"days": "Mon-Sat", "time": "2:00pm"}, {"days": "Sun", "time": "Closed"}], "id": "6540100036", "name": "USPS COLLECTION BOX - APC", "address": {"city": "ROLLA", "state": "MO", "street": "501 W 8TH ST", "postcode": "65401"}}},
{"geometry": {"type": "Point", "coordinates": [-91.7706572711, 37.9507119108]}, "type": "Feature", "properties": {"collection_times": [{"days": "Mon-Sat", "time": "1:00pm"}, {"days": "Sun", "time": "Closed"}], "id": "6540100037", "name": "USPS COLLECTION BOX - BLUE BOX", "address": {"city": "ROLLA", "state": "MO", "street": "901 N ELM ST", "postcode": "65401"}}},
{"geometry": {"type": "Point", "coordinates": [-91.488575972, 36.9931358728]}, "type": "Feature", "properties": {"collection_times": [{"days": "Mon-Fri", "time": "1:00pm"}, {"days": "Sat", "time": "10:15am"}, {"days": "Sun", "time": "Closed"}], "id": "6543800000", "name": "USPS COLLECTION BOX - BLUE BOX", "address": {"city": "BIRCH TREE", "state": "MO", "street": "100 1ST ST", "postcode": "65438"}}},
{"geometry": {"type": "Point", "coordinates": [-91.488575972, 36.9931358728]}, "type": "Feature", "properties": {"collection_times": [{"days": "Mon-Fri", "time": "1:00pm"}, {"days": "Sat", "time": "10:15am"}, {"days": "Sun", "time": "Closed"}], "id": "6543800001", "name": "USPS COLLECTION BOX - PO LOBBY", "address": {"city": "BIRCH TREE", "state": "MO", "street": "100 1ST ST", "postcode": "65438"}}},
{"geometry": {"type": "Point", "coordinates": [-91.0693448561, 37.6644032537]}, "type": "Feature", "properties": {"collection_times": [{"days": "Mon-Fri", "time": "12:00pm"}, {"days": "Sat", "time": "9:45am"}, {"days": "Sun", "time": "Closed"}], "id": "6543900000", "name": "USPS COLLECTION BOX - BLUE BOX", "address": {"city": "BIXBY", "state": "MO", "street": "2573 STATE ROUTE 32", "postcode": "65439"}}},
{"geometry": {"type": "Point", "coordinates": [-91.0693448561, 37.6644032537]}, "type": "Feature", "properties": {"collection_times": [{"days": "Mon-Fri", "time": "12:00pm"}, {"days": "Sat", "time": "9:45am"}, {"days": "Sun", "time": "Closed"}], "id": "6543900001", "name": "USPS COLLECTION BOX - PO LOBBY", "address": {"city": "BIXBY", "state": "MO", "street": "2573 STATE ROUTE 32", "postcode": "65439"}}},
{"geometry": {"type": "Point", "coordinates": [-91.2324822328, 37.644429858]}, "type": "Feature", "properties": {"collection_times": [{"days": "Mon-Fri", "time": "11:45am"}, {"days": "Sat", "time": "10:45am"}, {"days": "Sun", "time": "Closed"}], "id": "6544000000", "name": "USPS COLLECTION BOX - BLUE BOX", "address": {"city": "BOSS", "state": "MO", "street": "22333 E HIGHWAY 32", "postcode": "65440"}}},
{"geometry": {"type": "Point", "coordinates": [-91.2324822328, 37.644429858]}, "type": "Feature", "properties": {"collection_times": [{"days": "Mon-Fri", "time": "11:45am"}, {"days": "Sat", "time": "10:45am"}, {"days": "Sun", "time": "Closed"}], "id": "6544000001", "name": "USPS COLLECTION BOX - PO LOBBY", "address": {"city": "BOSS", "state": "MO", "street": "22333 E HIGHWAY 32", "postcode": "65440"}}},
{"geometry": {"type": "Point", "coordinates": [-91.2469819938, 38.152205037]}, "type": "Feature", "properties": {"collection_times": [{"days": "Mon-Fri", "time": "1:00pm"}, {"days": "Sat", "time": "12:00pm"}, {"days": "Sun", "time": "Closed"}], "id": "6544100001", "name": "USPS COLLECTION BOX - BLUE BOX", "address": {"city": "BOURBON", "state": "MO", "street": "218 E PINE ST", "postcode": "65441"}}},
{"geometry": {"type": "Point", "coordinates": [-91.2469819938, 38.152205037]}, "type": "Feature", "properties": {"collection_times": [{"days": "Mon-Fri", "time": "1:00pm"}, {"days": "Sat", "time": "12:00pm"}, {"days": "Sun", "time": "Closed"}], "id": "6544100005", "name": "USPS COLLECTION BOX - PO LOBBY", "address": {"city": "BOURBON", "state": "MO", "street": "218 E PINE ST", "postcode": "65441"}}},
{"geometry": {"type": "Point", "coordinates": [-92.0045535473, 37.3332306724]}, "type": "Feature", "properties": {"collection_times": [{"days": "Mon-Sat", "time": "1:00pm"}, {"days": "Sun", "time": "Closed"}], "id": "6544400000", "name": "USPS COLLECTION BOX - BLUE BOX", "address": {"city": "BUCYRUS", "state": "MO", "street": "7866 HIGHWAY 17", "postcode": "65444"}}},
{"geometry": {"type": "Point", "coordinates": [-92.0045535473, 37.3332306724]}, "type": "Feature", "properties": {"collection_times": [{"days": "Mon-Sat", "time": "1:00pm"}, {"days": "Sun", "time": "Closed"}], "id": "6544400001", "name": "USPS COLLECTION BOX - PO LOBBY", "address": {"city": "BUCYRUS", "state": "MO", "street": "7866 HIGHWAY 17", "postcode": "65444"}}},
{"geometry": {"type": "Point", "coordinates": [-91.2687882972, 37.8510628659]}, "type": "Feature", "properties": {"collection_times": [{"days": "Mon-Fri", "time": "12:30pm"}, {"days": "Sat", "time": "9:30am"}, {"days": "Sun", "time": "Closed"}], "id": "6544600000", "name": "USPS COLLECTION BOX - BLUE BOX", "address": {"city": "CHERRYVILLE", "state": "MO", "street": "20376 HIGHWAY 19", "postcode": "65446"}}},
{"geometry": {"type": "Point", "coordinates": [-92.2639261365, 37.9489972202]}, "type": "Feature", "properties": {"collection_times": [{"days": "Mon-Fri", "time": "2:00pm"}, {"days": "Sat", "time": "10:30am"}, {"days": "Sun", "time": "Closed"}], "id": "6545200000", "name": "USPS COLLECTION BOX - BLUE BOX", "address": {"city": "CROCKER", "state": "MO", "street": "109 10TH ST", "postcode": "65452"}}},
{"geometry": {"type": "Point", "coordinates": [-92.2639261365, 37.9489972202]}, "type": "Feature", "properties": {"collection_times": [{"days": "Mon-Fri", "time": "2:00pm"}, {"days": "Sat", "time": "10:30am"}, {"days": "Sun", "time": "Closed"}], "id": "6545200001", "name": "USPS COLLECTION BOX - PO LOBBY", "address": {"city": "CROCKER", "state": "MO", "street": "109 10TH ST", "postcode": "65452"}}},
{"geometry": {"type": "Point", "coordinates": [-92.2639261365, 37.9489972202]}, "type": "Feature", "properties": {"collection_times": [{"days": "Mon-Fri", "time": "2:00pm"}, {"days": "Sat", "time": "10:30am"}, {"days": "Sun", "time": "Closed"}], "id": "6545200003", "name": "USPS COLLECTION BOX - PO LOBBY", "address": {"city": "CROCKER", "state": "MO", "street": "109 10TH ST", "postcode": "65452"}}},
{"geometry": {"type": "Point", "coordinates": [-91.4083124781, 38.0614606293]}, "type": "Feature", "properties": {"collection_times": [{"days": "Mon-Fri", "time": "1:30pm"}, {"days": "Sat", "time": "12:00pm"}, {"days": "Sun", "time": "Closed"}], "id": "6545300001", "name": "USPS COLLECTION BOX - BLUE BOX", "address": {"city": "CUBA", "state": "MO", "street": "703 W WASHINGTON ST", "postcode": "65453"}}},
{"geometry": {"type": "Point", "coordinates": [-91.4083124781, 38.0614606293]}, "type": "Feature", "properties": {"collection_times": [{"days": "Mon-Fri", "time": "1:30pm"}, {"days": "Sat", "time": "12:00pm"}, {"days": "Sun", "time": "Closed"}], "id": "6545300002", "name": "USPS COLLECTION BOX - BLUE BOX", "address": {"city": "CUBA", "state": "MO", "street": "703 W WASHINGTON ST", "postcode": "65453"}}},
{"geometry": {"type": "Point", "coordinates": [-91.4094969553, 38.0829036694]}, "type": "Feature", "properties": {"collection_times": [{"days": "Mon-Fri", "time": "12:30pm"}, {"days": "Sat-Sun", "time": "Closed"}], "id": "6545300005", "name": "USPS COLLECTION BOX - BLUE BOX", "address": {"city": "CUBA", "state": "MO", "street": "5922 HIGHWAY 19", "postcode": "65453"}}},
{"geometry": {"type": "Point", "coordinates": [-91.4042419428, 38.065344473]}, "type": "Feature", "properties": {"collection_times": [{"days": "Mon-Fri", "time": "11:00am"}, {"days": "Sat", "time": "10:30am"}, {"days": "Sun", "time": "Closed"}], "id": "6545300009", "name": "USPS COLLECTION BOX - BLUE BOX", "address": {"city": "CUBA", "state": "MO", "street": "314 N FRANKLIN ST", "postcode": "65453"}}},
{"geometry": {"type": "Point", "coordinates": [-91.4083124781, 38.0614606293]}, "type": "Feature", "properties": {"collection_times": [{"days": "Mon-Fri", "time": "1:30pm"}, {"days": "Sat", "time": "12:00pm"}, {"days": "Sun", "time": "Closed"}], "id": "6545300012", "name": "USPS COLLECTION BOX - PO LOBBY", "address": {"city": "CUBA", "state": "MO", "street": "703 W WASHINGTON ST", "postcode": "65453"}}},
{"geometry": {"type": "Point", "coordinates": [-91.4083124781, 38.0614606293]}, "type": "Feature", "properties": {"collection_times": [{"days": "Mon-Fri", "time": "1:30pm"}, {"days": "Sat", "time": "12:00pm"}, {"days": "Sun", "time": "Closed"}], "id": "6545300013", "name": "USPS COLLECTION BOX - PO LOBBY", "address": {"city": "CUBA", "state": "MO", "street": "703 W WASHINGTON ST", "postcode": "65453"}}},
{"geometry": {"type": "Point", "coordinates": [-92.0614807544, 37.8465067465]}, "type": "Feature", "properties": {"collection_times": [{"days": "Mon-Fri", "time": "1:00pm"}, {"days": "Sat", "time": "10:45am"}, {"days": "Sun", "time": "Closed"}], "id": "6545700000", "name": "USPS COLLECTION BOX - BLUE BOX", "address": {"city": "DEVILS ELBOW", "state": "MO", "street": "12175 TIMBER RD", "postcode": "65457"}}},
{"geometry": {"type": "Point", "coordinates": [-92.0614807544, 37.8465067465]}, "type": "Feature", "properties": {"collection_times": [{"days": "Mon-Fri", "time": "1:00pm"}, {"days": "Sat", "time": "10:30am"}, {"days": "Sun", "time": "Closed"}], "id": "6545700001", "name": "USPS COLLECTION BOX - PO LOBBY", "address": {"city": "DEVILS ELBOW", "state": "MO", "street": "12175 TIMBER RD", "postcode": "65457"}}},
{"geometry": {"type": "Point", "coordinates": [-92.0940304564, 37.991814773]}, "type": "Feature", "properties": {"collection_times": [{"days": "Mon-Fri", "time": "1:15pm"}, {"days": "Sat", "time": "10:45am"}, {"days": "Sun", "time": "Closed"}], "id": "6545900000", "name": "USPS COLLECTION BOX - BLUE BOX", "address": {"city": "DIXON", "state": "MO", "street": "102 W 2ND ST", "postcode": "65459"}}},
{"geometry": {"type": "Point", "coordinates": [-92.0940304564, 37.991814773]}, "type": "Feature", "properties": {"collection_times": [{"days": "Mon-Fri", "time": "1:15pm"}, {"days": "Sat", "time": "10:45am"}, {"days": "Sun", "time": "Closed"}], "id": "6545900001", "name": "USPS COLLECTION BOX - PO LOBBY", "address": {"city": "DIXON", "state": "MO", "street": "102 W 2ND ST", "postcode": "65459"}}},
{"geometry": {"type": "Point", "coordinates": [-92.0940304564, 37.991814773]}, "type": "Feature", "properties": {"collection_times": [{"days": "Mon-Fri", "time": "1:15pm"}, {"days": "Sat", "time": "10:45am"}, {"days": "Sun", "time": "Closed"}], "id": "6545900002", "name": "USPS COLLECTION BOX - PO LOBBY", "address": {"city": "DIXON", "state": "MO", "street": "102 W 2ND ST", "postcode": "65459"}}},
{"geometry": {"type": "Point", "coordinates": [-91.8666259725, 37.7011208584]}, "type": "Feature", "properties": {"collection_times": [{"days": "Mon-Fri", "time": "12:15pm"}, {"days": "Sat", "time": "10:00am"}, {"days": "Sun", "time": "Closed"}], "id": "6546200000", "name": "USPS COLLECTION BOX - BLUE BOX", "address": {"city": "EDGAR SPRINGS", "state": "MO", "street": "579 BROADWAY ST", "postcode": "65462"}}},
{"geometry": {"type": "Point", "coordinates": [-91.8666259725, 37.7011208584]}, "type": "Feature", "properties": {"collection_times": [{"days": "Mon-Fri", "time": "12:15pm"}, {"days": "Sat", "time": "10:00am"}, {"days": "Sun", "time": "Closed"}], "id": "6546200001", "name": "USPS COLLECTION BOX - PO LOBBY", "address": {"city": "EDGAR SPRINGS", "state": "MO", "street": "579 BROADWAY ST", "postcode": "65462"}}},
{"geometry": {"type": "Point", "coordinates": [-92.750984262, 37.8297556474]}, "type": "Feature", "properties": {"collection_times": [{"days": "Mon-Sat", "time": "11:00am"}, {"days": "Sun", "time": "Closed"}], "id": "6546300000", "name": "USPS COLLECTION BOX - BLUE BOX", "address": {"city": "ELDRIDGE", "state": "MO", "street": "15964 HIGHWAY E", "postcode": "65463"}}},
{"geometry": {"type": "Point", "coordinates": [-92.750984262, 37.8297556474]}, "type": "Feature", "properties": {"collection_times": [{"days": "Mon-Sat", "time": "11:00am"}, {"days": "Sun", "time": "Closed"}], "id": "6546300001", "name": "USPS COLLECTION BOX - PO LOBBY", "address": {"city": "ELDRIDGE", "state": "MO", "street": "15964 HIGHWAY E", "postcode": "65463"}}},
{"geometry": {"type": "Point", "coordinates": [-91.9931482074, 37.1876368131]}, "type": "Feature", "properties": {"collection_times": [{"days": "Mon-Sat", "time": "12:30pm"}, {"days": "Sun", "time": "Closed"}], "id": "6546400000", "name": "USPS COLLECTION BOX - BLUE BOX", "address": {"city": "ELK CREEK", "state": "MO", "street": "15668 HIGHWAY H", "postcode": "65464"}}},
{"geometry": {"type": "Point", "coordinates": [-91.9931482074, 37.1876368131]}, "type": "Feature", "properties": {"collection_times": [{"days": "Mon-Sat", "time": "12:30pm"}, {"days": "Sun", "time": "Closed"}], "id": "6546400001", "name": "USPS COLLECTION BOX - PO LOBBY", "address": {"city": "ELK CREEK", "state": "MO", "street": "15668 HIGHWAY H", "postcode": "65464"}}},
{"geometry": {"type": "Point", "coordinates": [-91.358095153, 37.1440244064]}, "type": "Feature", "properties": {"collection_times": [{"days": "Mon-Fri", "time": "12:30pm"}, {"days": "Sat", "time": "9:45am"}, {"days": "Sun", "time": "Closed"}], "id": "6546600000", "name": "USPS COLLECTION BOX - BLUE BOX", "address": {"city": "EMINENCE", "state": "MO", "street": "205 S MAIN ST", "postcode": "65466"}}},
{"geometry": {"type": "Point", "coordinates": [-91.358095153, 37.1440244064]}, "type": "Feature", "properties": {"collection_times": [{"days": "Mon-Fri", "time": "12:30pm"}, {"days": "Sat", "time": "9:45am"}, {"days": "Sun", "time": "Closed"}], "id": "6546600001", "name": "USPS COLLECTION BOX - PO LOBBY", "address": {"city": "EMINENCE", "state": "MO", "street": "205 S MAIN ST", "postcode": "65466"}}},
{"geometry": {"type": "Point", "coordinates": [-92.3953180431, 37.5570501589]}, "type": "Feature", "properties": {"collection_times": [{"days": "Mon-Sat", "time": "1:45pm"}, {"days": "Sun", "time": "Closed"}], "id": "6547000000", "name": "USPS COLLECTION BOX - BLUE BOX", "address": {"city": "FALCON", "state": "MO", "street": "18906 VINTAGE DR", "postcode": "65470"}}},
{"geometry": {"type": "Point", "coordinates": [-92.3953180431, 37.5570501589]}, "type": "Feature", "properties": {"collection_times": [{"days": "Mon-Fri", "time": "11:45am"}, {"days": "Sat", "time": "10:00am"}, {"days": "Sun", "time": "Closed"}], "id": "6547000001", "name": "USPS COLLECTION BOX - PO LOBBY", "address": {"city": "FALCON", "state": "MO", "street": "18906 VINTAGE DR", "postcode": "65470"}}},
{"geometry": {"type": "Point", "coordinates": [-92.1140025702, 37.7619234737]}, "type": "Feature", "properties": {"collection_times": [{"days": "Mon-Sat", "time": "2:00pm"}, {"days": "Sun", "time": "Closed"}], "id": "6547300001", "name": "USPS COLLECTION BOX - BLUE BOX", "address": {"city": "FT LEONARD WD", "state": "MO", "street": "233 ILLINOIS AVE", "postcode": "65473"}}},
{"geometry": {"type": "Point", "coordinates": [-92.1140025702, 37.7619234737]}, "type": "Feature", "properties": {"collection_times": [{"days": "Mon-Sat", "time": "2:00pm"}, {"days": "Sun", "time": "Closed"}], "id": "6547300002", "name": "USPS COLLECTION BOX - PO LOBBY", "address": {"city": "FT LEONARD WD", "state": "MO", "street": "233 ILLINOIS AVE", "postcode": "65473"}}},
{"geometry": {"type": "Point", "coordinates": [-92.1140025702, 37.7619234737]}, "type": "Feature", "properties": {"collection_times": [{"days": "Mon-Sat", "time": "2:00pm"}, {"days": "Sun", "time": "Closed"}], "id": "6547300003", "name": "USPS COLLECTION BOX - PO LOBBY", "address": {"city": "FT LEONARD WD", "state": "MO", "street": "233 ILLINOIS AVE", "postcode": "65473"}}},
{"geometry": {"type": "Point", "coordinates": [-92.119457819, 37.768173196]}, "type": "Feature", "properties": {"collection_times": [{"days": "Mon-Sat", "time": "12:00pm"}, {"days": "Sun", "time": "Closed"}], "id": "6547300005", "name": "USPS COLLECTION BOX - BLUE BOX", "address": {"city": "FT LEONARD WD", "state": "MO", "street": "2100 OKLAHOMA AVE", "postcode": "65473"}}},
{"geometry": {"type": "Point", "coordinates": [-92.119457819, 37.768173196]}, "type": "Feature", "properties": {"collection_times": [{"days": "Mon-Sat", "time": "12:00pm"}, {"days": "Sun", "time": "Closed"}], "id": "6547300007", "name": "USPS COLLECTION BOX - BLUE BOX", "address": {"city": "FT LEONARD WD", "state": "MO", "street": "3200 MSCOE LOOP", "postcode": "65473"}}},
{"geometry": {"type": "Point", "coordinates": [-92.119457819, 37.768173196]}, "type": "Feature", "properties": {"collection_times": [{"days": "Mon-Sat", "time": "11:00am"}, {"days": "Sun", "time": "Closed"}], "id": "6547300008", "name": "USPS COLLECTION BOX - BLUE BOX", "address": {"city": "FT LEONARD WD", "state": "MO", "street": "4110 PINEY HILLS DR", "postcode": "65473"}}},
{"geometry": {"type": "Point", "coordinates": [-92.4777439191, 38.3679846143]}, "type": "Feature", "properties": {"collection_times": [{"days": "Mon-Sat", "time": "11:00am"}, {"days": "Sun", "time": "Closed"}], "id": "6547300010", "name": "USPS COLLECTION BOX - BLUE BOX", "address": {"city": "FT LEONARD WD", "state": "MO", "street": "12994 12TH ST", "postcode": "65473"}}},
{"geometry": {"type": "Point", "coordinates": [-92.116698808, 37.7697131098]}, "type": "Feature", "properties": {"collection_times": [{"days": "Mon-Sat", "time": "12:00pm"}, {"days": "Sun", "time": "Closed"}], "id": "6547300011", "name": "USPS COLLECTION BOX - BLUE BOX", "address": {"city": "FT LEONARD WD", "state": "MO", "street": "5107 NEBRASKA AVE", "postcode": "65473"}}},
{"geometry": {"type": "Point", "coordinates": [-91.6543422097, 37.2688827835]}, "type": "Feature", "properties": {"collection_times": [{"days": "Mon-Fri", "time": "9:15am"}, {"days": "Sat", "time": "10:15am"}, {"days": "Sun", "time": "Closed"}], "id": "6547900000", "name": "USPS COLLECTION BOX - BLUE BOX", "address": {"city": "HARTSHORN", "state": "MO", "street": "6041 HIGHWAY K", "postcode": "65479"}}},
{"geometry": {"type": "Point", "coordinates": [-91.6543422097, 37.2688827835]}, "type": "Feature", "properties": {"collection_times": [{"days": "Mon-Fri", "time": "9:15am"}, {"days": "Sat", "time": "10:15am"}, {"days": "Sun", "time": "Closed"}], "id": "6547900001", "name": "USPS COLLECTION BOX - PO LOBBY", "address": {"city": "HARTSHORN", "state": "MO", "street": "6041 HIGHWAY K", "postcode": "65479"}}},
{"geometry": {"type": "Point", "coordinates": [-91.9571895367, 37.3271980292]}, "type": "Feature", "properties": {"collection_times": [{"days": "Mon-Sat", "time": "1:30pm"}, {"days": "Sun", "time": "Closed"}], "id": "6548300002", "name": "USPS COLLECTION BOX - BLUE BOX", "address": {"city": "HOUSTON", "state": "MO", "street": "203 N 1ST ST", "postcode": "65483"}}},
{"geometry": {"type": "Point", "coordinates": [-91.9571895367, 37.3271980292]}, "type": "Feature", "properties": {"collection_times": [{"days": "Mon-Sat", "time": "1:30pm"}, {"days": "Sun", "time": "Closed"}], "id": "6548300003", "name": "USPS COLLECTION BOX - BLUE BOX", "address": {"city": "HOUSTON", "state": "MO", "street": "203 N 1ST ST", "postcode": "65483"}}},
{"geometry": {"type": "Point", "coordinates": [-91.9571895367, 37.3271980292]}, "type": "Feature", "properties": {"collection_times": [{"days": "Mon-Fri", "time": "1:30pm"}, {"days": "Sat", "time": "11:30am"}, {"days": "Sun", "time": "Closed"}], "id": "6548300004", "name": "USPS COLLECTION BOX - PO LOBBY", "address": {"city": "HOUSTON", "state": "MO", "street": "203 N 1ST ST", "postcode": "65483"}}},
{"geometry": {"type": "Point", "coordinates": [-91.9571895367, 37.3271980292]}, "type": "Feature", "properties": {"collection_times": [{"days": "Mon-Fri", "time": "1:30pm"}, {"days": "Sat", "time": "11:30am"}, {"days": "Sun", "time": "Closed"}], "id": "6548300005", "name": "USPS COLLECTION BOX - PO LOBBY", "address": {"city": "HOUSTON", "state": "MO", "street": "203 N 1ST ST", "postcode": "65483"}}},
{"geometry": {"type": "Point", "coordinates": [-91.9603052913, 37.3125796249]}, "type": "Feature", "properties": {"collection_times": [{"days": "Mon-Sat", "time": "9:30am"}, {"days": "Sun", "time": "Closed"}], "id": "6548300006", "name": "USPS COLLECTION BOX - BLUE BOX", "address": {"city": "HOUSTON", "state": "MO", "street": "1433 S SAM HOUSTON BLVD", "postcode": "65483"}}},
{"geometry": {"type": "Point", "coordinates": [-92.1979064707, 37.3114273134]}, "type": "Feature", "properties": {"collection_times": [{"days": "Mon-Sat", "time": "11:45am"}, {"days": "Sun", "time": "Closed"}], "id": "6548400000", "name": "USPS COLLECTION BOX - PO LOBBY", "address": {"city": "HUGGINS", "state": "MO", "street": "7394 HIGHWAY M", "postcode": "65484"}}},
{"geometry": {"type": "Point", "coordinates": [-92.1979064707, 37.3114273134]}, "type": "Feature", "properties": {"collection_times": [{"days": "Mon-Sat", "time": "11:45am"}, {"days": "Sun", "time": "Closed"}], "id": "6548400001", "name": "USPS COLLECTION BOX - BLUE BOX", "address": {"city": "HUGGINS", "state": "MO", "street": "7394 HIGHWAY M", "postcode": "65484"}}},
{"geometry": {"type": "Point", "coordinates": [-92.2970930372, 38.0892026961]}, "type": "Feature", "properties": {"collection_times": [{"days": "Mon-Fri", "time": "1:30pm"}, {"days": "Sat", "time": "10:00am"}, {"days": "Sun", "time": "Closed"}], "id": "6548600000", "name": "USPS COLLECTION BOX - BLUE BOX", "address": {"city": "IBERIA", "state": "MO", "street": "836 HIGHWAY 42", "postcode": "65486"}}},
{"geometry": {"type": "Point", "coordinates": [-92.2970930372, 38.0892026961]}, "type": "Feature", "properties": {"collection_times": [{"days": "Mon-Fri", "time": "1:30pm"}, {"days": "Sat", "time": "10:00am"}, {"days": "Sun", "time": "Closed"}], "id": "6548600001", "name": "USPS COLLECTION BOX - PO LOBBY", "address": {"city": "IBERIA", "state": "MO", "street": "836 HIGHWAY 42", "postcode": "65486"}}}
]}
