{"type": "FeatureCollection", "features": [
{"geometry": {"type": "Point", "coordinates": [-91.5092795687, 37.4637287373]}, "type": "Feature", "properties": {"collection_times": [{"days": "Mon-Sat", "time": "12:00pm"}, {"days": "Sun", "time": "Closed"}], "id": "6550100000", "name": "USPS COLLECTION BOX - BLUE BOX", "address": {"city": "JADWIN", "state": "MO", "street": "9326 HIGHWAY K", "postcode": "65501"}}},
{"geometry": {"type": "Point", "coordinates": [-91.5092795687, 37.4637287373]}, "type": "Feature", "properties": {"collection_times": [{"days": "Mon-Sat", "time": "12:00pm"}, {"days": "Sun", "time": "Closed"}], "id": "6550100001", "name": "USPS COLLECTION BOX - PO LOBBY", "address": {"city": "JADWIN", "state": "MO", "street": "9326 HIGHWAY K", "postcode": "65501"}}},
{"geometry": {"type": "Point", "coordinates": [-91.679552128, 37.7881110047]}, "type": "Feature", "properties": {"collection_times": [{"days": "Mon-Sat", "time": "11:45am"}, {"days": "Sun", "time": "Closed"}], "id": "6553200000", "name": "USPS COLLECTION BOX - BLUE BOX", "address": {"city": "LAKE SPRING", "state": "MO", "street": "100 STATE ROUTE 72", "postcode": "65532"}}},
{"geometry": {"type": "Point", "coordinates": [-91.679552128, 37.7881110047]}, "type": "Feature", "properties": {"collection_times": [{"days": "Mon-Sat", "time": "10:00am"}, {"days": "Sun", "time": "Closed"}], "id": "6553200001", "name": "USPS COLLECTION BOX - PO LOBBY", "address": {"city": "LAKE SPRING", "state": "MO", "street": "100 STATE ROUTE 72", "postcode": "65532"}}},
{"geometry": {"type": "Point", "coordinates": [-91.679552128, 37.7881110047]}, "type": "Feature", "properties": {"collection_times": [{"days": "Mon-Sat", "time": "10:00am"}, {"days": "Sun", "time": "Closed"}], "id": "6553200002", "name": "USPS COLLECTION BOX - PO LOBBY", "address": {"city": "LAKE SPRING", "state": "MO", "street": "100 STATE ROUTE 72", "postcode": "65532"}}},
{"geometry": {"type": "Point", "coordinates": [-92.3127838195, 37.7522806219]}, "type": "Feature", "properties": {"collection_times": [{"days": "Mon-Sat", "time": "12:30pm"}, {"days": "Sun", "time": "Closed"}], "id": "6553400000", "name": "USPS COLLECTION BOX - BLUE BOX", "address": {"city": "LAQUEY", "state": "MO", "street": "28125 HIGHWAY AA", "postcode": "65534"}}},
{"geometry": {"type": "Point", "coordinates": [-92.3127838195, 37.7522806219]}, "type": "Feature", "properties": {"collection_times": [{"days": "Mon-Fri", "time": "12:30pm"}, {"days": "Sat", "time": "11:30am"}, {"days": "Sun", "time": "Closed"}], "id": "6553400001", "name": "USPS COLLECTION BOX - PO LOBBY", "address": {"city": "LAQUEY", "state": "MO", "street": "28125 HIGHWAY AA", "postcode": "65534"}}},
{"geometry": {"type": "Point", "coordinates": [-91.2982438101, 38.0929496033]}, "type": "Feature", "properties": {"collection_times": [{"days": "Mon-Fri", "time": "1:00pm"}, {"days": "Sat", "time": "9:45am"}, {"days": "Sun", "time": "Closed"}], "id": "6553500000", "name": "USPS COLLECTION BOX - BLUE BOX", "address": {"city": "LEASBURG", "state": "MO", "street": "2302 HIGHWAY H", "postcode": "65535"}}},
{"geometry": {"type": "Point", "coordinates": [-91.2982438101, 38.0929496033]}, "type": "Feature", "properties": {"collection_times": [{"days": "Mon-Fri", "time": "1:00pm"}, {"days": "Sat", "time": "9:45am"}, {"days": "Sun", "time": "Closed"}], "id": "6553500001", "name": "USPS COLLECTION BOX - PO LOBBY", "address": {"city": "LEASBURG", "state": "MO", "street": "2302 HIGHWAY H", "postcode": "65535"}}},
{"geometry": {"type": "Point", "coordinates": [-92.663625166, 37.6807688175]}, "type": "Feature", "properties": {"collection_times": [{"days": "Mon-Fri", "time": "2:30pm"}, {"days": "Sat", "time": "1:00pm"}, {"days": "Sun", "time": "Closed"}], "id": "6553600000", "name": "USPS COLLECTION BOX - PO LOBBY", "address": {"city": "LEBANON", "state": "MO", "street": "121 E COMMERCIAL ST", "postcode": "65536"}}},
{"geometry": {"type": "Point", "coordinates": [-92.663625166, 37.6807688175]}, "type": "Feature", "properties": {"collection_times": [{"days": "Mon-Fri", "time": "2:30pm"}, {"days": "Sat", "time": "1:00pm"}, {"days": "Sun", "time": "Closed"}], "id": "6553600001", "name": "USPS COLLECTION BOX - PO LOBBY", "address": {"city": "LEBANON", "state": "MO", "street": "121 E COMMERCIAL ST", "postcode": "65536"}}},
{"geometry": {"type": "Point", "coordinates": [-92.663625166, 37.6807688175]}, "type": "Feature", "properties": {"collection_times": [{"days": "Mon-Fri", "time": "2:30pm"}, {"days": "Sat", "time": "1:00pm"}, {"days": "Sun", "time": "Closed"}], "id": "6553600002", "name": "USPS COLLECTION BOX - BLUE BOX", "address": {"city": "LEBANON", "state": "MO", "street": "121 E COMMERCIAL ST", "postcode": "65536"}}},
{"geometry": {"type": "Point", "coordinates": [-92.6583879791, 37.6590941724]}, "type": "Feature", "properties": {"collection_times": [{"days": "Mon-Sat", "time": "1:30pm"}, {"days": "Sun", "time": "Closed"}], "id": "6553600004", "name": "USPS COLLECTION BOX - BLUE BOX", "address": {"city": "LEBANON", "state": "MO", "street": "2020 INDUSTRIAL DR", "postcode": "65536"}}},
{"geometry": {"type": "Point", "coordinates": [-92.6686574408, 37.649604548]}, "type": "Feature", "properties": {"collection_times": [{"days": "Mon-Sat", "time": "1:30pm"}, {"days": "Sun", "time": "Closed"}], "id": "6553600010", "name": "USPS COLLECTION BOX - BLUE BOX", "address": {"city": "LEBANON", "state": "MO", "street": "2031 W ELM ST", "postcode": "65536"}}},
{"geometry": {"type": "Point", "coordinates": [-92.6650186444, 37.6794616262]}, "type": "Feature", "properties": {"collection_times": [{"days": "Mon-Sat", "time": "9:30am"}, {"days": "Sun", "time": "Closed"}], "id": "6553600011", "name": "USPS COLLECTION BOX - BLUE BOX", "address": {"city": "LEBANON", "state": "MO", "street": "224 W COMMERCIAL ST", "postcode": "65536"}}},
{"geometry": {"type": "Point", "coordinates": [-92.6493917697, 37.6633818263]}, "type": "Feature", "properties": {"collection_times": [{"days": "Mon-Sat", "time": "1:30pm"}, {"days": "Sun", "time": "Closed"}], "id": "6553600020", "name": "USPS COLLECTION BOX - BLUE BOX", "address": {"city": "LEBANON", "state": "MO", "street": "1800 S JEFFERSON AVE", "postcode": "65536"}}},
{"geometry": {"type": "Point", "coordinates": [-92.6358167221, 37.6813260892]}, "type": "Feature", "properties": {"collection_times": [{"days": "Mon-Sat", "time": "2:00pm"}, {"days": "Sun", "time": "Closed"}], "id": "6553600023", "name": "USPS COLLECTION BOX - BLUE BOX", "address": {"city": "LEBANON", "state": "MO", "street": "100 HOSPITAL DR", "postcode": "65536"}}},
{"geometry": {"type": "Point", "coordinates": [-92.6678058007, 37.6990308101]}, "type": "Feature", "properties": {"collection_times": [{"days": "Mon-Sat", "time": "2:00pm"}, {"days": "Sun", "time": "Closed"}], "id": "6553600024", "name": "USPS COLLECTION BOX - BLUE BOX", "address": {"city": "LEBANON", "state": "MO", "street": "1130 LYNN ST", "postcode": "65536"}}},
{"geometry": {"type": "Point", "coordinates": [-92.6354662299, 37.6866371184]}, "type": "Feature", "properties": {"collection_times": [{"days": "Mon-Sat", "time": "2:30pm"}, {"days": "Sun", "time": "Closed"}], "id": "6553600025", "name": "USPS COLLECTION BOX - BLUE BOX", "address": {"city": "LEBANON", "state": "MO", "street": "701 E COPELAND ST", "postcode": "65536"}}},
{"geometry": {"type": "Point", "coordinates": [-91.8568602985, 37.4989353795]}, "type": "Feature", "properties": {"collection_times": [{"days": "Mon-Sat", "time": "1:00pm"}, {"days": "Sun", "time": "Closed"}], "id": "6554200000", "name": "USPS COLLECTION BOX - BLUE BOX", "address": {"city": "LICKING", "state": "MO", "street": "133 S MAIN ST", "postcode": "65542"}}},
{"geometry": {"type": "Point", "coordinates": [-91.8568602985, 37.4989353795]}, "type": "Feature", "properties": {"collection_times": [{"days": "Mon-Fri", "time": "1:00pm"}, {"days": "Sat", "time": "11:00am"}, {"days": "Sun", "time": "Closed"}], "id": "6554200001", "name": "USPS COLLECTION BOX - PO LOBBY", "address": {"city": "LICKING", "state": "MO", "street": "133 S MAIN ST", "postcode": "65542"}}},
{"geometry": {"type": "Point", "coordinates": [-91.8568602985, 37.4989353795]}, "type": "Feature", "properties": {"collection_times": [{"days": "Mon-Sat", "time": "1:00pm"}, {"days": "Sun", "time": "Closed"}], "id": "6554200002", "name": "USPS COLLECTION BOX - BLUE BOX", "address": {"city": "LICKING", "state": "MO", "street": "133 S MAIN ST", "postcode": "65542"}}},
{"geometry": {"type": "Point", "coordinates": [-91.7039211923, 36.9956908708]}, "type": "Feature", "properties": {"collection_times": [{"days": "Mon-Fri", "time": "12:00pm"}, {"days": "Sat", "time": "11:00am"}, {"days": "Sun", "time": "Closed"}], "id": "6554800000", "name": "USPS COLLECTION BOX - BLUE BOX", "address": {"city": "MOUNTAIN VIEW", "state": "MO", "street": "110 W 2ND ST", "postcode": "65548"}}},
{"geometry": {"type": "Point", "coordinates": [-91.7023057836, 37.0006206835]}, "type": "Feature", "properties": {"collection_times": [{"days": "Mon-Sat", "time": "12:00pm"}, {"days": "Sun", "time": "Closed"}], "id": "6554800001", "name": "USPS COLLECTION BOX - BLUE BOX", "address": {"city": "MOUNTAIN VIEW", "state": "MO", "street": "105 W 6TH ST", "postcode": "65548"}}},
{"geometry": {"type": "Point", "coordinates": [-91.7039211923, 36.9956908708]}, "type": "Feature", "properties": {"collection_times": [{"days": "Mon-Fri", "time": "12:00pm"}, {"days": "Sat", "time": "11:00am"}, {"days": "Sun", "time": "Closed"}], "id": "6554800002", "name": "USPS COLLECTION BOX - PO LOBBY", "address": {"city": "MOUNTAIN VIEW", "state": "MO", "street": "110 W 2ND ST", "postcode": "65548"}}},
{"geometry": {"type": "Point", "coordinates": [-91.7039211923, 36.9956908708]}, "type": "Feature", "properties": {"collection_times": [{"days": "Mon-Fri", "time": "12:00pm"}, {"days": "Sat", "time": "11:00am"}, {"days": "Sun", "time": "Closed"}], "id": "6554800003", "name": "USPS COLLECTION BOX - PO LOBBY", "address": {"city": "MOUNTAIN VIEW", "state": "MO", "street": "110 W 2ND ST", "postcode": "65548"}}},
{"geometry": {"type": "Point", "coordinates": [-91.7039211923, 36.9956908708]}, "type": "Feature", "properties": {"collection_times": [{"days": "Mon-Fri", "time": "12:00pm"}, {"days": "Sat", "time": "11:00am"}, {"days": "Sun", "time": "Closed"}], "id": "6554800004", "name": "USPS COLLECTION BOX - BLUE BOX", "address": {"city": "MOUNTAIN VIEW", "state": "MO", "street": "110 W 2ND ST", "postcode": "65548"}}},
{"geometry": {"type": "Point", "coordinates": [-91.9049735465, 37.9143958765]}, "type": "Feature", "properties": {"collection_times": [{"days": "Mon-Sat", "time": "1:30pm"}, {"days": "Sun", "time": "Closed"}], "id": "6555000000", "name": "USPS COLLECTION BOX - BLUE BOX", "address": {"city": "NEWBURG", "state": "MO", "street": "71 E 1ST ST", "postcode": "65550"}}},
{"geometry": {"type": "Point", "coordinates": [-91.8826959176, 37.9429614585]}, "type": "Feature", "properties": {"collection_times": [{"days": "Mon-Sat", "time": "1:30pm"}, {"days": "Sun", "time": "Closed"}], "id": "6555000001", "name": "USPS COLLECTION BOX - BLUE BOX", "address": {"city": "NEWBURG", "state": "MO", "street": "91 TRUMAN ST", "postcode": "65550"}}},
{"geometry": {"type": "Point", "coordinates": [-91.9049735465, 37.9143958765]}, "type": "Feature", "properties": {"collection_times": [{"days": "Mon-Fri", "time": "1:30pm"}, {"days": "Sat", "time": "9:30am"}, {"days": "Sun", "time": "Closed"}], "id": "6555000002", "name": "USPS COLLECTION BOX - PO LOBBY", "address": {"city": "NEWBURG", "state": "MO", "street": "71 E 1ST ST", "postcode": "65550"}}},
{"geometry": {"type": "Point", "coordinates": [-92.1583195301, 37.5124484565]}, "type": "Feature", "properties": {"collection_times": [{"days": "Mon-Sat", "time": "1:00pm"}, {"days": "Sun", "time": "Closed"}], "id": "6555200000", "name": "USPS COLLECTION BOX - BLUE BOX", "address": {"city": "PLATO", "state": "MO", "street": "10594 HIGHWAY 32", "postcode": "65552"}}},
{"geometry": {"type": "Point", "coordinates": [-92.1583195301, 37.5124484565]}, "type": "Feature", "properties": {"collection_times": [{"days": "Mon-Fri", "time": "1:00pm"}, {"days": "Sat", "time": "9:30am"}, {"days": "Sun", "time": "Closed"}], "id": "6555200001", "name": "USPS COLLECTION BOX - PO LOBBY", "address": {"city": "PLATO", "state": "MO", "street": "10594 HIGHWAY 32", "postcode": "65552"}}},
{"geometry": {"type": "Point", "coordinates": [-91.833602495, 37.3409806748]}, "type": "Feature", "properties": {"collection_times": [{"days": "Mon-Fri", "time": "1:30pm"}, {"days": "Sat", "time": "9:45am"}, {"days": "Sun", "time": "Closed"}], "id": "6555500000", "name": "USPS COLLECTION BOX - BLUE BOX", "address": {"city": "RAYMONDVILLE", "state": "MO", "street": "174 N HIGHWAY 137", "postcode": "65555"}}},
{"geometry": {"type": "Point", "coordinates": [-91.833602495, 37.3409806748]}, "type": "Feature", "properties": {"collection_times": [{"days": "Mon-Fri", "time": "11:45am"}, {"days": "Sat", "time": "9:45am"}, {"days": "Sun", "time": "Closed"}], "id": "6555500001", "name": "USPS COLLECTION BOX - PO LOBBY", "address": {"city": "RAYMONDVILLE", "state": "MO", "street": "174 N HIGHWAY 137", "postcode": "65555"}}},
{"geometry": {"type": "Point", "coordinates": [-91.833602495, 37.3409806748]}, "type": "Feature", "properties": {"collection_times": [{"days": "Mon-Fri", "time": "11:45am"}, {"days": "Sat", "time": "9:45am"}, {"days": "Sun", "time": "Closed"}], "id": "6555500002", "name": "USPS COLLECTION BOX - PO LOBBY", "address": {"city": "RAYMONDVILLE", "state": "MO", "street": "174 N HIGHWAY 137", "postcode": "65555"}}},
{"geometry": {"type": "Point", "coordinates": [-92.404290655, 37.8565434254]}, "type": "Feature", "properties": {"collection_times": [{"days": "Mon-Fri", "time": "2:15pm"}, {"days": "Sat", "time": "10:45am"}, {"days": "Sun", "time": "Closed"}], "id": "6555600000", "name": "USPS COLLECTION BOX - BLUE BOX", "address": {"city": "RICHLAND", "state": "MO", "street": "114 W MCCLURG AVE", "postcode": "65556"}}},
{"geometry": {"type": "Point", "coordinates": [-92.404290655, 37.8565434254]}, "type": "Feature", "properties": {"collection_times": [{"days": "Mon-Fri", "time": "2:15pm"}, {"days": "Sat", "time": "10:45am"}, {"days": "Sun", "time": "Closed"}], "id": "6555600001", "name": "USPS COLLECTION BOX - PO LOBBY", "address": {"city": "RICHLAND", "state": "MO", "street": "114 W MCCLURG AVE", "postcode": "65556"}}},
{"geometry": {"type": "Point", "coordinates": [-92.1013007926, 37.496527559]}, "type": "Feature", "properties": {"collection_times": [{"days": "Mon-Fri", "time": "1:00pm"}, {"days": "Sat", "time": "11:45am"}, {"days": "Sun", "time": "Closed"}], "id": "6555700000", "name": "USPS COLLECTION BOX - BLUE BOX", "address": {"city": "ROBY", "state": "MO", "street": "12445 CASS LN", "postcode": "65557"}}},
{"geometry": {"type": "Point", "coordinates": [-92.1013007926, 37.496527559]}, "type": "Feature", "properties": {"collection_times": [{"days": "Mon-Fri", "time": "1:00pm"}, {"days": "Sat", "time": "11:45am"}, {"days": "Sun", "time": "Closed"}], "id": "6555700001", "name": "USPS COLLECTION BOX - PO LOBBY", "address": {"city": "ROBY", "state": "MO", "street": "12445 CASS LN", "postcode": "65557"}}},
{"geometry": {"type": "Point", "coordinates": [-91.618190034, 37.9970704717]}, "type": "Feature", "properties": {"collection_times": [{"days": "Mon-Sat", "time": "1:30pm"}, {"days": "Sun", "time": "Closed"}], "id": "6555900000", "name": "USPS COLLECTION BOX - BLUE BOX", "address": {"city": "SAINT JAMES", "state": "MO", "street": "201 N BOURBEUSE ST", "postcode": "65559"}}},
{"geometry": {"type": "Point", "coordinates": [-91.6163581142, 38.0001720032]}, "type": "Feature", "properties": {"collection_times": [{"days": "Mon-Sat", "time": "12:00pm"}, {"days": "Sun", "time": "Closed"}], "id": "6555900003", "name": "USPS COLLECTION BOX - BLUE BOX", "address": {"city": "SAINT JAMES", "state": "MO", "street": "319 N JEFFERSON ST", "postcode": "65559"}}},
{"geometry": {"type": "Point", "coordinates": [-91.618190034, 37.9970704717]}, "type": "Feature", "properties": {"collection_times": [{"days": "Mon-Fri", "time": "1:30pm"}, {"days": "Sat", "time": "12:00pm"}, {"days": "Sun", "time": "Closed"}], "id": "6555900007", "name": "USPS COLLECTION BOX - PO LOBBY", "address": {"city": "SAINT JAMES", "state": "MO", "street": "201 N BOURBEUSE ST", "postcode": "65559"}}},
{"geometry": {"type": "Point", "coordinates": [-91.5384682632, 37.6448551246]}, "type": "Feature", "properties": {"collection_times": [{"days": "Mon-Sat", "time": "1:00pm"}, {"days": "Sun", "time": "Closed"}], "id": "6556000000", "name": "USPS COLLECTION BOX - BLUE BOX", "address": {"city": "SALEM", "state": "MO", "street": "303 N JACKSON ST", "postcode": "65560"}}},
{"geometry": {"type": "Point", "coordinates": [-91.5384682632, 37.6448551246]}, "type": "Feature", "properties": {"collection_times": [{"days": "Mon-Sat", "time": "1:00pm"}, {"days": "Sun", "time": "Closed"}], "id": "6556000001", "name": "USPS COLLECTION BOX - BLUE BOX", "address": {"city": "SALEM", "state": "MO", "street": "303 N JACKSON ST", "postcode": "65560"}}},
{"geometry": {"type": "Point", "coordinates": [-91.5429277292, 37.6330217999]}, "type": "Feature", "properties": {"collection_times": [{"days": "Mon-Sat", "time": "1:00pm"}, {"days": "Sun", "time": "Closed"}], "id": "6556000002", "name": "USPS COLLECTION BOX - BLUE BOX", "address": {"city": "SALEM", "state": "MO", "street": "1101 W SCENIC RIVERS BLVD", "postcode": "65560"}}},
{"geometry": {"type": "Point", "coordinates": [-91.5429277292, 37.6330217999]}, "type": "Feature", "properties": {"collection_times": [{"days": "Mon-Fri", "time": "12:30pm"}, {"days": "Sat", "time": "12:15pm"}, {"days": "Sun", "time": "Closed"}], "id": "6556000003", "name": "USPS COLLECTION BOX - BLUE BOX", "address": {"city": "SALEM", "state": "MO", "street": "1204 E SCENIC RIVERS BLVD", "postcode": "65560"}}},
{"geometry": {"type": "Point", "coordinates": [-91.5384682632, 37.6448551246]}, "type": "Feature", "properties": {"collection_times": [{"days": "Mon-Sat", "time": "1:00pm"}, {"days": "Sun", "time": "Closed"}], "id": "6556000009", "name": "USPS COLLECTION BOX - BLUE BOX", "address": {"city": "SALEM", "state": "MO", "street": "303 N JACKSON ST", "postcode": "65560"}}},
{"geometry": {"type": "Point", "coordinates": [-91.5384682632, 37.6448551246]}, "type": "Feature", "properties": {"collection_times": [{"days": "Mon-Sat", "time": "1:00pm"}, {"days": "Sun", "time": "Closed"}], "id": "6556000011", "name": "USPS COLLECTION BOX - PO LOBBY", "address": {"city": "SALEM", "state": "MO", "street": "303 N JACKSON ST", "postcode": "65560"}}},
{"geometry": {"type": "Point", "coordinates": [-91.3545670731, 37.9673916049]}, "type": "Feature", "properties": {"collection_times": [{"days": "Mon-Fri", "time": "1:00pm"}, {"days": "Sat", "time": "12:00pm"}, {"days": "Sun", "time": "Closed"}], "id": "6556500000", "name": "USPS COLLECTION BOX - BLUE BOX", "address": {"city": "STEELVILLE", "state": "MO", "street": "204 S 1ST ST", "postcode": "65565"}}},
{"geometry": {"type": "Point", "coordinates": [-91.3545670731, 37.9673916049]}, "type": "Feature", "properties": {"collection_times": [{"days": "Mon-Fri", "time": "1:00pm"}, {"days": "Sat", "time": "12:00pm"}, {"days": "Sun", "time": "Closed"}], "id": "6556500002", "name": "USPS COLLECTION BOX - BLUE BOX", "address": {"city": "STEELVILLE", "state": "MO", "street": "204 S 1ST ST", "postcode": "65565"}}},
{"geometry": {"type": "Point", "coordinates": [-91.3545670731, 37.9673916049]}, "type": "Feature", "properties": {"collection_times": [{"days": "Mon-Fri", "time": "1:00pm"}, {"days": "Sat", "time": "12:00pm"}, {"days": "Sun", "time": "Closed"}], "id": "6556500004", "name": "USPS COLLECTION BOX - PO LOBBY", "address": {"city": "STEELVILLE", "state": "MO", "street": "204 S 1ST ST", "postcode": "65565"}}},
{"geometry": {"type": "Point", "coordinates": [-92.5111333334, 37.8863085609]}, "type": "Feature", "properties": {"collection_times": [{"days": "Mon-Fri", "time": "1:30pm"}, {"days": "Sat", "time": "10:00am"}, {"days": "Sun", "time": "Closed"}], "id": "6556700000", "name": "USPS COLLECTION BOX - BLUE BOX", "address": {"city": "STOUTLAND", "state": "MO", "street": "40 E STATE ROAD H", "postcode": "65567"}}},
{"geometry": {"type": "Point", "coordinates": [-92.5111333334, 37.8863085609]}, "type": "Feature", "properties": {"collection_times": [{"days": "Mon-Fri", "time": "1:30pm"}, {"days": "Sat", "time": "10:00am"}, {"days": "Sun", "time": "Closed"}], "id": "6556700001", "name": "USPS COLLECTION BOX - PO LOBBY", "address": {"city": "STOUTLAND", "state": "MO", "street": "40 E STATE ROAD H", "postcode": "65567"}}},
{"geometry": {"type": "Point", "coordinates": [-92.0732946124, 37.4100496305]}, "type": "Feature", "properties": {"collection_times": [{"days": "Mon-Sat", "time": "12:00pm"}, {"days": "Sun", "time": "Closed"}], "id": "6557000001", "name": "USPS COLLECTION BOX - PO LOBBY", "address": {"city": "SUCCESS", "state": "MO", "street": "10798 HIGHWAY 17", "postcode": "65570"}}},
{"geometry": {"type": "Point", "coordinates": [-92.0732946124, 37.4100496305]}, "type": "Feature", "properties": {"collection_times": [{"days": "Mon-Sat", "time": "12:00pm"}, {"days": "Sun", "time": "Closed"}], "id": "6557000002", "name": "USPS COLLECTION BOX - BLUE BOX", "address": {"city": "SUCCESS", "state": "MO", "street": "10798 HIGHWAY 17", "postcode": "65570"}}},
{"geometry": {"type": "Point", "coordinates": [-91.6592319631, 37.179562342]}, "type": "Feature", "properties": {"collection_times": [{"days": "Mon-Fri", "time": "1:15pm"}, {"days": "Sat", "time": "10:00am"}, {"days": "Sun", "time": "Closed"}], "id": "6557100000", "name": "USPS COLLECTION BOX - BLUE BOX", "address": {"city": "SUMMERSVILLE", "state": "MO", "street": "485 2ND ST", "postcode": "65571"}}},
{"geometry": {"type": "Point", "coordinates": [-91.6592319631, 37.179562342]}, "type": "Feature", "properties": {"collection_times": [{"days": "Mon-Fri", "time": "1:15pm"}, {"days": "Sat", "time": "10:00am"}, {"days": "Sun", "time": "Closed"}], "id": "6557100001", "name": "USPS COLLECTION BOX - PO LOBBY", "address": {"city": "SUMMERSVILLE", "state": "MO", "street": "485 2ND ST", "postcode": "65571"}}},
{"geometry": {"type": "Point", "coordinates": [-91.8400487462, 38.1291976915]}, "type": "Feature", "properties": {"collection_times": [{"days": "Mon-Sat", "time": "1:30pm"}, {"days": "Sun", "time": "Closed"}], "id": "6558000000", "name": "USPS COLLECTION BOX - BLUE BOX", "address": {"city": "VICHY", "state": "MO", "street": "14788 HIGHWAY 63 S", "postcode": "65580"}}},
{"geometry": {"type": "Point", "coordinates": [-91.8400487462, 38.1291976915]}, "type": "Feature", "properties": {"collection_times": [{"days": "Mon-Fri", "time": "1:30pm"}, {"days": "Sat", "time": "10:15am"}, {"days": "Sun", "time": "Closed"}], "id": "6558000001", "name": "USPS COLLECTION BOX - PO LOBBY", "address": {"city": "VICHY", "state": "MO", "street": "14788 HIGHWAY 63 S", "postcode": "65580"}}},
{"geometry": {"type": "Point", "coordinates": [-91.9468665143, 38.1855832725]}, "type": "Feature", "properties": {"collection_times": [{"days": "Mon-Sat", "time": "1:00pm"}, {"days": "Sun", "time": "Closed"}], "id": "6558200000", "name": "USPS COLLECTION BOX - BLUE BOX", "address": {"city": "VIENNA", "state": "MO", "street": "202 S MAIN ST", "postcode": "65582"}}},
{"geometry": {"type": "Point", "coordinates": [-91.9468665143, 38.1855832725]}, "type": "Feature", "properties": {"collection_times": [{"days": "Mon-Fri", "time": "1:00pm"}, {"days": "Sat", "time": "10:30am"}, {"days": "Sun", "time": "Closed"}], "id": "6558200001", "name": "USPS COLLECTION BOX - PO LOBBY", "address": {"city": "VIENNA", "state": "MO", "street": "202 S MAIN ST", "postcode": "65582"}}},
{"geometry": {"type": "Point", "coordinates": [-91.9468665143, 38.1855832725]}, "type": "Feature", "properties": {"collection_times": [{"days": "Mon-Fri", "time": "1:00pm"}, {"days": "Sat", "time": "10:30am"}, {"days": "Sun", "time": "Closed"}], "id": "6558200002", "name": "USPS COLLECTION BOX - PO LOBBY", "address": {"city": "VIENNA", "state": "MO", "street": "202 S MAIN ST", "postcode": "65582"}}},
{"geometry": {"type": "Point", "coordinates": [-92.223412713, 37.8118411865]}, "type": "Feature", "properties": {"collection_times": [{"days": "Mon-Sat", "time": "11:30am"}, {"days": "Sun", "time": "Closed"}], "id": "6558300004", "name": "USPS COLLECTION BOX - BLUE BOX", "address": {"city": "WAYNESVILLE", "state": "MO", "street": "200 ICHORD AVE", "postcode": "65583"}}},
{"geometry": {"type": "Point", "coordinates": [-92.2002300914, 37.8295330208]}, "type": "Feature", "properties": {"collection_times": [{"days": "Mon-Sat", "time": "2:30pm"}, {"days": "Sun", "time": "Closed"}], "id": "6558300010", "name": "USPS COLLECTION BOX - PO LOBBY", "address": {"city": "WAYNESVILLE", "state": "MO", "street": "301 NORTH ST", "postcode": "65583"}}},
{"geometry": {"type": "Point", "coordinates": [-92.2002300914, 37.8295330208]}, "type": "Feature", "properties": {"collection_times": [{"days": "Mon-Sat", "time": "2:30pm"}, {"days": "Sun", "time": "Closed"}], "id": "6558300011", "name": "USPS COLLECTION BOX - PO LOBBY", "address": {"city": "WAYNESVILLE", "state": "MO", "street": "301 NORTH ST", "postcode": "65583"}}},
{"geometry": {"type": "Point", "coordinates": [-92.1346957533, 37.8261529494]}, "type": "Feature", "properties": {"collection_times": [{"days": "Mon-Sat", "time": "9:00am"}, {"days": "Sun", "time": "Closed"}], "id": "6558400000", "name": "USPS COLLECTION BOX - BLUE BOX", "address": {"city": "FT LEONARD WD", "state": "MO", "street": "601 FINCHER WAY", "postcode": "65584"}}},
{"geometry": {"type": "Point", "coordinates": [-92.1425657405, 37.8148147521]}, "type": "Feature", "properties": {"collection_times": [{"days": "Mon-Sat", "time": "9:00am"}, {"days": "Sun", "time": "Closed"}], "id": "6558400002", "name": "USPS COLLECTION BOX - BLUE BOX", "address": {"city": "FT LEONARD WD", "state": "MO", "street": "220 MISSOURI AVE", "postcode": "65584"}}},
{"geometry": {"type": "Point", "coordinates": [-92.1382176787, 37.8149099245]}, "type": "Feature", "properties": {"collection_times": [{"days": "Mon-Fri", "time": "1:45pm"}, {"days": "Sat", "time": "9:00am"}, {"days": "Sun", "time": "Closed"}], "id": "6558400003", "name": "USPS COLLECTION BOX - BLUE BOX", "address": {"city": "FT LEONARD WD", "state": "MO", "street": "194 EASTLAWN AVE", "postcode": "65584"}}},
{"geometry": {"type": "Point", "coordinates": [-92.1346957533, 37.8261529494]}, "type": "Feature", "properties": {"collection_times": [{"days": "Mon-Sat", "time": "10:00am"}, {"days": "Sun", "time": "Closed"}], "id": "6558400005", "name": "USPS COLLECTION BOX - BLUE BOX", "address": {"city": "FT LEONARD WD", "state": "MO", "street": "185 SAINT ROBERT BLVD", "postcode": "65584"}}},
{"geometry": {"type": "Point", "coordinates": [-92.1382176787, 37.8149099245]}, "type": "Feature", "properties": {"collection_times": [{"days": "Mon-Fri", "time": "1:45pm"}, {"days": "Sat", "time": "9:00am"}, {"days": "Sun", "time": "Closed"}], "id": "6558400006", "name": "USPS COLLECTION BOX - BLUE BOX", "address": {"city": "FT LEONARD WD", "state": "MO", "street": "194 EASTLAWN AVE", "postcode": "65584"}}},
{"geometry": {"type": "Point", "coordinates": [-92.1382176787, 37.8149099245]}, "type": "Feature", "properties": {"collection_times": [{"days": "Mon-Fri", "time": "1:45pm"}, {"days": "Sat", "time": "9:00am"}, {"days": "Sun", "time": "Closed"}], "id": "6558400007", "name": "USPS COLLECTION BOX - PO LOBBY", "address": {"city": "FT LEONARD WD", "state": "MO", "street": "194 EASTLAWN AVE", "postcode": "65584"}}},
{"geometry": {"type": "Point", "coordinates": [-92.1382176787, 37.8149099245]}, "type": "Feature", "properties": {"collection_times": [{"days": "Mon-Fri", "time": "1:45pm"}, {"days": "Sat", "time": "9:00am"}, {"days": "Sun", "time": "Closed"}], "id": "6558400008", "name": "USPS COLLECTION BOX - PO LOBBY", "address": {"city": "FT LEONARD WD", "state": "MO", "street": "194 EASTLAWN AVE", "postcode": "65584"}}},
{"geometry": {"type": "Point", "coordinates": [-91.340565611, 37.8489859594]}, "type": "Feature", "properties": {"collection_times": [{"days": "Mon-Sat", "time": "9:45am"}, {"days": "Sun", "time": "Closed"}], "id": "6558600000", "name": "USPS COLLECTION BOX - BLUE BOX", "address": {"city": "WESCO", "state": "MO", "street": "494 WESCO RD", "postcode": "65586"}}},
{"geometry": {"type": "Point", "coordinates": [-91.3257737707, 37.0080473377]}, "type": "Feature", "properties": {"collection_times": [{"days": "Mon-Sat", "time": "1:00pm"}, {"days": "Sun", "time": "Closed"}], "id": "6558800000", "name": "USPS COLLECTION BOX - BLUE BOX", "address": {"city": "WINONA", "state": "MO", "street": "102 E 1ST ST", "postcode": "65588"}}},
{"geometry": {"type": "Point", "coordinates": [-91.3257737707, 37.0080473377]}, "type": "Feature", "properties": {"collection_times": [{"days": "Mon-Fri", "time": "1:00pm"}, {"days": "Sat", "time": "9:30am"}, {"days": "Sun", "time": "Closed"}], "id": "6558800002", "name": "USPS COLLECTION BOX - PO LOBBY", "address": {"city": "WINONA", "state": "MO", "street": "102 E 1ST ST", "postcode": "65588"}}},
{"geometry": {"type": "Point", "coordinates": [-92.9091831055, 37.6115867875]}, "type": "Feature", "properties": {"collection_times": [{"days": "Mon-Fri", "time": "2:15pm"}, {"days": "Sat", "time": "10:00am"}, {"days": "Sun", "time": "Closed"}], "id": "6559000000", "name": "USPS COLLECTION BOX - BLUE BOX", "address": {"city": "LONGLANE", "state": "MO", "street": "1668 STATE HIGHWAY 32", "postcode": "65590"}}},
{"geometry": {"type": "Point", "coordinates": [-92.9091831055, 37.6115867875]}, "type": "Feature", "properties": {"collection_times": [{"days": "Mon-Fri", "time": "11:30am"}, {"days": "Sat", "time": "9:45am"}, {"days": "Sun", "time": "Closed"}], "id": "6559000001", "name": "USPS COLLECTION BOX - PO LOBBY", "address": {"city": "LONGLANE", "state": "MO", "street": "1668 STATE HIGHWAY 32", "postcode": "65590"}}},
{"geometry": {"type": "Point", "coordinates": [-92.5550284864, 38.0156042594]}, "type": "Feature", "properties": {"collection_times": [{"days": "Mon-Fri", "time": "12:30pm"}, {"days": "Sat", "time": "11:30am"}, {"days": "Sun", "time": "Closed"}], "id": "6559100001", "name": "USPS COLLECTION BOX - PO LOBBY", "address": {"city": "MONTREAL", "state": "MO", "street": "4000 STATE RD E", "postcode": "65591"}}},
{"geometry": {"type": "Point", "coordinates": [-92.5550284864, 38.0156042594]}, "type": "Feature", "properties": {"collection_times": [{"days": "Mon-Fri", "time": "12:30pm"}, {"days": "Sat", "time": "11:30am"}, {"days": "Sun", "time": "Closed"}], "id": "6559100002", "name": "USPS COLLECTION BOX - PO LOBBY", "address": {"city": "MONTREAL", "state": "MO", "street": "4000 STATE RD E", "postcode": "65591"}}},
{"geometry": {"type": "Point", "coordinates": [-92.5550284864, 38.0156042594]}, "type": "Feature", "properties": {"collection_times": [{"days": "Mon-Fri", "time": "12:30pm"}, {"days": "Sat", "time": "11:30am"}, {"days": "Sun", "time": "Closed"}], "id": "6559100003", "name": "USPS COLLECTION BOX - BLUE BOX", "address": {"city": "MONTREAL", "state": "MO", "street": "4000 STATE RD E", "postcode": "65591"}}}
]}
