{"type": "FeatureCollection", "features": [
{"geometry": {"type": "Point", "coordinates": [-93.550070244, 37.5495509526]}, "type": "Feature", "properties": {"collection_times": [{"days": "Mon-Fri", "time": "2:15pm"}, {"days": "Sat", "time": "11:15am"}, {"days": "Sun", "time": "Closed"}], "id": "6560100000", "name": "USPS COLLECTION BOX - BLUE BOX", "address": {"city": "ALDRICH", "state": "MO", "street": "470 COMMERCIAL ST", "postcode": "65601"}}},
{"geometry": {"type": "Point", "coordinates": [-93.8734802545, 37.5486158318]}, "type": "Feature", "properties": {"collection_times": [{"days": "Mon-Sat", "time": "11:30am"}, {"days": "Sun", "time": "Closed"}], "id": "6560300000", "name": "USPS COLLECTION BOX - PO LOBBY", "address": {"city": "ARCOLA", "state": "MO", "street": "102 CHURCH ST", "postcode": "65603"}}},
{"geometry": {"type": "Point", "coordinates": [-93.5852390341, 37.3163923162]}, "type": "Feature", "properties": {"collection_times": [{"days": "Mon-Fri", "time": "3:30pm"}, {"days": "Sat", "time": "10:00am"}, {"days": "Sun", "time": "Closed"}], "id": "6560400000", "name": "USPS COLLECTION BOX - BLUE BOX", "address": {"city": "ASH GROVE", "state": "MO", "street": "102 N TOWER ST", "postcode": "65604"}}},
{"geometry": {"type": "Point", "coordinates": [-93.5852390341, 37.3163923162]}, "type": "Feature", "properties": {"collection_times": [{"days": "Mon-Fri", "time": "3:30pm"}, {"days": "Sat", "time": "10:00am"}, {"days": "Sun", "time": "Closed"}], "id": "6560400001", "name": "USPS COLLECTION BOX - PO LOBBY", "address": {"city": "ASH GROVE", "state": "MO", "street": "102 N TOWER ST", "postcode": "65604"}}},
{"geometry": {"type": "Point", "coordinates": [-93.7193448836, 36.975149167]}, "type": "Feature", "properties": {"collection_times": [{"days": "Mon-Fri", "time": "3:30pm"}, {"days": "Sat", "time": "2:00pm"}, {"days": "Sun", "time": "Closed"}], "id": "6560500000", "name": "USPS COLLECTION BOX - BLUE BOX", "address": {"city": "AURORA", "state": "MO", "street": "102 E OLIVE ST", "postcode": "65605"}}},
{"geometry": {"type": "Point", "coordinates": [-93.7186114537, 36.944872904]}, "type": "Feature", "properties": {"collection_times": [{"days": "Mon-Sat", "time": "1:00pm"}, {"days": "Sun", "time": "Closed"}], "id": "6560500013", "name": "USPS COLLECTION BOX - BLUE BOX", "address": {"city": "AURORA", "state": "MO", "street": "3020 S ELLIOTT AVE", "postcode": "65605"}}},
{"geometry": {"type": "Point", "coordinates": [-93.7193448836, 36.975149167]}, "type": "Feature", "properties": {"collection_times": [{"days": "Mon-Fri", "time": "3:30pm"}, {"days": "Sat", "time": "2:00pm"}, {"days": "Sun", "time": "Closed"}], "id": "6560500014", "name": "USPS COLLECTION BOX - PO LOBBY", "address": {"city": "AURORA", "state": "MO", "street": "102 E OLIVE ST", "postcode": "65605"}}},
{"geometry": {"type": "Point", "coordinates": [-91.3975208604, 36.695854872]}, "type": "Feature", "properties": {"collection_times": [{"days": "Mon-Fri", "time": "12:30pm"}, {"days": "Sat", "time": "11:00am"}, {"days": "Sun", "time": "Closed"}], "id": "6560600000", "name": "USPS COLLECTION BOX - BLUE BOX", "address": {"city": "ALTON", "state": "MO", "street": "198 MAIN ST", "postcode": "65606"}}},
{"geometry": {"type": "Point", "coordinates": [-91.3975208604, 36.695854872]}, "type": "Feature", "properties": {"collection_times": [{"days": "Mon-Fri", "time": "12:30pm"}, {"days": "Sat", "time": "11:00am"}, {"days": "Sun", "time": "Closed"}], "id": "6560600004", "name": "USPS COLLECTION BOX - PO LOBBY", "address": {"city": "ALTON", "state": "MO", "street": "198 MAIN ST", "postcode": "65606"}}},
{"geometry": {"type": "Point", "coordinates": [-91.3975208604, 36.695854872]}, "type": "Feature", "properties": {"collection_times": [{"days": "Mon-Fri", "time": "12:30pm"}, {"days": "Sat", "time": "11:00am"}, {"days": "Sun", "time": "Closed"}], "id": "6560600005", "name": "USPS COLLECTION BOX - PO LOBBY", "address": {"city": "ALTON", "state": "MO", "street": "198 MAIN ST", "postcode": "65606"}}},
{"geometry": {"type": "Point", "coordinates": [-92.6800121024, 36.909312851]}, "type": "Feature", "properties": {"collection_times": [{"days": "Mon-Sat", "time": "1:30pm"}, {"days": "Sun", "time": "Closed"}], "id": "6560800001", "name": "USPS COLLECTION BOX - BLUE BOX", "address": {"city": "AVA", "state": "MO", "street": "RR 3 BOX 587", "postcode": "65608"}}},
{"geometry": {"type": "Point", "coordinates": [-92.6635890557, 36.9524835867]}, "type": "Feature", "properties": {"collection_times": [{"days": "Mon-Fri", "time": "2:30pm"}, {"days": "Sat", "time": "11:00am"}, {"days": "Sun", "time": "Closed"}], "id": "6560800002", "name": "USPS COLLECTION BOX - PO LOBBY", "address": {"city": "AVA", "state": "MO", "street": "499 W WASHINGTON AVE", "postcode": "65608"}}},
{"geometry": {"type": "Point", "coordinates": [-92.6635890557, 36.9524835867]}, "type": "Feature", "properties": {"collection_times": [{"days": "Mon-Fri", "time": "2:30pm"}, {"days": "Sat", "time": "11:00am"}, {"days": "Sun", "time": "Closed"}], "id": "6560800003", "name": "USPS COLLECTION BOX - PO LOBBY", "address": {"city": "AVA", "state": "MO", "street": "499 W WASHINGTON AVE", "postcode": "65608"}}},
{"geometry": {"type": "Point", "coordinates": [-92.6635890557, 36.9524835867]}, "type": "Feature", "properties": {"collection_times": [{"days": "Mon-Fri", "time": "2:30pm"}, {"days": "Sat", "time": "11:00am"}, {"days": "Sun", "time": "Closed"}], "id": "6560800004", "name": "USPS COLLECTION BOX - PO LOBBY", "address": {"city": "AVA", "state": "MO", "street": "499 W WASHINGTON AVE", "postcode": "65608"}}},
{"geometry": {"type": "Point", "coordinates": [-92.6635890557, 36.9524835867]}, "type": "Feature", "properties": {"collection_times": [{"days": "Mon-Fri", "time": "2:30pm"}, {"days": "Sat", "time": "11:00am"}, {"days": "Sun", "time": "Closed"}], "id": "6560800006", "name": "USPS COLLECTION BOX - PO LOBBY", "address": {"city": "AVA", "state": "MO", "street": "499 W WASHINGTON AVE", "postcode": "65608"}}},
{"geometry": {"type": "Point", "coordinates": [-92.16192, 36.557972]}, "type": "Feature", "properties": {"collection_times": [{"days": "Mon-Fri", "time": "1:30pm"}, {"days": "Sat", "time": "11:00am"}, {"days": "Sun", "time": "Closed"}], "id": "6560900000", "name": "USPS COLLECTION BOX - PO LOBBY", "address": {"city": "BAKERSFIELD", "state": "MO", "street": "56 MAIN ST", "postcode": "65609"}}},
{"geometry": {"type": "Point", "coordinates": [-92.16192, 36.557972]}, "type": "Feature", "properties": {"collection_times": [{"days": "Mon-Fri", "time": "1:30pm"}, {"days": "Sat", "time": "11:00am"}, {"days": "Sun", "time": "Closed"}], "id": "6560900001", "name": "USPS COLLECTION BOX - PO LOBBY", "address": {"city": "BAKERSFIELD", "state": "MO", "street": "56 MAIN ST", "postcode": "65609"}}},
{"geometry": {"type": "Point", "coordinates": [-92.16192, 36.557972]}, "type": "Feature", "properties": {"collection_times": [{"days": "Mon-Fri", "time": "1:30pm"}, {"days": "Sat", "time": "11:00am"}, {"days": "Sun", "time": "Closed"}], "id": "6560900002", "name": "USPS COLLECTION BOX - BLUE BOX", "address": {"city": "BAKERSFIELD", "state": "MO", "street": "56 MAIN ST", "postcode": "65609"}}},
{"geometry": {"type": "Point", "coordinates": [-93.5549011386, 37.0656007276]}, "type": "Feature", "properties": {"collection_times": [{"days": "Mon-Fri", "time": "3:30pm"}, {"days": "Sat", "time": "10:30am"}, {"days": "Sun", "time": "Closed"}], "id": "6561000001", "name": "USPS COLLECTION BOX - BLUE BOX", "address": {"city": "BILLINGS", "state": "MO", "street": "109 NE US HIGHWAY 60", "postcode": "65610"}}},
{"geometry": {"type": "Point", "coordinates": [-93.5549011386, 37.0656007276]}, "type": "Feature", "properties": {"collection_times": [{"days": "Mon-Fri", "time": "3:30pm"}, {"days": "Sat", "time": "10:30am"}, {"days": "Sun", "time": "Closed"}], "id": "6561000005", "name": "USPS COLLECTION BOX - PO LOBBY", "address": {"city": "BILLINGS", "state": "MO", "street": "109 NE US HIGHWAY 60", "postcode": "65610"}}},
{"geometry": {"type": "Point", "coordinates": [-93.3974655917, 36.4989451952]}, "type": "Feature", "properties": {"collection_times": [{"days": "Mon-Fri", "time": "1:30pm"}, {"days": "Sat", "time": "10:45am"}, {"days": "Sun", "time": "Closed"}], "id": "6561100000", "name": "USPS COLLECTION BOX - BLUE BOX", "address": {"city": "BLUE EYE", "state": "MO", "street": "112 STATE HIGHWAY 13", "postcode": "65611"}}},
{"geometry": {"type": "Point", "coordinates": [-93.3974655917, 36.4989451952]}, "type": "Feature", "properties": {"collection_times": [{"days": "Mon-Fri", "time": "1:30pm"}, {"days": "Sat", "time": "10:45am"}, {"days": "Sun", "time": "Closed"}], "id": "6561100002", "name": "USPS COLLECTION BOX - PO LOBBY", "address": {"city": "BLUE EYE", "state": "MO", "street": "112 STATE HIGHWAY 13", "postcode": "65611"}}},
{"geometry": {"type": "Point", "coordinates": [-93.5073891468, 37.2565123469]}, "type": "Feature", "properties": {"collection_times": [{"days": "Mon-Fri", "time": "2:30pm"}, {"days": "Sat", "time": "9:30am"}, {"days": "Sun", "time": "Closed"}], "id": "6561200000", "name": "USPS COLLECTION BOX - BLUE BOX", "address": {"city": "BOIS D ARC", "state": "MO", "street": "10507 W STATE HIGHWAY T", "postcode": "65612"}}},
{"geometry": {"type": "Point", "coordinates": [-93.5073891468, 37.2565123469]}, "type": "Feature", "properties": {"collection_times": [{"days": "Mon-Fri", "time": "2:30pm"}, {"days": "Sat", "time": "9:30am"}, {"days": "Sun", "time": "Closed"}], "id": "6561200002", "name": "USPS COLLECTION BOX - PO LOBBY", "address": {"city": "BOIS D ARC", "state": "MO", "street": "10507 W STATE HIGHWAY T", "postcode": "65612"}}},
{"geometry": {"type": "Point", "coordinates": [-93.4100423433, 37.610750999]}, "type": "Feature", "properties": {"collection_times": [{"days": "Mon-Sat", "time": "3:15pm"}, {"days": "Sun", "time": "Closed"}], "id": "6561300000", "name": "USPS COLLECTION BOX - PO LOBBY", "address": {"city": "BOLIVAR", "state": "MO", "street": "328 S MAIN AVE", "postcode": "65613"}}},
{"geometry": {"type": "Point", "coordinates": [-93.4100423433, 37.610750999]}, "type": "Feature", "properties": {"collection_times": [{"days": "Mon-Sat", "time": "3:15pm"}, {"days": "Sun", "time": "Closed"}], "id": "6561300001", "name": "USPS COLLECTION BOX - PO LOBBY", "address": {"city": "BOLIVAR", "state": "MO", "street": "328 S MAIN AVE", "postcode": "65613"}}},
{"geometry": {"type": "Point", "coordinates": [-93.4100423433, 37.610750999]}, "type": "Feature", "properties": {"collection_times": [{"days": "Mon-Sat", "time": "3:15pm"}, {"days": "Sun", "time": "Closed"}], "id": "6561300002", "name": "USPS COLLECTION BOX - PO LOBBY", "address": {"city": "BOLIVAR", "state": "MO", "street": "328 S MAIN AVE", "postcode": "65613"}}},
{"geometry": {"type": "Point", "coordinates": [-93.4003888883, 37.5973960127]}, "type": "Feature", "properties": {"collection_times": [{"days": "Mon-Sat", "time": "10:00am"}, {"days": "Sun", "time": "Closed"}], "id": "6561300006", "name": "USPS COLLECTION BOX - BLUE BOX", "address": {"city": "BOLIVAR", "state": "MO", "street": "800 E ALDRICH RD", "postcode": "65613"}}},
{"geometry": {"type": "Point", "coordinates": [-93.4100423433, 37.610750999]}, "type": "Feature", "properties": {"collection_times": [{"days": "Mon-Sat", "time": "3:15pm"}, {"days": "Sun", "time": "Closed"}], "id": "6561300007", "name": "USPS COLLECTION BOX - PO LOBBY", "address": {"city": "BOLIVAR", "state": "MO", "street": "328 S MAIN AVE", "postcode": "65613"}}},
{"geometry": {"type": "Point", "coordinates": [-93.4100423433, 37.610750999]}, "type": "Feature", "properties": {"collection_times": [{"days": "Mon-Sat", "time": "3:15pm"}, {"days": "Sun", "time": "Closed"}], "id": "6561300008", "name": "USPS COLLECTION BOX - PO LOBBY", "address": {"city": "BOLIVAR", "state": "MO", "street": "328 S MAIN AVE", "postcode": "65613"}}},
{"geometry": {"type": "Point", "coordinates": [-92.9111334168, 36.7812713647]}, "type": "Feature", "properties": {"collection_times": [{"days": "Mon-Fri", "time": "1:30pm"}, {"days": "Sat", "time": "9:45am"}, {"days": "Sun", "time": "Closed"}], "id": "6561400000", "name": "USPS COLLECTION BOX - BLUE BOX", "address": {"city": "BRADLEYVILLE", "state": "MO", "street": "25856 STATE HIGHWAY 76", "postcode": "65614"}}},
{"geometry": {"type": "Point", "coordinates": [-92.9111334168, 36.7812713647]}, "type": "Feature", "properties": {"collection_times": [{"days": "Mon-Fri", "time": "11:45am"}, {"days": "Sat", "time": "9:45am"}, {"days": "Sun", "time": "Closed"}], "id": "6561400002", "name": "USPS COLLECTION BOX - PO LOBBY", "address": {"city": "BRADLEYVILLE", "state": "MO", "street": "25856 STATE HIGHWAY 76", "postcode": "65614"}}},
{"geometry": {"type": "Point", "coordinates": [-93.2496893397, 36.6525235594]}, "type": "Feature", "properties": {"collection_times": [{"days": "Mon-Sat", "time": "10:00am"}, {"days": "Sun", "time": "Closed"}], "id": "6561600000", "name": "USPS COLLECTION BOX - BLUE BOX", "address": {"city": "BRANSON", "state": "MO", "street": "3460 W 76 COUNTRY BLVD", "postcode": "65616"}}},
{"geometry": {"type": "Point", "coordinates": [-93.2415262303, 36.6863078562]}, "type": "Feature", "properties": {"collection_times": [{"days": "Mon-Sat", "time": "10:00am"}, {"days": "Sun", "time": "Closed"}], "id": "6561600003", "name": "USPS COLLECTION BOX - BLUE BOX", "address": {"city": "BRANSON", "state": "MO", "street": "14159 ST HWY 65", "postcode": "65616"}}},
{"geometry": {"type": "Point", "coordinates": [-93.2568577827, 36.6413019678]}, "type": "Feature", "properties": {"collection_times": [{"days": "Mon-Sat", "time": "10:15am"}, {"days": "Sun", "time": "Closed"}], "id": "6561600011", "name": "USPS COLLECTION BOX - BLUE BOX", "address": {"city": "BRANSON", "state": "MO", "street": "2210 W HIGHWAY 76", "postcode": "65616"}}},
{"geometry": {"type": "Point", "coordinates": [-93.2420436172, 36.6401796208]}, "type": "Feature", "properties": {"collection_times": [{"days": "Mon-Sat", "time": "9:45am"}, {"days": "Sun", "time": "Closed"}], "id": "6561600012", "name": "USPS COLLECTION BOX - BLUE BOX", "address": {"city": "BRANSON", "state": "MO", "street": "1208 W HIGHWAY 76", "postcode": "65616"}}},
{"geometry": {"type": "Point", "coordinates": [-93.2171897432, 36.6441628718]}, "type": "Feature", "properties": {"collection_times": [{"days": "Mon-Sat", "time": "12:00pm"}, {"days": "Sun", "time": "Closed"}], "id": "6561600015", "name": "USPS COLLECTION BOX - BLUE BOX", "address": {"city": "BRANSON", "state": "MO", "street": "101 W MAIN ST", "postcode": "65616"}}},
{"geometry": {"type": "Point", "coordinates": [-93.2159234866, 36.6726214839]}, "type": "Feature", "properties": {"collection_times": [{"days": "Mon-Sat", "time": "10:00am"}, {"days": "Sun", "time": "Closed"}], "id": "6561600016", "name": "USPS COLLECTION BOX - BLUE BOX", "address": {"city": "BRANSON", "state": "MO", "street": "7800 COZY COVE RD", "postcode": "65616"}}},
{"geometry": {"type": "Point", "coordinates": [-93.2880809251, 36.6540488599]}, "type": "Feature", "properties": {"collection_times": [{"days": "Mon-Sat", "time": "10:00am"}, {"days": "Sun", "time": "Closed"}], "id": "6561600017", "name": "USPS COLLECTION BOX - BLUE BOX", "address": {"city": "BRANSON", "state": "MO", "street": "1 TREASURE LAKE DR", "postcode": "65616"}}},
{"geometry": {"type": "Point", "coordinates": [-93.2839914359, 36.6053074016]}, "type": "Feature", "properties": {"collection_times": [{"days": "Mon-Sat", "time": "11:00am"}, {"days": "Sun", "time": "Closed"}], "id": "6561600018", "name": "USPS COLLECTION BOX - BLUE BOX", "address": {"city": "BRANSON", "state": "MO", "street": "1 FALL CREEK DR", "postcode": "65616"}}},
{"geometry": {"type": "Point", "coordinates": [-93.2169602491, 36.6416135952]}, "type": "Feature", "properties": {"collection_times": [{"days": "Mon-Fri", "time": "2:45pm"}, {"days": "Sat", "time": "1:00pm"}, {"days": "Sun", "time": "Closed"}], "id": "6561600020", "name": "USPS COLLECTION BOX - BLUE BOX", "address": {"city": "BRANSON", "state": "MO", "street": "320 S COMMERCIAL ST", "postcode": "65616"}}},
{"geometry": {"type": "Point", "coordinates": [-93.2411896146, 36.6639502264]}, "type": "Feature", "properties": {"collection_times": [{"days": "Mon-Sat", "time": "12:00pm"}, {"days": "Sun", "time": "Closed"}], "id": "6561600023", "name": "USPS COLLECTION BOX - BLUE BOX", "address": {"city": "BRANSON", "state": "MO", "street": "1447 STATE HIGHWAY 248", "postcode": "65616"}}},
{"geometry": {"type": "Point", "coordinates": [-93.2289944907, 36.6443899999]}, "type": "Feature", "properties": {"collection_times": [{"days": "Mon-Sat", "time": "10:00am"}, {"days": "Sun", "time": "Closed"}], "id": "6561600024", "name": "USPS COLLECTION BOX - BLUE BOX", "address": {"city": "BRANSON", "state": "MO", "street": "827 W MAIN ST", "postcode": "65616"}}},
{"geometry": {"type": "Point", "coordinates": [-93.2891941884, 36.6024336563]}, "type": "Feature", "properties": {"collection_times": [{"days": "Mon-Sat", "time": "10:30am"}, {"days": "Sun", "time": "Closed"}], "id": "6561600025", "name": "USPS COLLECTION BOX - BLUE BOX", "address": {"city": "BRANSON", "state": "MO", "street": "159 POINTE ROYALE DR", "postcode": "65616"}}},
{"geometry": {"type": "Point", "coordinates": [-93.2543880679, 36.6427082877]}, "type": "Feature", "properties": {"collection_times": [{"days": "Mon-Sat", "time": "10:00am"}, {"days": "Sun", "time": "Closed"}], "id": "6561600027", "name": "USPS COLLECTION BOX - BLUE BOX", "address": {"city": "BRANSON", "state": "MO", "street": "1945 W HIGHWAY 76", "postcode": "65616"}}},
{"geometry": {"type": "Point", "coordinates": [-93.2220860103, 36.6442113731]}, "type": "Feature", "properties": {"collection_times": [{"days": "Mon-Sat", "time": "10:00am"}, {"days": "Sun", "time": "Closed"}], "id": "6561600030", "name": "USPS COLLECTION BOX - BLUE BOX", "address": {"city": "BRANSON", "state": "MO", "street": "500 W MAIN ST", "postcode": "65616"}}},
{"geometry": {"type": "Point", "coordinates": [-93.2644513197, 36.6439002549]}, "type": "Feature", "properties": {"collection_times": [{"days": "Mon-Sat", "time": "10:00am"}, {"days": "Sun", "time": "Closed"}], "id": "6561600033", "name": "USPS COLLECTION BOX - BLUE BOX", "address": {"city": "BRANSON", "state": "MO", "street": "300 TANGER BLVD", "postcode": "65616"}}},
{"geometry": {"type": "Point", "coordinates": [-93.2809760735, 36.6375453993]}, "type": "Feature", "properties": {"collection_times": [{"days": "Mon-Sat", "time": "10:00am"}, {"days": "Sun", "time": "Closed"}], "id": "6561600034", "name": "USPS COLLECTION BOX - BLUE BOX", "address": {"city": "BRANSON", "state": "MO", "street": "210 STATE HIGHWAY 165", "postcode": "65616"}}},
{"geometry": {"type": "Point", "coordinates": [-93.3452450511, 36.6271909595]}, "type": "Feature", "properties": {"collection_times": [{"days": "Mon-Sat", "time": "10:30am"}, {"days": "Sun", "time": "Closed"}], "id": "6561600035", "name": "USPS COLLECTION BOX - BLUE BOX", "address": {"city": "BRANSON", "state": "MO", "street": "1575 TABLEROCK CIR", "postcode": "65616"}}},
{"geometry": {"type": "Point", "coordinates": [-93.2169602491, 36.6416135952]}, "type": "Feature", "properties": {"collection_times": [{"days": "Mon-Fri", "time": "2:45pm"}, {"days": "Sat", "time": "1:00pm"}, {"days": "Sun", "time": "Closed"}], "id": "6561600038", "name": "USPS COLLECTION BOX - PO LOBBY", "address": {"city": "BRANSON", "state": "MO", "street": "320 S COMMERCIAL ST", "postcode": "65616"}}},
{"geometry": {"type": "Point", "coordinates": [-93.2224710916, 36.6515811007]}, "type": "Feature", "properties": {"collection_times": [{"days": "Mon-Sat", "time": "11:00am"}, {"days": "Sun", "time": "Closed"}], "id": "6561600040", "name": "USPS COLLECTION BOX - BLUE BOX", "address": {"city": "BRANSON", "state": "MO", "street": "427 CAHILL RD", "postcode": "65616"}}},
{"geometry": {"type": "Point", "coordinates": [-93.3483181524, 36.6588186649]}, "type": "Feature", "properties": {"collection_times": [{"days": "Mon-Sat", "time": "10:00am"}, {"days": "Sun", "time": "Closed"}], "id": "6561600041", "name": "USPS COLLECTION BOX - BLUE BOX", "address": {"city": "BRANSON", "state": "MO", "street": "1 LANTERN BAY RD", "postcode": "65616"}}},
{"geometry": {"type": "Point", "coordinates": [-93.2702821245, 36.6384752051]}, "type": "Feature", "properties": {"collection_times": [{"days": "Mon-Sat", "time": "10:00am"}, {"days": "Sun", "time": "Closed"}], "id": "6561600045", "name": "USPS COLLECTION BOX - BLUE BOX", "address": {"city": "BRANSON", "state": "MO", "street": "2800 W 76 COUNTRY BLVD", "postcode": "65616"}}},
{"geometry": {"type": "Point", "coordinates": [-93.22503631, 36.6695503541]}, "type": "Feature", "properties": {"collection_times": [{"days": "Mon-Sat", "time": "9:00am"}, {"days": "Sun", "time": "Closed"}], "id": "6561600048", "name": "USPS COLLECTION BOX - BLUE BOX", "address": {"city": "BRANSON", "state": "MO", "street": "220 BRANSON HILLS PKWY", "postcode": "65616"}}},
{"geometry": {"type": "Point", "coordinates": [-93.273812074, 36.6526364069]}, "type": "Feature", "properties": {"collection_times": [{"days": "Mon-Sat", "time": "9:30am"}, {"days": "Sun", "time": "Closed"}], "id": "6561600055", "name": "USPS COLLECTION BOX - BLUE BOX", "address": {"city": "BRANSON", "state": "MO", "street": "2720 SHEPHERD OF THE HILLS EXPY", "postcode": "65616"}}},
{"geometry": {"type": "Point", "coordinates": [-93.2169602491, 36.6416135952]}, "type": "Feature", "properties": {"collection_times": [{"days": "Mon-Fri", "time": "2:45pm"}, {"days": "Sat", "time": "1:00pm"}, {"days": "Sun", "time": "Closed"}], "id": "6561600057", "name": "USPS COLLECTION BOX - PO LOBBY", "address": {"city": "BRANSON", "state": "MO", "street": "320 S COMMERCIAL ST", "postcode": "65616"}}},
{"geometry": {"type": "Point", "coordinates": [-93.2903201026, 36.6516677125]}, "type": "Feature", "properties": {"collection_times": [{"days": "Mon-Sat", "time": "10:30am"}, {"days": "Sun", "time": "Closed"}], "id": "6561600058", "name": "USPS COLLECTION BOX - BLUE BOX", "address": {"city": "BRANSON", "state": "MO", "street": "4017 W HIGHWAY 76", "postcode": "65616"}}},
{"geometry": {"type": "Point", "coordinates": [-93.367958039, 37.4726987806]}, "type": "Feature", "properties": {"collection_times": [{"days": "Mon-Fri", "time": "2:00pm"}, {"days": "Sat", "time": "8:45am"}, {"days": "Sun", "time": "Closed"}], "id": "6561700000", "name": "USPS COLLECTION BOX - BLUE BOX", "address": {"city": "BRIGHTON", "state": "MO", "street": "1584 HIGHWAY 215", "postcode": "65617"}}},
{"geometry": {"type": "Point", "coordinates": [-93.367958039, 37.4726987806]}, "type": "Feature", "properties": {"collection_times": [{"days": "Mon-Fri", "time": "11:15am"}, {"days": "Sat", "time": "8:45am"}, {"days": "Sun", "time": "Closed"}], "id": "6561700001", "name": "USPS COLLECTION BOX - PO LOBBY", "address": {"city": "BRIGHTON", "state": "MO", "street": "1584 HIGHWAY 215", "postcode": "65617"}}},
{"geometry": {"type": "Point", "coordinates": [-93.3900309422, 37.1246470274]}, "type": "Feature", "properties": {"collection_times": [{"days": "Mon-Fri", "time": "3:45pm"}, {"days": "Sat", "time": "9:45am"}, {"days": "Sun", "time": "Closed"}], "id": "6561900000", "name": "USPS COLLECTION BOX - BLUE BOX", "address": {"city": "BROOKLINE STA", "state": "MO", "street": "2874 N BROOKLINE AVE", "postcode": "65619"}}},
{"geometry": {"type": "Point", "coordinates": [-93.369995, 37.124474]}, "type": "Feature", "properties": {"collection_times": [{"days": "Mon-Sat", "time": "12:00pm"}, {"days": "Sun", "time": "Closed"}], "id": "6561900003", "name": "USPS COLLECTION BOX - BLUE BOX", "address": {"city": "BROOKLINE STA", "state": "MO", "street": "5011 S STATE HIGHWAY FF", "postcode": "65619"}}},
{"geometry": {"type": "Point", "coordinates": [-93.3794550414, 37.1655437549]}, "type": "Feature", "properties": {"collection_times": [{"days": "Mon-Sat", "time": "11:00am"}, {"days": "Sun", "time": "Closed"}], "id": "6561900004", "name": "USPS COLLECTION BOX - BLUE BOX", "address": {"city": "BROOKLINE STA", "state": "MO", "street": "2763 S HARVEST LN", "postcode": "65619"}}},
{"geometry": {"type": "Point", "coordinates": [-93.3900309422, 37.1246470274]}, "type": "Feature", "properties": {"collection_times": [{"days": "Mon-Fri", "time": "3:45pm"}, {"days": "Sat", "time": "9:45am"}, {"days": "Sun", "time": "Closed"}], "id": "6561900005", "name": "USPS COLLECTION BOX - PO LOBBY", "address": {"city": "BROOKLINE STA", "state": "MO", "street": "2874 N BROOKLINE AVE", "postcode": "65619"}}},
{"geometry": {"type": "Point", "coordinates": [-92.9990633656, 37.0146626853]}, "type": "Feature", "properties": {"collection_times": [{"days": "Mon-Sat", "time": "1:30pm"}, {"days": "Sun", "time": "Closed"}], "id": "6562000000", "name": "USPS COLLECTION BOX - BLUE BOX", "address": {"city": "BRUNER", "state": "MO", "street": "13547 STATE HIGHWAY 14 E", "postcode": "65620"}}},
{"geometry": {"type": "Point", "coordinates": [-93.0933671995, 37.6438802985]}, "type": "Feature", "properties": {"collection_times": [{"days": "Mon-Fri", "time": "3:15pm"}, {"days": "Sat", "time": "12:30pm"}, {"days": "Sun", "time": "Closed"}], "id": "6562200000", "name": "USPS COLLECTION BOX - BLUE BOX", "address": {"city": "BUFFALO", "state": "MO", "street": "215 S PINE ST", "postcode": "65622"}}},
{"geometry": {"type": "Point", "coordinates": [-93.0933671995, 37.6438802985]}, "type": "Feature", "properties": {"collection_times": [{"days": "Mon-Fri", "time": "3:15pm"}, {"days": "Sat", "time": "12:30pm"}, {"days": "Sun", "time": "Closed"}], "id": "6562200001", "name": "USPS COLLECTION BOX - PO LOBBY", "address": {"city": "BUFFALO", "state": "MO", "street": "215 S PINE ST", "postcode": "65622"}}},
{"geometry": {"type": "Point", "coordinates": [-93.1043007803, 37.6412889685]}, "type": "Feature", "properties": {"collection_times": [{"days": "Mon-Fri", "time": "1:00pm"}, {"days": "Sat-Sun", "time": "Closed"}], "id": "6562200002", "name": "USPS COLLECTION BOX - BLUE BOX", "address": {"city": "BUFFALO", "state": "MO", "street": "409 S ASH ST", "postcode": "65622"}}},
{"geometry": {"type": "Point", "coordinates": [-93.5033108451, 36.7284699913]}, "type": "Feature", "properties": {"collection_times": [{"days": "Mon-Fri", "time": "2:30pm"}, {"days": "Sat", "time": "10:00am"}, {"days": "Sun", "time": "Closed"}], "id": "6562400000", "name": "USPS COLLECTION BOX - BLUE BOX", "address": {"city": "CAPE FAIR", "state": "MO", "street": "8089 W STATE HIGHWAY 76 UNIT 0", "postcode": "65624"}}},
{"geometry": {"type": "Point", "coordinates": [-93.5033108451, 36.7284699913]}, "type": "Feature", "properties": {"collection_times": [{"days": "Mon-Fri", "time": "2:30pm"}, {"days": "Sat", "time": "10:00am"}, {"days": "Sun", "time": "Closed"}], "id": "6562400001", "name": "USPS COLLECTION BOX - PO LOBBY", "address": {"city": "CAPE FAIR", "state": "MO", "street": "8089 W STATE HIGHWAY 76 UNIT 0", "postcode": "65624"}}},
{"geometry": {"type": "Point", "coordinates": [-93.5033108451, 36.7284699913]}, "type": "Feature", "properties": {"collection_times": [{"days": "Mon-Fri", "time": "2:30pm"}, {"days": "Sat", "time": "10:00am"}, {"days": "Sun", "time": "Closed"}], "id": "6562400002", "name": "USPS COLLECTION BOX - PO LOBBY", "address": {"city": "CAPE FAIR", "state": "MO", "street": "8089 W STATE HIGHWAY 76 UNIT 0", "postcode": "65624"}}},
{"geometry": {"type": "Point", "coordinates": [-93.8685560106, 36.6795028136]}, "type": "Feature", "properties": {"collection_times": [{"days": "Mon-Fri", "time": "1:30pm"}, {"days": "Sat", "time": "10:30am"}, {"days": "Sun", "time": "Closed"}], "id": "6562500000", "name": "USPS COLLECTION BOX - BLUE BOX", "address": {"city": "CASSVILLE", "state": "MO", "street": "800 WEST ST", "postcode": "65625"}}},
{"geometry": {"type": "Point", "coordinates": [-93.8685560106, 36.6795028136]}, "type": "Feature", "properties": {"collection_times": [{"days": "Mon-Fri", "time": "1:30pm"}, {"days": "Sat", "time": "10:30am"}, {"days": "Sun", "time": "Closed"}], "id": "6562500001", "name": "USPS COLLECTION BOX - BLUE BOX", "address": {"city": "CASSVILLE", "state": "MO", "street": "800 WEST ST", "postcode": "65625"}}},
{"geometry": {"type": "Point", "coordinates": [-93.8685560106, 36.6795028136]}, "type": "Feature", "properties": {"collection_times": [{"days": "Mon-Fri", "time": "1:30pm"}, {"days": "Sat", "time": "10:30am"}, {"days": "Sun", "time": "Closed"}], "id": "6562500011", "name": "USPS COLLECTION BOX - PO LOBBY", "address": {"city": "CASSVILLE", "state": "MO", "street": "800 WEST ST", "postcode": "65625"}}},
{"geometry": {"type": "Point", "coordinates": [-93.8685560106, 36.6795028136]}, "type": "Feature", "properties": {"collection_times": [{"days": "Mon-Fri", "time": "1:30pm"}, {"days": "Sat", "time": "10:30am"}, {"days": "Sun", "time": "Closed"}], "id": "6562500012", "name": "USPS COLLECTION BOX - PO LOBBY", "address": {"city": "CASSVILLE", "state": "MO", "street": "800 WEST ST", "postcode": "65625"}}},
{"geometry": {"type": "Point", "coordinates": [-92.1083950229, 36.6144732671]}, "type": "Feature", "properties": {"collection_times": [{"days": "Mon-Fri", "time": "3:30pm"}, {"days": "Sat", "time": "11:30am"}, {"days": "Sun", "time": "Closed"}], "id": "6562600000", "name": "USPS COLLECTION BOX - BLUE BOX", "address": {"city": "CAULFIELD", "state": "MO", "street": "377 US HIGHWAY 160", "postcode": "65626"}}},
{"geometry": {"type": "Point", "coordinates": [-92.1083950229, 36.6144732671]}, "type": "Feature", "properties": {"collection_times": [{"days": "Mon-Fri", "time": "3:30pm"}, {"days": "Sat", "time": "11:30am"}, {"days": "Sun", "time": "Closed"}], "id": "6562600001", "name": "USPS COLLECTION BOX - PO LOBBY", "address": {"city": "CAULFIELD", "state": "MO", "street": "377 US HIGHWAY 160", "postcode": "65626"}}},
{"geometry": {"type": "Point", "coordinates": [-92.9968373989, 36.5717717186]}, "type": "Feature", "properties": {"collection_times": [{"days": "Mon-Fri", "time": "1:30pm"}, {"days": "Sat", "time": "9:45am"}, {"days": "Sun", "time": "Closed"}], "id": "6562700000", "name": "USPS COLLECTION BOX - BLUE BOX", "address": {"city": "CEDARCREEK", "state": "MO", "street": "6589 STATE HIGHWAY M", "postcode": "65627"}}},
{"geometry": {"type": "Point", "coordinates": [-92.9968373989, 36.5717717186]}, "type": "Feature", "properties": {"collection_times": [{"days": "Mon-Fri", "time": "1:30pm"}, {"days": "Sat", "time": "9:45am"}, {"days": "Sun", "time": "Closed"}], "id": "6562700001", "name": "USPS COLLECTION BOX - PO LOBBY", "address": {"city": "CEDARCREEK", "state": "MO", "street": "6589 STATE HIGHWAY M", "postcode": "65627"}}},
{"geometry": {"type": "Point", "coordinates": [-93.0580724057, 36.9416693959]}, "type": "Feature", "properties": {"collection_times": [{"days": "Mon-Fri", "time": "1:30pm"}, {"days": "Sat", "time": "8:30am"}, {"days": "Sun", "time": "Closed"}], "id": "6562900000", "name": "USPS COLLECTION BOX - BLUE BOX", "address": {"city": "CHADWICK", "state": "MO", "street": "6409 STATE HIGHWAY 125 S", "postcode": "65629"}}},
{"geometry": {"type": "Point", "coordinates": [-93.0580724057, 36.9416693959]}, "type": "Feature", "properties": {"collection_times": [{"days": "Mon-Fri", "time": "1:30pm"}, {"days": "Sat", "time": "8:30am"}, {"days": "Sun", "time": "Closed"}], "id": "6562900001", "name": "USPS COLLECTION BOX - PO LOBBY", "address": {"city": "CHADWICK", "state": "MO", "street": "6409 STATE HIGHWAY 125 S", "postcode": "65629"}}},
{"geometry": {"type": "Point", "coordinates": [-93.4706913385, 37.029195871]}, "type": "Feature", "properties": {"collection_times": [{"days": "Mon-Fri", "time": "3:30pm"}, {"days": "Sat", "time": "9:30am"}, {"days": "Sun", "time": "Closed"}], "id": "6563100000", "name": "USPS COLLECTION BOX - BLUE BOX", "address": {"city": "CLEVER", "state": "MO", "street": "209 CLARKE AVE", "postcode": "65631"}}},
{"geometry": {"type": "Point", "coordinates": [-93.4706913385, 37.029195871]}, "type": "Feature", "properties": {"collection_times": [{"days": "Mon-Fri", "time": "3:30pm"}, {"days": "Sat", "time": "9:30am"}, {"days": "Sun", "time": "Closed"}], "id": "6563100001", "name": "USPS COLLECTION BOX - PO LOBBY", "address": {"city": "CLEVER", "state": "MO", "street": "209 CLARKE AVE", "postcode": "65631"}}},
{"geometry": {"type": "Point", "coordinates": [-92.8260740744, 37.50272571]}, "type": "Feature", "properties": {"collection_times": [{"days": "Mon-Fri", "time": "2:45pm"}, {"days": "Sat", "time": "10:30am"}, {"days": "Sun", "time": "Closed"}], "id": "6563200000", "name": "USPS COLLECTION BOX - BLUE BOX", "address": {"city": "CONWAY", "state": "MO", "street": "601 W JEFFERSON AVE STE D", "postcode": "65632"}}},
{"geometry": {"type": "Point", "coordinates": [-92.8260740744, 37.50272571]}, "type": "Feature", "properties": {"collection_times": [{"days": "Mon-Fri", "time": "2:45pm"}, {"days": "Sat", "time": "10:30am"}, {"days": "Sun", "time": "Closed"}], "id": "6563200001", "name": "USPS COLLECTION BOX - PO LOBBY", "address": {"city": "CONWAY", "state": "MO", "street": "601 W JEFFERSON AVE STE D", "postcode": "65632"}}},
{"geometry": {"type": "Point", "coordinates": [-93.5730427272, 36.9046965713]}, "type": "Feature", "properties": {"collection_times": [{"days": "Mon-Fri", "time": "3:00pm"}, {"days": "Sat", "time": "9:45am"}, {"days": "Sun", "time": "Closed"}], "id": "6563300000", "name": "USPS COLLECTION BOX - BLUE BOX", "address": {"city": "CRANE", "state": "MO", "street": "118 MAIN ST", "postcode": "65633"}}},
{"geometry": {"type": "Point", "coordinates": [-93.5730427272, 36.9046965713]}, "type": "Feature", "properties": {"collection_times": [{"days": "Mon-Fri", "time": "3:00pm"}, {"days": "Sat", "time": "9:45am"}, {"days": "Sun", "time": "Closed"}], "id": "6563300004", "name": "USPS COLLECTION BOX - PO LOBBY", "address": {"city": "CRANE", "state": "MO", "street": "118 MAIN ST", "postcode": "65633"}}},
{"geometry": {"type": "Point", "coordinates": [-93.2274868153, 38.0241117952]}, "type": "Feature", "properties": {"collection_times": [{"days": "Mon-Fri", "time": "1:00pm"}, {"days": "Sat", "time": "9:00am"}, {"days": "Sun", "time": "Closed"}], "id": "6563400000", "name": "USPS COLLECTION BOX - BLUE BOX", "address": {"city": "CROSS TIMBERS", "state": "MO", "street": "100 PARK ST", "postcode": "65634"}}},
{"geometry": {"type": "Point", "coordinates": [-93.2274868153, 38.0241117952]}, "type": "Feature", "properties": {"collection_times": [{"days": "Mon-Fri", "time": "1:00pm"}, {"days": "Sat", "time": "9:00am"}, {"days": "Sun", "time": "Closed"}], "id": "6563400001", "name": "USPS COLLECTION BOX - PO LOBBY", "address": {"city": "CROSS TIMBERS", "state": "MO", "street": "100 PARK ST", "postcode": "65634"}}},
{"geometry": {"type": "Point", "coordinates": [-93.673996, 37.480324]}, "type": "Feature", "properties": {"collection_times": [{"days": "Mon-Fri", "time": "2:45pm"}, {"days": "Sat", "time": "10:30am"}, {"days": "Sun", "time": "Closed"}], "id": "6563500000", "name": "USPS COLLECTION BOX - BLUE BOX", "address": {"city": "DADEVILLE", "state": "MO", "street": "103 E MAIN ST STE 103", "postcode": "65635"}}},
{"geometry": {"type": "Point", "coordinates": [-93.673996, 37.480324]}, "type": "Feature", "properties": {"collection_times": [{"days": "Mon-Fri", "time": "2:45pm"}, {"days": "Sat", "time": "10:30am"}, {"days": "Sun", "time": "Closed"}], "id": "6563500001", "name": "USPS COLLECTION BOX - PO LOBBY", "address": {"city": "DADEVILLE", "state": "MO", "street": "103 E MAIN ST STE 103", "postcode": "65635"}}},
{"geometry": {"type": "Point", "coordinates": [-92.8540554248, 37.1728002731]}, "type": "Feature", "properties": {"collection_times": [{"days": "Mon-Sat", "time": "1:00pm"}, {"days": "Sun", "time": "Closed"}], "id": "6563600000", "name": "USPS COLLECTION BOX - BLUE BOX", "address": {"city": "DIGGINS", "state": "MO", "street": "505 PLAZA DR", "postcode": "65636"}}},
{"geometry": {"type": "Point", "coordinates": [-92.8540554248, 37.1728002731]}, "type": "Feature", "properties": {"collection_times": [{"days": "Mon-Sat", "time": "1:00pm"}, {"days": "Sun", "time": "Closed"}], "id": "6563600002", "name": "USPS COLLECTION BOX - PO LOBBY", "address": {"city": "DIGGINS", "state": "MO", "street": "505 PLAZA DR", "postcode": "65636"}}},
{"geometry": {"type": "Point", "coordinates": [-92.2093031861, 36.7733195719]}, "type": "Feature", "properties": {"collection_times": [{"days": "Mon-Fri", "time": "11:30am"}, {"days": "Sat", "time": "9:30am"}, {"days": "Sun", "time": "Closed"}], "id": "6563700000", "name": "USPS COLLECTION BOX - BLUE BOX", "address": {"city": "DORA", "state": "MO", "street": "100 COUNTY ROAD 379", "postcode": "65637"}}},
{"geometry": {"type": "Point", "coordinates": [-92.2093031861, 36.7733195719]}, "type": "Feature", "properties": {"collection_times": [{"days": "Mon-Fri", "time": "11:30am"}, {"days": "Sat", "time": "9:30am"}, {"days": "Sun", "time": "Closed"}], "id": "6563700001", "name": "USPS COLLECTION BOX - PO LOBBY", "address": {"city": "DORA", "state": "MO", "street": "100 COUNTY ROAD 379", "postcode": "65637"}}},
{"geometry": {"type": "Point", "coordinates": [-93.578089715, 37.7081470395]}, "type": "Feature", "properties": {"collection_times": [{"days": "Mon-Fri", "time": "11:45am"}, {"days": "Sat", "time": "12:15pm"}, {"days": "Sun", "time": "Closed"}], "id": "6564000000", "name": "USPS COLLECTION BOX - BLUE BOX", "address": {"city": "DUNNEGAN", "state": "MO", "street": "3777 S 28TH RD", "postcode": "65640"}}},
{"geometry": {"type": "Point", "coordinates": [-93.578089715, 37.7081470395]}, "type": "Feature", "properties": {"collection_times": [{"days": "Mon-Fri", "time": "11:45am"}, {"days": "Sat", "time": "12:15pm"}, {"days": "Sun", "time": "Closed"}], "id": "6564000001", "name": "USPS COLLECTION BOX - PO LOBBY", "address": {"city": "DUNNEGAN", "state": "MO", "street": "3777 S 28TH RD", "postcode": "65640"}}},
{"geometry": {"type": "Point", "coordinates": [-93.7703253625, 36.5471845878]}, "type": "Feature", "properties": {"collection_times": [{"days": "Mon-Fri", "time": "1:00pm"}, {"days": "Sat", "time": "10:00am"}, {"days": "Sun", "time": "Closed"}], "id": "6564100000", "name": "USPS COLLECTION BOX - BLUE BOX", "address": {"city": "EAGLE ROCK", "state": "MO", "street": "28815 STATE HIGHWAY 86", "postcode": "65641"}}},
{"geometry": {"type": "Point", "coordinates": [-93.7703253625, 36.5471845878]}, "type": "Feature", "properties": {"collection_times": [{"days": "Mon-Fri", "time": "1:00pm"}, {"days": "Sat", "time": "10:00am"}, {"days": "Sun", "time": "Closed"}], "id": "6564100001", "name": "USPS COLLECTION BOX - PO LOBBY", "address": {"city": "EAGLE ROCK", "state": "MO", "street": "28815 STATE HIGHWAY 86", "postcode": "65641"}}},
{"geometry": {"type": "Point", "coordinates": [-93.0253871809, 37.4018257155]}, "type": "Feature", "properties": {"collection_times": [{"days": "Mon-Fri", "time": "2:30pm"}, {"days": "Sat", "time": "10:15am"}, {"days": "Sun", "time": "Closed"}], "id": "6564400000", "name": "USPS COLLECTION BOX - PO LOBBY", "address": {"city": "ELKLAND", "state": "MO", "street": "3550 STATE HIGHWAY 38", "postcode": "65644"}}},
{"geometry": {"type": "Point", "coordinates": [-93.0253871809, 37.4018257155]}, "type": "Feature", "properties": {"collection_times": [{"days": "Mon-Fri", "time": "2:30pm"}, {"days": "Sat", "time": "10:15am"}, {"days": "Sun", "time": "Closed"}], "id": "6564400001", "name": "USPS COLLECTION BOX - BLUE BOX", "address": {"city": "ELKLAND", "state": "MO", "street": "3550 STATE HIGHWAY 38", "postcode": "65644"}}},
{"geometry": {"type": "Point", "coordinates": [-93.7034040895, 37.3409457902]}, "type": "Feature", "properties": {"collection_times": [{"days": "Mon-Fri", "time": "1:15pm"}, {"days": "Sat", "time": "10:00am"}, {"days": "Sun", "time": "Closed"}], "id": "6564600000", "name": "USPS COLLECTION BOX - BLUE BOX", "address": {"city": "EVERTON", "state": "MO", "street": "102 W COMMERCIAL ST", "postcode": "65646"}}},
{"geometry": {"type": "Point", "coordinates": [-93.7034040895, 37.3409457902]}, "type": "Feature", "properties": {"collection_times": [{"days": "Mon-Fri", "time": "1:15pm"}, {"days": "Sat", "time": "10:00am"}, {"days": "Sun", "time": "Closed"}], "id": "6564600001", "name": "USPS COLLECTION BOX - PO LOBBY", "address": {"city": "EVERTON", "state": "MO", "street": "102 W COMMERCIAL ST", "postcode": "65646"}}},
{"geometry": {"type": "Point", "coordinates": [-93.9387558609, 36.6738049921]}, "type": "Feature", "properties": {"collection_times": [{"days": "Mon-Fri", "time": "1:15pm"}, {"days": "Sat", "time": "10:00am"}, {"days": "Sun", "time": "Closed"}], "id": "6564700000", "name": "USPS COLLECTION BOX - BLUE BOX", "address": {"city": "EXETER", "state": "MO", "street": "100 S FRONT ST", "postcode": "65647"}}},
{"geometry": {"type": "Point", "coordinates": [-93.9387558609, 36.6738049921]}, "type": "Feature", "properties": {"collection_times": [{"days": "Mon-Fri", "time": "1:15pm"}, {"days": "Sat", "time": "10:00am"}, {"days": "Sun", "time": "Closed"}], "id": "6564700001", "name": "USPS COLLECTION BOX - PO LOBBY", "address": {"city": "EXETER", "state": "MO", "street": "100 S FRONT ST", "postcode": "65647"}}},
{"geometry": {"type": "Point", "coordinates": [-93.1465611782, 37.3838032328]}, "type": "Feature", "properties": {"collection_times": [{"days": "Mon-Fri", "time": "3:30pm"}, {"days": "Sat", "time": "11:00am"}, {"days": "Sun", "time": "Closed"}], "id": "6564800000", "name": "USPS COLLECTION BOX - BLUE BOX", "address": {"city": "FAIR GROVE", "state": "MO", "street": "210 E OLD MILL RD", "postcode": "65648"}}},
{"geometry": {"type": "Point", "coordinates": [-93.1465611782, 37.3838032328]}, "type": "Feature", "properties": {"collection_times": [{"days": "Mon-Fri", "time": "3:30pm"}, {"days": "Sat", "time": "11:00am"}, {"days": "Sun", "time": "Closed"}], "id": "6564800001", "name": "USPS COLLECTION BOX - PO LOBBY", "address": {"city": "FAIR GROVE", "state": "MO", "street": "210 E OLD MILL RD", "postcode": "65648"}}},
{"geometry": {"type": "Point", "coordinates": [-93.5774539819, 37.6310420575]}, "type": "Feature", "properties": {"collection_times": [{"days": "Mon-Fri", "time": "2:15pm"}, {"days": "Sat", "time": "10:00am"}, {"days": "Sun", "time": "Closed"}], "id": "6564900000", "name": "USPS COLLECTION BOX - BLUE BOX", "address": {"city": "FAIR PLAY", "state": "MO", "street": "103 S TROOST AVE", "postcode": "65649"}}},
{"geometry": {"type": "Point", "coordinates": [-93.5774539819, 37.6310420575]}, "type": "Feature", "properties": {"collection_times": [{"days": "Mon-Fri", "time": "2:15pm"}, {"days": "Sat", "time": "10:00am"}, {"days": "Sun", "time": "Closed"}], "id": "6564900001", "name": "USPS COLLECTION BOX - PO LOBBY", "address": {"city": "FAIR PLAY", "state": "MO", "street": "103 S TROOST AVE", "postcode": "65649"}}},
{"geometry": {"type": "Point", "coordinates": [-93.5774539819, 37.6310420575]}, "type": "Feature", "properties": {"collection_times": [{"days": "Mon-Fri", "time": "2:15pm"}, {"days": "Sat", "time": "10:00am"}, {"days": "Sun", "time": "Closed"}], "id": "6564900002", "name": "USPS COLLECTION BOX - PO LOBBY", "address": {"city": "FAIR PLAY", "state": "MO", "street": "103 S TROOST AVE", "postcode": "65649"}}},
{"geometry": {"type": "Point", "coordinates": [-93.5017380727, 37.8060317598]}, "type": "Feature", "properties": {"collection_times": [{"days": "Mon-Fri", "time": "1:00pm"}, {"days": "Sat", "time": "9:45am"}, {"days": "Sun", "time": "Closed"}], "id": "6565000000", "name": "USPS COLLECTION BOX - BLUE BOX", "address": {"city": "FLEMINGTON", "state": "MO", "street": "691 MAIN ST", "postcode": "65650"}}},
{"geometry": {"type": "Point", "coordinates": [-93.5017380727, 37.8060317598]}, "type": "Feature", "properties": {"collection_times": [{"days": "Mon-Fri", "time": "1:00pm"}, {"days": "Sat", "time": "9:45am"}, {"days": "Sun", "time": "Closed"}], "id": "6565000001", "name": "USPS COLLECTION BOX - PO LOBBY", "address": {"city": "FLEMINGTON", "state": "MO", "street": "691 MAIN ST", "postcode": "65650"}}},
{"geometry": {"type": "Point", "coordinates": [-92.9405982336, 37.1574492972]}, "type": "Feature", "properties": {"collection_times": [{"days": "Mon-Fri", "time": "3:15pm"}, {"days": "Sat", "time": "10:00am"}, {"days": "Sun", "time": "Closed"}], "id": "6565200000", "name": "USPS COLLECTION BOX - BLUE BOX", "address": {"city": "FORDLAND", "state": "MO", "street": "132 MAIN ST", "postcode": "65652"}}},
{"geometry": {"type": "Point", "coordinates": [-92.9405982336, 37.1574492972]}, "type": "Feature", "properties": {"collection_times": [{"days": "Mon-Fri", "time": "3:15pm"}, {"days": "Sat", "time": "10:00am"}, {"days": "Sun", "time": "Closed"}], "id": "6565200002", "name": "USPS COLLECTION BOX - PO LOBBY", "address": {"city": "FORDLAND", "state": "MO", "street": "132 MAIN ST", "postcode": "65652"}}},
{"geometry": {"type": "Point", "coordinates": [-93.1183771808, 36.6867848833]}, "type": "Feature", "properties": {"collection_times": [{"days": "Mon-Fri", "time": "2:15pm"}, {"days": "Sat", "time": "12:00pm"}, {"days": "Sun", "time": "Closed"}], "id": "6565300004", "name": "USPS COLLECTION BOX - PO LOBBY", "address": {"city": "FORSYTH", "state": "MO", "street": "215 SHADOWROCK DR", "postcode": "65653"}}},
{"geometry": {"type": "Point", "coordinates": [-93.1183771808, 36.6867848833]}, "type": "Feature", "properties": {"collection_times": [{"days": "Mon-Fri", "time": "2:15pm"}, {"days": "Sat", "time": "12:00pm"}, {"days": "Sun", "time": "Closed"}], "id": "6565300007", "name": "USPS COLLECTION BOX - BLUE BOX", "address": {"city": "FORSYTH", "state": "MO", "street": "215 SHADOWROCK DR", "postcode": "65653"}}},
{"geometry": {"type": "Point", "coordinates": [-93.8976556649, 37.020871355]}, "type": "Feature", "properties": {"collection_times": [{"days": "Mon-Sat", "time": "11:00am"}, {"days": "Sun", "time": "Closed"}], "id": "6565400002", "name": "USPS COLLECTION BOX - BLUE BOX", "address": {"city": "FREISTATT", "state": "MO", "street": "101 E 3RD ST", "postcode": "65654"}}},
{"geometry": {"type": "Point", "coordinates": [-92.4312538895, 36.602684181]}, "type": "Feature", "properties": {"collection_times": [{"days": "Mon-Fri", "time": "1:30pm"}, {"days": "Sat", "time": "11:00am"}, {"days": "Sun", "time": "Closed"}], "id": "6565500000", "name": "USPS COLLECTION BOX - BLUE BOX", "address": {"city": "GAINESVILLE", "state": "MO", "street": "203 ELM ST", "postcode": "65655"}}},
{"geometry": {"type": "Point", "coordinates": [-92.4312538895, 36.602684181]}, "type": "Feature", "properties": {"collection_times": [{"days": "Mon-Fri", "time": "1:30pm"}, {"days": "Sat", "time": "11:00am"}, {"days": "Sun", "time": "Closed"}], "id": "6565500001", "name": "USPS COLLECTION BOX - PO LOBBY", "address": {"city": "GAINESVILLE", "state": "MO", "street": "203 ELM ST", "postcode": "65655"}}},
{"geometry": {"type": "Point", "coordinates": [-93.4676931336, 36.8106761757]}, "type": "Feature", "properties": {"collection_times": [{"days": "Mon-Fri", "time": "3:00pm"}, {"days": "Sat", "time": "10:30am"}, {"days": "Sun", "time": "Closed"}], "id": "6565600000", "name": "USPS COLLECTION BOX - PO LOBBY", "address": {"city": "GALENA", "state": "MO", "street": "30691 STATE HIGHWAY 413", "postcode": "65656"}}},
{"geometry": {"type": "Point", "coordinates": [-93.4676931336, 36.8106761757]}, "type": "Feature", "properties": {"collection_times": [{"days": "Mon-Fri", "time": "3:00pm"}, {"days": "Sat", "time": "10:30am"}, {"days": "Sun", "time": "Closed"}], "id": "6565600002", "name": "USPS COLLECTION BOX - BLUE BOX", "address": {"city": "GALENA", "state": "MO", "street": "30691 STATE HIGHWAY 413", "postcode": "65656"}}},
{"geometry": {"type": "Point", "coordinates": [-93.4676931336, 36.8106761757]}, "type": "Feature", "properties": {"collection_times": [{"days": "Mon-Fri", "time": "3:00pm"}, {"days": "Sat", "time": "10:30am"}, {"days": "Sun", "time": "Closed"}], "id": "6565600003", "name": "USPS COLLECTION BOX - PO LOBBY", "address": {"city": "GALENA", "state": "MO", "street": "30691 STATE HIGHWAY 413", "postcode": "65656"}}},
{"geometry": {"type": "Point", "coordinates": [-93.6442562668, 36.5401389149]}, "type": "Feature", "properties": {"collection_times": [{"days": "Mon-Fri", "time": "1:15pm"}, {"days": "Sat", "time": "9:30am"}, {"days": "Sun", "time": "Closed"}], "id": "6565800000", "name": "USPS COLLECTION BOX - BLUE BOX", "address": {"city": "GOLDEN", "state": "MO", "street": "28667 STATE HIGHWAY J", "postcode": "65658"}}},
{"geometry": {"type": "Point", "coordinates": [-93.6442562668, 36.5401389149]}, "type": "Feature", "properties": {"collection_times": [{"days": "Mon-Fri", "time": "1:15pm"}, {"days": "Sat", "time": "9:30am"}, {"days": "Sun", "time": "Closed"}], "id": "6565800001", "name": "USPS COLLECTION BOX - PO LOBBY", "address": {"city": "GOLDEN", "state": "MO", "street": "28667 STATE HIGHWAY J", "postcode": "65658"}}},
{"geometry": {"type": "Point", "coordinates": [-92.2867681246, 37.316047089]}, "type": "Feature", "properties": {"collection_times": [{"days": "Mon-Sat", "time": "11:15am"}, {"days": "Sun", "time": "Closed"}], "id": "6566000000", "name": "USPS COLLECTION BOX - BLUE BOX", "address": {"city": "GRAFF", "state": "MO", "street": "9335 HIGHWAY 38", "postcode": "65660"}}},
{"geometry": {"type": "Point", "coordinates": [-92.2867681246, 37.316047089]}, "type": "Feature", "properties": {"collection_times": [{"days": "Mon-Sat", "time": "11:15am"}, {"days": "Sun", "time": "Closed"}], "id": "6566000001", "name": "USPS COLLECTION BOX - PO LOBBY", "address": {"city": "GRAFF", "state": "MO", "street": "9335 HIGHWAY 38", "postcode": "65660"}}},
{"geometry": {"type": "Point", "coordinates": [-93.8402187785, 37.4148077963]}, "type": "Feature", "properties": {"collection_times": [{"days": "Mon-Fri", "time": "1:45pm"}, {"days": "Sat", "time": "9:30am"}, {"days": "Sun", "time": "Closed"}], "id": "6566100000", "name": "USPS COLLECTION BOX - BLUE BOX", "address": {"city": "GREENFIELD", "state": "MO", "street": "114 S MAIN ST", "postcode": "65661"}}},
{"geometry": {"type": "Point", "coordinates": [-93.8402187785, 37.4148077963]}, "type": "Feature", "properties": {"collection_times": [{"days": "Mon-Fri", "time": "1:45pm"}, {"days": "Sat", "time": "9:30am"}, {"days": "Sun", "time": "Closed"}], "id": "6566100004", "name": "USPS COLLECTION BOX - PO LOBBY", "address": {"city": "GREENFIELD", "state": "MO", "street": "114 S MAIN ST", "postcode": "65661"}}},
{"geometry": {"type": "Point", "coordinates": [-92.6072073087, 37.3999572691]}, "type": "Feature", "properties": {"collection_times": [{"days": "Mon-Fri", "time": "1:00pm"}, {"days": "Sat", "time": "11:30am"}, {"days": "Sun", "time": "Closed"}], "id": "6566200000", "name": "USPS COLLECTION BOX - BLUE BOX", "address": {"city": "GROVESPRING", "state": "MO", "street": "2123 HIGHWAY M", "postcode": "65662"}}},
{"geometry": {"type": "Point", "coordinates": [-92.6072073087, 37.3999572691]}, "type": "Feature", "properties": {"collection_times": [{"days": "Mon-Fri", "time": "1:00pm"}, {"days": "Sat", "time": "11:30am"}, {"days": "Sun", "time": "Closed"}], "id": "6566200001", "name": "USPS COLLECTION BOX - PO LOBBY", "address": {"city": "GROVESPRING", "state": "MO", "street": "2123 HIGHWAY M", "postcode": "65662"}}},
{"geometry": {"type": "Point", "coordinates": [-93.2971296429, 37.6073790904]}, "type": "Feature", "properties": {"collection_times": [{"days": "Mon-Fri", "time": "2:45pm"}, {"days": "Sat", "time": "9:45am"}, {"days": "Sun", "time": "Closed"}], "id": "6566300000", "name": "USPS COLLECTION BOX - BLUE BOX", "address": {"city": "HALF WAY", "state": "MO", "street": "2132 HIGHWAY 32", "postcode": "65663"}}},
{"geometry": {"type": "Point", "coordinates": [-93.2971296429, 37.6073790904]}, "type": "Feature", "properties": {"collection_times": [{"days": "Mon-Fri", "time": "2:45pm"}, {"days": "Sat", "time": "9:45am"}, {"days": "Sun", "time": "Closed"}], "id": "6566300001", "name": "USPS COLLECTION BOX - PO LOBBY", "address": {"city": "HALF WAY", "state": "MO", "street": "2132 HIGHWAY 32", "postcode": "65663"}}},
{"geometry": {"type": "Point", "coordinates": [-93.627887639, 37.1931032246]}, "type": "Feature", "properties": {"collection_times": [{"days": "Mon-Fri", "time": "3:45pm"}, {"days": "Sat", "time": "9:30am"}, {"days": "Sun", "time": "Closed"}], "id": "6566400000", "name": "USPS COLLECTION BOX - BLUE BOX", "address": {"city": "HALLTOWN", "state": "MO", "street": "224 MAIN ST", "postcode": "65664"}}},
{"geometry": {"type": "Point", "coordinates": [-93.627887639, 37.1931032246]}, "type": "Feature", "properties": {"collection_times": [{"days": "Mon-Fri", "time": "3:45pm"}, {"days": "Sat", "time": "9:00am"}, {"days": "Sun", "time": "Closed"}], "id": "6566400001", "name": "USPS COLLECTION BOX - PO LOBBY", "address": {"city": "HALLTOWN", "state": "MO", "street": "224 MAIN ST", "postcode": "65664"}}},
{"geometry": {"type": "Point", "coordinates": [-92.3733072417, 36.5927704749]}, "type": "Feature", "properties": {"collection_times": [{"days": "Mon-Sat", "time": "12:00pm"}, {"days": "Sun", "time": "Closed"}], "id": "6566600000", "name": "USPS COLLECTION BOX - BLUE BOX", "address": {"city": "HARDENVILLE", "state": "MO", "street": "100 US HIGHWAY 160", "postcode": "65666"}}},
{"geometry": {"type": "Point", "coordinates": [-92.5106765627, 37.2500158493]}, "type": "Feature", "properties": {"collection_times": [{"days": "Mon-Fri", "time": "3:30pm"}, {"days": "Sat", "time": "10:30am"}, {"days": "Sun", "time": "Closed"}], "id": "6566700000", "name": "USPS COLLECTION BOX - BLUE BOX", "address": {"city": "HARTVILLE", "state": "MO", "street": "130 COURT SQ", "postcode": "65667"}}},
{"geometry": {"type": "Point", "coordinates": [-92.5106765627, 37.2500158493]}, "type": "Feature", "properties": {"collection_times": [{"days": "Mon-Fri", "time": "3:30pm"}, {"days": "Sat", "time": "10:30am"}, {"days": "Sun", "time": "Closed"}], "id": "6566700001", "name": "USPS COLLECTION BOX - PO LOBBY", "address": {"city": "HARTVILLE", "state": "MO", "street": "130 COURT SQ", "postcode": "65667"}}},
{"geometry": {"type": "Point", "coordinates": [-93.3164907834, 37.9412693837]}, "type": "Feature", "properties": {"collection_times": [{"days": "Mon-Fri", "time": "3:15pm"}, {"days": "Sat", "time": "10:00am"}, {"days": "Sun", "time": "Closed"}], "id": "6566800000", "name": "USPS COLLECTION BOX - BLUE BOX", "address": {"city": "HERMITAGE", "state": "MO", "street": "210 S SPRING ST", "postcode": "65668"}}},
{"geometry": {"type": "Point", "coordinates": [-93.3164907834, 37.9412693837]}, "type": "Feature", "properties": {"collection_times": [{"days": "Mon-Fri", "time": "3:15pm"}, {"days": "Sat", "time": "10:00am"}, {"days": "Sun", "time": "Closed"}], "id": "6566800001", "name": "USPS COLLECTION BOX - PO LOBBY", "address": {"city": "HERMITAGE", "state": "MO", "street": "210 S SPRING ST", "postcode": "65668"}}},
{"geometry": {"type": "Point", "coordinates": [-93.2808689018, 36.9329105436]}, "type": "Feature", "properties": {"collection_times": [{"days": "Mon-Fri", "time": "3:15pm"}, {"days": "Sat", "time": "9:00am"}, {"days": "Sun", "time": "Closed"}], "id": "6566900000", "name": "USPS COLLECTION BOX - BLUE BOX", "address": {"city": "HIGHLANDVILLE", "state": "MO", "street": "299 KENTLING AVE", "postcode": "65669"}}},
{"geometry": {"type": "Point", "coordinates": [-93.2808689018, 36.9329105436]}, "type": "Feature", "properties": {"collection_times": [{"days": "Mon-Fri", "time": "3:15pm"}, {"days": "Sat", "time": "9:00am"}, {"days": "Sun", "time": "Closed"}], "id": "6566900001", "name": "USPS COLLECTION BOX - PO LOBBY", "address": {"city": "HIGHLANDVILLE", "state": "MO", "street": "299 KENTLING AVE", "postcode": "65669"}}},
{"geometry": {"type": "Point", "coordinates": [-93.2152934599, 36.6236799373]}, "type": "Feature", "properties": {"collection_times": [{"days": "Mon-Fri", "time": "2:30pm"}, {"days": "Sat", "time": "10:30am"}, {"days": "Sun", "time": "Closed"}], "id": "6567300000", "name": "USPS COLLECTION BOX - BLUE BOX", "address": {"city": "HOLLISTER", "state": "MO", "street": "1980 S BUSINESS HIGHWAY 65", "postcode": "65673"}}},
{"geometry": {"type": "Point", "coordinates": [-93.2152934599, 36.6236799373]}, "type": "Feature", "properties": {"collection_times": [{"days": "Mon-Fri", "time": "2:30pm"}, {"days": "Sat", "time": "10:30am"}, {"days": "Sun", "time": "Closed"}], "id": "6567300002", "name": "USPS COLLECTION BOX - PO LOBBY", "address": {"city": "HOLLISTER", "state": "MO", "street": "1980 S BUSINESS HIGHWAY 65", "postcode": "65673"}}},
{"geometry": {"type": "Point", "coordinates": [-93.2152934599, 36.6236799373]}, "type": "Feature", "properties": {"collection_times": [{"days": "Mon-Fri", "time": "2:30pm"}, {"days": "Sat", "time": "10:30am"}, {"days": "Sun", "time": "Closed"}], "id": "6567300003", "name": "USPS COLLECTION BOX - PO LOBBY", "address": {"city": "HOLLISTER", "state": "MO", "street": "1980 S BUSINESS HIGHWAY 65", "postcode": "65673"}}},
{"geometry": {"type": "Point", "coordinates": [-93.244607913, 36.5271628854]}, "type": "Feature", "properties": {"collection_times": [{"days": "Mon-Fri", "time": "2:30pm"}, {"days": "Sat", "time": "10:30am"}, {"days": "Sun", "time": "Closed"}], "id": "6567300004", "name": "USPS COLLECTION BOX - BLUE BOX", "address": {"city": "HOLLISTER", "state": "MO", "street": "146 WHITEHALL", "postcode": "65673"}}},
{"geometry": {"type": "Point", "coordinates": [-93.5775904574, 37.7944328597]}, "type": "Feature", "properties": {"collection_times": [{"days": "Mon-Fri", "time": "2:45pm"}, {"days": "Sat", "time": "10:30am"}, {"days": "Sun", "time": "Closed"}], "id": "6567400000", "name": "USPS COLLECTION BOX - BLUE BOX", "address": {"city": "HUMANSVILLE", "state": "MO", "street": "200 W TILDEN ST", "postcode": "65674"}}},
{"geometry": {"type": "Point", "coordinates": [-93.5775904574, 37.7944328597]}, "type": "Feature", "properties": {"collection_times": [{"days": "Mon-Fri", "time": "2:45pm"}, {"days": "Sat", "time": "10:30am"}, {"days": "Sun", "time": "Closed"}], "id": "6567400001", "name": "USPS COLLECTION BOX - PO LOBBY", "address": {"city": "HUMANSVILLE", "state": "MO", "street": "200 W TILDEN ST", "postcode": "65674"}}},
{"geometry": {"type": "Point", "coordinates": [-93.4964496831, 36.9309121249]}, "type": "Feature", "properties": {"collection_times": [{"days": "Mon-Fri", "time": "3:15pm"}, {"days": "Sat", "time": "10:00am"}, {"days": "Sun", "time": "Closed"}], "id": "6567500000", "name": "USPS COLLECTION BOX - BLUE BOX", "address": {"city": "HURLEY", "state": "MO", "street": "101 S RAIL ST", "postcode": "65675"}}},
{"geometry": {"type": "Point", "coordinates": [-93.4964496831, 36.9309121249]}, "type": "Feature", "properties": {"collection_times": [{"days": "Mon-Fri", "time": "3:15pm"}, {"days": "Sat", "time": "10:00am"}, {"days": "Sun", "time": "Closed"}], "id": "6567500001", "name": "USPS COLLECTION BOX - PO LOBBY", "address": {"city": "HURLEY", "state": "MO", "street": "101 S RAIL ST", "postcode": "65675"}}},
{"geometry": {"type": "Point", "coordinates": [-92.6032243556, 36.5808074651]}, "type": "Feature", "properties": {"collection_times": [{"days": "Mon-Sat", "time": "11:45am"}, {"days": "Sun", "time": "Closed"}], "id": "6567600000", "name": "USPS COLLECTION BOX - BLUE BOX", "address": {"city": "ISABELLA", "state": "MO", "street": "8 US HIGHWAY 160", "postcode": "65676"}}},
{"geometry": {"type": "Point", "coordinates": [-92.6032243556, 36.5808074651]}, "type": "Feature", "properties": {"collection_times": [{"days": "Mon-Sat", "time": "11:45am"}, {"days": "Sun", "time": "Closed"}], "id": "6567600001", "name": "USPS COLLECTION BOX - PO LOBBY", "address": {"city": "ISABELLA", "state": "MO", "street": "8 US HIGHWAY 160", "postcode": "65676"}}},
{"geometry": {"type": "Point", "coordinates": [-92.6032243556, 36.5808074651]}, "type": "Feature", "properties": {"collection_times": [{"days": "Mon-Sat", "time": "11:45am"}, {"days": "Sun", "time": "Closed"}], "id": "6567600002", "name": "USPS COLLECTION BOX - PO LOBBY", "address": {"city": "ISABELLA", "state": "MO", "street": "8 US HIGHWAY 160", "postcode": "65676"}}},
{"geometry": {"type": "Point", "coordinates": [-93.1651170725, 36.6231807286]}, "type": "Feature", "properties": {"collection_times": [{"days": "Mon-Fri", "time": "10:45am"}, {"days": "Sat", "time": "10:15am"}, {"days": "Sun", "time": "Closed"}], "id": "6567900000", "name": "USPS COLLECTION BOX - BLUE BOX", "address": {"city": "KIRBYVILLE", "state": "MO", "street": "4202 E STATE HIGHWAY 76", "postcode": "65679"}}},
{"geometry": {"type": "Point", "coordinates": [-93.1651170725, 36.6231807286]}, "type": "Feature", "properties": {"collection_times": [{"days": "Mon-Fri", "time": "10:45am"}, {"days": "Sat", "time": "10:15am"}, {"days": "Sun", "time": "Closed"}], "id": "6567900001", "name": "USPS COLLECTION BOX - PO LOBBY", "address": {"city": "KIRBYVILLE", "state": "MO", "street": "4202 E STATE HIGHWAY 76", "postcode": "65679"}}},
{"geometry": {"type": "Point", "coordinates": [-92.9997995514, 36.6549070866]}, "type": "Feature", "properties": {"collection_times": [{"days": "Mon-Fri", "time": "3:00pm"}, {"days": "Sat", "time": "12:00pm"}, {"days": "Sun", "time": "Closed"}], "id": "6568000002", "name": "USPS COLLECTION BOX - BLUE BOX", "address": {"city": "KISSEE MILLS", "state": "MO", "street": "13044 E STATE HIGHWAY 76", "postcode": "65680"}}},
{"geometry": {"type": "Point", "coordinates": [-92.9997995514, 36.6549070866]}, "type": "Feature", "properties": {"collection_times": [{"days": "Mon-Fri", "time": "3:00pm"}, {"days": "Sat", "time": "12:00pm"}, {"days": "Sun", "time": "Closed"}], "id": "6568000003", "name": "USPS COLLECTION BOX - PO LOBBY", "address": {"city": "KISSEE MILLS", "state": "MO", "street": "13044 E STATE HIGHWAY 76", "postcode": "65680"}}},
{"geometry": {"type": "Point", "coordinates": [-93.4395785883, 36.5645537126]}, "type": "Feature", "properties": {"collection_times": [{"days": "Mon-Fri", "time": "2:00pm"}, {"days": "Sat", "time": "11:15am"}, {"days": "Sun", "time": "Closed"}], "id": "6568100000", "name": "USPS COLLECTION BOX - BLUE BOX", "address": {"city": "LAMPE", "state": "MO", "street": "99 STATE HIGHWAY H", "postcode": "65681"}}},
{"geometry": {"type": "Point", "coordinates": [-93.4395785883, 36.5645537126]}, "type": "Feature", "properties": {"collection_times": [{"days": "Mon-Fri", "time": "2:00pm"}, {"days": "Sat", "time": "11:15am"}, {"days": "Sun", "time": "Closed"}], "id": "6568100003", "name": "USPS COLLECTION BOX - PO LOBBY", "address": {"city": "LAMPE", "state": "MO", "street": "99 STATE HIGHWAY H", "postcode": "65681"}}},
{"geometry": {"type": "Point", "coordinates": [-93.9531681099, 37.3857465857]}, "type": "Feature", "properties": {"collection_times": [{"days": "Mon-Fri", "time": "2:15pm"}, {"days": "Sat", "time": "9:45am"}, {"days": "Sun", "time": "Closed"}], "id": "6568200000", "name": "USPS COLLECTION BOX - BLUE BOX", "address": {"city": "LOCKWOOD", "state": "MO", "street": "800 MAIN ST", "postcode": "65682"}}},
{"geometry": {"type": "Point", "coordinates": [-93.9531681099, 37.3857465857]}, "type": "Feature", "properties": {"collection_times": [{"days": "Mon-Fri", "time": "2:15pm"}, {"days": "Sat", "time": "9:45am"}, {"days": "Sun", "time": "Closed"}], "id": "6568200001", "name": "USPS COLLECTION BOX - PO LOBBY", "address": {"city": "LOCKWOOD", "state": "MO", "street": "800 MAIN ST", "postcode": "65682"}}},
{"geometry": {"type": "Point", "coordinates": [-93.1398916555, 37.7578974441]}, "type": "Feature", "properties": {"collection_times": [{"days": "Mon-Fri", "time": "3:00pm"}, {"days": "Sat", "time": "9:45am"}, {"days": "Sun", "time": "Closed"}], "id": "6568500000", "name": "USPS COLLECTION BOX - BLUE BOX", "address": {"city": "LOUISBURG", "state": "MO", "street": "274 STATE HIGHWAY 64", "postcode": "65685"}}},
{"geometry": {"type": "Point", "coordinates": [-93.1398916555, 37.7578974441]}, "type": "Feature", "properties": {"collection_times": [{"days": "Mon-Fri", "time": "11:00am"}, {"days": "Sat", "time": "9:45am"}, {"days": "Sun", "time": "Closed"}], "id": "6568500001", "name": "USPS COLLECTION BOX - PO LOBBY", "address": {"city": "LOUISBURG", "state": "MO", "street": "274 STATE HIGHWAY 64", "postcode": "65685"}}},
{"geometry": {"type": "Point", "coordinates": [-93.4187817876, 36.6373540709]}, "type": "Feature", "properties": {"collection_times": [{"days": "Mon-Fri", "time": "2:15pm"}, {"days": "Sat", "time": "11:45am"}, {"days": "Sun", "time": "Closed"}], "id": "6568600000", "name": "USPS COLLECTION BOX - BLUE BOX", "address": {"city": "KIMBERLING CITY", "state": "MO", "street": "38A KIMBERLING CTR LN", "postcode": "65686"}}},
{"geometry": {"type": "Point", "coordinates": [-93.4187817876, 36.6373540709]}, "type": "Feature", "properties": {"collection_times": [{"days": "Mon-Fri", "time": "2:15pm"}, {"days": "Sat", "time": "11:45am"}, {"days": "Sun", "time": "Closed"}], "id": "6568600003", "name": "USPS COLLECTION BOX - PO LOBBY", "address": {"city": "KIMBERLING CITY", "state": "MO", "street": "38A KIMBERLING CTR LN", "postcode": "65686"}}},
{"geometry": {"type": "Point", "coordinates": [-91.6987231198, 36.6508901087]}, "type": "Feature", "properties": {"collection_times": [{"days": "Mon-Sat", "time": "12:45pm"}, {"days": "Sun", "time": "Closed"}], "id": "6568800000", "name": "USPS COLLECTION BOX - BLUE BOX", "address": {"city": "BRANDSVILLE", "state": "MO", "street": "212 E MAIN ST", "postcode": "65688"}}},
{"geometry": {"type": "Point", "coordinates": [-91.6987231198, 36.6508901087]}, "type": "Feature", "properties": {"collection_times": [{"days": "Mon-Sat", "time": "12:45pm"}, {"days": "Sun", "time": "Closed"}], "id": "6568800001", "name": "USPS COLLECTION BOX - PO LOBBY", "address": {"city": "BRANDSVILLE", "state": "MO", "street": "212 E MAIN ST", "postcode": "65688"}}},
{"geometry": {"type": "Point", "coordinates": [-92.1005607775, 37.1327571891]}, "type": "Feature", "properties": {"collection_times": [{"days": "Mon-Fri", "time": "2:15pm"}, {"days": "Sat", "time": "11:00am"}, {"days": "Sun", "time": "Closed"}], "id": "6568900000", "name": "USPS COLLECTION BOX - BLUE BOX", "address": {"city": "CABOOL", "state": "MO", "street": "519 CEDAR AVE", "postcode": "65689"}}},
{"geometry": {"type": "Point", "coordinates": [-92.1005607775, 37.1327571891]}, "type": "Feature", "properties": {"collection_times": [{"days": "Mon-Fri", "time": "2:15pm"}, {"days": "Sat", "time": "11:00am"}, {"days": "Sun", "time": "Closed"}], "id": "6568900001", "name": "USPS COLLECTION BOX - PO LOBBY", "address": {"city": "CABOOL", "state": "MO", "street": "519 CEDAR AVE", "postcode": "65689"}}},
{"geometry": {"type": "Point", "coordinates": [-91.6452392347, 36.5959487573]}, "type": "Feature", "properties": {"collection_times": [{"days": "Mon-Fri", "time": "12:00pm"}, {"days": "Sat", "time": "9:30am"}, {"days": "Sun", "time": "Closed"}], "id": "6569200000", "name": "USPS COLLECTION BOX - BLUE BOX", "address": {"city": "KOSHKONONG", "state": "MO", "street": "303 DIGGINS ST", "postcode": "65692"}}},
{"geometry": {"type": "Point", "coordinates": [-91.6452392347, 36.5959487573]}, "type": "Feature", "properties": {"collection_times": [{"days": "Mon-Fri", "time": "12:00pm"}, {"days": "Sat", "time": "9:30am"}, {"days": "Sun", "time": "Closed"}], "id": "6569200001", "name": "USPS COLLECTION BOX - PO LOBBY", "address": {"city": "KOSHKONONG", "state": "MO", "street": "303 DIGGINS ST", "postcode": "65692"}}}
]}
