{"type": "FeatureCollection", "features": [
{"geometry": {"type": "Point", "coordinates": [-92.4974863322, 37.0997506312]}, "type": "Feature", "properties": {"collection_times": [{"days": "Mon-Fri", "time": "12:30pm"}, {"days": "Sat", "time": "10:45am"}, {"days": "Sun", "time": "Closed"}], "id": "6570200000", "name": "USPS COLLECTION BOX - BLUE BOX", "address": {"city": "MACOMB", "state": "MO", "street": "4880 HIGHWAY A", "postcode": "65702"}}},
{"geometry": {"type": "Point", "coordinates": [-92.4974863322, 37.0997506312]}, "type": "Feature", "properties": {"collection_times": [{"days": "Mon-Fri", "time": "12:30pm"}, {"days": "Sat", "time": "10:45am"}, {"days": "Sun", "time": "Closed"}], "id": "6570200001", "name": "USPS COLLECTION BOX - PO LOBBY", "address": {"city": "MACOMB", "state": "MO", "street": "4880 HIGHWAY A", "postcode": "65702"}}},
{"geometry": {"type": "Point", "coordinates": [-92.578936753, 37.1043528187]}, "type": "Feature", "properties": {"collection_times": [{"days": "Mon-Fri", "time": "2:00pm"}, {"days": "Sat", "time": "11:15am"}, {"days": "Sun", "time": "Closed"}], "id": "6570400000", "name": "USPS COLLECTION BOX - BLUE BOX", "address": {"city": "MANSFIELD", "state": "MO", "street": "310 E COMMERCIAL ST", "postcode": "65704"}}},
{"geometry": {"type": "Point", "coordinates": [-92.578936753, 37.1043528187]}, "type": "Feature", "properties": {"collection_times": [{"days": "Mon-Fri", "time": "2:00pm"}, {"days": "Sat", "time": "11:15am"}, {"days": "Sun", "time": "Closed"}], "id": "6570400001", "name": "USPS COLLECTION BOX - BLUE BOX", "address": {"city": "MANSFIELD", "state": "MO", "street": "310 E COMMERCIAL ST", "postcode": "65704"}}},
{"geometry": {"type": "Point", "coordinates": [-92.578936753, 37.1043528187]}, "type": "Feature", "properties": {"collection_times": [{"days": "Mon-Fri", "time": "2:00pm"}, {"days": "Sat", "time": "11:15am"}, {"days": "Sun", "time": "Closed"}], "id": "6570400003", "name": "USPS COLLECTION BOX - PO LOBBY", "address": {"city": "MANSFIELD", "state": "MO", "street": "310 E COMMERCIAL ST", "postcode": "65704"}}},
{"geometry": {"type": "Point", "coordinates": [-93.6361397259, 37.0053086329]}, "type": "Feature", "properties": {"collection_times": [{"days": "Mon-Fri", "time": "3:15pm"}, {"days": "Sat", "time": "10:00am"}, {"days": "Sun", "time": "Closed"}], "id": "6570500000", "name": "USPS COLLECTION BOX - BLUE BOX", "address": {"city": "MARIONVILLE", "state": "MO", "street": "200 W BENTON", "postcode": "65705"}}},
{"geometry": {"type": "Point", "coordinates": [-93.6390302183, 37.004914984]}, "type": "Feature", "properties": {"collection_times": [{"days": "Mon-Fri", "time": "3:15pm"}, {"days": "Sat", "time": "10:00am"}, {"days": "Sun", "time": "Closed"}], "id": "6570500003", "name": "USPS COLLECTION BOX - PO LOBBY", "address": {"city": "MARIONVILLE", "state": "MO", "street": "201 W WASHINGTON", "postcode": "65705"}}},
{"geometry": {"type": "Point", "coordinates": [-92.9313132014, 37.3433650723]}, "type": "Feature", "properties": {"collection_times": [{"days": "Mon-Sat", "time": "9:45am"}, {"days": "Sun", "time": "Closed"}], "id": "6570600004", "name": "USPS COLLECTION BOX - BLUE BOX", "address": {"city": "MARSHFIELD", "state": "MO", "street": "1350 SPUR DR", "postcode": "65706"}}},
{"geometry": {"type": "Point", "coordinates": [-92.9313414733, 37.3432354341]}, "type": "Feature", "properties": {"collection_times": [{"days": "Mon-Sat", "time": "9:45am"}, {"days": "Sun", "time": "Closed"}], "id": "6570600008", "name": "USPS COLLECTION BOX - BLUE BOX", "address": {"city": "MARSHFIELD", "state": "MO", "street": "1331 SPUR DR", "postcode": "65706"}}},
{"geometry": {"type": "Point", "coordinates": [-92.9075127239, 37.3400721156]}, "type": "Feature", "properties": {"collection_times": [{"days": "Mon-Fri", "time": "3:00pm"}, {"days": "Sat", "time": "11:00am"}, {"days": "Sun", "time": "Closed"}], "id": "6570600009", "name": "USPS COLLECTION BOX - PO LOBBY", "address": {"city": "MARSHFIELD", "state": "MO", "street": "203 N CLAY ST", "postcode": "65706"}}},
{"geometry": {"type": "Point", "coordinates": [-92.9075127239, 37.3400721156]}, "type": "Feature", "properties": {"collection_times": [{"days": "Mon-Fri", "time": "3:00pm"}, {"days": "Sat", "time": "11:00am"}, {"days": "Sun", "time": "Closed"}], "id": "6570600013", "name": "USPS COLLECTION BOX - BLUE BOX", "address": {"city": "MARSHFIELD", "state": "MO", "street": "203 N CLAY ST", "postcode": "65706"}}},
{"geometry": {"type": "Point", "coordinates": [-93.8398668395, 37.214914281]}, "type": "Feature", "properties": {"collection_times": [{"days": "Mon-Fri", "time": "2:30pm"}, {"days": "Sat", "time": "9:45am"}, {"days": "Sun", "time": "Closed"}], "id": "6570700000", "name": "USPS COLLECTION BOX - BLUE BOX", "address": {"city": "MILLER", "state": "MO", "street": "210 E MAIN ST", "postcode": "65707"}}},
{"geometry": {"type": "Point", "coordinates": [-93.8398668395, 37.214914281]}, "type": "Feature", "properties": {"collection_times": [{"days": "Mon-Fri", "time": "2:30pm"}, {"days": "Sat", "time": "9:45am"}, {"days": "Sun", "time": "Closed"}], "id": "6570700001", "name": "USPS COLLECTION BOX - PO LOBBY", "address": {"city": "MILLER", "state": "MO", "street": "210 E MAIN ST", "postcode": "65707"}}},
{"geometry": {"type": "Point", "coordinates": [-93.924862319, 36.9215691509]}, "type": "Feature", "properties": {"collection_times": [{"days": "Mon-Sat", "time": "2:00pm"}, {"days": "Sun", "time": "Closed"}], "id": "6570800000", "name": "USPS COLLECTION BOX - BLUE BOX", "address": {"city": "MONETT", "state": "MO", "street": "300 E BOND ST", "postcode": "65708"}}},
{"geometry": {"type": "Point", "coordinates": [-93.924862319, 36.9215691509]}, "type": "Feature", "properties": {"collection_times": [{"days": "Mon-Sat", "time": "2:00pm"}, {"days": "Sun", "time": "Closed"}], "id": "6570800001", "name": "USPS COLLECTION BOX - BLUE BOX", "address": {"city": "MONETT", "state": "MO", "street": "300 E BOND ST", "postcode": "65708"}}},
{"geometry": {"type": "Point", "coordinates": [-93.924862319, 36.9215691509]}, "type": "Feature", "properties": {"collection_times": [{"days": "Mon-Sat", "time": "2:00pm"}, {"days": "Sun", "time": "Closed"}], "id": "6570800002", "name": "USPS COLLECTION BOX - BLUE BOX", "address": {"city": "MONETT", "state": "MO", "street": "300 E BOND ST", "postcode": "65708"}}},
{"geometry": {"type": "Point", "coordinates": [-93.924862319, 36.9215691509]}, "type": "Feature", "properties": {"collection_times": [{"days": "Mon-Sat", "time": "2:00pm"}, {"days": "Sun", "time": "Closed"}], "id": "6570800003", "name": "USPS COLLECTION BOX - BLUE BOX", "address": {"city": "MONETT", "state": "MO", "street": "300 E BOND ST", "postcode": "65708"}}},
{"geometry": {"type": "Point", "coordinates": [-93.9237793315, 36.9218357141]}, "type": "Feature", "properties": {"collection_times": [{"days": "Mon-Sat", "time": "2:00pm"}, {"days": "Sun", "time": "Closed"}], "id": "6570800015", "name": "USPS COLLECTION BOX - PO LOBBY", "address": {"city": "MONETT", "state": "MO", "street": "300 4TH ST", "postcode": "65708"}}},
{"geometry": {"type": "Point", "coordinates": [-93.9237793315, 36.9218357141]}, "type": "Feature", "properties": {"collection_times": [{"days": "Mon-Sat", "time": "2:00pm"}, {"days": "Sun", "time": "Closed"}], "id": "6570800016", "name": "USPS COLLECTION BOX - PO LOBBY", "address": {"city": "MONETT", "state": "MO", "street": "300 4TH ST", "postcode": "65708"}}},
{"geometry": {"type": "Point", "coordinates": [-93.9047273873, 36.9137745736]}, "type": "Feature", "properties": {"collection_times": [{"days": "Mon-Sat", "time": "11:00am"}, {"days": "Sun", "time": "Closed"}], "id": "6570800017", "name": "USPS COLLECTION BOX - BLUE BOX", "address": {"city": "MONETT", "state": "MO", "street": "885 E HIGHWAY 60", "postcode": "65708"}}},
{"geometry": {"type": "Point", "coordinates": [-93.4278737436, 37.4821730855]}, "type": "Feature", "properties": {"collection_times": [{"days": "Mon-Fri", "time": "11:30am"}, {"days": "Sat", "time": "9:30am"}, {"days": "Sun", "time": "Closed"}], "id": "6571000000", "name": "USPS COLLECTION BOX - BLUE BOX", "address": {"city": "MORRISVILLE", "state": "MO", "street": "100 N MAIN ST", "postcode": "65710"}}},
{"geometry": {"type": "Point", "coordinates": [-93.4278737436, 37.4821730855]}, "type": "Feature", "properties": {"collection_times": [{"days": "Mon-Fri", "time": "11:30am"}, {"days": "Sat", "time": "9:30am"}, {"days": "Sun", "time": "Closed"}], "id": "6571000002", "name": "USPS COLLECTION BOX - PO LOBBY", "address": {"city": "MORRISVILLE", "state": "MO", "street": "100 N MAIN ST", "postcode": "65710"}}},
{"geometry": {"type": "Point", "coordinates": [-92.2629163037, 37.1534672816]}, "type": "Feature", "properties": {"collection_times": [{"days": "Mon-Sat", "time": "2:00pm"}, {"days": "Sun", "time": "Closed"}], "id": "6571100016", "name": "USPS COLLECTION BOX - BLUE BOX", "address": {"city": "MOUNTAIN GROVE", "state": "MO", "street": "2100 N MAIN AVE", "postcode": "65711"}}},
{"geometry": {"type": "Point", "coordinates": [-92.2644303589, 37.1281330484]}, "type": "Feature", "properties": {"collection_times": [{"days": "Mon-Sat", "time": "3:00pm"}, {"days": "Sun", "time": "Closed"}], "id": "6571100018", "name": "USPS COLLECTION BOX - BLUE BOX", "address": {"city": "MOUNTAIN GROVE", "state": "MO", "street": "125 E NORTH ST", "postcode": "65711"}}},
{"geometry": {"type": "Point", "coordinates": [-92.2644303589, 37.1281330484]}, "type": "Feature", "properties": {"collection_times": [{"days": "Mon-Sat", "time": "3:00pm"}, {"days": "Sun", "time": "Closed"}], "id": "6571100020", "name": "USPS COLLECTION BOX - BLUE BOX", "address": {"city": "MOUNTAIN GROVE", "state": "MO", "street": "125 E NORTH ST", "postcode": "65711"}}},
{"geometry": {"type": "Point", "coordinates": [-92.2629867426, 37.1288557492]}, "type": "Feature", "properties": {"collection_times": [{"days": "Mon-Sat", "time": "3:00pm"}, {"days": "Sun", "time": "Closed"}], "id": "6571100025", "name": "USPS COLLECTION BOX - PO LOBBY", "address": {"city": "MOUNTAIN GROVE", "state": "MO", "street": "111 S UNION ST", "postcode": "65711"}}},
{"geometry": {"type": "Point", "coordinates": [-93.8174261761, 37.0944983283]}, "type": "Feature", "properties": {"collection_times": [{"days": "Mon-Sat", "time": "12:00pm"}, {"days": "Sun", "time": "Closed"}], "id": "6571200002", "name": "USPS COLLECTION BOX - BLUE BOX", "address": {"city": "MOUNT VERNON", "state": "MO", "street": "212 E MOUNT VERNON BLVD", "postcode": "65712"}}},
{"geometry": {"type": "Point", "coordinates": [-93.8183959712, 37.1021588857]}, "type": "Feature", "properties": {"collection_times": [{"days": "Mon-Fri", "time": "3:00pm"}, {"days": "Sat", "time": "12:00pm"}, {"days": "Sun", "time": "Closed"}], "id": "6571200011", "name": "USPS COLLECTION BOX - PO LOBBY", "address": {"city": "MOUNT VERNON", "state": "MO", "street": "205 E SOUTH ST", "postcode": "65712"}}},
{"geometry": {"type": "Point", "coordinates": [-93.8126089714, 37.0942274931]}, "type": "Feature", "properties": {"collection_times": [{"days": "Mon-Sat", "time": "12:00pm"}, {"days": "Sun", "time": "Closed"}], "id": "6571200012", "name": "USPS COLLECTION BOX - BLUE BOX", "address": {"city": "MOUNT VERNON", "state": "MO", "street": "615 E MOUNT VERNON BLVD", "postcode": "65712"}}},
{"geometry": {"type": "Point", "coordinates": [-93.8183959712, 37.1021588857]}, "type": "Feature", "properties": {"collection_times": [{"days": "Mon-Fri", "time": "3:00pm"}, {"days": "Sat", "time": "12:00pm"}, {"days": "Sun", "time": "Closed"}], "id": "6571200013", "name": "USPS COLLECTION BOX - BLUE BOX", "address": {"city": "MOUNT VERNON", "state": "MO", "street": "205 E SOUTH ST", "postcode": "65712"}}},
{"geometry": {"type": "Point", "coordinates": [-92.8324755678, 37.3877817369]}, "type": "Feature", "properties": {"collection_times": [{"days": "Mon-Fri", "time": "11:30am"}, {"days": "Sat", "time": "10:00am"}, {"days": "Sun", "time": "Closed"}], "id": "6571300000", "name": "USPS COLLECTION BOX - BLUE BOX", "address": {"city": "NIANGUA", "state": "MO", "street": "113 S MAIN ST", "postcode": "65713"}}},
{"geometry": {"type": "Point", "coordinates": [-92.8324755678, 37.3877817369]}, "type": "Feature", "properties": {"collection_times": [{"days": "Mon-Fri", "time": "11:30am"}, {"days": "Sat", "time": "10:00am"}, {"days": "Sun", "time": "Closed"}], "id": "6571300002", "name": "USPS COLLECTION BOX - PO LOBBY", "address": {"city": "NIANGUA", "state": "MO", "street": "113 S MAIN ST", "postcode": "65713"}}},
{"geometry": {"type": "Point", "coordinates": [-93.2990781142, 37.0843609988]}, "type": "Feature", "properties": {"collection_times": [{"days": "Mon-Sat", "time": "12:00pm"}, {"days": "Sun", "time": "Closed"}], "id": "6571400001", "name": "USPS COLLECTION BOX - BLUE BOX", "address": {"city": "NIXA", "state": "MO", "street": "1919 FITZ LN", "postcode": "65714"}}},
{"geometry": {"type": "Point", "coordinates": [-93.30350362, 37.0507357921]}, "type": "Feature", "properties": {"collection_times": [{"days": "Mon-Sat", "time": "12:30pm"}, {"days": "Sun", "time": "Closed"}], "id": "6571400002", "name": "USPS COLLECTION BOX - BLUE BOX", "address": {"city": "NIXA", "state": "MO", "street": "400 N MASSEY BLVD", "postcode": "65714"}}},
{"geometry": {"type": "Point", "coordinates": [-93.3228228059, 37.0435735741]}, "type": "Feature", "properties": {"collection_times": [{"days": "Mon-Sat", "time": "12:00pm"}, {"days": "Sun", "time": "Closed"}], "id": "6571400003", "name": "USPS COLLECTION BOX - BLUE BOX", "address": {"city": "NIXA", "state": "MO", "street": "1306 W MOUNT VERNON ST", "postcode": "65714"}}},
{"geometry": {"type": "Point", "coordinates": [-93.2940187477, 37.0627647156]}, "type": "Feature", "properties": {"collection_times": [{"days": "Mon-Sat", "time": "12:00pm"}, {"days": "Sun", "time": "Closed"}], "id": "6571400004", "name": "USPS COLLECTION BOX - BLUE BOX", "address": {"city": "NIXA", "state": "MO", "street": "1202 N MAIN ST", "postcode": "65714"}}},
{"geometry": {"type": "Point", "coordinates": [-93.3077421301, 37.0436753903]}, "type": "Feature", "properties": {"collection_times": [{"days": "Mon-Sat", "time": "12:00pm"}, {"days": "Sun", "time": "Closed"}], "id": "6571400006", "name": "USPS COLLECTION BOX - BLUE BOX", "address": {"city": "NIXA", "state": "MO", "street": "615 W MOUNT VERNON ST", "postcode": "65714"}}},
{"geometry": {"type": "Point", "coordinates": [-93.3008051851, 37.0399432828]}, "type": "Feature", "properties": {"collection_times": [{"days": "Mon-Fri", "time": "3:00pm"}, {"days": "Sat", "time": "1:00pm"}, {"days": "Sun", "time": "Closed"}], "id": "6571400007", "name": "USPS COLLECTION BOX - PO LOBBY", "address": {"city": "NIXA", "state": "MO", "street": "404 W SOUTH ST", "postcode": "65714"}}},
{"geometry": {"type": "Point", "coordinates": [-93.3008051851, 37.0399432828]}, "type": "Feature", "properties": {"collection_times": [{"days": "Mon-Fri", "time": "3:00pm"}, {"days": "Sat", "time": "1:00pm"}, {"days": "Sun", "time": "Closed"}], "id": "6571400008", "name": "USPS COLLECTION BOX - PO LOBBY", "address": {"city": "NIXA", "state": "MO", "street": "404 W SOUTH ST", "postcode": "65714"}}},
{"geometry": {"type": "Point", "coordinates": [-93.3008051851, 37.0399432828]}, "type": "Feature", "properties": {"collection_times": [{"days": "Mon-Fri", "time": "3:00pm"}, {"days": "Sat", "time": "1:00pm"}, {"days": "Sun", "time": "Closed"}], "id": "6571400009", "name": "USPS COLLECTION BOX - PO LOBBY", "address": {"city": "NIXA", "state": "MO", "street": "404 W SOUTH ST", "postcode": "65714"}}},
{"geometry": {"type": "Point", "coordinates": [-93.3008051851, 37.0399432828]}, "type": "Feature", "properties": {"collection_times": [{"days": "Mon-Fri", "time": "3:00pm"}, {"days": "Sat", "time": "1:00pm"}, {"days": "Sun", "time": "Closed"}], "id": "6571400010", "name": "USPS COLLECTION BOX - PO LOBBY", "address": {"city": "NIXA", "state": "MO", "street": "404 W SOUTH ST", "postcode": "65714"}}},
{"geometry": {"type": "Point", "coordinates": [-93.3008051851, 37.0399432828]}, "type": "Feature", "properties": {"collection_times": [{"days": "Mon-Fri", "time": "3:00pm"}, {"days": "Sat", "time": "1:00pm"}, {"days": "Sun", "time": "Closed"}], "id": "6571400011", "name": "USPS COLLECTION BOX - BLUE BOX", "address": {"city": "NIXA", "state": "MO", "street": "404 W SOUTH ST", "postcode": "65714"}}},
{"geometry": {"type": "Point", "coordinates": [-93.3008051851, 37.0399432828]}, "type": "Feature", "properties": {"collection_times": [{"days": "Mon-Fri", "time": "3:00pm"}, {"days": "Sat", "time": "1:00pm"}, {"days": "Sun", "time": "Closed"}], "id": "6571400012", "name": "USPS COLLECTION BOX - BLUE BOX", "address": {"city": "NIXA", "state": "MO", "street": "404 W SOUTH ST", "postcode": "65714"}}},
{"geometry": {"type": "Point", "coordinates": [-93.3008051851, 37.0399432828]}, "type": "Feature", "properties": {"collection_times": [{"days": "Mon-Fri", "time": "3:00pm"}, {"days": "Sat", "time": "1:00pm"}, {"days": "Sun", "time": "Closed"}], "id": "6571400013", "name": "USPS COLLECTION BOX - BLUE BOX", "address": {"city": "NIXA", "state": "MO", "street": "404 W SOUTH ST", "postcode": "65714"}}},
{"geometry": {"type": "Point", "coordinates": [-93.3033149127, 37.0601048622]}, "type": "Feature", "properties": {"collection_times": [{"days": "Mon-Sat", "time": "12:00pm"}, {"days": "Sun", "time": "Closed"}], "id": "6571400014", "name": "USPS COLLECTION BOX - BLUE BOX", "address": {"city": "NIXA", "state": "MO", "street": "1102 N MASSEY BLVD", "postcode": "65714"}}},
{"geometry": {"type": "Point", "coordinates": [-92.4170082939, 37.1075115617]}, "type": "Feature", "properties": {"collection_times": [{"days": "Mon-Fri", "time": "1:30pm"}, {"days": "Sat", "time": "9:45am"}, {"days": "Sun", "time": "Closed"}], "id": "6571700000", "name": "USPS COLLECTION BOX - BLUE BOX", "address": {"city": "NORWOOD", "state": "MO", "street": "100 E MAIN ST", "postcode": "65717"}}},
{"geometry": {"type": "Point", "coordinates": [-92.4170082939, 37.1075115617]}, "type": "Feature", "properties": {"collection_times": [{"days": "Mon-Fri", "time": "1:30pm"}, {"days": "Sat", "time": "9:45am"}, {"days": "Sun", "time": "Closed"}], "id": "6571700001", "name": "USPS COLLECTION BOX - PO LOBBY", "address": {"city": "NORWOOD", "state": "MO", "street": "100 E MAIN ST", "postcode": "65717"}}},
{"geometry": {"type": "Point", "coordinates": [-93.0402062727, 36.9777396273]}, "type": "Feature", "properties": {"collection_times": [{"days": "Mon-Fri", "time": "2:15pm"}, {"days": "Sat", "time": "8:45am"}, {"days": "Sun", "time": "Closed"}], "id": "6572000000", "name": "USPS COLLECTION BOX - BLUE BOX", "address": {"city": "OLDFIELD", "state": "MO", "street": "2838 STATE HIGHWAY 125 S", "postcode": "65720"}}},
{"geometry": {"type": "Point", "coordinates": [-93.0402062727, 36.9777396273]}, "type": "Feature", "properties": {"collection_times": [{"days": "Mon-Fri", "time": "11:00am"}, {"days": "Sat", "time": "8:45am"}, {"days": "Sun", "time": "Closed"}], "id": "6572000001", "name": "USPS COLLECTION BOX - PO LOBBY", "address": {"city": "OLDFIELD", "state": "MO", "street": "2838 STATE HIGHWAY 125 S", "postcode": "65720"}}},
{"geometry": {"type": "Point", "coordinates": [-93.2189186808, 37.0250122873]}, "type": "Feature", "properties": {"collection_times": [{"days": "Mon-Fri", "time": "2:30pm"}, {"days": "Sat", "time": "12:30pm"}, {"days": "Sun", "time": "Closed"}], "id": "6572100001", "name": "USPS COLLECTION BOX - BLUE BOX", "address": {"city": "OZARK", "state": "MO", "street": "1450 W JACKSON ST", "postcode": "65721"}}},
{"geometry": {"type": "Point", "coordinates": [-93.2021646839, 37.0040801921]}, "type": "Feature", "properties": {"collection_times": [{"days": "Mon-Sat", "time": "1:30pm"}, {"days": "Sun", "time": "Closed"}], "id": "6572100002", "name": "USPS COLLECTION BOX - BLUE BOX", "address": {"city": "OZARK", "state": "MO", "street": "604 E SOUTH ST", "postcode": "65721"}}},
{"geometry": {"type": "Point", "coordinates": [-93.2028431536, 37.0198864787]}, "type": "Feature", "properties": {"collection_times": [{"days": "Mon-Sat", "time": "10:15am"}, {"days": "Sun", "time": "Closed"}], "id": "6572100003", "name": "USPS COLLECTION BOX - BLUE BOX", "address": {"city": "OZARK", "state": "MO", "street": "101 S 4TH AVE", "postcode": "65721"}}},
{"geometry": {"type": "Point", "coordinates": [-93.1997309976, 36.9667665553]}, "type": "Feature", "properties": {"collection_times": [{"days": "Mon-Sat", "time": "11:00am"}, {"days": "Sun", "time": "Closed"}], "id": "6572100004", "name": "USPS COLLECTION BOX - BLUE BOX", "address": {"city": "OZARK", "state": "MO", "street": "5350 N 22ND ST", "postcode": "65721"}}},
{"geometry": {"type": "Point", "coordinates": [-93.2006203166, 37.0304184156]}, "type": "Feature", "properties": {"collection_times": [{"days": "Mon-Sat", "time": "9:30am"}, {"days": "Sun", "time": "Closed"}], "id": "6572100005", "name": "USPS COLLECTION BOX - BLUE BOX", "address": {"city": "OZARK", "state": "MO", "street": "1251 N 5TH AVE", "postcode": "65721"}}},
{"geometry": {"type": "Point", "coordinates": [-93.1997309976, 36.9667665553]}, "type": "Feature", "properties": {"collection_times": [{"days": "Mon-Sat", "time": "12:30pm"}, {"days": "Sun", "time": "Closed"}], "id": "6572100007", "name": "USPS COLLECTION BOX - BLUE BOX", "address": {"city": "OZARK", "state": "MO", "street": "5504 N 17TH ST", "postcode": "65721"}}},
{"geometry": {"type": "Point", "coordinates": [-93.211110474, 37.025320334]}, "type": "Feature", "properties": {"collection_times": [{"days": "Mon-Sat", "time": "12:00pm"}, {"days": "Sun", "time": "Closed"}], "id": "6572100009", "name": "USPS COLLECTION BOX - BLUE BOX", "address": {"city": "OZARK", "state": "MO", "street": "901 W JACKSON ST", "postcode": "65721"}}},
{"geometry": {"type": "Point", "coordinates": [-93.2326084127, 37.0694163794]}, "type": "Feature", "properties": {"collection_times": [{"days": "Mon-Sat", "time": "10:30am"}, {"days": "Sun", "time": "Closed"}], "id": "6572100010", "name": "USPS COLLECTION BOX - BLUE BOX", "address": {"city": "OZARK", "state": "MO", "street": "4800 N 22ND ST", "postcode": "65721"}}},
{"geometry": {"type": "Point", "coordinates": [-93.2319890871, 37.0228331847]}, "type": "Feature", "properties": {"collection_times": [{"days": "Mon-Sat", "time": "12:30pm"}, {"days": "Sun", "time": "Closed"}], "id": "6572100011", "name": "USPS COLLECTION BOX - BLUE BOX", "address": {"city": "OZARK", "state": "MO", "street": "701 N 20TH ST", "postcode": "65721"}}},
{"geometry": {"type": "Point", "coordinates": [-93.2189186808, 37.0250122873]}, "type": "Feature", "properties": {"collection_times": [{"days": "Mon-Fri", "time": "2:30pm"}, {"days": "Sat", "time": "12:30pm"}, {"days": "Sun", "time": "Closed"}], "id": "6572100012", "name": "USPS COLLECTION BOX - PO LOBBY", "address": {"city": "OZARK", "state": "MO", "street": "1450 W JACKSON ST", "postcode": "65721"}}},
{"geometry": {"type": "Point", "coordinates": [-93.2012157771, 37.002025373]}, "type": "Feature", "properties": {"collection_times": [{"days": "Mon-Sat", "time": "12:00pm"}, {"days": "Sun", "time": "Closed"}], "id": "6572100013", "name": "USPS COLLECTION BOX - BLUE BOX", "address": {"city": "OZARK", "state": "MO", "street": "700 E BAIN ST", "postcode": "65721"}}},
{"geometry": {"type": "Point", "coordinates": [-93.2189186808, 37.0250122873]}, "type": "Feature", "properties": {"collection_times": [{"days": "Mon-Fri", "time": "2:30pm"}, {"days": "Sat", "time": "12:30pm"}, {"days": "Sun", "time": "Closed"}], "id": "6572100014", "name": "USPS COLLECTION BOX - PO LOBBY", "address": {"city": "OZARK", "state": "MO", "street": "1450 W JACKSON ST", "postcode": "65721"}}},
{"geometry": {"type": "Point", "coordinates": [-93.1997309976, 36.9667665553]}, "type": "Feature", "properties": {"collection_times": [{"days": "Mon-Sat", "time": "10:00am"}, {"days": "Sun", "time": "Closed"}], "id": "6572100016", "name": "USPS COLLECTION BOX - BLUE BOX", "address": {"city": "OZARK", "state": "MO", "street": "2300 W JONQUIL LN", "postcode": "65721"}}},
{"geometry": {"type": "Point", "coordinates": [-93.2051528038, 37.0215892193]}, "type": "Feature", "properties": {"collection_times": [{"days": "Mon-Fri", "time": "2:00pm"}, {"days": "Sat", "time": "10:15am"}, {"days": "Sun", "time": "Closed"}], "id": "6572100017", "name": "USPS COLLECTION BOX - BLUE BOX", "address": {"city": "OZARK", "state": "MO", "street": "205 N 1ST ST", "postcode": "65721"}}},
{"geometry": {"type": "Point", "coordinates": [-93.2051213059, 37.0208502848]}, "type": "Feature", "properties": {"collection_times": [{"days": "Mon-Fri", "time": "2:00pm"}, {"days": "Sat", "time": "10:15am"}, {"days": "Sun", "time": "Closed"}], "id": "6572100018", "name": "USPS COLLECTION BOX - BLUE BOX", "address": {"city": "OZARK", "state": "MO", "street": "100 W CHURCH ST", "postcode": "65721"}}},
{"geometry": {"type": "Point", "coordinates": [-93.1931737872, 37.0052587176]}, "type": "Feature", "properties": {"collection_times": [{"days": "Mon-Sat", "time": "11:00am"}, {"days": "Sun", "time": "Closed"}], "id": "6572100019", "name": "USPS COLLECTION BOX - BLUE BOX", "address": {"city": "OZARK", "state": "MO", "street": "1594 S 14TH AVE", "postcode": "65721"}}},
{"geometry": {"type": "Point", "coordinates": [-93.2289823345, 37.0312297533]}, "type": "Feature", "properties": {"collection_times": [{"days": "Mon-Sat", "time": "10:00am"}, {"days": "Sun", "time": "Closed"}], "id": "6572100020", "name": "USPS COLLECTION BOX - BLUE BOX", "address": {"city": "OZARK", "state": "MO", "street": "1778 S 20TH ST", "postcode": "65721"}}},
{"geometry": {"type": "Point", "coordinates": [-92.7848547806, 37.5542240457]}, "type": "Feature", "properties": {"collection_times": [{"days": "Mon-Fri", "time": "1:30pm"}, {"days": "Sat", "time": "10:00am"}, {"days": "Sun", "time": "Closed"}], "id": "6572200000", "name": "USPS COLLECTION BOX - BLUE BOX", "address": {"city": "PHILLIPSBURG", "state": "MO", "street": "100 S FRONT ST", "postcode": "65722"}}},
{"geometry": {"type": "Point", "coordinates": [-92.7848547806, 37.5542240457]}, "type": "Feature", "properties": {"collection_times": [{"days": "Mon-Fri", "time": "1:30pm"}, {"days": "Sat", "time": "10:00am"}, {"days": "Sun", "time": "Closed"}], "id": "6572200001", "name": "USPS COLLECTION BOX - PO LOBBY", "address": {"city": "PHILLIPSBURG", "state": "MO", "street": "100 S FRONT ST", "postcode": "65722"}}},
{"geometry": {"type": "Point", "coordinates": [-92.7848547806, 37.5542240457]}, "type": "Feature", "properties": {"collection_times": [{"days": "Mon-Fri", "time": "1:30pm"}, {"days": "Sat", "time": "10:00am"}, {"days": "Sun", "time": "Closed"}], "id": "6572200002", "name": "USPS COLLECTION BOX - PO LOBBY", "address": {"city": "PHILLIPSBURG", "state": "MO", "street": "100 S FRONT ST", "postcode": "65722"}}},
{"geometry": {"type": "Point", "coordinates": [-94.0027440443, 36.9447325297]}, "type": "Feature", "properties": {"collection_times": [{"days": "Mon-Fri", "time": "1:00pm"}, {"days": "Sat", "time": "10:15am"}, {"days": "Sun", "time": "Closed"}], "id": "6572300000", "name": "USPS COLLECTION BOX - BLUE BOX", "address": {"city": "PIERCE CITY", "state": "MO", "street": "114 E COMMERCIAL ST", "postcode": "65723"}}},
{"geometry": {"type": "Point", "coordinates": [-94.0027440443, 36.9447325297]}, "type": "Feature", "properties": {"collection_times": [{"days": "Mon-Fri", "time": "1:00pm"}, {"days": "Sat", "time": "10:15am"}, {"days": "Sun", "time": "Closed"}], "id": "6572300001", "name": "USPS COLLECTION BOX - BLUE BOX", "address": {"city": "PIERCE CITY", "state": "MO", "street": "114 E COMMERCIAL ST", "postcode": "65723"}}},
{"geometry": {"type": "Point", "coordinates": [-94.0027440443, 36.9447325297]}, "type": "Feature", "properties": {"collection_times": [{"days": "Mon-Fri", "time": "1:00pm"}, {"days": "Sat", "time": "10:15am"}, {"days": "Sun", "time": "Closed"}], "id": "6572300002", "name": "USPS COLLECTION BOX - PO LOBBY", "address": {"city": "PIERCE CITY", "state": "MO", "street": "114 E COMMERCIAL ST", "postcode": "65723"}}},
{"geometry": {"type": "Point", "coordinates": [-94.0027440443, 36.9447325297]}, "type": "Feature", "properties": {"collection_times": [{"days": "Mon-Fri", "time": "1:00pm"}, {"days": "Sat", "time": "10:15am"}, {"days": "Sun", "time": "Closed"}], "id": "6572300003", "name": "USPS COLLECTION BOX - PO LOBBY", "address": {"city": "PIERCE CITY", "state": "MO", "street": "114 E COMMERCIAL ST", "postcode": "65723"}}},
{"geometry": {"type": "Point", "coordinates": [-93.3305625647, 37.842386413]}, "type": "Feature", "properties": {"collection_times": [{"days": "Mon-Fri", "time": "1:30pm"}, {"days": "Sat", "time": "10:30am"}, {"days": "Sun", "time": "Closed"}], "id": "6572400000", "name": "USPS COLLECTION BOX - BLUE BOX", "address": {"city": "PITTSBURG", "state": "MO", "street": "100 N STATE HIGHWAY 64", "postcode": "65724"}}},
{"geometry": {"type": "Point", "coordinates": [-93.3305625647, 37.842386413]}, "type": "Feature", "properties": {"collection_times": [{"days": "Mon-Fri", "time": "1:30pm"}, {"days": "Sat", "time": "10:30am"}, {"days": "Sun", "time": "Closed"}], "id": "6572400002", "name": "USPS COLLECTION BOX - PO LOBBY", "address": {"city": "PITTSBURG", "state": "MO", "street": "100 N STATE HIGHWAY 64", "postcode": "65724"}}},
{"geometry": {"type": "Point", "coordinates": [-93.2728453901, 37.4624975638]}, "type": "Feature", "properties": {"collection_times": [{"days": "Mon-Fri", "time": "1:30pm"}, {"days": "Sat", "time": "9:30am"}, {"days": "Sun", "time": "Closed"}], "id": "6572500000", "name": "USPS COLLECTION BOX - BLUE BOX", "address": {"city": "PLEASANT HOPE", "state": "MO", "street": "120 MAIN ST", "postcode": "65725"}}},
{"geometry": {"type": "Point", "coordinates": [-93.2728453901, 37.4624975638]}, "type": "Feature", "properties": {"collection_times": [{"days": "Mon-Fri", "time": "1:30pm"}, {"days": "Sat", "time": "9:30am"}, {"days": "Sun", "time": "Closed"}], "id": "6572500001", "name": "USPS COLLECTION BOX - PO LOBBY", "address": {"city": "PLEASANT HOPE", "state": "MO", "street": "120 MAIN ST", "postcode": "65725"}}},
{"geometry": {"type": "Point", "coordinates": [-93.239882382, 36.6158170286]}, "type": "Feature", "properties": {"collection_times": [{"days": "Mon-Fri", "time": "2:00pm"}, {"days": "Sat", "time": "11:15am"}, {"days": "Sun", "time": "Closed"}], "id": "6572600000", "name": "USPS COLLECTION BOX - BLUE BOX", "address": {"city": "POINT LOOKOUT", "state": "MO", "street": "9998 ACADEMIC AVE", "postcode": "65726"}}},
{"geometry": {"type": "Point", "coordinates": [-93.239882382, 36.6158170286]}, "type": "Feature", "properties": {"collection_times": [{"days": "Mon-Fri", "time": "2:00pm"}, {"days": "Sat", "time": "11:15am"}, {"days": "Sun", "time": "Closed"}], "id": "6572600001", "name": "USPS COLLECTION BOX - PO LOBBY", "address": {"city": "POINT LOOKOUT", "state": "MO", "street": "9998 ACADEMIC AVE", "postcode": "65726"}}},
{"geometry": {"type": "Point", "coordinates": [-93.239882382, 36.6158170286]}, "type": "Feature", "properties": {"collection_times": [{"days": "Mon-Fri", "time": "2:00pm"}, {"days": "Sat", "time": "11:15am"}, {"days": "Sun", "time": "Closed"}], "id": "6572600002", "name": "USPS COLLECTION BOX - PO LOBBY", "address": {"city": "POINT LOOKOUT", "state": "MO", "street": "9998 ACADEMIC AVE", "postcode": "65726"}}},
{"geometry": {"type": "Point", "coordinates": [-93.336765712, 36.8784406134]}, "type": "Feature", "properties": {"collection_times": [{"days": "Mon-Sat", "time": "12:00pm"}, {"days": "Sun", "time": "Closed"}], "id": "6572800000", "name": "USPS COLLECTION BOX - BLUE BOX", "address": {"city": "PONCE DE LEON", "state": "MO", "street": "2684 MEDICAL SPRINGS RD", "postcode": "65728"}}},
{"geometry": {"type": "Point", "coordinates": [-93.336765712, 36.8784406134]}, "type": "Feature", "properties": {"collection_times": [{"days": "Mon-Sat", "time": "12:00pm"}, {"days": "Sun", "time": "Closed"}], "id": "6572800001", "name": "USPS COLLECTION BOX - PO LOBBY", "address": {"city": "PONCE DE LEON", "state": "MO", "street": "2684 MEDICAL SPRINGS RD", "postcode": "65728"}}},
{"geometry": {"type": "Point", "coordinates": [-92.5214968324, 36.5168333833]}, "type": "Feature", "properties": {"collection_times": [{"days": "Mon-Sat", "time": "12:30pm"}, {"days": "Sun", "time": "Closed"}], "id": "6572900000", "name": "USPS COLLECTION BOX - BLUE BOX", "address": {"city": "PONTIAC", "state": "MO", "street": "8180 STATE HWY W", "postcode": "65729"}}},
{"geometry": {"type": "Point", "coordinates": [-92.5214968324, 36.5168333833]}, "type": "Feature", "properties": {"collection_times": [{"days": "Mon-Sat", "time": "12:30pm"}, {"days": "Sun", "time": "Closed"}], "id": "6572900001", "name": "USPS COLLECTION BOX - PO LOBBY", "address": {"city": "PONTIAC", "state": "MO", "street": "8180 STATE HWY W", "postcode": "65729"}}},
{"geometry": {"type": "Point", "coordinates": [-94.1463886851, 36.5830537262]}, "type": "Feature", "properties": {"collection_times": [{"days": "Mon-Sat", "time": "11:30am"}, {"days": "Sun", "time": "Closed"}], "id": "6573000000", "name": "USPS COLLECTION BOX - BLUE BOX", "address": {"city": "POWELL", "state": "MO", "street": "98 ALBERT E BRUMLEY PKWY", "postcode": "65730"}}},
{"geometry": {"type": "Point", "coordinates": [-94.1463886851, 36.5830537262]}, "type": "Feature", "properties": {"collection_times": [{"days": "Mon-Sat", "time": "11:30am"}, {"days": "Sun", "time": "Closed"}], "id": "6573000001", "name": "USPS COLLECTION BOX - PO LOBBY", "address": {"city": "POWELL", "state": "MO", "street": "98 ALBERT E BRUMLEY PKWY", "postcode": "65730"}}},
{"geometry": {"type": "Point", "coordinates": [-93.1212910531, 36.6538755686]}, "type": "Feature", "properties": {"collection_times": [{"days": "Mon-Fri", "time": "2:00pm"}, {"days": "Sat", "time": "10:45am"}, {"days": "Sun", "time": "Closed"}], "id": "6573100000", "name": "USPS COLLECTION BOX - PO LOBBY", "address": {"city": "POWERSITE", "state": "MO", "street": "1885 STATE HIGHWAY VV", "postcode": "65731"}}},
{"geometry": {"type": "Point", "coordinates": [-93.1212910531, 36.6538755686]}, "type": "Feature", "properties": {"collection_times": [{"days": "Mon-Fri", "time": "2:00pm"}, {"days": "Sat", "time": "10:45am"}, {"days": "Sun", "time": "Closed"}], "id": "6573100001", "name": "USPS COLLECTION BOX - BLUE BOX", "address": {"city": "POWERSITE", "state": "MO", "street": "1885 STATE HIGHWAY VV", "postcode": "65731"}}},
{"geometry": {"type": "Point", "coordinates": [-93.1614294752, 37.9420360114]}, "type": "Feature", "properties": {"collection_times": [{"days": "Mon-Fri", "time": "1:00pm"}, {"days": "Sat", "time": "10:45am"}, {"days": "Sun", "time": "Closed"}], "id": "6573200000", "name": "USPS COLLECTION BOX - BLUE BOX", "address": {"city": "PRESTON", "state": "MO", "street": "200 US HIGHWAY 54", "postcode": "65732"}}},
{"geometry": {"type": "Point", "coordinates": [-93.1614294752, 37.9420360114]}, "type": "Feature", "properties": {"collection_times": [{"days": "Mon-Fri", "time": "1:00pm"}, {"days": "Sat", "time": "10:45am"}, {"days": "Sun", "time": "Closed"}], "id": "6573200001", "name": "USPS COLLECTION BOX - PO LOBBY", "address": {"city": "PRESTON", "state": "MO", "street": "200 US HIGHWAY 54", "postcode": "65732"}}},
{"geometry": {"type": "Point", "coordinates": [-92.8588762045, 36.5288823377]}, "type": "Feature", "properties": {"collection_times": [{"days": "Mon-Fri", "time": "12:30pm"}, {"days": "Sat", "time": "11:15am"}, {"days": "Sun", "time": "Closed"}], "id": "6573300000", "name": "USPS COLLECTION BOX - BLUE BOX", "address": {"city": "PROTEM", "state": "MO", "street": "5242 S STATE HIGHWAY 125", "postcode": "65733"}}},
{"geometry": {"type": "Point", "coordinates": [-92.8588762045, 36.5288823377]}, "type": "Feature", "properties": {"collection_times": [{"days": "Mon-Fri", "time": "12:30pm"}, {"days": "Sat", "time": "11:15am"}, {"days": "Sun", "time": "Closed"}], "id": "6573300001", "name": "USPS COLLECTION BOX - PO LOBBY", "address": {"city": "PROTEM", "state": "MO", "street": "5242 S STATE HIGHWAY 125", "postcode": "65733"}}},
{"geometry": {"type": "Point", "coordinates": [-93.9072364687, 36.7973109476]}, "type": "Feature", "properties": {"collection_times": [{"days": "Mon-Fri", "time": "2:00pm"}, {"days": "Sat", "time": "10:45am"}, {"days": "Sun", "time": "Closed"}], "id": "6573400000", "name": "USPS COLLECTION BOX - BLUE BOX", "address": {"city": "PURDY", "state": "MO", "street": "203 WASHINGTON ST", "postcode": "65734"}}},
{"geometry": {"type": "Point", "coordinates": [-93.9072364687, 36.7973109476]}, "type": "Feature", "properties": {"collection_times": [{"days": "Mon-Fri", "time": "2:00pm"}, {"days": "Sat", "time": "10:45am"}, {"days": "Sun", "time": "Closed"}], "id": "6573400001", "name": "USPS COLLECTION BOX - PO LOBBY", "address": {"city": "PURDY", "state": "MO", "street": "203 WASHINGTON ST", "postcode": "65734"}}},
{"geometry": {"type": "Point", "coordinates": [-93.4673088598, 38.0075413044]}, "type": "Feature", "properties": {"collection_times": [{"days": "Mon-Sat", "time": "12:00pm"}, {"days": "Sun", "time": "Closed"}], "id": "6573500000", "name": "USPS COLLECTION BOX - BLUE BOX", "address": {"city": "QUINCY", "state": "MO", "street": "800 STATE ROUTE 83", "postcode": "65735"}}},
{"geometry": {"type": "Point", "coordinates": [-93.4673088598, 38.0075413044]}, "type": "Feature", "properties": {"collection_times": [{"days": "Mon-Sat", "time": "12:00pm"}, {"days": "Sun", "time": "Closed"}], "id": "6573500001", "name": "USPS COLLECTION BOX - PO LOBBY", "address": {"city": "QUINCY", "state": "MO", "street": "800 STATE ROUTE 83", "postcode": "65735"}}},
{"geometry": {"type": "Point", "coordinates": [-93.3788262566, 36.7491270336]}, "type": "Feature", "properties": {"collection_times": [{"days": "Mon-Fri", "time": "2:00pm"}, {"days": "Sat", "time": "11:15am"}, {"days": "Sun", "time": "Closed"}], "id": "6573700000", "name": "USPS COLLECTION BOX - BLUE BOX", "address": {"city": "REEDS SPRING", "state": "MO", "street": "22153 MAIN ST", "postcode": "65737"}}},
{"geometry": {"type": "Point", "coordinates": [-93.3693560137, 36.6968305698]}, "type": "Feature", "properties": {"collection_times": [{"days": "Mon-Sat", "time": "2:00pm"}, {"days": "Sun", "time": "Closed"}], "id": "6573700002", "name": "USPS COLLECTION BOX - BLUE BOX", "address": {"city": "REEDS SPRING", "state": "MO", "street": "18128 BUSINESS 13", "postcode": "65737"}}},
{"geometry": {"type": "Point", "coordinates": [-93.3788262566, 36.7491270336]}, "type": "Feature", "properties": {"collection_times": [{"days": "Mon-Fri", "time": "2:00pm"}, {"days": "Sat", "time": "11:15am"}, {"days": "Sun", "time": "Closed"}], "id": "6573700003", "name": "USPS COLLECTION BOX - PO LOBBY", "address": {"city": "REEDS SPRING", "state": "MO", "street": "22153 MAIN ST", "postcode": "65737"}}},
{"geometry": {"type": "Point", "coordinates": [-93.3788262566, 36.7491270336]}, "type": "Feature", "properties": {"collection_times": [{"days": "Mon-Fri", "time": "2:00pm"}, {"days": "Sat", "time": "11:15am"}, {"days": "Sun", "time": "Closed"}], "id": "6573700004", "name": "USPS COLLECTION BOX - PO LOBBY", "address": {"city": "REEDS SPRING", "state": "MO", "street": "22153 MAIN ST", "postcode": "65737"}}},
{"geometry": {"type": "Point", "coordinates": [-93.3788262566, 36.7491270336]}, "type": "Feature", "properties": {"collection_times": [{"days": "Mon-Fri", "time": "2:00pm"}, {"days": "Sat", "time": "11:15am"}, {"days": "Sun", "time": "Closed"}], "id": "6573700005", "name": "USPS COLLECTION BOX - PO LOBBY", "address": {"city": "REEDS SPRING", "state": "MO", "street": "22153 MAIN ST", "postcode": "65737"}}},
{"geometry": {"type": "Point", "coordinates": [-93.3696334212, 36.7002201508]}, "type": "Feature", "properties": {"collection_times": [{"days": "Mon-Sat", "time": "10:30am"}, {"days": "Sun", "time": "Closed"}], "id": "6573700006", "name": "USPS COLLECTION BOX - BLUE BOX", "address": {"city": "REEDS SPRING", "state": "MO", "street": "18401 BUSINESS 13", "postcode": "65737"}}},
{"geometry": {"type": "Point", "coordinates": [-93.330504898, 36.6860020399]}, "type": "Feature", "properties": {"collection_times": [{"days": "Mon-Sat", "time": "9:00am"}, {"days": "Sun", "time": "Closed"}], "id": "6573700007", "name": "USPS COLLECTION BOX - BLUE BOX", "address": {"city": "REEDS SPRING", "state": "MO", "street": "609 NOTCH LN", "postcode": "65737"}}},
{"geometry": {"type": "Point", "coordinates": [-93.4685152901, 37.1201689979]}, "type": "Feature", "properties": {"collection_times": [{"days": "Mon-Sat", "time": "3:30pm"}, {"days": "Sun", "time": "Closed"}], "id": "6573800009", "name": "USPS COLLECTION BOX - PO LOBBY", "address": {"city": "REPUBLIC", "state": "MO", "street": "660 E HARRISON ST", "postcode": "65738"}}},
{"geometry": {"type": "Point", "coordinates": [-93.4685152901, 37.1201689979]}, "type": "Feature", "properties": {"collection_times": [{"days": "Mon-Sat", "time": "3:30pm"}, {"days": "Sun", "time": "Closed"}], "id": "6573800011", "name": "USPS COLLECTION BOX - BLUE BOX", "address": {"city": "REPUBLIC", "state": "MO", "street": "660 E HARRISON ST", "postcode": "65738"}}},
{"geometry": {"type": "Point", "coordinates": [-93.2265173746, 36.5082822903]}, "type": "Feature", "properties": {"collection_times": [{"days": "Mon-Fri", "time": "1:30pm"}, {"days": "Sat", "time": "11:00am"}, {"days": "Sun", "time": "Closed"}], "id": "6573900000", "name": "USPS COLLECTION BOX - BLUE BOX", "address": {"city": "RIDGEDALE", "state": "MO", "street": "3234 RIDGEDALE RD", "postcode": "65739"}}},
{"geometry": {"type": "Point", "coordinates": [-93.2265173746, 36.5082822903]}, "type": "Feature", "properties": {"collection_times": [{"days": "Mon-Fri", "time": "1:30pm"}, {"days": "Sat", "time": "11:00am"}, {"days": "Sun", "time": "Closed"}], "id": "6573900003", "name": "USPS COLLECTION BOX - PO LOBBY", "address": {"city": "RIDGEDALE", "state": "MO", "street": "3234 RIDGEDALE RD", "postcode": "65739"}}},
{"geometry": {"type": "Point", "coordinates": [-93.1546424289, 36.7020220506]}, "type": "Feature", "properties": {"collection_times": [{"days": "Mon-Fri", "time": "2:30pm"}, {"days": "Sat", "time": "9:45am"}, {"days": "Sun", "time": "Closed"}], "id": "6574000000", "name": "USPS COLLECTION BOX - BLUE BOX", "address": {"city": "ROCKAWAY BEACH", "state": "MO", "street": "2578 STATE HIGHWAY 176", "postcode": "65740"}}},
{"geometry": {"type": "Point", "coordinates": [-93.1546424289, 36.7020220506]}, "type": "Feature", "properties": {"collection_times": [{"days": "Mon-Fri", "time": "2:30pm"}, {"days": "Sat", "time": "9:45am"}, {"days": "Sun", "time": "Closed"}], "id": "6574000001", "name": "USPS COLLECTION BOX - PO LOBBY", "address": {"city": "ROCKAWAY BEACH", "state": "MO", "street": "2578 STATE HIGHWAY 176", "postcode": "65740"}}},
{"geometry": {"type": "Point", "coordinates": [-93.0638376188, 37.1179559233]}, "type": "Feature", "properties": {"collection_times": [{"days": "Mon-Fri", "time": "3:45pm"}, {"days": "Sat", "time": "11:00am"}, {"days": "Sun", "time": "Closed"}], "id": "6574200000", "name": "USPS COLLECTION BOX - PO LOBBY", "address": {"city": "ROGERSVILLE", "state": "MO", "street": "226 W CENTER ST", "postcode": "65742"}}},
{"geometry": {"type": "Point", "coordinates": [-93.0638376188, 37.1179559233]}, "type": "Feature", "properties": {"collection_times": [{"days": "Mon-Fri", "time": "3:45pm"}, {"days": "Sat", "time": "11:00am"}, {"days": "Sun", "time": "Closed"}], "id": "6574200001", "name": "USPS COLLECTION BOX - BLUE BOX", "address": {"city": "ROGERSVILLE", "state": "MO", "street": "226 W CENTER ST", "postcode": "65742"}}},
{"geometry": {"type": "Point", "coordinates": [-93.0638376188, 37.1179559233]}, "type": "Feature", "properties": {"collection_times": [{"days": "Mon-Fri", "time": "3:45pm"}, {"days": "Sat", "time": "11:00am"}, {"days": "Sun", "time": "Closed"}], "id": "6574200002", "name": "USPS COLLECTION BOX - PO LOBBY", "address": {"city": "ROGERSVILLE", "state": "MO", "street": "226 W CENTER ST", "postcode": "65742"}}},
{"geometry": {"type": "Point", "coordinates": [-93.0638376188, 37.1179559233]}, "type": "Feature", "properties": {"collection_times": [{"days": "Mon-Fri", "time": "3:45pm"}, {"days": "Sat", "time": "11:00am"}, {"days": "Sun", "time": "Closed"}], "id": "6574200004", "name": "USPS COLLECTION BOX - BLUE BOX", "address": {"city": "ROGERSVILLE", "state": "MO", "street": "226 W CENTER ST", "postcode": "65742"}}},
{"geometry": {"type": "Point", "coordinates": [-93.0580524501, 37.1131441514]}, "type": "Feature", "properties": {"collection_times": [{"days": "Mon-Fri", "time": "12:00pm"}, {"days": "Sat-Sun", "time": "Closed"}], "id": "6574200006", "name": "USPS COLLECTION BOX - BLUE BOX", "address": {"city": "ROGERSVILLE", "state": "MO", "street": "319 S MAIN ST STE A", "postcode": "65742"}}},
{"geometry": {"type": "Point", "coordinates": [-93.2081519367, 37.1210290091]}, "type": "Feature", "properties": {"collection_times": [{"days": "Mon-Fri", "time": "12:00pm"}, {"days": "Sat-Sun", "time": "Closed"}], "id": "6574200008", "name": "USPS COLLECTION BOX - BLUE BOX", "address": {"city": "ROGERSVILLE", "state": "MO", "street": "4225 E US HIGHWAY 60", "postcode": "65742"}}},
{"geometry": {"type": "Point", "coordinates": [-93.1185912964, 37.1763122304]}, "type": "Feature", "properties": {"collection_times": [{"days": "Mon-Fri", "time": "12:00pm"}, {"days": "Sat-Sun", "time": "Closed"}], "id": "6574200009", "name": "USPS COLLECTION BOX - BLUE BOX", "address": {"city": "ROGERSVILLE", "state": "MO", "street": "1878 S STATE HIGHWAY 125", "postcode": "65742"}}},
{"geometry": {"type": "Point", "coordinates": [-93.9142182062, 36.5306764867]}, "type": "Feature", "properties": {"collection_times": [{"days": "Mon-Fri", "time": "12:45pm"}, {"days": "Sat", "time": "8:45am"}, {"days": "Sun", "time": "Closed"}], "id": "6574500000", "name": "USPS COLLECTION BOX - BLUE BOX", "address": {"city": "SELIGMAN", "state": "MO", "street": "28048 N HICKORY ST", "postcode": "65745"}}},
{"geometry": {"type": "Point", "coordinates": [-93.9142182062, 36.5306764867]}, "type": "Feature", "properties": {"collection_times": [{"days": "Mon-Fri", "time": "12:45pm"}, {"days": "Sat", "time": "8:45am"}, {"days": "Sun", "time": "Closed"}], "id": "6574500001", "name": "USPS COLLECTION BOX - PO LOBBY", "address": {"city": "SELIGMAN", "state": "MO", "street": "28048 N HICKORY ST", "postcode": "65745"}}},
{"geometry": {"type": "Point", "coordinates": [-92.7697433278, 37.146110561]}, "type": "Feature", "properties": {"collection_times": [{"days": "Mon-Fri", "time": "2:45pm"}, {"days": "Sat", "time": "10:45am"}, {"days": "Sun", "time": "Closed"}], "id": "6574600000", "name": "USPS COLLECTION BOX - BLUE BOX", "address": {"city": "SEYMOUR", "state": "MO", "street": "218 W WASHINGTON ST", "postcode": "65746"}}},
{"geometry": {"type": "Point", "coordinates": [-92.7697433278, 37.146110561]}, "type": "Feature", "properties": {"collection_times": [{"days": "Mon-Fri", "time": "2:45pm"}, {"days": "Sat", "time": "10:45am"}, {"days": "Sun", "time": "Closed"}], "id": "6574600002", "name": "USPS COLLECTION BOX - PO LOBBY", "address": {"city": "SEYMOUR", "state": "MO", "street": "218 W WASHINGTON ST", "postcode": "65746"}}},
{"geometry": {"type": "Point", "coordinates": [-92.7697433278, 37.146110561]}, "type": "Feature", "properties": {"collection_times": [{"days": "Mon-Fri", "time": "2:45pm"}, {"days": "Sat", "time": "10:45am"}, {"days": "Sun", "time": "Closed"}], "id": "6574600003", "name": "USPS COLLECTION BOX - BLUE BOX", "address": {"city": "SEYMOUR", "state": "MO", "street": "218 W WASHINGTON ST", "postcode": "65746"}}},
{"geometry": {"type": "Point", "coordinates": [-93.5814803018, 36.6077810685]}, "type": "Feature", "properties": {"collection_times": [{"days": "Mon-Fri", "time": "2:00pm"}, {"days": "Sat", "time": "11:00am"}, {"days": "Sun", "time": "Closed"}], "id": "6574700002", "name": "USPS COLLECTION BOX - PO LOBBY", "address": {"city": "SHELL KNOB", "state": "MO", "street": "24847 STATE HIGHWAY 39", "postcode": "65747"}}},
{"geometry": {"type": "Point", "coordinates": [-93.5814803018, 36.6077810685]}, "type": "Feature", "properties": {"collection_times": [{"days": "Mon-Fri", "time": "2:00pm"}, {"days": "Sat", "time": "11:00am"}, {"days": "Sun", "time": "Closed"}], "id": "6574700003", "name": "USPS COLLECTION BOX - PO LOBBY", "address": {"city": "SHELL KNOB", "state": "MO", "street": "24847 STATE HIGHWAY 39", "postcode": "65747"}}},
{"geometry": {"type": "Point", "coordinates": [-93.5814803018, 36.6077810685]}, "type": "Feature", "properties": {"collection_times": [{"days": "Mon-Fri", "time": "2:00pm"}, {"days": "Sat", "time": "11:00am"}, {"days": "Sun", "time": "Closed"}], "id": "6574700006", "name": "USPS COLLECTION BOX - BLUE BOX", "address": {"city": "SHELL KNOB", "state": "MO", "street": "24847 STATE HIGHWAY 39", "postcode": "65747"}}},
{"geometry": {"type": "Point", "coordinates": [-93.8465973644, 37.367162242]}, "type": "Feature", "properties": {"collection_times": [{"days": "Mon-Sat", "time": "11:30am"}, {"days": "Sun", "time": "Closed"}], "id": "6575200000", "name": "USPS COLLECTION BOX - BLUE BOX", "address": {"city": "S GREENFIELD", "state": "MO", "street": "400 PARK AVE", "postcode": "65752"}}},
{"geometry": {"type": "Point", "coordinates": [-93.8465973644, 37.367162242]}, "type": "Feature", "properties": {"collection_times": [{"days": "Mon-Sat", "time": "11:30am"}, {"days": "Sun", "time": "Closed"}], "id": "6575200001", "name": "USPS COLLECTION BOX - PO LOBBY", "address": {"city": "S GREENFIELD", "state": "MO", "street": "400 PARK AVE", "postcode": "65752"}}},
{"geometry": {"type": "Point", "coordinates": [-93.0927011636, 37.0011666748]}, "type": "Feature", "properties": {"collection_times": [{"days": "Mon-Fri", "time": "2:30pm"}, {"days": "Sat", "time": "9:45am"}, {"days": "Sun", "time": "Closed"}], "id": "6575300000", "name": "USPS COLLECTION BOX - BLUE BOX", "address": {"city": "SPARTA", "state": "MO", "street": "7060 STATE HIGHWAY 14 E", "postcode": "65753"}}},
{"geometry": {"type": "Point", "coordinates": [-93.0927011636, 37.0011666748]}, "type": "Feature", "properties": {"collection_times": [{"days": "Mon-Fri", "time": "2:30pm"}, {"days": "Sat", "time": "9:45am"}, {"days": "Sun", "time": "Closed"}], "id": "6575300002", "name": "USPS COLLECTION BOX - PO LOBBY", "address": {"city": "SPARTA", "state": "MO", "street": "7060 STATE HIGHWAY 14 E", "postcode": "65753"}}},
{"geometry": {"type": "Point", "coordinates": [-93.2973651146, 36.8684016222]}, "type": "Feature", "properties": {"collection_times": [{"days": "Mon-Fri", "time": "3:00pm"}, {"days": "Sat", "time": "10:30am"}, {"days": "Sun", "time": "Closed"}], "id": "6575400001", "name": "USPS COLLECTION BOX - PO LOBBY", "address": {"city": "SPOKANE", "state": "MO", "street": "745 SPOKANE RD", "postcode": "65754"}}},
{"geometry": {"type": "Point", "coordinates": [-93.2973651146, 36.8684016222]}, "type": "Feature", "properties": {"collection_times": [{"days": "Mon-Fri", "time": "3:00pm"}, {"days": "Sat", "time": "10:30am"}, {"days": "Sun", "time": "Closed"}], "id": "6575400002", "name": "USPS COLLECTION BOX - BLUE BOX", "address": {"city": "SPOKANE", "state": "MO", "street": "745 SPOKANE RD", "postcode": "65754"}}},
{"geometry": {"type": "Point", "coordinates": [-92.5828787142, 36.8467983104]}, "type": "Feature", "properties": {"collection_times": [{"days": "Mon-Fri", "time": "12:45pm"}, {"days": "Sat", "time": "9:00am"}, {"days": "Sun", "time": "Closed"}], "id": "6575500000", "name": "USPS COLLECTION BOX - BLUE BOX", "address": {"city": "SQUIRES", "state": "MO", "street": "1 MAIN ST", "postcode": "65755"}}},
{"geometry": {"type": "Point", "coordinates": [-92.5828787142, 36.8467983104]}, "type": "Feature", "properties": {"collection_times": [{"days": "Mon-Fri", "time": "12:45pm"}, {"days": "Sat", "time": "9:00am"}, {"days": "Sun", "time": "Closed"}], "id": "6575500001", "name": "USPS COLLECTION BOX - PO LOBBY", "address": {"city": "SQUIRES", "state": "MO", "street": "1 MAIN ST", "postcode": "65755"}}},
{"geometry": {"type": "Point", "coordinates": [-93.9472618876, 37.1034928611]}, "type": "Feature", "properties": {"collection_times": [{"days": "Mon-Fri", "time": "2:30pm"}, {"days": "Sat", "time": "9:45am"}, {"days": "Sun", "time": "Closed"}], "id": "6575600000", "name": "USPS COLLECTION BOX - BLUE BOX", "address": {"city": "STOTTS CITY", "state": "MO", "street": "107 E MOUNT VERNON ST", "postcode": "65756"}}},
{"geometry": {"type": "Point", "coordinates": [-93.9472618876, 37.1034928611]}, "type": "Feature", "properties": {"collection_times": [{"days": "Mon-Fri", "time": "2:30pm"}, {"days": "Sat", "time": "9:45am"}, {"days": "Sun", "time": "Closed"}], "id": "6575600001", "name": "USPS COLLECTION BOX - PO LOBBY", "address": {"city": "STOTTS CITY", "state": "MO", "street": "107 E MOUNT VERNON ST", "postcode": "65756"}}},
{"geometry": {"type": "Point", "coordinates": [-93.9472618876, 37.1034928611]}, "type": "Feature", "properties": {"collection_times": [{"days": "Mon-Fri", "time": "2:30pm"}, {"days": "Sat", "time": "9:45am"}, {"days": "Sun", "time": "Closed"}], "id": "6575600002", "name": "USPS COLLECTION BOX - PO LOBBY", "address": {"city": "STOTTS CITY", "state": "MO", "street": "107 E MOUNT VERNON ST", "postcode": "65756"}}},
{"geometry": {"type": "Point", "coordinates": [-93.1186232363, 37.2689450151]}, "type": "Feature", "properties": {"collection_times": [{"days": "Mon-Fri", "time": "3:30pm"}, {"days": "Sat", "time": "11:30am"}, {"days": "Sun", "time": "Closed"}], "id": "6575700000", "name": "USPS COLLECTION BOX - BLUE BOX", "address": {"city": "STRAFFORD", "state": "MO", "street": "125 S WASHINGTON ST", "postcode": "65757"}}},
{"geometry": {"type": "Point", "coordinates": [-93.11358738, 37.2691650454]}, "type": "Feature", "properties": {"collection_times": [{"days": "Mon-Fri", "time": "12:00pm"}, {"days": "Sat", "time": "9:00am"}, {"days": "Sun", "time": "Closed"}], "id": "6575700003", "name": "USPS COLLECTION BOX - BLUE BOX", "address": {"city": "STRAFFORD", "state": "MO", "street": "206 S STATE HIGHWAY 125", "postcode": "65757"}}},
{"geometry": {"type": "Point", "coordinates": [-93.1186232363, 37.2689450151]}, "type": "Feature", "properties": {"collection_times": [{"days": "Mon-Fri", "time": "3:30pm"}, {"days": "Sat", "time": "11:30am"}, {"days": "Sun", "time": "Closed"}], "id": "6575700006", "name": "USPS COLLECTION BOX - PO LOBBY", "address": {"city": "STRAFFORD", "state": "MO", "street": "125 S WASHINGTON ST", "postcode": "65757"}}},
{"geometry": {"type": "Point", "coordinates": [-93.0342557859, 36.7394679608]}, "type": "Feature", "properties": {"collection_times": [{"days": "Mon-Fri", "time": "1:30pm"}, {"days": "Sat", "time": "11:00am"}, {"days": "Sun", "time": "Closed"}], "id": "6575900000", "name": "USPS COLLECTION BOX - BLUE BOX", "address": {"city": "TANEYVILLE", "state": "MO", "street": "310 GRAND AVE", "postcode": "65759"}}},
{"geometry": {"type": "Point", "coordinates": [-93.0342557859, 36.7394679608]}, "type": "Feature", "properties": {"collection_times": [{"days": "Mon-Fri", "time": "1:30pm"}, {"days": "Sat", "time": "11:00am"}, {"days": "Sun", "time": "Closed"}], "id": "6575900002", "name": "USPS COLLECTION BOX - PO LOBBY", "address": {"city": "TANEYVILLE", "state": "MO", "street": "310 GRAND AVE", "postcode": "65759"}}},
{"geometry": {"type": "Point", "coordinates": [-92.2517917619, 36.589062226]}, "type": "Feature", "properties": {"collection_times": [{"days": "Mon-Fri", "time": "12:30pm"}, {"days": "Sat", "time": "10:00am"}, {"days": "Sun", "time": "Closed"}], "id": "6576000000", "name": "USPS COLLECTION BOX - PO LOBBY", "address": {"city": "TECUMSEH", "state": "MO", "street": "300 US HIGHWAY 160", "postcode": "65760"}}},
{"geometry": {"type": "Point", "coordinates": [-92.2517917619, 36.589062226]}, "type": "Feature", "properties": {"collection_times": [{"days": "Mon-Fri", "time": "12:30pm"}, {"days": "Sat", "time": "10:00am"}, {"days": "Sun", "time": "Closed"}], "id": "6576000001", "name": "USPS COLLECTION BOX - BLUE BOX", "address": {"city": "TECUMSEH", "state": "MO", "street": "300 US HIGHWAY 160", "postcode": "65760"}}},
{"geometry": {"type": "Point", "coordinates": [-92.7288118052, 36.5874226401]}, "type": "Feature", "properties": {"collection_times": [{"days": "Mon-Fri", "time": "1:00pm"}, {"days": "Sat", "time": "10:30am"}, {"days": "Sun", "time": "Closed"}], "id": "6576100000", "name": "USPS COLLECTION BOX - BLUE BOX", "address": {"city": "THEODOSIA", "state": "MO", "street": "255 US HIGHWAY 160 W", "postcode": "65761"}}},
{"geometry": {"type": "Point", "coordinates": [-92.7288118052, 36.5874226401]}, "type": "Feature", "properties": {"collection_times": [{"days": "Mon-Fri", "time": "1:00pm"}, {"days": "Sat", "time": "10:30am"}, {"days": "Sun", "time": "Closed"}], "id": "6576100002", "name": "USPS COLLECTION BOX - PO LOBBY", "address": {"city": "THEODOSIA", "state": "MO", "street": "255 US HIGHWAY 160 W", "postcode": "65761"}}},
{"geometry": {"type": "Point", "coordinates": [-92.7041356111, 36.7364104189]}, "type": "Feature", "properties": {"collection_times": [{"days": "Mon-Fri", "time": "2:00pm"}, {"days": "Sat", "time": "11:00am"}, {"days": "Sun", "time": "Closed"}], "id": "6576200000", "name": "USPS COLLECTION BOX - BLUE BOX", "address": {"city": "THORNFIELD", "state": "MO", "street": "13 COUNTY ROAD 916", "postcode": "65762"}}},
{"geometry": {"type": "Point", "coordinates": [-92.7041356111, 36.7364104189]}, "type": "Feature", "properties": {"collection_times": [{"days": "Mon-Fri", "time": "2:00pm"}, {"days": "Sat", "time": "11:00am"}, {"days": "Sun", "time": "Closed"}], "id": "6576200001", "name": "USPS COLLECTION BOX - PO LOBBY", "address": {"city": "THORNFIELD", "state": "MO", "street": "13 COUNTY ROAD 916", "postcode": "65762"}}},
{"geometry": {"type": "Point", "coordinates": [-93.0264234145, 37.8498180875]}, "type": "Feature", "properties": {"collection_times": [{"days": "Mon-Sat", "time": "1:00pm"}, {"days": "Sun", "time": "Closed"}], "id": "6576400000", "name": "USPS COLLECTION BOX - BLUE BOX", "address": {"city": "TUNAS", "state": "MO", "street": "4 STATE RD E", "postcode": "65764"}}},
{"geometry": {"type": "Point", "coordinates": [-93.0264234145, 37.8498180875]}, "type": "Feature", "properties": {"collection_times": [{"days": "Mon-Fri", "time": "3:45pm"}, {"days": "Sat", "time": "9:00am"}, {"days": "Sun", "time": "Closed"}], "id": "6576400001", "name": "USPS COLLECTION BOX - PO LOBBY", "address": {"city": "TUNAS", "state": "MO", "street": "4 STATE RD E", "postcode": "65764"}}},
{"geometry": {"type": "Point", "coordinates": [-93.1553669856, 37.1802054046]}, "type": "Feature", "properties": {"collection_times": [{"days": "Mon-Fri", "time": "12:45pm"}, {"days": "Sat", "time": "9:00am"}, {"days": "Sun", "time": "Closed"}], "id": "6576500000", "name": "USPS COLLECTION BOX - BLUE BOX", "address": {"city": "TURNERS", "state": "MO", "street": "6480 E FARM ROAD 148", "postcode": "65765"}}},
{"geometry": {"type": "Point", "coordinates": [-93.1553669856, 37.1802054046]}, "type": "Feature", "properties": {"collection_times": [{"days": "Mon-Fri", "time": "12:45pm"}, {"days": "Sat", "time": "9:15am"}, {"days": "Sun", "time": "Closed"}], "id": "6576500001", "name": "USPS COLLECTION BOX - PO LOBBY", "address": {"city": "TURNERS", "state": "MO", "street": "6480 E FARM ROAD 148", "postcode": "65765"}}},
{"geometry": {"type": "Point", "coordinates": [-93.1657846881, 37.8430687942]}, "type": "Feature", "properties": {"collection_times": [{"days": "Mon-Fri", "time": "2:30pm"}, {"days": "Sat", "time": "8:45am"}, {"days": "Sun", "time": "Closed"}], "id": "6576700000", "name": "USPS COLLECTION BOX - BLUE BOX", "address": {"city": "URBANA", "state": "MO", "street": "200 N MAIN ST", "postcode": "65767"}}},
{"geometry": {"type": "Point", "coordinates": [-93.1657846881, 37.8430687942]}, "type": "Feature", "properties": {"collection_times": [{"days": "Mon-Fri", "time": "11:45am"}, {"days": "Sat", "time": "8:45am"}, {"days": "Sun", "time": "Closed"}], "id": "6576700001", "name": "USPS COLLECTION BOX - PO LOBBY", "address": {"city": "URBANA", "state": "MO", "street": "200 N MAIN ST", "postcode": "65767"}}},
{"geometry": {"type": "Point", "coordinates": [-93.7916158053, 36.9344622763]}, "type": "Feature", "properties": {"collection_times": [{"days": "Mon-Fri", "time": "11:45am"}, {"days": "Sat", "time": "10:00am"}, {"days": "Sun", "time": "Closed"}], "id": "6576900001", "name": "USPS COLLECTION BOX - BLUE BOX", "address": {"city": "VERONA", "state": "MO", "street": "170 3RD ST", "postcode": "65769"}}},
{"geometry": {"type": "Point", "coordinates": [-93.7963502055, 36.9627196275]}, "type": "Feature", "properties": {"collection_times": [{"days": "Mon-Fri", "time": "11:45am"}, {"days": "Sat", "time": "10:00am"}, {"days": "Sun", "time": "Closed"}], "id": "6576900002", "name": "USPS COLLECTION BOX - PO LOBBY", "address": {"city": "VERONA", "state": "MO", "street": "170 3RD ST", "postcode": "65769"}}},
{"geometry": {"type": "Point", "coordinates": [-93.5497802591, 37.4079350849]}, "type": "Feature", "properties": {"collection_times": [{"days": "Mon-Fri", "time": "2:45pm"}, {"days": "Sat", "time": "9:45am"}, {"days": "Sun", "time": "Closed"}], "id": "6577000000", "name": "USPS COLLECTION BOX - PO LOBBY", "address": {"city": "WALNUT GROVE", "state": "MO", "street": "412 S WASHINGTON AVE", "postcode": "65770"}}},
{"geometry": {"type": "Point", "coordinates": [-93.5497802591, 37.4079350849]}, "type": "Feature", "properties": {"collection_times": [{"days": "Mon-Fri", "time": "2:45pm"}, {"days": "Sat", "time": "9:45am"}, {"days": "Sun", "time": "Closed"}], "id": "6577000001", "name": "USPS COLLECTION BOX - BLUE BOX", "address": {"city": "WALNUT GROVE", "state": "MO", "street": "412 S WASHINGTON AVE", "postcode": "65770"}}},
{"geometry": {"type": "Point", "coordinates": [-93.9966010044, 36.5786080899]}, "type": "Feature", "properties": {"collection_times": [{"days": "Mon-Fri", "time": "12:30pm"}, {"days": "Sat", "time": "9:45am"}, {"days": "Sun", "time": "Closed"}], "id": "6577200000", "name": "USPS COLLECTION BOX - BLUE BOX", "address": {"city": "WASHBURN", "state": "MO", "street": "303 MAIN ST", "postcode": "65772"}}},
{"geometry": {"type": "Point", "coordinates": [-93.9966010044, 36.5786080899]}, "type": "Feature", "properties": {"collection_times": [{"days": "Mon-Fri", "time": "12:30pm"}, {"days": "Sat", "time": "9:45am"}, {"days": "Sun", "time": "Closed"}], "id": "6577200001", "name": "USPS COLLECTION BOX - PO LOBBY", "address": {"city": "WASHBURN", "state": "MO", "street": "303 MAIN ST", "postcode": "65772"}}},
{"geometry": {"type": "Point", "coordinates": [-92.5205318263, 36.7438084464]}, "type": "Feature", "properties": {"collection_times": [{"days": "Mon-Sat", "time": "11:00am"}, {"days": "Sun", "time": "Closed"}], "id": "6577300000", "name": "USPS COLLECTION BOX - BLUE BOX", "address": {"city": "WASOLA", "state": "MO", "street": "1652 COUNTY ROAD 129", "postcode": "65773"}}},
{"geometry": {"type": "Point", "coordinates": [-92.5205318263, 36.7438084464]}, "type": "Feature", "properties": {"collection_times": [{"days": "Mon-Sat", "time": "11:00am"}, {"days": "Sun", "time": "Closed"}], "id": "6577300001", "name": "USPS COLLECTION BOX - PO LOBBY", "address": {"city": "WASOLA", "state": "MO", "street": "1652 COUNTY ROAD 129", "postcode": "65773"}}},
{"geometry": {"type": "Point", "coordinates": [-93.5487602804, 37.890960645]}, "type": "Feature", "properties": {"collection_times": [{"days": "Mon-Fri", "time": "1:30pm"}, {"days": "Sat", "time": "9:30am"}, {"days": "Sun", "time": "Closed"}], "id": "6577400000", "name": "USPS COLLECTION BOX - BLUE BOX", "address": {"city": "WEAUBLEAU", "state": "MO", "street": "144 E US HIGHWAY 54", "postcode": "65774"}}},
{"geometry": {"type": "Point", "coordinates": [-93.5487602804, 37.890960645]}, "type": "Feature", "properties": {"collection_times": [{"days": "Mon-Fri", "time": "11:15am"}, {"days": "Sat", "time": "9:30am"}, {"days": "Sun", "time": "Closed"}], "id": "6577400001", "name": "USPS COLLECTION BOX - PO LOBBY", "address": {"city": "WEAUBLEAU", "state": "MO", "street": "144 E US HIGHWAY 54", "postcode": "65774"}}},
{"geometry": {"type": "Point", "coordinates": [-91.8562128932, 36.7292004197]}, "type": "Feature", "properties": {"collection_times": [{"days": "Mon-Sat", "time": "3:00pm"}, {"days": "Sun", "time": "Closed"}], "id": "6577500000", "name": "USPS COLLECTION BOX - BLUE BOX", "address": {"city": "WEST PLAINS", "state": "MO", "street": "201 GARFIELD AVE", "postcode": "65775"}}},
{"geometry": {"type": "Point", "coordinates": [-91.8562128932, 36.7292004197]}, "type": "Feature", "properties": {"collection_times": [{"days": "Mon-Sat", "time": "3:00pm"}, {"days": "Sun", "time": "Closed"}], "id": "6577500001", "name": "USPS COLLECTION BOX - BLUE BOX", "address": {"city": "WEST PLAINS", "state": "MO", "street": "201 GARFIELD AVE", "postcode": "65775"}}},
{"geometry": {"type": "Point", "coordinates": [-91.8562128932, 36.7292004197]}, "type": "Feature", "properties": {"collection_times": [{"days": "Mon-Sat", "time": "3:00pm"}, {"days": "Sun", "time": "Closed"}], "id": "6577500002", "name": "USPS COLLECTION BOX - PO LOBBY", "address": {"city": "WEST PLAINS", "state": "MO", "street": "201 GARFIELD AVE", "postcode": "65775"}}},
{"geometry": {"type": "Point", "coordinates": [-91.8562128932, 36.7292004197]}, "type": "Feature", "properties": {"collection_times": [{"days": "Mon-Sat", "time": "3:00pm"}, {"days": "Sun", "time": "Closed"}], "id": "6577500003", "name": "USPS COLLECTION BOX - PO LOBBY", "address": {"city": "WEST PLAINS", "state": "MO", "street": "201 GARFIELD AVE", "postcode": "65775"}}},
{"geometry": {"type": "Point", "coordinates": [-91.8730656913, 36.716959351]}, "type": "Feature", "properties": {"collection_times": [{"days": "Mon-Sat", "time": "9:30am"}, {"days": "Sun", "time": "Closed"}], "id": "6577500005", "name": "USPS COLLECTION BOX - BLUE BOX", "address": {"city": "WEST PLAINS", "state": "MO", "street": "1310 PREACHER ROE BLVD", "postcode": "65775"}}},
{"geometry": {"type": "Point", "coordinates": [-91.8729705786, 36.7439675626]}, "type": "Feature", "properties": {"collection_times": [{"days": "Mon-Sat", "time": "9:45am"}, {"days": "Sun", "time": "Closed"}], "id": "6577500018", "name": "USPS COLLECTION BOX - BLUE BOX", "address": {"city": "WEST PLAINS", "state": "MO", "street": "1508 IMPERIAL CTR", "postcode": "65775"}}},
{"geometry": {"type": "Point", "coordinates": [-91.8684772685, 36.7382721034]}, "type": "Feature", "properties": {"collection_times": [{"days": "Mon-Sat", "time": "10:00am"}, {"days": "Sun", "time": "Closed"}], "id": "6577500019", "name": "USPS COLLECTION BOX - BLUE BOX", "address": {"city": "WEST PLAINS", "state": "MO", "street": "1211 PORTER WAGONER BLVD", "postcode": "65775"}}},
{"geometry": {"type": "Point", "coordinates": [-91.8684772685, 36.7382721034]}, "type": "Feature", "properties": {"collection_times": [{"days": "Mon-Sat", "time": "10:00am"}, {"days": "Sun", "time": "Closed"}], "id": "6577500020", "name": "USPS COLLECTION BOX - BLUE BOX", "address": {"city": "WEST PLAINS", "state": "MO", "street": "1211 PORTER WAGONER BLVD", "postcode": "65775"}}},
{"geometry": {"type": "Point", "coordinates": [-91.87683184, 36.7607986917]}, "type": "Feature", "properties": {"collection_times": [{"days": "Mon-Sat", "time": "9:30am"}, {"days": "Sun", "time": "Closed"}], "id": "6577500024", "name": "USPS COLLECTION BOX - BLUE BOX", "address": {"city": "WEST PLAINS", "state": "MO", "street": "2400 MCFARLAND DR", "postcode": "65775"}}},
{"geometry": {"type": "Point", "coordinates": [-92.4777439191, 38.3679846143]}, "type": "Feature", "properties": {"collection_times": [{"days": "Mon-Sat", "time": "10:30am"}, {"days": "Sun", "time": "Closed"}], "id": "6577500039", "name": "USPS COLLECTION BOX - BLUE BOX", "address": {"city": "WEST PLAINS", "state": "MO", "street": "1 COURTHOUSE", "postcode": "65775"}}},
{"geometry": {"type": "Point", "coordinates": [-91.2587624932, 36.5208347089]}, "type": "Feature", "properties": {"collection_times": [{"days": "Mon-Fri", "time": "11:45am"}, {"days": "Sat", "time": "10:30am"}, {"days": "Sun", "time": "Closed"}], "id": "6577800000", "name": "USPS COLLECTION BOX - BLUE BOX", "address": {"city": "MYRTLE", "state": "MO", "street": "100 MAIN ST", "postcode": "65778"}}},
{"geometry": {"type": "Point", "coordinates": [-91.2587624932, 36.5208347089]}, "type": "Feature", "properties": {"collection_times": [{"days": "Mon-Fri", "time": "11:45am"}, {"days": "Sat", "time": "10:30am"}, {"days": "Sun", "time": "Closed"}], "id": "6577800001", "name": "USPS COLLECTION BOX - PO LOBBY", "address": {"city": "MYRTLE", "state": "MO", "street": "100 MAIN ST", "postcode": "65778"}}},
{"geometry": {"type": "Point", "coordinates": [-93.4038466556, 37.9312437285]}, "type": "Feature", "properties": {"collection_times": [{"days": "Mon-Fri", "time": "2:15pm"}, {"days": "Sat", "time": "10:30am"}, {"days": "Sun", "time": "Closed"}], "id": "6577900000", "name": "USPS COLLECTION BOX - BLUE BOX", "address": {"city": "WHEATLAND", "state": "MO", "street": "360 N MAIN ST", "postcode": "65779"}}},
{"geometry": {"type": "Point", "coordinates": [-93.4038466556, 37.9312437285]}, "type": "Feature", "properties": {"collection_times": [{"days": "Mon-Fri", "time": "2:15pm"}, {"days": "Sat", "time": "10:15am"}, {"days": "Sun", "time": "Closed"}], "id": "6577900002", "name": "USPS COLLECTION BOX - PO LOBBY", "address": {"city": "WHEATLAND", "state": "MO", "street": "360 N MAIN ST", "postcode": "65779"}}},
{"geometry": {"type": "Point", "coordinates": [-93.4324598838, 37.3068505692]}, "type": "Feature", "properties": {"collection_times": [{"days": "Mon-Fri", "time": "2:30pm"}, {"days": "Sat", "time": "10:00am"}, {"days": "Sun", "time": "Closed"}], "id": "6578100000", "name": "USPS COLLECTION BOX - BLUE BOX", "address": {"city": "WILLARD", "state": "MO", "street": "107 WILLEY ST", "postcode": "65781"}}},
{"geometry": {"type": "Point", "coordinates": [-93.4239887146, 37.2981617356]}, "type": "Feature", "properties": {"collection_times": [{"days": "Mon-Sat", "time": "1:15pm"}, {"days": "Sun", "time": "Closed"}], "id": "6578100001", "name": "USPS COLLECTION BOX - BLUE BOX", "address": {"city": "WILLARD", "state": "MO", "street": "500 S MILLER RD", "postcode": "65781"}}},
{"geometry": {"type": "Point", "coordinates": [-93.4324598838, 37.3068505692]}, "type": "Feature", "properties": {"collection_times": [{"days": "Mon-Fri", "time": "2:30pm"}, {"days": "Sat", "time": "10:00am"}, {"days": "Sun", "time": "Closed"}], "id": "6578100003", "name": "USPS COLLECTION BOX - PO LOBBY", "address": {"city": "WILLARD", "state": "MO", "street": "107 WILLEY ST", "postcode": "65781"}}},
{"geometry": {"type": "Point", "coordinates": [-93.7964281452, 37.6932744558]}, "type": "Feature", "properties": {"collection_times": [{"days": "Mon-Fri", "time": "1:30pm"}, {"days": "Sat-Sun", "time": "Closed"}], "id": "6578500005", "name": "USPS COLLECTION BOX - BLUE BOX", "address": {"city": "STOCKTON", "state": "MO", "street": "1109 S HIGHWAY 39", "postcode": "65785"}}},
{"geometry": {"type": "Point", "coordinates": [-93.7939672264, 37.6989107373]}, "type": "Feature", "properties": {"collection_times": [{"days": "Mon-Fri", "time": "1:30pm"}, {"days": "Sat", "time": "12:00pm"}, {"days": "Sun", "time": "Closed"}], "id": "6578500006", "name": "USPS COLLECTION BOX - BLUE BOX", "address": {"city": "STOCKTON", "state": "MO", "street": "406 EAST ST", "postcode": "65785"}}},
{"geometry": {"type": "Point", "coordinates": [-93.7939672264, 37.6989107373]}, "type": "Feature", "properties": {"collection_times": [{"days": "Mon-Fri", "time": "1:30pm"}, {"days": "Sat", "time": "12:00pm"}, {"days": "Sun", "time": "Closed"}], "id": "6578500007", "name": "USPS COLLECTION BOX - BLUE BOX", "address": {"city": "STOCKTON", "state": "MO", "street": "406 EAST ST", "postcode": "65785"}}},
{"geometry": {"type": "Point", "coordinates": [-93.7939672264, 37.6989107373]}, "type": "Feature", "properties": {"collection_times": [{"days": "Mon-Fri", "time": "1:30pm"}, {"days": "Sat", "time": "12:00pm"}, {"days": "Sun", "time": "Closed"}], "id": "6578500008", "name": "USPS COLLECTION BOX - PO LOBBY", "address": {"city": "STOCKTON", "state": "MO", "street": "406 EAST ST", "postcode": "65785"}}},
{"geometry": {"type": "Point", "coordinates": [-93.7939672264, 37.6989107373]}, "type": "Feature", "properties": {"collection_times": [{"days": "Mon-Fri", "time": "1:30pm"}, {"days": "Sat", "time": "12:00pm"}, {"days": "Sun", "time": "Closed"}], "id": "6578500009", "name": "USPS COLLECTION BOX - PO LOBBY", "address": {"city": "STOCKTON", "state": "MO", "street": "406 EAST ST", "postcode": "65785"}}},
{"geometry": {"type": "Point", "coordinates": [-92.911238317, 37.969956437]}, "type": "Feature", "properties": {"collection_times": [{"days": "Mon-Fri", "time": "1:00pm"}, {"days": "Sat", "time": "10:30am"}, {"days": "Sun", "time": "Closed"}], "id": "6578600000", "name": "USPS COLLECTION BOX - BLUE BOX", "address": {"city": "MACKS CREEK", "state": "MO", "street": "13073 W US HIGHWAY 54", "postcode": "65786"}}},
{"geometry": {"type": "Point", "coordinates": [-92.911238317, 37.969956437]}, "type": "Feature", "properties": {"collection_times": [{"days": "Mon-Fri", "time": "1:30pm"}, {"days": "Sat", "time": "10:30am"}, {"days": "Sun", "time": "Closed"}], "id": "6578600001", "name": "USPS COLLECTION BOX - PO LOBBY", "address": {"city": "MACKS CREEK", "state": "MO", "street": "13073 W US HIGHWAY 54", "postcode": "65786"}}},
{"geometry": {"type": "Point", "coordinates": [-92.911238317, 37.969956437]}, "type": "Feature", "properties": {"collection_times": [{"days": "Mon-Fri", "time": "1:00pm"}, {"days": "Sat", "time": "10:30am"}, {"days": "Sun", "time": "Closed"}], "id": "6578600002", "name": "USPS COLLECTION BOX - PO LOBBY", "address": {"city": "MACKS CREEK", "state": "MO", "street": "13073 W US HIGHWAY 54", "postcode": "65786"}}},
{"geometry": {"type": "Point", "coordinates": [-92.8759884516, 38.0691604632]}, "type": "Feature", "properties": {"collection_times": [{"days": "Mon-Fri", "time": "12:00pm"}, {"days": "Sat", "time": "12:00am"}, {"days": "Sun", "time": "Closed"}], "id": "6578700000", "name": "USPS COLLECTION BOX - BLUE BOX", "address": {"city": "ROACH", "state": "MO", "street": "353 STATE ROAD AA", "postcode": "65787"}}},
{"geometry": {"type": "Point", "coordinates": [-92.8343282284, 37.9910426462]}, "type": "Feature", "properties": {"collection_times": [{"days": "Mon-Fri", "time": "12:00pm"}, {"days": "Sat", "time": "12:00am"}, {"days": "Sun", "time": "Closed"}], "id": "6578700001", "name": "USPS COLLECTION BOX - PO LOBBY", "address": {"city": "ROACH", "state": "MO", "street": "353 STATE RTE AA", "postcode": "65787"}}},
{"geometry": {"type": "Point", "coordinates": [-91.7111984624, 36.8390143541]}, "type": "Feature", "properties": {"collection_times": [{"days": "Mon-Sat", "time": "12:45pm"}, {"days": "Sun", "time": "Closed"}], "id": "6578800000", "name": "USPS COLLECTION BOX - PO LOBBY", "address": {"city": "PEACE VALLEY", "state": "MO", "street": "7120 STATE ROUTE W", "postcode": "65788"}}},
{"geometry": {"type": "Point", "coordinates": [-91.7111984624, 36.8390143541]}, "type": "Feature", "properties": {"collection_times": [{"days": "Mon-Sat", "time": "12:45pm"}, {"days": "Sun", "time": "Closed"}], "id": "6578800001", "name": "USPS COLLECTION BOX - BLUE BOX", "address": {"city": "PEACE VALLEY", "state": "MO", "street": "7120 STATE ROUTE W", "postcode": "65788"}}},
{"geometry": {"type": "Point", "coordinates": [-91.9160569771, 36.8676964725]}, "type": "Feature", "properties": {"collection_times": [{"days": "Mon-Fri", "time": "1:00pm"}, {"days": "Sat", "time": "11:00am"}, {"days": "Sun", "time": "Closed"}], "id": "6578900000", "name": "USPS COLLECTION BOX - BLUE BOX", "address": {"city": "POMONA", "state": "MO", "street": "4279 CO RD 4860", "postcode": "65789"}}},
{"geometry": {"type": "Point", "coordinates": [-91.9160569771, 36.8676964725]}, "type": "Feature", "properties": {"collection_times": [{"days": "Mon-Fri", "time": "1:00pm"}, {"days": "Sat", "time": "11:00am"}, {"days": "Sun", "time": "Closed"}], "id": "6578900001", "name": "USPS COLLECTION BOX - PO LOBBY", "address": {"city": "POMONA", "state": "MO", "street": "4279 CO RD 4860", "postcode": "65789"}}},
{"geometry": {"type": "Point", "coordinates": [-92.0073370575, 36.6953435221]}, "type": "Feature", "properties": {"collection_times": [{"days": "Mon-Sat", "time": "10:30am"}, {"days": "Sun", "time": "Closed"}], "id": "6579000000", "name": "USPS COLLECTION BOX - BLUE BOX", "address": {"city": "POTTERSVILLE", "state": "MO", "street": "1783 STATE ROUTE K", "postcode": "65790"}}},
{"geometry": {"type": "Point", "coordinates": [-92.0073370575, 36.6953435221]}, "type": "Feature", "properties": {"collection_times": [{"days": "Mon-Sat", "time": "10:30am"}, {"days": "Sun", "time": "Closed"}], "id": "6579000001", "name": "USPS COLLECTION BOX - PO LOBBY", "address": {"city": "POTTERSVILLE", "state": "MO", "street": "1783 STATE ROUTE K", "postcode": "65790"}}},
{"geometry": {"type": "Point", "coordinates": [-91.5394977765, 36.5247673462]}, "type": "Feature", "properties": {"collection_times": [{"days": "Mon-Fri", "time": "1:00pm"}, {"days": "Sat", "time": "11:00am"}, {"days": "Sun", "time": "Closed"}], "id": "6579100003", "name": "USPS COLLECTION BOX - PO LOBBY", "address": {"city": "THAYER", "state": "MO", "street": "118 N 2ND ST", "postcode": "65791"}}},
{"geometry": {"type": "Point", "coordinates": [-91.539634403, 36.5247465082]}, "type": "Feature", "properties": {"collection_times": [{"days": "Mon-Fri", "time": "1:00pm"}, {"days": "Sat", "time": "11:00am"}, {"days": "Sun", "time": "Closed"}], "id": "6579100005", "name": "USPS COLLECTION BOX - BLUE BOX", "address": {"city": "THAYER", "state": "MO", "street": "121 N 2ND ST", "postcode": "65791"}}},
{"geometry": {"type": "Point", "coordinates": [-91.9686072163, 36.9924445878]}, "type": "Feature", "properties": {"collection_times": [{"days": "Mon-Fri", "time": "1:30pm"}, {"days": "Sat", "time": "10:00am"}, {"days": "Sun", "time": "Closed"}], "id": "6579300000", "name": "USPS COLLECTION BOX - BLUE BOX", "address": {"city": "WILLOW SPRINGS", "state": "MO", "street": "111 E 3RD ST", "postcode": "65793"}}},
{"geometry": {"type": "Point", "coordinates": [-91.9686072163, 36.9924445878]}, "type": "Feature", "properties": {"collection_times": [{"days": "Mon-Fri", "time": "1:30pm"}, {"days": "Sat", "time": "10:00am"}, {"days": "Sun", "time": "Closed"}], "id": "6579300001", "name": "USPS COLLECTION BOX - BLUE BOX", "address": {"city": "WILLOW SPRINGS", "state": "MO", "street": "111 E 3RD ST", "postcode": "65793"}}},
{"geometry": {"type": "Point", "coordinates": [-91.9686072163, 36.9924445878]}, "type": "Feature", "properties": {"collection_times": [{"days": "Mon-Fri", "time": "1:30pm"}, {"days": "Sat", "time": "10:00am"}, {"days": "Sun", "time": "Closed"}], "id": "6579300006", "name": "USPS COLLECTION BOX - PO LOBBY", "address": {"city": "WILLOW SPRINGS", "state": "MO", "street": "111 E 3RD ST", "postcode": "65793"}}}
]}
