{"type": "FeatureCollection", "features": [
{"geometry": {"type": "Point", "coordinates": [-93.2951951027, 37.2154168318]}, "type": "Feature", "properties": {"collection_times": [{"days": "Mon-Sat", "time": "7:00pm"}, {"days": "Sun", "time": "Closed"}], "id": "6580100003", "name": "USPS COLLECTION BOX - BLUE BOX", "address": {"city": "SPRINGFIELD", "state": "MO", "street": "500 W CHESTNUT EXPY", "postcode": "65801"}}},
{"geometry": {"type": "Point", "coordinates": [-93.2951550197, 37.2149985374]}, "type": "Feature", "properties": {"collection_times": [{"days": "Mon-Sat", "time": "7:00pm"}, {"days": "Sun", "time": "Closed"}], "id": "6580100006", "name": "USPS COLLECTION BOX - BLUE BOX", "address": {"city": "SPRINGFIELD", "state": "MO", "street": "500 W CHESTNUT EXPY", "postcode": "65801"}}},
{"geometry": {"type": "Point", "coordinates": [-93.2951550197, 37.2149985374]}, "type": "Feature", "properties": {"collection_times": [{"days": "Mon-Sat", "time": "7:00pm"}, {"days": "Sun", "time": "Closed"}], "id": "6580100012", "name": "USPS COLLECTION BOX - PO LOBBY", "address": {"city": "SPRINGFIELD", "state": "MO", "street": "500 W CHESTNUT EXPY", "postcode": "65801"}}},
{"geometry": {"type": "Point", "coordinates": [-93.2951550197, 37.2149985374]}, "type": "Feature", "properties": {"collection_times": [{"days": "Mon-Sat", "time": "7:00pm"}, {"days": "Sun", "time": "Closed"}], "id": "6580100013", "name": "USPS COLLECTION BOX - PO LOBBY", "address": {"city": "SPRINGFIELD", "state": "MO", "street": "500 W CHESTNUT EXPY", "postcode": "65801"}}},
{"geometry": {"type": "Point", "coordinates": [-93.2951550197, 37.2149985374]}, "type": "Feature", "properties": {"collection_times": [{"days": "Mon-Sat", "time": "7:00pm"}, {"days": "Sun", "time": "Closed"}], "id": "6580100014", "name": "USPS COLLECTION BOX - APC", "address": {"city": "SPRINGFIELD", "state": "MO", "street": "500 W CHESTNUT EXPY", "postcode": "65801"}}},
{"geometry": {"type": "Point", "coordinates": [-93.3494009622, 37.212297665]}, "type": "Feature", "properties": {"collection_times": [{"days": "Mon-Fri", "time": "4:15pm"}, {"days": "Sat-Sun", "time": "Closed"}], "id": "6580200007", "name": "USPS COLLECTION BOX - BLUE BOX", "address": {"city": "SPRINGFIELD", "state": "MO", "street": "3511 W CHESTNUT EXPY", "postcode": "65802"}}},
{"geometry": {"type": "Point", "coordinates": [-93.2616536218, 37.2139752779]}, "type": "Feature", "properties": {"collection_times": [{"days": "Mon-Fri", "time": "3:45pm"}, {"days": "Sat-Sun", "time": "Closed"}], "id": "6580200011", "name": "USPS COLLECTION BOX - BLUE BOX", "address": {"city": "SPRINGFIELD", "state": "MO", "street": "614 N GLENSTONE AVE", "postcode": "65802"}}},
{"geometry": {"type": "Point", "coordinates": [-93.2909974133, 37.2181946715]}, "type": "Feature", "properties": {"collection_times": [{"days": "Mon-Fri", "time": "3:00pm"}, {"days": "Sat-Sun", "time": "Closed"}], "id": "6580200019", "name": "USPS COLLECTION BOX - BLUE BOX", "address": {"city": "SPRINGFIELD", "state": "MO", "street": "929 N ROBBERSON AVE", "postcode": "65802"}}},
{"geometry": {"type": "Point", "coordinates": [-93.2349849949, 37.2098420193]}, "type": "Feature", "properties": {"collection_times": [{"days": "Mon-Fri", "time": "4:00pm"}, {"days": "Sat-Sun", "time": "Closed"}], "id": "6580200033", "name": "USPS COLLECTION BOX - BLUE BOX", "address": {"city": "SPRINGFIELD", "state": "MO", "street": "2920 E CHESTNUT EXPWY", "postcode": "65802"}}},
{"geometry": {"type": "Point", "coordinates": [-93.2349849949, 37.2098420193]}, "type": "Feature", "properties": {"collection_times": [{"days": "Mon-Fri", "time": "4:00pm"}, {"days": "Sat-Sun", "time": "Closed"}], "id": "6580200034", "name": "USPS COLLECTION BOX - BLUE BOX", "address": {"city": "SPRINGFIELD", "state": "MO", "street": "2920 E CHESTNUT EXPWY", "postcode": "65802"}}},
{"geometry": {"type": "Point", "coordinates": [-93.2349849949, 37.2098420193]}, "type": "Feature", "properties": {"collection_times": [{"days": "Mon-Fri", "time": "4:00pm"}, {"days": "Sat-Sun", "time": "Closed"}], "id": "6580200035", "name": "USPS COLLECTION BOX - BLUE BOX", "address": {"city": "SPRINGFIELD", "state": "MO", "street": "2920 E CHESTNUT EXPWY", "postcode": "65802"}}},
{"geometry": {"type": "Point", "coordinates": [-93.2334116594, 37.2072111185]}, "type": "Feature", "properties": {"collection_times": [{"days": "Mon-Fri", "time": "4:00pm"}, {"days": "Sat-Sun", "time": "Closed"}], "id": "6580200036", "name": "USPS COLLECTION BOX - BLUE BOX", "address": {"city": "SPRINGFIELD", "state": "MO", "street": "240 S UNION AVE", "postcode": "65802"}}},
{"geometry": {"type": "Point", "coordinates": [-93.2616536218, 37.2139752779]}, "type": "Feature", "properties": {"collection_times": [{"days": "Mon-Fri", "time": "3:45pm"}, {"days": "Sat-Sun", "time": "Closed"}], "id": "6580200037", "name": "USPS COLLECTION BOX - BLUE BOX", "address": {"city": "SPRINGFIELD", "state": "MO", "street": "614 N GLENSTONE AVE", "postcode": "65802"}}},
{"geometry": {"type": "Point", "coordinates": [-93.2909974133, 37.2181946715]}, "type": "Feature", "properties": {"collection_times": [{"days": "Mon-Fri", "time": "3:00pm"}, {"days": "Sat-Sun", "time": "Closed"}], "id": "6580200042", "name": "USPS COLLECTION BOX - BLUE BOX", "address": {"city": "SPRINGFIELD", "state": "MO", "street": "929 N ROBBERSON AVE", "postcode": "65802"}}},
{"geometry": {"type": "Point", "coordinates": [-93.2334116594, 37.2072111185]}, "type": "Feature", "properties": {"collection_times": [{"days": "Mon-Fri", "time": "4:00pm"}, {"days": "Sat-Sun", "time": "Closed"}], "id": "6580200044", "name": "USPS COLLECTION BOX - BLUE BOX", "address": {"city": "SPRINGFIELD", "state": "MO", "street": "240 S UNION AVE", "postcode": "65802"}}},
{"geometry": {"type": "Point", "coordinates": [-93.2334116594, 37.2072111185]}, "type": "Feature", "properties": {"collection_times": [{"days": "Mon-Fri", "time": "4:00pm"}, {"days": "Sat-Sun", "time": "Closed"}], "id": "6580200045", "name": "USPS COLLECTION BOX - BLUE BOX", "address": {"city": "SPRINGFIELD", "state": "MO", "street": "240 S UNION AVE", "postcode": "65802"}}},
{"geometry": {"type": "Point", "coordinates": [-93.2334116594, 37.2072111185]}, "type": "Feature", "properties": {"collection_times": [{"days": "Mon-Fri", "time": "4:00pm"}, {"days": "Sat-Sun", "time": "Closed"}], "id": "6580200046", "name": "USPS COLLECTION BOX - BLUE BOX", "address": {"city": "SPRINGFIELD", "state": "MO", "street": "240 S UNION AVE", "postcode": "65802"}}},
{"geometry": {"type": "Point", "coordinates": [-93.2842173811, 37.240666381]}, "type": "Feature", "properties": {"collection_times": [{"days": "Mon-Fri", "time": "4:00pm"}, {"days": "Sat", "time": "3:15pm"}, {"days": "Sun", "time": "Closed"}], "id": "6580300006", "name": "USPS COLLECTION BOX - BLUE BOX", "address": {"city": "SPRINGFIELD", "state": "MO", "street": "628 E KEARNEY ST", "postcode": "65803"}}},
{"geometry": {"type": "Point", "coordinates": [-93.2708756724, 37.2405170611]}, "type": "Feature", "properties": {"collection_times": [{"days": "Mon-Fri", "time": "4:00pm"}, {"days": "Sat", "time": "3:00pm"}, {"days": "Sun", "time": "Closed"}], "id": "6580300012", "name": "USPS COLLECTION BOX - BLUE BOX", "address": {"city": "SPRINGFIELD", "state": "MO", "street": "1343 E KEARNEY ST", "postcode": "65803"}}},
{"geometry": {"type": "Point", "coordinates": [-93.248702061, 37.2397273683]}, "type": "Feature", "properties": {"collection_times": [{"days": "Mon-Fri", "time": "4:15pm"}, {"days": "Sat-Sun", "time": "Closed"}], "id": "6580300014", "name": "USPS COLLECTION BOX - BLUE BOX", "address": {"city": "SPRINGFIELD", "state": "MO", "street": "2343 E KEARNEY ST", "postcode": "65803"}}},
{"geometry": {"type": "Point", "coordinates": [-93.3115555628, 37.2409656696]}, "type": "Feature", "properties": {"collection_times": [{"days": "Mon-Sat", "time": "4:00pm"}, {"days": "Sun", "time": "Closed"}], "id": "6580300017", "name": "USPS COLLECTION BOX - BLUE BOX", "address": {"city": "SPRINGFIELD", "state": "MO", "street": "1607 W KEARNEY ST", "postcode": "65803"}}},
{"geometry": {"type": "Point", "coordinates": [-93.2376856902, 37.2245982494]}, "type": "Feature", "properties": {"collection_times": [{"days": "Mon-Fri", "time": "4:45pm"}, {"days": "Sat-Sun", "time": "Closed"}], "id": "6580300027", "name": "USPS COLLECTION BOX - BLUE BOX", "address": {"city": "SPRINGFIELD", "state": "MO", "street": "2835 E DIVISION ST", "postcode": "65803"}}},
{"geometry": {"type": "Point", "coordinates": [-93.2376856902, 37.2245982494]}, "type": "Feature", "properties": {"collection_times": [{"days": "Mon-Fri", "time": "4:45pm"}, {"days": "Sat-Sun", "time": "Closed"}], "id": "6580300033", "name": "USPS COLLECTION BOX - BLUE BOX", "address": {"city": "SPRINGFIELD", "state": "MO", "street": "2835 E DIVISION ST", "postcode": "65803"}}},
{"geometry": {"type": "Point", "coordinates": [-93.248702061, 37.2397273683]}, "type": "Feature", "properties": {"collection_times": [{"days": "Mon-Fri", "time": "4:15pm"}, {"days": "Sat-Sun", "time": "Closed"}], "id": "6580300034", "name": "USPS COLLECTION BOX - BLUE BOX", "address": {"city": "SPRINGFIELD", "state": "MO", "street": "2343 E KEARNEY ST", "postcode": "65803"}}},
{"geometry": {"type": "Point", "coordinates": [-93.3115555628, 37.2409656696]}, "type": "Feature", "properties": {"collection_times": [{"days": "Mon-Sat", "time": "4:00pm"}, {"days": "Sun", "time": "Closed"}], "id": "6580300036", "name": "USPS COLLECTION BOX - BLUE BOX", "address": {"city": "SPRINGFIELD", "state": "MO", "street": "1607 W KEARNEY ST", "postcode": "65803"}}},
{"geometry": {"type": "Point", "coordinates": [-93.27433021, 37.2512526808]}, "type": "Feature", "properties": {"collection_times": [{"days": "Mon-Sat", "time": "1:45pm"}, {"days": "Sun", "time": "Closed"}], "id": "6580300039", "name": "USPS COLLECTION BOX - BLUE BOX", "address": {"city": "SPRINGFIELD", "state": "MO", "street": "2953 N NATIONAL AVE", "postcode": "65803"}}},
{"geometry": {"type": "Point", "coordinates": [-93.205896855, 37.2385448084]}, "type": "Feature", "properties": {"collection_times": [{"days": "Mon-Fri", "time": "3:30pm"}, {"days": "Sat-Sun", "time": "Closed"}], "id": "6580300040", "name": "USPS COLLECTION BOX - BLUE BOX", "address": {"city": "SPRINGFIELD", "state": "MO", "street": "2400 N PARTNERSHIP", "postcode": "65803"}}},
{"geometry": {"type": "Point", "coordinates": [-93.205896855, 37.2385448084]}, "type": "Feature", "properties": {"collection_times": [{"days": "Mon-Fri", "time": "3:30pm"}, {"days": "Sat-Sun", "time": "Closed"}], "id": "6580300041", "name": "USPS COLLECTION BOX - BLUE BOX", "address": {"city": "SPRINGFIELD", "state": "MO", "street": "2400 N PARTNERSHIP", "postcode": "65803"}}},
{"geometry": {"type": "Point", "coordinates": [-93.248702061, 37.2397273683]}, "type": "Feature", "properties": {"collection_times": [{"days": "Mon-Fri", "time": "4:15pm"}, {"days": "Sat-Sun", "time": "Closed"}], "id": "6580300042", "name": "USPS COLLECTION BOX - BLUE BOX", "address": {"city": "SPRINGFIELD", "state": "MO", "street": "2343 E KEARNEY ST", "postcode": "65803"}}},
{"geometry": {"type": "Point", "coordinates": [-93.2621824044, 37.1878141404]}, "type": "Feature", "properties": {"collection_times": [{"days": "Mon-Sat", "time": "5:00pm"}, {"days": "Sun", "time": "Closed"}], "id": "6580400000", "name": "USPS COLLECTION BOX - BLUE BOX", "address": {"city": "SPRINGFIELD", "state": "MO", "street": "1442 S GLENSTONE AVE", "postcode": "65804"}}},
{"geometry": {"type": "Point", "coordinates": [-93.2622723093, 37.1834655832]}, "type": "Feature", "properties": {"collection_times": [{"days": "Mon-Fri", "time": "3:00pm"}, {"days": "Sat-Sun", "time": "Closed"}], "id": "6580400001", "name": "USPS COLLECTION BOX - BLUE BOX", "address": {"city": "SPRINGFIELD", "state": "MO", "street": "1722 S GLENSTONE AVE", "postcode": "65804"}}},
{"geometry": {"type": "Point", "coordinates": [-93.2625006204, 37.177361515]}, "type": "Feature", "properties": {"collection_times": [{"days": "Mon-Sat", "time": "2:30pm"}, {"days": "Sun", "time": "Closed"}], "id": "6580400005", "name": "USPS COLLECTION BOX - BLUE BOX", "address": {"city": "SPRINGFIELD", "state": "MO", "street": "2023 S GLENSTONE AVE", "postcode": "65804"}}},
{"geometry": {"type": "Point", "coordinates": [-93.2625148159, 37.1644779089]}, "type": "Feature", "properties": {"collection_times": [{"days": "Mon-Sat", "time": "3:00pm"}, {"days": "Sun", "time": "Closed"}], "id": "6580400006", "name": "USPS COLLECTION BOX - BLUE BOX", "address": {"city": "SPRINGFIELD", "state": "MO", "street": "2708 S GLENSTONE AVE", "postcode": "65804"}}},
{"geometry": {"type": "Point", "coordinates": [-93.2715372439, 37.1789975472]}, "type": "Feature", "properties": {"collection_times": [{"days": "Mon-Sat", "time": "2:30pm"}, {"days": "Sun", "time": "Closed"}], "id": "6580400010", "name": "USPS COLLECTION BOX - BLUE BOX", "address": {"city": "SPRINGFIELD", "state": "MO", "street": "1965 S FREMONT AVE", "postcode": "65804"}}},
{"geometry": {"type": "Point", "coordinates": [-93.2534746435, 37.1813279764]}, "type": "Feature", "properties": {"collection_times": [{"days": "Mon-Sat", "time": "3:00pm"}, {"days": "Sun", "time": "Closed"}], "id": "6580400022", "name": "USPS COLLECTION BOX - BLUE BOX", "address": {"city": "SPRINGFIELD", "state": "MO", "street": "2149 E SUNSHINE ST", "postcode": "65804"}}},
{"geometry": {"type": "Point", "coordinates": [-93.2514103801, 37.1811446177]}, "type": "Feature", "properties": {"collection_times": [{"days": "Mon-Fri", "time": "2:45pm"}, {"days": "Sat-Sun", "time": "Closed"}], "id": "6580400023", "name": "USPS COLLECTION BOX - BLUE BOX", "address": {"city": "SPRINGFIELD", "state": "MO", "street": "2200 E SUNSHINE ST", "postcode": "65804"}}},
{"geometry": {"type": "Point", "coordinates": [-93.2289767463, 37.1804786118]}, "type": "Feature", "properties": {"collection_times": [{"days": "Mon-Sat", "time": "2:45pm"}, {"days": "Sun", "time": "Closed"}], "id": "6580400027", "name": "USPS COLLECTION BOX - BLUE BOX", "address": {"city": "SPRINGFIELD", "state": "MO", "street": "3259 E SUNSHINE ST", "postcode": "65804"}}},
{"geometry": {"type": "Point", "coordinates": [-93.2602388029, 37.1802526667]}, "type": "Feature", "properties": {"collection_times": [{"days": "Mon-Fri", "time": "2:45pm"}, {"days": "Sat-Sun", "time": "Closed"}], "id": "6580400029", "name": "USPS COLLECTION BOX - BLUE BOX", "address": {"city": "SPRINGFIELD", "state": "MO", "street": "1835 S STEWART AVE", "postcode": "65804"}}},
{"geometry": {"type": "Point", "coordinates": [-93.2640207227, 37.1853275606]}, "type": "Feature", "properties": {"collection_times": [{"days": "Mon-Sat", "time": "2:30pm"}, {"days": "Sun", "time": "Closed"}], "id": "6580400035", "name": "USPS COLLECTION BOX - BLUE BOX", "address": {"city": "SPRINGFIELD", "state": "MO", "street": "1730 E PORTLAND ST", "postcode": "65804"}}},
{"geometry": {"type": "Point", "coordinates": [-93.2713349579, 37.1478916412]}, "type": "Feature", "properties": {"collection_times": [{"days": "Mon-Fri", "time": "2:45pm"}, {"days": "Sat-Sun", "time": "Closed"}], "id": "6580400037", "name": "USPS COLLECTION BOX - BLUE BOX", "address": {"city": "SPRINGFIELD", "state": "MO", "street": "1411 E PRIMROSE ST", "postcode": "65804"}}},
{"geometry": {"type": "Point", "coordinates": [-93.2728266692, 37.1595946543]}, "type": "Feature", "properties": {"collection_times": [{"days": "Mon-Sat", "time": "2:30pm"}, {"days": "Sun", "time": "Closed"}], "id": "6580400047", "name": "USPS COLLECTION BOX - BLUE BOX", "address": {"city": "SPRINGFIELD", "state": "MO", "street": "1345 E BATTLEFIELD ST", "postcode": "65804"}}},
{"geometry": {"type": "Point", "coordinates": [-93.2699402493, 37.1595591655]}, "type": "Feature", "properties": {"collection_times": [{"days": "Mon-Sat", "time": "2:30pm"}, {"days": "Sun", "time": "Closed"}], "id": "6580400048", "name": "USPS COLLECTION BOX - BLUE BOX", "address": {"city": "SPRINGFIELD", "state": "MO", "street": "1451 E BATTLEFIELD ST", "postcode": "65804"}}},
{"geometry": {"type": "Point", "coordinates": [-93.2660838031, 37.1593805387]}, "type": "Feature", "properties": {"collection_times": [{"days": "Mon-Fri", "time": "2:45pm"}, {"days": "Sat-Sun", "time": "Closed"}], "id": "6580400049", "name": "USPS COLLECTION BOX - BLUE BOX", "address": {"city": "SPRINGFIELD", "state": "MO", "street": "1650 E BATTLEFIELD ST", "postcode": "65804"}}},
{"geometry": {"type": "Point", "coordinates": [-93.2753451888, 37.1563604445]}, "type": "Feature", "properties": {"collection_times": [{"days": "Mon-Fri", "time": "2:45pm"}, {"days": "Sat-Sun", "time": "Closed"}], "id": "6580400050", "name": "USPS COLLECTION BOX - BLUE BOX", "address": {"city": "SPRINGFIELD", "state": "MO", "street": "1200 E WOODHURST DR", "postcode": "65804"}}},
{"geometry": {"type": "Point", "coordinates": [-93.2289412575, 37.1580816498]}, "type": "Feature", "properties": {"collection_times": [{"days": "Mon-Sat", "time": "3:15pm"}, {"days": "Sun", "time": "Closed"}], "id": "6580400051", "name": "USPS COLLECTION BOX - BLUE BOX", "address": {"city": "SPRINGFIELD", "state": "MO", "street": "3260 E BATTLEFIELD ST", "postcode": "65804"}}},
{"geometry": {"type": "Point", "coordinates": [-93.227832825, 37.1581822013]}, "type": "Feature", "properties": {"collection_times": [{"days": "Mon-Fri", "time": "3:15pm"}, {"days": "Sat-Sun", "time": "Closed"}], "id": "6580400053", "name": "USPS COLLECTION BOX - BLUE BOX", "address": {"city": "SPRINGFIELD", "state": "MO", "street": "3315 E BATTLEFIELD ST", "postcode": "65804"}}},
{"geometry": {"type": "Point", "coordinates": [-93.2622723093, 37.1834655832]}, "type": "Feature", "properties": {"collection_times": [{"days": "Mon-Fri", "time": "3:00pm"}, {"days": "Sat-Sun", "time": "Closed"}], "id": "6580400057", "name": "USPS COLLECTION BOX - BLUE BOX", "address": {"city": "SPRINGFIELD", "state": "MO", "street": "1722 S GLENSTONE AVE", "postcode": "65804"}}},
{"geometry": {"type": "Point", "coordinates": [-93.2534746435, 37.1813279764]}, "type": "Feature", "properties": {"collection_times": [{"days": "Mon-Sat", "time": "3:00pm"}, {"days": "Sun", "time": "Closed"}], "id": "6580400064", "name": "USPS COLLECTION BOX - BLUE BOX", "address": {"city": "SPRINGFIELD", "state": "MO", "street": "2149 E SUNSHINE ST", "postcode": "65804"}}},
{"geometry": {"type": "Point", "coordinates": [-93.2289767463, 37.1804786118]}, "type": "Feature", "properties": {"collection_times": [{"days": "Mon-Sat", "time": "2:45pm"}, {"days": "Sun", "time": "Closed"}], "id": "6580400066", "name": "USPS COLLECTION BOX - BLUE BOX", "address": {"city": "SPRINGFIELD", "state": "MO", "street": "3259 E SUNSHINE ST", "postcode": "65804"}}},
{"geometry": {"type": "Point", "coordinates": [-93.2602388029, 37.1802526667]}, "type": "Feature", "properties": {"collection_times": [{"days": "Mon-Fri", "time": "2:45pm"}, {"days": "Sat-Sun", "time": "Closed"}], "id": "6580400068", "name": "USPS COLLECTION BOX - BLUE BOX", "address": {"city": "SPRINGFIELD", "state": "MO", "street": "1835 S STEWART AVE", "postcode": "65804"}}},
{"geometry": {"type": "Point", "coordinates": [-93.2645459564, 37.1743603481]}, "type": "Feature", "properties": {"collection_times": [{"days": "Mon-Sat", "time": "2:30pm"}, {"days": "Sun", "time": "Closed"}], "id": "6580400069", "name": "USPS COLLECTION BOX - BLUE BOX", "address": {"city": "SPRINGFIELD", "state": "MO", "street": "1675 E SEMINOLE ST", "postcode": "65804"}}},
{"geometry": {"type": "Point", "coordinates": [-93.2621930511, 37.1938283038]}, "type": "Feature", "properties": {"collection_times": [{"days": "Mon-Fri", "time": "2:30pm"}, {"days": "Sat-Sun", "time": "Closed"}], "id": "6580400072", "name": "USPS COLLECTION BOX - BLUE BOX", "address": {"city": "SPRINGFIELD", "state": "MO", "street": "1121 S GLENSTONE AVE", "postcode": "65804"}}},
{"geometry": {"type": "Point", "coordinates": [-93.2289412575, 37.1580816498]}, "type": "Feature", "properties": {"collection_times": [{"days": "Mon-Sat", "time": "3:15pm"}, {"days": "Sun", "time": "Closed"}], "id": "6580400079", "name": "USPS COLLECTION BOX - BLUE BOX", "address": {"city": "SPRINGFIELD", "state": "MO", "street": "3260 E BATTLEFIELD ST", "postcode": "65804"}}},
{"geometry": {"type": "Point", "coordinates": [-93.2289412575, 37.1580816498]}, "type": "Feature", "properties": {"collection_times": [{"days": "Mon-Sat", "time": "3:15pm"}, {"days": "Sun", "time": "Closed"}], "id": "6580400080", "name": "USPS COLLECTION BOX - BLUE BOX", "address": {"city": "SPRINGFIELD", "state": "MO", "street": "3260 E BATTLEFIELD ST", "postcode": "65804"}}},
{"geometry": {"type": "Point", "coordinates": [-93.227832825, 37.1581822013]}, "type": "Feature", "properties": {"collection_times": [{"days": "Mon-Fri", "time": "3:15pm"}, {"days": "Sat-Sun", "time": "Closed"}], "id": "6580400083", "name": "USPS COLLECTION BOX - BLUE BOX", "address": {"city": "SPRINGFIELD", "state": "MO", "street": "3315 E BATTLEFIELD ST", "postcode": "65804"}}},
{"geometry": {"type": "Point", "coordinates": [-93.2621824044, 37.1878141404]}, "type": "Feature", "properties": {"collection_times": [{"days": "Mon-Fri", "time": "5:30pm"}, {"days": "Sat", "time": "5:00pm"}, {"days": "Sun", "time": "Closed"}], "id": "6580400087", "name": "USPS COLLECTION BOX - PO LOBBY", "address": {"city": "SPRINGFIELD", "state": "MO", "street": "1442 S GLENSTONE AVE", "postcode": "65804"}}},
{"geometry": {"type": "Point", "coordinates": [-93.2621824044, 37.1878141404]}, "type": "Feature", "properties": {"collection_times": [{"days": "Mon-Fri", "time": "5:30pm"}, {"days": "Sat", "time": "5:00pm"}, {"days": "Sun", "time": "Closed"}], "id": "6580400088", "name": "USPS COLLECTION BOX - APC", "address": {"city": "SPRINGFIELD", "state": "MO", "street": "1442 S GLENSTONE AVE", "postcode": "65804"}}},
{"geometry": {"type": "Point", "coordinates": [-93.2621824044, 37.1878141404]}, "type": "Feature", "properties": {"collection_times": [{"days": "Mon-Sat", "time": "5:00pm"}, {"days": "Sun", "time": "Closed"}], "id": "6580400089", "name": "USPS COLLECTION BOX - BLUE BOX", "address": {"city": "SPRINGFIELD", "state": "MO", "street": "1442 S GLENSTONE AVE", "postcode": "65804"}}},
{"geometry": {"type": "Point", "coordinates": [-93.2526091834, 37.1621926589]}, "type": "Feature", "properties": {"collection_times": [{"days": "Mon-Sat", "time": "5:00pm"}, {"days": "Sun", "time": "Closed"}], "id": "6580400090", "name": "USPS COLLECTION BOX - EXPRESS", "address": {"city": "SPRINGFIELD", "state": "MO", "street": "1442 S GLENSTONE AVE", "postcode": "65804"}}},
{"geometry": {"type": "Point", "coordinates": [-93.2627230167, 37.1626336759]}, "type": "Feature", "properties": {"collection_times": [{"days": "Mon-Sat", "time": "2:30pm"}, {"days": "Sun", "time": "Closed"}], "id": "6580400091", "name": "USPS COLLECTION BOX - BLUE BOX", "address": {"city": "SPRINGFIELD", "state": "MO", "street": "2825 S GLENSTONE AVE", "postcode": "65804"}}},
{"geometry": {"type": "Point", "coordinates": [-93.2373698401, 37.1806146521]}, "type": "Feature", "properties": {"collection_times": [{"days": "Mon-Sat", "time": "2:45pm"}, {"days": "Sun", "time": "Closed"}], "id": "6580400096", "name": "USPS COLLECTION BOX - BLUE BOX", "address": {"city": "SPRINGFIELD", "state": "MO", "street": "2900 E SUNSHINE ST", "postcode": "65804"}}},
{"geometry": {"type": "Point", "coordinates": [-93.2615246792, 37.1419957738]}, "type": "Feature", "properties": {"collection_times": [{"days": "Mon-Fri", "time": "5:15pm"}, {"days": "Sat", "time": "2:00pm"}, {"days": "Sun", "time": "Closed"}], "id": "6580400104", "name": "USPS COLLECTION BOX - APC", "address": {"city": "SPRINGFIELD", "state": "MO", "street": "1839 E INDEPENDENCE ST", "postcode": "65804"}}},
{"geometry": {"type": "Point", "coordinates": [-93.2615246792, 37.1419957738]}, "type": "Feature", "properties": {"collection_times": [{"days": "Mon-Fri", "time": "5:15pm"}, {"days": "Sat", "time": "2:00pm"}, {"days": "Sun", "time": "Closed"}], "id": "6580400105", "name": "USPS COLLECTION BOX - PO LOBBY", "address": {"city": "SPRINGFIELD", "state": "MO", "street": "1839 E INDEPENDENCE ST", "postcode": "65804"}}},
{"geometry": {"type": "Point", "coordinates": [-93.22245, 37.18021]}, "type": "Feature", "properties": {"collection_times": [{"days": "Mon-Sat", "time": "2:45pm"}, {"days": "Sun", "time": "Closed"}], "id": "6580400110", "name": "USPS COLLECTION BOX - BLUE BOX", "address": {"city": "SPRINGFIELD", "state": "MO", "street": "3534 E SUNSHINE ST", "postcode": "65804"}}},
{"geometry": {"type": "Point", "coordinates": [-93.2623409209, 37.1791880036]}, "type": "Feature", "properties": {"collection_times": [{"days": "Mon-Fri", "time": "2:30pm"}, {"days": "Sat-Sun", "time": "Closed"}], "id": "6580400116", "name": "USPS COLLECTION BOX - BLUE BOX", "address": {"city": "SPRINGFIELD", "state": "MO", "street": "1926 S GLENSTONE AVE", "postcode": "65804"}}},
{"geometry": {"type": "Point", "coordinates": [-93.2700774726, 37.1375099934]}, "type": "Feature", "properties": {"collection_times": [{"days": "Mon-Fri", "time": "4:15pm"}, {"days": "Sat", "time": "3:30pm"}, {"days": "Sun", "time": "Closed"}], "id": "6580400125", "name": "USPS COLLECTION BOX - BLUE BOX", "address": {"city": "SPRINGFIELD", "state": "MO", "street": "1500 E REPUBLIC RD", "postcode": "65804"}}},
{"geometry": {"type": "Point", "coordinates": [-93.2615246792, 37.1419957738]}, "type": "Feature", "properties": {"collection_times": [{"days": "Mon-Fri", "time": "5:30pm"}, {"days": "Sat", "time": "2:00pm"}, {"days": "Sun", "time": "Closed"}], "id": "6580400129", "name": "USPS COLLECTION BOX - BLUE BOX", "address": {"city": "SPRINGFIELD", "state": "MO", "street": "1839 E INDEPENDENCE ST", "postcode": "65804"}}},
{"geometry": {"type": "Point", "coordinates": [-93.2753061512, 37.1782286239]}, "type": "Feature", "properties": {"collection_times": [{"days": "Mon-Sat", "time": "2:30pm"}, {"days": "Sun", "time": "Closed"}], "id": "6580400130", "name": "USPS COLLECTION BOX - BLUE BOX", "address": {"city": "SPRINGFIELD", "state": "MO", "street": "1235 E CHEROKEE ST", "postcode": "65804"}}},
{"geometry": {"type": "Point", "coordinates": [-93.227832825, 37.1581822013]}, "type": "Feature", "properties": {"collection_times": [{"days": "Mon-Fri", "time": "3:15pm"}, {"days": "Sat-Sun", "time": "Closed"}], "id": "6580400131", "name": "USPS COLLECTION BOX - BLUE BOX", "address": {"city": "SPRINGFIELD", "state": "MO", "street": "3315 E BATTLEFIELD ST", "postcode": "65804"}}},
{"geometry": {"type": "Point", "coordinates": [-93.2703044818, 37.1454047288]}, "type": "Feature", "properties": {"collection_times": [{"days": "Mon-Fri", "time": "2:45pm"}, {"days": "Sat", "time": "11:00am"}, {"days": "Sun", "time": "Closed"}], "id": "6580400132", "name": "USPS COLLECTION BOX - BLUE BOX", "address": {"city": "SPRINGFIELD", "state": "MO", "street": "3808 S GREYSTONE CT", "postcode": "65804"}}},
{"geometry": {"type": "Point", "coordinates": [-93.2524875236, 37.1621778633]}, "type": "Feature", "properties": {"collection_times": [{"days": "Mon-Fri", "time": "2:30pm"}, {"days": "Sat-Sun", "time": "Closed"}], "id": "6580400134", "name": "USPS COLLECTION BOX - BLUE BOX", "address": {"city": "SPRINGFIELD", "state": "MO", "street": "1736 S SUNSHINE", "postcode": "65804"}}},
{"geometry": {"type": "Point", "coordinates": [-93.2923667854, 37.205525402]}, "type": "Feature", "properties": {"collection_times": [{"days": "Mon-Fri", "time": "3:30pm"}, {"days": "Sat-Sun", "time": "Closed"}], "id": "6580600019", "name": "USPS COLLECTION BOX - BLUE BOX", "address": {"city": "SPRINGFIELD", "state": "MO", "street": "447 SOUTH AVE", "postcode": "65806"}}},
{"geometry": {"type": "Point", "coordinates": [-93.2910768026, 37.208222158]}, "type": "Feature", "properties": {"collection_times": [{"days": "Mon-Fri", "time": "4:00pm"}, {"days": "Sat-Sun", "time": "Closed"}], "id": "6580600029", "name": "USPS COLLECTION BOX - BLUE BOX", "address": {"city": "SPRINGFIELD", "state": "MO", "street": "317 E MCDANIEL ST", "postcode": "65806"}}},
{"geometry": {"type": "Point", "coordinates": [-93.3033360615, 37.2025912932]}, "type": "Feature", "properties": {"collection_times": [{"days": "Mon-Fri", "time": "4:30pm"}, {"days": "Sat-Sun", "time": "Closed"}], "id": "6580600035", "name": "USPS COLLECTION BOX - BLUE BOX", "address": {"city": "SPRINGFIELD", "state": "MO", "street": "222 HAMMONS PKWY", "postcode": "65806"}}},
{"geometry": {"type": "Point", "coordinates": [-93.2922349641, 37.2081415005]}, "type": "Feature", "properties": {"collection_times": [{"days": "Mon-Fri", "time": "4:30pm"}, {"days": "Sat-Sun", "time": "Closed"}], "id": "6580600036", "name": "USPS COLLECTION BOX - BLUE BOX", "address": {"city": "SPRINGFIELD", "state": "MO", "street": "300 S HAMMONS PKWY", "postcode": "65806"}}},
{"geometry": {"type": "Point", "coordinates": [-93.3033360615, 37.2025912932]}, "type": "Feature", "properties": {"collection_times": [{"days": "Mon-Fri", "time": "4:30pm"}, {"days": "Sat-Sun", "time": "Closed"}], "id": "6580600038", "name": "USPS COLLECTION BOX - BLUE BOX", "address": {"city": "SPRINGFIELD", "state": "MO", "street": "222 HAMMONS PKWY", "postcode": "65806"}}},
{"geometry": {"type": "Point", "coordinates": [-93.2922349641, 37.2081415005]}, "type": "Feature", "properties": {"collection_times": [{"days": "Mon-Fri", "time": "4:30pm"}, {"days": "Sat-Sun", "time": "Closed"}], "id": "6580600039", "name": "USPS COLLECTION BOX - BLUE BOX", "address": {"city": "SPRINGFIELD", "state": "MO", "street": "300 S HAMMONS PKWY", "postcode": "65806"}}},
{"geometry": {"type": "Point", "coordinates": [-93.2922349641, 37.2081415005]}, "type": "Feature", "properties": {"collection_times": [{"days": "Mon-Fri", "time": "4:30pm"}, {"days": "Sat-Sun", "time": "Closed"}], "id": "6580600040", "name": "USPS COLLECTION BOX - BLUE BOX", "address": {"city": "SPRINGFIELD", "state": "MO", "street": "300 S HAMMONS PKWY", "postcode": "65806"}}},
{"geometry": {"type": "Point", "coordinates": [-93.2917965992, 37.1822483185]}, "type": "Feature", "properties": {"collection_times": [{"days": "Mon-Fri", "time": "3:45pm"}, {"days": "Sat-Sun", "time": "Closed"}], "id": "6580700013", "name": "USPS COLLECTION BOX - BLUE BOX", "address": {"city": "SPRINGFIELD", "state": "MO", "street": "227 E SUNSHINE ST", "postcode": "65807"}}},
{"geometry": {"type": "Point", "coordinates": [-93.280500524, 37.1597709152]}, "type": "Feature", "properties": {"collection_times": [{"days": "Mon-Fri", "time": "4:00pm"}, {"days": "Sat-Sun", "time": "Closed"}], "id": "6580700017", "name": "USPS COLLECTION BOX - BLUE BOX", "address": {"city": "SPRINGFIELD", "state": "MO", "street": "1031 E BATTLEFIELD ST", "postcode": "65807"}}},
{"geometry": {"type": "Point", "coordinates": [-93.2985962473, 37.1599365294]}, "type": "Feature", "properties": {"collection_times": [{"days": "Mon-Fri", "time": "3:30pm"}, {"days": "Sat-Sun", "time": "Closed"}], "id": "6580700019", "name": "USPS COLLECTION BOX - BLUE BOX", "address": {"city": "SPRINGFIELD", "state": "MO", "street": "528 W BATTLEFIELD ST", "postcode": "65807"}}},
{"geometry": {"type": "Point", "coordinates": [-93.2777690718, 37.1531983951]}, "type": "Feature", "properties": {"collection_times": [{"days": "Mon-Fri", "time": "4:30pm"}, {"days": "Sat-Sun", "time": "Closed"}], "id": "6580700028", "name": "USPS COLLECTION BOX - BLUE BOX", "address": {"city": "SPRINGFIELD", "state": "MO", "street": "3333 S NATIONAL AVE", "postcode": "65807"}}},
{"geometry": {"type": "Point", "coordinates": [-93.27808019, 37.1448798277]}, "type": "Feature", "properties": {"collection_times": [{"days": "Mon-Fri", "time": "4:00pm"}, {"days": "Sat-Sun", "time": "Closed"}], "id": "6580700030", "name": "USPS COLLECTION BOX - BLUE BOX", "address": {"city": "SPRINGFIELD", "state": "MO", "street": "3801 S NATIONAL AVE", "postcode": "65807"}}},
{"geometry": {"type": "Point", "coordinates": [-93.3209269637, 37.1460213831]}, "type": "Feature", "properties": {"collection_times": [{"days": "Mon-Fri", "time": "3:45pm"}, {"days": "Sat-Sun", "time": "Closed"}], "id": "6580700033", "name": "USPS COLLECTION BOX - BLUE BOX", "address": {"city": "SPRINGFIELD", "state": "MO", "street": "2104 W CHESTERFIELD BLVD", "postcode": "65807"}}},
{"geometry": {"type": "Point", "coordinates": [-93.2957737072, 37.153173553]}, "type": "Feature", "properties": {"collection_times": [{"days": "Mon-Fri", "time": "4:00pm"}, {"days": "Sat-Sun", "time": "Closed"}], "id": "6580700039", "name": "USPS COLLECTION BOX - BLUE BOX", "address": {"city": "SPRINGFIELD", "state": "MO", "street": "3345 S CAMPBELL AVE", "postcode": "65807"}}},
{"geometry": {"type": "Point", "coordinates": [-93.3213918665, 37.1383510772]}, "type": "Feature", "properties": {"collection_times": [{"days": "Mon-Sat", "time": "4:15pm"}, {"days": "Sun", "time": "Closed"}], "id": "6580700059", "name": "USPS COLLECTION BOX - BLUE BOX", "address": {"city": "SPRINGFIELD", "state": "MO", "street": "2021 W REPUBLIC RD", "postcode": "65807"}}},
{"geometry": {"type": "Point", "coordinates": [-93.2777690718, 37.1531983951]}, "type": "Feature", "properties": {"collection_times": [{"days": "Mon-Fri", "time": "4:30pm"}, {"days": "Sat-Sun", "time": "Closed"}], "id": "6580700064", "name": "USPS COLLECTION BOX - BLUE BOX", "address": {"city": "SPRINGFIELD", "state": "MO", "street": "3333 S NATIONAL AVE", "postcode": "65807"}}},
{"geometry": {"type": "Point", "coordinates": [-93.2954105388, 37.1680303347]}, "type": "Feature", "properties": {"collection_times": [{"days": "Mon-Fri", "time": "4:00pm"}, {"days": "Sat-Sun", "time": "Closed"}], "id": "6580700066", "name": "USPS COLLECTION BOX - BLUE BOX", "address": {"city": "SPRINGFIELD", "state": "MO", "street": "2550 S CAMPBELL AVE", "postcode": "65807"}}},
{"geometry": {"type": "Point", "coordinates": [-93.2954105388, 37.1680303347]}, "type": "Feature", "properties": {"collection_times": [{"days": "Mon-Fri", "time": "4:00pm"}, {"days": "Sat-Sun", "time": "Closed"}], "id": "6580700067", "name": "USPS COLLECTION BOX - BLUE BOX", "address": {"city": "SPRINGFIELD", "state": "MO", "street": "2550 S CAMPBELL AVE", "postcode": "65807"}}},
{"geometry": {"type": "Point", "coordinates": [-93.2936644914, 37.148303311]}, "type": "Feature", "properties": {"collection_times": [{"days": "Mon-Fri", "time": "4:15pm"}, {"days": "Sat-Sun", "time": "Closed"}], "id": "6580700068", "name": "USPS COLLECTION BOX - BLUE BOX", "address": {"city": "SPRINGFIELD", "state": "MO", "street": "3625 SOUTH AVE", "postcode": "65807"}}},
{"geometry": {"type": "Point", "coordinates": [-93.2936644914, 37.148303311]}, "type": "Feature", "properties": {"collection_times": [{"days": "Mon-Fri", "time": "4:15pm"}, {"days": "Sat-Sun", "time": "Closed"}], "id": "6580700069", "name": "USPS COLLECTION BOX - BLUE BOX", "address": {"city": "SPRINGFIELD", "state": "MO", "street": "3625 SOUTH AVE", "postcode": "65807"}}},
{"geometry": {"type": "Point", "coordinates": [-93.2776980942, 37.1550899465]}, "type": "Feature", "properties": {"collection_times": [{"days": "Mon-Fri", "time": "4:30pm"}, {"days": "Sat-Sun", "time": "Closed"}], "id": "6580700071", "name": "USPS COLLECTION BOX - BLUE BOX", "address": {"city": "SPRINGFIELD", "state": "MO", "street": "3231 S NATIONAL AVE", "postcode": "65807"}}},
{"geometry": {"type": "Point", "coordinates": [-93.2957737072, 37.153173553]}, "type": "Feature", "properties": {"collection_times": [{"days": "Mon-Fri", "time": "4:00pm"}, {"days": "Sat-Sun", "time": "Closed"}], "id": "6580700073", "name": "USPS COLLECTION BOX - BLUE BOX", "address": {"city": "SPRINGFIELD", "state": "MO", "street": "3345 S CAMPBELL AVE", "postcode": "65807"}}},
{"geometry": {"type": "Point", "coordinates": [-93.3126658494, 37.1657034234]}, "type": "Feature", "properties": {"collection_times": [{"days": "Mon-Fri", "time": "5:00pm"}, {"days": "Sat", "time": "4:00pm"}, {"days": "Sun", "time": "Closed"}], "id": "6580700083", "name": "USPS COLLECTION BOX - EXPRESS", "address": {"city": "SPRINGFIELD", "state": "MO", "street": "3951 S CAMPBELL AVE", "postcode": "65807"}}},
{"geometry": {"type": "Point", "coordinates": [-93.2961841941, 37.142900737]}, "type": "Feature", "properties": {"collection_times": [{"days": "Mon-Fri", "time": "5:00pm"}, {"days": "Sat", "time": "4:00pm"}, {"days": "Sun", "time": "Closed"}], "id": "6580700090", "name": "USPS COLLECTION BOX - BLUE BOX", "address": {"city": "SPRINGFIELD", "state": "MO", "street": "3951 S CAMPBELL AVE", "postcode": "65807"}}},
{"geometry": {"type": "Point", "coordinates": [-93.2777690718, 37.1531983951]}, "type": "Feature", "properties": {"collection_times": [{"days": "Mon-Fri", "time": "4:30pm"}, {"days": "Sat-Sun", "time": "Closed"}], "id": "6580700110", "name": "USPS COLLECTION BOX - BLUE BOX", "address": {"city": "SPRINGFIELD", "state": "MO", "street": "3333 S NATIONAL AVE", "postcode": "65807"}}},
{"geometry": {"type": "Point", "coordinates": [-93.3187976371, 37.1898299028]}, "type": "Feature", "properties": {"collection_times": [{"days": "Mon-Fri", "time": "4:00pm"}, {"days": "Sat", "time": "3:00pm"}, {"days": "Sun", "time": "Closed"}], "id": "6580700118", "name": "USPS COLLECTION BOX - BLUE BOX", "address": {"city": "SPRINGFIELD", "state": "MO", "street": "1919 W BENNETT ST", "postcode": "65807"}}},
{"geometry": {"type": "Point", "coordinates": [-93.3187976371, 37.1898299028]}, "type": "Feature", "properties": {"collection_times": [{"days": "Mon-Fri", "time": "4:00pm"}, {"days": "Sat", "time": "3:00pm"}, {"days": "Sun", "time": "Closed"}], "id": "6580700119", "name": "USPS COLLECTION BOX - BLUE BOX", "address": {"city": "SPRINGFIELD", "state": "MO", "street": "1919 W BENNETT ST", "postcode": "65807"}}},
{"geometry": {"type": "Point", "coordinates": [-93.3187976371, 37.1898299028]}, "type": "Feature", "properties": {"collection_times": [{"days": "Mon-Fri", "time": "5:00pm"}, {"days": "Sat", "time": "12:00pm"}, {"days": "Sun", "time": "Closed"}], "id": "6580700120", "name": "USPS COLLECTION BOX - PO LOBBY", "address": {"city": "SPRINGFIELD", "state": "MO", "street": "1919 W BENNETT ST", "postcode": "65807"}}},
{"geometry": {"type": "Point", "coordinates": [-93.2961841941, 37.142900737]}, "type": "Feature", "properties": {"collection_times": [{"days": "Mon-Fri", "time": "5:00pm"}, {"days": "Sat", "time": "12:00pm"}, {"days": "Sun", "time": "Closed"}], "id": "6580700125", "name": "USPS COLLECTION BOX - PO LOBBY", "address": {"city": "SPRINGFIELD", "state": "MO", "street": "3951 S CAMPBELL AVE", "postcode": "65807"}}},
{"geometry": {"type": "Point", "coordinates": [-93.3147943214, 37.1602617752]}, "type": "Feature", "properties": {"collection_times": [{"days": "Mon-Sat", "time": "4:00pm"}, {"days": "Sun", "time": "Closed"}], "id": "6580700129", "name": "USPS COLLECTION BOX - BLUE BOX", "address": {"city": "SPRINGFIELD", "state": "MO", "street": "1707 W BATTLEFIELD ST", "postcode": "65807"}}},
{"geometry": {"type": "Point", "coordinates": [-93.3147943214, 37.1602617752]}, "type": "Feature", "properties": {"collection_times": [{"days": "Mon-Sat", "time": "4:00pm"}, {"days": "Sun", "time": "Closed"}], "id": "6580700130", "name": "USPS COLLECTION BOX - BLUE BOX", "address": {"city": "SPRINGFIELD", "state": "MO", "street": "1707 W BATTLEFIELD ST", "postcode": "65807"}}},
{"geometry": {"type": "Point", "coordinates": [-93.2230300116, 37.1828989459]}, "type": "Feature", "properties": {"collection_times": [{"days": "Mon-Sat", "time": "2:45pm"}, {"days": "Sun", "time": "Closed"}], "id": "6580900001", "name": "USPS COLLECTION BOX - BLUE BOX", "address": {"city": "SPRINGFIELD", "state": "MO", "street": "1625 S EASTGATE AVE", "postcode": "65809"}}},
{"geometry": {"type": "Point", "coordinates": [-93.2159440874, 37.1204943116]}, "type": "Feature", "properties": {"collection_times": [{"days": "Mon-Sat", "time": "11:00am"}, {"days": "Sun", "time": "Closed"}], "id": "6580900002", "name": "USPS COLLECTION BOX - BLUE BOX", "address": {"city": "SPRINGFIELD", "state": "MO", "street": "5000 S HIGHLAND SPRINGS BLVD", "postcode": "65809"}}}
]}
