{"type": "FeatureCollection", "features": [
{"geometry": {"type": "Point", "coordinates": [-74.1751246445, 40.730650582]}, "type": "Feature", "properties": {"collection_times": [{"days": "Mon-Sat", "time": "1:00pm"}, {"days": "Sun", "time": "Closed"}], "id": "0710200001", "name": "USPS COLLECTION BOX - BLUE BOX", "address": {"city": "NEWARK", "state": "NJ", "street": "1 COURT ST", "postcode": "07102"}}},
{"geometry": {"type": "Point", "coordinates": [-74.1750682735, 40.7316382953]}, "type": "Feature", "properties": {"collection_times": [{"days": "Mon-Sat", "time": "1:00pm"}, {"days": "Sun", "time": "Closed"}], "id": "0710200008", "name": "USPS COLLECTION BOX - BLUE BOX", "address": {"city": "NEWARK", "state": "NJ", "street": "10 HILL ST", "postcode": "07102"}}},
{"geometry": {"type": "Point", "coordinates": [-74.1753379336, 40.7425033015]}, "type": "Feature", "properties": {"collection_times": [{"days": "Mon-Sat", "time": "1:00pm"}, {"days": "Sun", "time": "Closed"}], "id": "0710200009", "name": "USPS COLLECTION BOX - BLUE BOX", "address": {"city": "NEWARK", "state": "NJ", "street": "101 BLEEKER ST", "postcode": "07102"}}},
{"geometry": {"type": "Point", "coordinates": [-74.1781158289, 40.7254115217]}, "type": "Feature", "properties": {"collection_times": [{"days": "Mon-Sat", "time": "1:00pm"}, {"days": "Sun", "time": "Closed"}], "id": "0710200011", "name": "USPS COLLECTION BOX - BLUE BOX", "address": {"city": "NEWARK", "state": "NJ", "street": "1060 BROAD ST", "postcode": "07102"}}},
{"geometry": {"type": "Point", "coordinates": [-74.1705846894, 40.7370126844]}, "type": "Feature", "properties": {"collection_times": [{"days": "Mon-Sat", "time": "1:00pm"}, {"days": "Sun", "time": "Closed"}], "id": "0710200013", "name": "USPS COLLECTION BOX - BLUE BOX", "address": {"city": "NEWARK", "state": "NJ", "street": "11 COMMERCE ST", "postcode": "07102"}}},
{"geometry": {"type": "Point", "coordinates": [-74.1723798569, 40.7382108274]}, "type": "Feature", "properties": {"collection_times": [{"days": "Mon-Sat", "time": "1:00pm"}, {"days": "Sun", "time": "Closed"}], "id": "0710200017", "name": "USPS COLLECTION BOX - BLUE BOX", "address": {"city": "NEWARK", "state": "NJ", "street": "124 HALSEY ST # 1", "postcode": "07102"}}},
{"geometry": {"type": "Point", "coordinates": [-74.1723798569, 40.7382108274]}, "type": "Feature", "properties": {"collection_times": [{"days": "Mon-Sat", "time": "1:00pm"}, {"days": "Sun", "time": "Closed"}], "id": "0710200018", "name": "USPS COLLECTION BOX - BLUE BOX", "address": {"city": "NEWARK", "state": "NJ", "street": "124 HALSEY ST # 2", "postcode": "07102"}}},
{"geometry": {"type": "Point", "coordinates": [-74.1706453918, 40.7417940933]}, "type": "Feature", "properties": {"collection_times": [{"days": "Mon-Sat", "time": "1:00pm"}, {"days": "Sun", "time": "Closed"}], "id": "0710200019", "name": "USPS COLLECTION BOX - BLUE BOX", "address": {"city": "NEWARK", "state": "NJ", "street": "32 CENTRAL AVE", "postcode": "07102"}}},
{"geometry": {"type": "Point", "coordinates": [-74.1720772909, 40.7377060761]}, "type": "Feature", "properties": {"collection_times": [{"days": "Mon-Sat", "time": "1:00pm"}, {"days": "Sun", "time": "Closed"}], "id": "0710200021", "name": "USPS COLLECTION BOX - BLUE BOX", "address": {"city": "NEWARK", "state": "NJ", "street": "1212 RAYMOND BLVD", "postcode": "07102"}}},
{"geometry": {"type": "Point", "coordinates": [-74.1695550997, 40.7359885846]}, "type": "Feature", "properties": {"collection_times": [{"days": "Mon-Fri", "time": "5:00pm"}, {"days": "Sat", "time": "1:00pm"}, {"days": "Sun", "time": "Closed"}], "id": "0710200027", "name": "USPS COLLECTION BOX - BLUE BOX", "address": {"city": "NEWARK", "state": "NJ", "street": "40 CLINTON ST", "postcode": "07102"}}},
{"geometry": {"type": "Point", "coordinates": [-74.1787510778, 40.7268701101]}, "type": "Feature", "properties": {"collection_times": [{"days": "Mon-Sat", "time": "1:00pm"}, {"days": "Sun", "time": "Closed"}], "id": "0710200030", "name": "USPS COLLECTION BOX - BLUE BOX", "address": {"city": "NEWARK", "state": "NJ", "street": "31 LINCOLN PARK", "postcode": "07102"}}},
{"geometry": {"type": "Point", "coordinates": [-74.1708768976, 40.7434317172]}, "type": "Feature", "properties": {"collection_times": [{"days": "Mon-Sat", "time": "1:00pm"}, {"days": "Sun", "time": "Closed"}], "id": "0710200032", "name": "USPS COLLECTION BOX - BLUE BOX", "address": {"city": "NEWARK", "state": "NJ", "street": "33 WASHINGTON ST # 1", "postcode": "07102"}}},
{"geometry": {"type": "Point", "coordinates": [-74.1788892944, 40.7296984982]}, "type": "Feature", "properties": {"collection_times": [{"days": "Mon-Sat", "time": "1:00pm"}, {"days": "Sun", "time": "Closed"}], "id": "0710200034", "name": "USPS COLLECTION BOX - BLUE BOX", "address": {"city": "NEWARK", "state": "NJ", "street": "440 WASHINGTON ST", "postcode": "07102"}}},
{"geometry": {"type": "Point", "coordinates": [-74.1704020488, 40.7441756646]}, "type": "Feature", "properties": {"collection_times": [{"days": "Mon-Sat", "time": "1:00pm"}, {"days": "Sun", "time": "Closed"}], "id": "0710200037", "name": "USPS COLLECTION BOX - BLUE BOX", "address": {"city": "NEWARK", "state": "NJ", "street": "5 WASHINGTON ST", "postcode": "07102"}}},
{"geometry": {"type": "Point", "coordinates": [-74.1704020488, 40.7441756646]}, "type": "Feature", "properties": {"collection_times": [{"days": "Mon-Sat", "time": "1:00pm"}, {"days": "Sun", "time": "Closed"}], "id": "0710200038", "name": "USPS COLLECTION BOX - BLUE BOX", "address": {"city": "NEWARK", "state": "NJ", "street": "5 WASHINGTON ST", "postcode": "07102"}}},
{"geometry": {"type": "Point", "coordinates": [-74.1687947254, 40.7389083477]}, "type": "Feature", "properties": {"collection_times": [{"days": "Mon-Sat", "time": "1:00pm"}, {"days": "Sun", "time": "Closed"}], "id": "0710200039", "name": "USPS COLLECTION BOX - BLUE BOX", "address": {"city": "NEWARK", "state": "NJ", "street": "50 PARK PL STE 1", "postcode": "07102"}}},
{"geometry": {"type": "Point", "coordinates": [-74.1691697971, 40.742347688]}, "type": "Feature", "properties": {"collection_times": [{"days": "Mon-Sat", "time": "1:00pm"}, {"days": "Sun", "time": "Closed"}], "id": "0710200046", "name": "USPS COLLECTION BOX - BLUE BOX", "address": {"city": "NEWARK", "state": "NJ", "street": "560 BROAD ST", "postcode": "07102"}}},
{"geometry": {"type": "Point", "coordinates": [-74.1684605178, 40.7404575767]}, "type": "Feature", "properties": {"collection_times": [{"days": "Mon-Sat", "time": "1:00pm"}, {"days": "Sun", "time": "Closed"}], "id": "0710200052", "name": "USPS COLLECTION BOX - BLUE BOX", "address": {"city": "NEWARK", "state": "NJ", "street": "6 PARK PLACE     (1)", "postcode": "07102"}}},
{"geometry": {"type": "Point", "coordinates": [-74.1684605178, 40.7404575767]}, "type": "Feature", "properties": {"collection_times": [{"days": "Mon-Sat", "time": "1:00pm"}, {"days": "Sun", "time": "Closed"}], "id": "0710200053", "name": "USPS COLLECTION BOX - BLUE BOX", "address": {"city": "NEWARK", "state": "NJ", "street": "6 PARK PLACE     (2)", "postcode": "07102"}}},
{"geometry": {"type": "Point", "coordinates": [-74.1727459995, 40.7375347073]}, "type": "Feature", "properties": {"collection_times": [{"days": "Mon-Sat", "time": "1:00pm"}, {"days": "Sun", "time": "Closed"}], "id": "0710200061", "name": "USPS COLLECTION BOX - BLUE BOX", "address": {"city": "NEWARK", "state": "NJ", "street": "31 ACADEMY ST # 3", "postcode": "07102"}}},
{"geometry": {"type": "Point", "coordinates": [-74.1713919731, 40.7368235925]}, "type": "Feature", "properties": {"collection_times": [{"days": "Mon-Sat", "time": "1:00pm"}, {"days": "Sun", "time": "Closed"}], "id": "0710200064", "name": "USPS COLLECTION BOX - BLUE BOX", "address": {"city": "NEWARK", "state": "NJ", "street": "744 BROAD ST", "postcode": "07102"}}},
{"geometry": {"type": "Point", "coordinates": [-74.1697581004, 40.7446153656]}, "type": "Feature", "properties": {"collection_times": [{"days": "Mon-Sat", "time": "1:00pm"}, {"days": "Sun", "time": "Closed"}], "id": "0710200073", "name": "USPS COLLECTION BOX - BLUE BOX", "address": {"city": "NEWARK", "state": "NJ", "street": "494 BROAD ST", "postcode": "07102"}}},
{"geometry": {"type": "Point", "coordinates": [-74.1708768976, 40.7434317172]}, "type": "Feature", "properties": {"collection_times": [{"days": "Mon-Sat", "time": "1:00pm"}, {"days": "Sun", "time": "Closed"}], "id": "0710200078", "name": "USPS COLLECTION BOX - BLUE BOX", "address": {"city": "NEWARK", "state": "NJ", "street": "33 WASHINGTON ST", "postcode": "07102"}}},
{"geometry": {"type": "Point", "coordinates": [-74.1718858933, 40.7354845227]}, "type": "Feature", "properties": {"collection_times": [{"days": "Mon-Sat", "time": "1:00pm"}, {"days": "Sun", "time": "Closed"}], "id": "0710200079", "name": "USPS COLLECTION BOX - BLUE BOX", "address": {"city": "NEWARK", "state": "NJ", "street": "180 MARKET ST", "postcode": "07102"}}},
{"geometry": {"type": "Point", "coordinates": [-74.1720772909, 40.7377060761]}, "type": "Feature", "properties": {"collection_times": [{"days": "Mon-Sat", "time": "1:00pm"}, {"days": "Sun", "time": "Closed"}], "id": "0710200080", "name": "USPS COLLECTION BOX - BLUE BOX", "address": {"city": "NEWARK", "state": "NJ", "street": "1212 RAYMOND BLVD # 2", "postcode": "07102"}}},
{"geometry": {"type": "Point", "coordinates": [-74.1739373455, 40.7378825625]}, "type": "Feature", "properties": {"collection_times": [{"days": "Mon-Sat", "time": "1:00pm"}, {"days": "Sun", "time": "Closed"}], "id": "0710200082", "name": "USPS COLLECTION BOX - BLUE BOX", "address": {"city": "NEWARK", "state": "NJ", "street": "204 WASHINGTON ST # 2", "postcode": "07102"}}},
{"geometry": {"type": "Point", "coordinates": [-74.1695550997, 40.7359885846]}, "type": "Feature", "properties": {"collection_times": [{"days": "Mon-Fri", "time": "5:00pm"}, {"days": "Sat", "time": "1:00pm"}, {"days": "Sun", "time": "Closed"}], "id": "0710200083", "name": "USPS COLLECTION BOX - BLUE BOX", "address": {"city": "NEWARK", "state": "NJ", "street": "40 CLINTON ST # 2", "postcode": "07102"}}},
{"geometry": {"type": "Point", "coordinates": [-74.1696050678, 40.7351921468]}, "type": "Feature", "properties": {"collection_times": [{"days": "Mon-Sat", "time": "1:00pm"}, {"days": "Sun", "time": "Closed"}], "id": "0710200091", "name": "USPS COLLECTION BOX - BLUE BOX", "address": {"city": "NEWARK", "state": "NJ", "street": "2 GATEWAY CTR FL 1", "postcode": "07102"}}},
{"geometry": {"type": "Point", "coordinates": [-74.1695461412, 40.7352925915]}, "type": "Feature", "properties": {"collection_times": [{"days": "Mon-Sat", "time": "1:00pm"}, {"days": "Sun", "time": "Closed"}], "id": "0710200095", "name": "USPS COLLECTION BOX - BLUE BOX", "address": {"city": "NEWARK", "state": "NJ", "street": "3 GATEWAY CTR STE 2", "postcode": "07102"}}},
{"geometry": {"type": "Point", "coordinates": [-74.1695558078, 40.7352952434]}, "type": "Feature", "properties": {"collection_times": [{"days": "Mon-Sat", "time": "1:00pm"}, {"days": "Sun", "time": "Closed"}], "id": "0710200096", "name": "USPS COLLECTION BOX - BLUE BOX", "address": {"city": "NEWARK", "state": "NJ", "street": "1 GATEWAY CTR", "postcode": "07102"}}},
{"geometry": {"type": "Point", "coordinates": [-74.1727459995, 40.7375347073]}, "type": "Feature", "properties": {"collection_times": [{"days": "Mon-Sat", "time": "1:00pm"}, {"days": "Sun", "time": "Closed"}], "id": "0710200101", "name": "USPS COLLECTION BOX - BLUE BOX", "address": {"city": "NEWARK", "state": "NJ", "street": "31 ACADEMY ST", "postcode": "07102"}}},
{"geometry": {"type": "Point", "coordinates": [-74.1727459995, 40.7375347073]}, "type": "Feature", "properties": {"collection_times": [{"days": "Mon-Sat", "time": "1:00pm"}, {"days": "Sun", "time": "Closed"}], "id": "0710200102", "name": "USPS COLLECTION BOX - BLUE BOX", "address": {"city": "NEWARK", "state": "NJ", "street": "31 ACADEMY ST", "postcode": "07102"}}},
{"geometry": {"type": "Point", "coordinates": [-74.1708768976, 40.7434317172]}, "type": "Feature", "properties": {"collection_times": [{"days": "Mon-Sat", "time": "1:00pm"}, {"days": "Sun", "time": "Closed"}], "id": "0710200103", "name": "USPS COLLECTION BOX - BLUE BOX", "address": {"city": "NEWARK", "state": "NJ", "street": "33 WASHINGTON ST STE 203", "postcode": "07102"}}},
{"geometry": {"type": "Point", "coordinates": [-74.1795818857, 40.7258178108]}, "type": "Feature", "properties": {"collection_times": [{"days": "Mon-Sat", "time": "1:00pm"}, {"days": "Sun", "time": "Closed"}], "id": "0710200105", "name": "USPS COLLECTION BOX - BLUE BOX", "address": {"city": "NEWARK", "state": "NJ", "street": "1 PENNSYLVANIA AVE", "postcode": "07102"}}},
{"geometry": {"type": "Point", "coordinates": [-74.1763057518, 40.7371616639]}, "type": "Feature", "properties": {"collection_times": [{"days": "Mon-Sat", "time": "1:00pm"}, {"days": "Sun", "time": "Closed"}], "id": "0710200107", "name": "USPS COLLECTION BOX - BLUE BOX", "address": {"city": "NEWARK", "state": "NJ", "street": "312 UNIVERSITY AVE", "postcode": "07102"}}},
{"geometry": {"type": "Point", "coordinates": [-74.1806149925, 40.7387240501]}, "type": "Feature", "properties": {"collection_times": [{"days": "Mon-Sat", "time": "1:00pm"}, {"days": "Sun", "time": "Closed"}], "id": "0710200112", "name": "USPS COLLECTION BOX - BLUE BOX", "address": {"city": "NEWARK", "state": "NJ", "street": "50 W MARKET ST RM 1", "postcode": "07102"}}},
{"geometry": {"type": "Point", "coordinates": [-74.1687947254, 40.7389083477]}, "type": "Feature", "properties": {"collection_times": [{"days": "Mon-Sat", "time": "1:00pm"}, {"days": "Sun", "time": "Closed"}], "id": "0710200115", "name": "USPS COLLECTION BOX - BLUE BOX", "address": {"city": "NEWARK", "state": "NJ", "street": "50 PARK PL STE 3", "postcode": "07102"}}},
{"geometry": {"type": "Point", "coordinates": [-74.1693252608, 40.7385589276]}, "type": "Feature", "properties": {"collection_times": [{"days": "Mon-Sat", "time": "1:00pm"}, {"days": "Sun", "time": "Closed"}], "id": "0710200116", "name": "USPS COLLECTION BOX - BLUE BOX", "address": {"city": "NEWARK", "state": "NJ", "street": "60 PARK PL", "postcode": "07102"}}},
{"geometry": {"type": "Point", "coordinates": [-74.175101645, 40.7448722264]}, "type": "Feature", "properties": {"collection_times": [{"days": "Mon-Sat", "time": "1:00pm"}, {"days": "Sun", "time": "Closed"}], "id": "0710200122", "name": "USPS COLLECTION BOX - BLUE BOX", "address": {"city": "NEWARK", "state": "NJ", "street": "268 MARTIN LUTHER KING JR BLVD", "postcode": "07102"}}},
{"geometry": {"type": "Point", "coordinates": [-74.1724346558, 40.7444069227]}, "type": "Feature", "properties": {"collection_times": [{"days": "Mon-Sat", "time": "1:00pm"}, {"days": "Sun", "time": "Closed"}], "id": "0710200123", "name": "USPS COLLECTION BOX - BLUE BOX", "address": {"city": "NEWARK", "state": "NJ", "street": "98 UNIVERSITY AVE", "postcode": "07102"}}},
{"geometry": {"type": "Point", "coordinates": [-74.1739494474, 40.7380124006]}, "type": "Feature", "properties": {"collection_times": [{"days": "Mon-Sat", "time": "1:00pm"}, {"days": "Sun", "time": "Closed"}], "id": "0710200125", "name": "USPS COLLECTION BOX - BLUE BOX", "address": {"city": "NEWARK", "state": "NJ", "street": "201 WASHINGTON ST", "postcode": "07102"}}},
{"geometry": {"type": "Point", "coordinates": [-74.1739373455, 40.7378825625]}, "type": "Feature", "properties": {"collection_times": [{"days": "Mon-Sat", "time": "1:00pm"}, {"days": "Sun", "time": "Closed"}], "id": "0710200126", "name": "USPS COLLECTION BOX - BLUE BOX", "address": {"city": "NEWARK", "state": "NJ", "street": "204 WASHINGTON ST", "postcode": "07102"}}},
{"geometry": {"type": "Point", "coordinates": [-74.1758149737, 40.7353412792]}, "type": "Feature", "properties": {"collection_times": [{"days": "Mon-Sat", "time": "1:00pm"}, {"days": "Sun", "time": "Closed"}], "id": "0710200128", "name": "USPS COLLECTION BOX - BLUE BOX", "address": {"city": "NEWARK", "state": "NJ", "street": "278 WASHINGTON ST", "postcode": "07102"}}},
{"geometry": {"type": "Point", "coordinates": [-74.1726392152, 40.7406056207]}, "type": "Feature", "properties": {"collection_times": [{"days": "Mon-Sat", "time": "1:00pm"}, {"days": "Sun", "time": "Closed"}], "id": "0710200129", "name": "USPS COLLECTION BOX - BLUE BOX", "address": {"city": "NEWARK", "state": "NJ", "street": "121 WASHINGTON ST", "postcode": "07102"}}},
{"geometry": {"type": "Point", "coordinates": [-74.1731663286, 40.7394662571]}, "type": "Feature", "properties": {"collection_times": [{"days": "Mon-Sat", "time": "1:00pm"}, {"days": "Sun", "time": "Closed"}], "id": "0710200130", "name": "USPS COLLECTION BOX - BLUE BOX", "address": {"city": "NEWARK", "state": "NJ", "street": "157 WASHINGTON ST", "postcode": "07102"}}},
{"geometry": {"type": "Point", "coordinates": [-74.1713919731, 40.7368235925]}, "type": "Feature", "properties": {"collection_times": [{"days": "Mon-Sat", "time": "1:00pm"}, {"days": "Sun", "time": "Closed"}], "id": "0710200131", "name": "USPS COLLECTION BOX - BLUE BOX", "address": {"city": "NEWARK", "state": "NJ", "street": "744 BROAD ST", "postcode": "07102"}}},
{"geometry": {"type": "Point", "coordinates": [-74.1752533294, 40.739101584]}, "type": "Feature", "properties": {"collection_times": [{"days": "Mon-Sat", "time": "1:00pm"}, {"days": "Sun", "time": "Closed"}], "id": "0710200132", "name": "USPS COLLECTION BOX - BLUE BOX", "address": {"city": "NEWARK", "state": "NJ", "street": "249 UNIVERSITY AVE", "postcode": "07102"}}},
{"geometry": {"type": "Point", "coordinates": [-74.1687947254, 40.7389083477]}, "type": "Feature", "properties": {"collection_times": [{"days": "Mon-Sat", "time": "1:00pm"}, {"days": "Sun", "time": "Closed"}], "id": "0710200135", "name": "USPS COLLECTION BOX - BLUE BOX", "address": {"city": "NEWARK", "state": "NJ", "street": "50 PARK PL LBBY 2", "postcode": "07102"}}},
{"geometry": {"type": "Point", "coordinates": [-74.1684605178, 40.7404575767]}, "type": "Feature", "properties": {"collection_times": [{"days": "Mon-Sat", "time": "1:00pm"}, {"days": "Sun", "time": "Closed"}], "id": "0710200136", "name": "USPS COLLECTION BOX - BLUE BOX", "address": {"city": "NEWARK", "state": "NJ", "street": "6 PARK PL       (3)", "postcode": "07102"}}},
{"geometry": {"type": "Point", "coordinates": [-74.1691697971, 40.742347688]}, "type": "Feature", "properties": {"collection_times": [{"days": "Mon-Sat", "time": "1:00pm"}, {"days": "Sun", "time": "Closed"}], "id": "0710200137", "name": "USPS COLLECTION BOX - BLUE BOX", "address": {"city": "NEWARK", "state": "NJ", "street": "560 BROAD ST # 2", "postcode": "07102"}}},
{"geometry": {"type": "Point", "coordinates": [-74.1792715798, 40.7373014422]}, "type": "Feature", "properties": {"collection_times": [{"days": "Mon-Sat", "time": "1:00pm"}, {"days": "Sun", "time": "Closed"}], "id": "0710200138", "name": "USPS COLLECTION BOX - BLUE BOX", "address": {"city": "NEWARK", "state": "NJ", "street": "465 DR MARTIN L KING BLVD", "postcode": "07102"}}},
{"geometry": {"type": "Point", "coordinates": [-74.1735628763, 40.7311733814]}, "type": "Feature", "properties": {"collection_times": [{"days": "Mon-Fri", "time": "5:00pm"}, {"days": "Sat", "time": "3:00pm"}, {"days": "Sun", "time": "Closed"}], "id": "0710200139", "name": "USPS COLLECTION BOX - BLUE BOX", "address": {"city": "NEWARK", "state": "NJ", "street": "2 FEDERAL SQ", "postcode": "07102"}}},
{"geometry": {"type": "Point", "coordinates": [-74.1735628763, 40.7311733814]}, "type": "Feature", "properties": {"collection_times": [{"days": "Mon-Fri", "time": "5:00pm"}, {"days": "Sat", "time": "3:00pm"}, {"days": "Sun", "time": "Closed"}], "id": "0710200140", "name": "USPS COLLECTION BOX - BLUE BOX", "address": {"city": "NEWARK", "state": "NJ", "street": "2 FEDERAL SQ", "postcode": "07102"}}},
{"geometry": {"type": "Point", "coordinates": [-74.1645413748, 40.7356003472]}, "type": "Feature", "properties": {"collection_times": [{"days": "Mon-Fri", "time": "4:30pm"}, {"days": "Sat-Sun", "time": "Closed"}], "id": "0710200143", "name": "USPS COLLECTION BOX - BLUE BOX", "address": {"city": "NEWARK", "state": "NJ", "street": "1037 RAYMOND BLVD", "postcode": "07102"}}},
{"geometry": {"type": "Point", "coordinates": [-74.1695550997, 40.7359885846]}, "type": "Feature", "properties": {"collection_times": [{"days": "Mon-Fri", "time": "5:00pm"}, {"days": "Sat-Sun", "time": "Closed"}], "id": "0710200145", "name": "USPS COLLECTION BOX - PO LOBBY", "address": {"city": "NEWARK", "state": "NJ", "street": "40 CLINTON ST STE L", "postcode": "07102"}}},
{"geometry": {"type": "Point", "coordinates": [-74.1735628763, 40.7311733814]}, "type": "Feature", "properties": {"collection_times": [{"days": "Mon-Fri", "time": "5:00pm"}, {"days": "Sat", "time": "3:00pm"}, {"days": "Sun", "time": "Closed"}], "id": "0710200146", "name": "USPS COLLECTION BOX - PO LOBBY", "address": {"city": "NEWARK", "state": "NJ", "street": "2 FEDERAL SQ", "postcode": "07102"}}},
{"geometry": {"type": "Point", "coordinates": [-74.1693252608, 40.7385589276]}, "type": "Feature", "properties": {"collection_times": [{"days": "Mon-Sat", "time": "1:00pm"}, {"days": "Sun", "time": "Closed"}], "id": "0710200149", "name": "USPS COLLECTION BOX - BLUE BOX", "address": {"city": "NEWARK", "state": "NJ", "street": "60 PARK PL", "postcode": "07102"}}},
{"geometry": {"type": "Point", "coordinates": [-74.1921533844, 40.7407591461]}, "type": "Feature", "properties": {"collection_times": [{"days": "Mon-Sat", "time": "1:00pm"}, {"days": "Sun", "time": "Closed"}], "id": "0710300001", "name": "USPS COLLECTION BOX - BLUE BOX", "address": {"city": "NEWARK", "state": "NJ", "street": "100 BERGEN ST", "postcode": "07103"}}},
{"geometry": {"type": "Point", "coordinates": [-74.1914849821, 40.7341043545]}, "type": "Feature", "properties": {"collection_times": [{"days": "Mon-Fri", "time": "5:00pm"}, {"days": "Sat", "time": "3:00pm"}, {"days": "Sun", "time": "Closed"}], "id": "0710300004", "name": "USPS COLLECTION BOX - BLUE BOX", "address": {"city": "NEWARK", "state": "NJ", "street": "290 SPRINGFIELD AVE", "postcode": "07103"}}},
{"geometry": {"type": "Point", "coordinates": [-74.1828887764, 40.7325303201]}, "type": "Feature", "properties": {"collection_times": [{"days": "Mon-Sat", "time": "1:00pm"}, {"days": "Sun", "time": "Closed"}], "id": "0710300010", "name": "USPS COLLECTION BOX - BLUE BOX", "address": {"city": "NEWARK", "state": "NJ", "street": "89 LINCOLN ST", "postcode": "07103"}}},
{"geometry": {"type": "Point", "coordinates": [-74.1764340251, 40.7448065586]}, "type": "Feature", "properties": {"collection_times": [{"days": "Mon-Sat", "time": "1:00pm"}, {"days": "Sun", "time": "Closed"}], "id": "0710300011", "name": "USPS COLLECTION BOX - BLUE BOX", "address": {"city": "NEWARK", "state": "NJ", "street": "25 SUMMIT ST", "postcode": "07103"}}},
{"geometry": {"type": "Point", "coordinates": [-74.1900484079, 40.7386075923]}, "type": "Feature", "properties": {"collection_times": [{"days": "Mon-Sat", "time": "1:00pm"}, {"days": "Sun", "time": "Closed"}], "id": "0710300018", "name": "USPS COLLECTION BOX - BLUE BOX", "address": {"city": "NEWARK", "state": "NJ", "street": "180 S ORANGE AVE", "postcode": "07103"}}},
{"geometry": {"type": "Point", "coordinates": [-74.1809207372, 40.7430839]}, "type": "Feature", "properties": {"collection_times": [{"days": "Mon-Sat", "time": "1:00pm"}, {"days": "Sun", "time": "Closed"}], "id": "0710300034", "name": "USPS COLLECTION BOX - BLUE BOX", "address": {"city": "NEWARK", "state": "NJ", "street": "105 LOCK ST", "postcode": "07103"}}},
{"geometry": {"type": "Point", "coordinates": [-74.1914849821, 40.7341043545]}, "type": "Feature", "properties": {"collection_times": [{"days": "Mon-Fri", "time": "5:00pm"}, {"days": "Sat", "time": "3:00pm"}, {"days": "Sun", "time": "Closed"}], "id": "0710300036", "name": "USPS COLLECTION BOX - PO LOBBY", "address": {"city": "NEWARK", "state": "NJ", "street": "290 SPRINGFIELD AVE", "postcode": "07103"}}},
{"geometry": {"type": "Point", "coordinates": [-74.1801498714, 40.7503705203]}, "type": "Feature", "properties": {"collection_times": [{"days": "Mon-Sat", "time": "12:00pm"}, {"days": "Sun", "time": "Closed"}], "id": "0710400003", "name": "USPS COLLECTION BOX - BLUE BOX", "address": {"city": "NEWARK", "state": "NJ", "street": "25 CLIFTON AVE # 51", "postcode": "07104"}}},
{"geometry": {"type": "Point", "coordinates": [-74.169261593, 40.7588852792]}, "type": "Feature", "properties": {"collection_times": [{"days": "Mon-Fri", "time": "5:00pm"}, {"days": "Sat", "time": "3:00pm"}, {"days": "Sun", "time": "Closed"}], "id": "0710400022", "name": "USPS COLLECTION BOX - BLUE BOX", "address": {"city": "NEWARK", "state": "NJ", "street": "243 BROADWAY", "postcode": "07104"}}},
{"geometry": {"type": "Point", "coordinates": [-74.1736301695, 40.7629154698]}, "type": "Feature", "properties": {"collection_times": [{"days": "Mon-Sat", "time": "12:00pm"}, {"days": "Sun", "time": "Closed"}], "id": "0710400027", "name": "USPS COLLECTION BOX - BLUE BOX", "address": {"city": "NEWARK", "state": "NJ", "street": "112 2ND AVE", "postcode": "07104"}}},
{"geometry": {"type": "Point", "coordinates": [-74.1724470895, 40.7821036471]}, "type": "Feature", "properties": {"collection_times": [{"days": "Mon-Sat", "time": "12:00pm"}, {"days": "Sun", "time": "Closed"}], "id": "0710400030", "name": "USPS COLLECTION BOX - BLUE BOX", "address": {"city": "NEWARK", "state": "NJ", "street": "341 MONTCLAIR AVE", "postcode": "07104"}}},
{"geometry": {"type": "Point", "coordinates": [-74.1626190664, 40.7816233658]}, "type": "Feature", "properties": {"collection_times": [{"days": "Mon-Sat", "time": "12:00pm"}, {"days": "Sun", "time": "Closed"}], "id": "0710400034", "name": "USPS COLLECTION BOX - BLUE BOX", "address": {"city": "NEWARK", "state": "NJ", "street": "860 MOUNT PROSPECT AVE", "postcode": "07104"}}},
{"geometry": {"type": "Point", "coordinates": [-74.1742381066, 40.7552581348]}, "type": "Feature", "properties": {"collection_times": [{"days": "Mon-Sat", "time": "12:00pm"}, {"days": "Sun", "time": "Closed"}], "id": "0710400037", "name": "USPS COLLECTION BOX - BLUE BOX", "address": {"city": "NEWARK", "state": "NJ", "street": "32 PARK AVE", "postcode": "07104"}}},
{"geometry": {"type": "Point", "coordinates": [-74.1715297111, 40.7703833415]}, "type": "Feature", "properties": {"collection_times": [{"days": "Mon-Sat", "time": "12:00pm"}, {"days": "Sun", "time": "Closed"}], "id": "0710400039", "name": "USPS COLLECTION BOX - BLUE BOX", "address": {"city": "NEWARK", "state": "NJ", "street": "224 BALLANTINE PKWY", "postcode": "07104"}}},
{"geometry": {"type": "Point", "coordinates": [-74.1706875637, 40.7647396724]}, "type": "Feature", "properties": {"collection_times": [{"days": "Mon-Sat", "time": "12:00pm"}, {"days": "Sun", "time": "Closed"}], "id": "0710400048", "name": "USPS COLLECTION BOX - BLUE BOX", "address": {"city": "NEWARK", "state": "NJ", "street": "375 MOUNT PROSPECT AVE", "postcode": "07104"}}},
{"geometry": {"type": "Point", "coordinates": [-74.169261593, 40.7588852792]}, "type": "Feature", "properties": {"collection_times": [{"days": "Mon-Fri", "time": "5:00pm"}, {"days": "Sat", "time": "3:00pm"}, {"days": "Sun", "time": "Closed"}], "id": "0710400050", "name": "USPS COLLECTION BOX - PO LOBBY", "address": {"city": "NEWARK", "state": "NJ", "street": "243 BROADWAY", "postcode": "07104"}}},
{"geometry": {"type": "Point", "coordinates": [-74.1653013202, 40.7231489161]}, "type": "Feature", "properties": {"collection_times": [{"days": "Mon-Sat", "time": "1:00pm"}, {"days": "Sun", "time": "Closed"}], "id": "0710500003", "name": "USPS COLLECTION BOX - BLUE BOX", "address": {"city": "NEWARK", "state": "NJ", "street": "247 CHESTNUT ST", "postcode": "07105"}}},
{"geometry": {"type": "Point", "coordinates": [-74.1516654216, 40.728639643]}, "type": "Feature", "properties": {"collection_times": [{"days": "Mon-Fri", "time": "5:00pm"}, {"days": "Sat", "time": "3:00pm"}, {"days": "Sun", "time": "Closed"}], "id": "0710500004", "name": "USPS COLLECTION BOX - BLUE BOX", "address": {"city": "NEWARK", "state": "NJ", "street": "279 FERRY ST", "postcode": "07105"}}},
{"geometry": {"type": "Point", "coordinates": [-74.1657408952, 40.7270487369]}, "type": "Feature", "properties": {"collection_times": [{"days": "Mon-Sat", "time": "1:00pm"}, {"days": "Sun", "time": "Closed"}], "id": "0710500005", "name": "USPS COLLECTION BOX - BLUE BOX", "address": {"city": "NEWARK", "state": "NJ", "street": "94 NEW YORK AVE", "postcode": "07105"}}},
{"geometry": {"type": "Point", "coordinates": [-74.1406988368, 40.7314954796]}, "type": "Feature", "properties": {"collection_times": [{"days": "Mon-Sat", "time": "1:00pm"}, {"days": "Sun", "time": "Closed"}], "id": "0710500009", "name": "USPS COLLECTION BOX - BLUE BOX", "address": {"city": "NEWARK", "state": "NJ", "street": "492 FERRY ST", "postcode": "07105"}}},
{"geometry": {"type": "Point", "coordinates": [-74.1620062937, 40.731570006]}, "type": "Feature", "properties": {"collection_times": [{"days": "Mon-Sat", "time": "1:00pm"}, {"days": "Sun", "time": "Closed"}], "id": "0710500011", "name": "USPS COLLECTION BOX - BLUE BOX", "address": {"city": "NEWARK", "state": "NJ", "street": "73 FERRY ST # 77", "postcode": "07105"}}},
{"geometry": {"type": "Point", "coordinates": [-74.1580315516, 40.7206950643]}, "type": "Feature", "properties": {"collection_times": [{"days": "Mon-Sat", "time": "1:00pm"}, {"days": "Sun", "time": "Closed"}], "id": "0710500015", "name": "USPS COLLECTION BOX - BLUE BOX", "address": {"city": "NEWARK", "state": "NJ", "street": "414 CHESTNUT ST", "postcode": "07105"}}},
{"geometry": {"type": "Point", "coordinates": [-74.1579818164, 40.7238726808]}, "type": "Feature", "properties": {"collection_times": [{"days": "Mon-Sat", "time": "1:00pm"}, {"days": "Sun", "time": "Closed"}], "id": "0710500017", "name": "USPS COLLECTION BOX - BLUE BOX", "address": {"city": "NEWARK", "state": "NJ", "street": "70 PULASKI ST", "postcode": "07105"}}},
{"geometry": {"type": "Point", "coordinates": [-74.1588111215, 40.7293933615]}, "type": "Feature", "properties": {"collection_times": [{"days": "Mon-Sat", "time": "1:00pm"}, {"days": "Sun", "time": "Closed"}], "id": "0710500018", "name": "USPS COLLECTION BOX - BLUE BOX", "address": {"city": "NEWARK", "state": "NJ", "street": "151 FERRY ST", "postcode": "07105"}}},
{"geometry": {"type": "Point", "coordinates": [-74.1516654216, 40.728639643]}, "type": "Feature", "properties": {"collection_times": [{"days": "Mon-Fri", "time": "5:00pm"}, {"days": "Sat", "time": "3:00pm"}, {"days": "Sun", "time": "Closed"}], "id": "0710500022", "name": "USPS COLLECTION BOX - BLUE BOX", "address": {"city": "NEWARK", "state": "NJ", "street": "279 FERRY ST", "postcode": "07105"}}},
{"geometry": {"type": "Point", "coordinates": [-74.1569455952, 40.7285664732]}, "type": "Feature", "properties": {"collection_times": [{"days": "Mon-Sat", "time": "1:00pm"}, {"days": "Sun", "time": "Closed"}], "id": "0710500023", "name": "USPS COLLECTION BOX - BLUE BOX", "address": {"city": "NEWARK", "state": "NJ", "street": "185 FERRY ST", "postcode": "07105"}}},
{"geometry": {"type": "Point", "coordinates": [-74.1632144024, 40.7278308291]}, "type": "Feature", "properties": {"collection_times": [{"days": "Mon-Sat", "time": "1:00pm"}, {"days": "Sun", "time": "Closed"}], "id": "0710500026", "name": "USPS COLLECTION BOX - BLUE BOX", "address": {"city": "NEWARK", "state": "NJ", "street": "155 JEFFERSON ST # 1", "postcode": "07105"}}},
{"geometry": {"type": "Point", "coordinates": [-74.1639073088, 40.7264951121]}, "type": "Feature", "properties": {"collection_times": [{"days": "Mon-Sat", "time": "1:00pm"}, {"days": "Sun", "time": "Closed"}], "id": "0710500028", "name": "USPS COLLECTION BOX - BLUE BOX", "address": {"city": "NEWARK", "state": "NJ", "street": "140 NEW YORK AVE", "postcode": "07105"}}},
{"geometry": {"type": "Point", "coordinates": [-74.15980599, 40.7276591437]}, "type": "Feature", "properties": {"collection_times": [{"days": "Mon-Sat", "time": "1:00pm"}, {"days": "Sun", "time": "Closed"}], "id": "0710500030", "name": "USPS COLLECTION BOX - BLUE BOX", "address": {"city": "NEWARK", "state": "NJ", "street": "144 ADAMS ST", "postcode": "07105"}}},
{"geometry": {"type": "Point", "coordinates": [-74.1648301605, 40.7299909048]}, "type": "Feature", "properties": {"collection_times": [{"days": "Mon-Sat", "time": "1:00pm"}, {"days": "Sun", "time": "Closed"}], "id": "0710500033", "name": "USPS COLLECTION BOX - BLUE BOX", "address": {"city": "NEWARK", "state": "NJ", "street": "112 UNION ST", "postcode": "07105"}}},
{"geometry": {"type": "Point", "coordinates": [-74.1458589038, 40.7248957515]}, "type": "Feature", "properties": {"collection_times": [{"days": "Mon-Sat", "time": "1:00pm"}, {"days": "Sun", "time": "Closed"}], "id": "0710500035", "name": "USPS COLLECTION BOX - BLUE BOX", "address": {"city": "NEWARK", "state": "NJ", "street": "139 MAGAZINE ST", "postcode": "07105"}}},
{"geometry": {"type": "Point", "coordinates": [-74.1497680464, 40.72509115]}, "type": "Feature", "properties": {"collection_times": [{"days": "Mon-Sat", "time": "1:00pm"}, {"days": "Sun", "time": "Closed"}], "id": "0710500038", "name": "USPS COLLECTION BOX - BLUE BOX", "address": {"city": "NEWARK", "state": "NJ", "street": "51 MARNE ST", "postcode": "07105"}}},
{"geometry": {"type": "Point", "coordinates": [-74.1607771993, 40.7216307848]}, "type": "Feature", "properties": {"collection_times": [{"days": "Mon-Sat", "time": "1:00pm"}, {"days": "Sun", "time": "Closed"}], "id": "0710500040", "name": "USPS COLLECTION BOX - BLUE BOX", "address": {"city": "NEWARK", "state": "NJ", "street": "349 CHESTNUT ST", "postcode": "07105"}}},
{"geometry": {"type": "Point", "coordinates": [-74.1500773878, 40.732629094]}, "type": "Feature", "properties": {"collection_times": [{"days": "Mon-Sat", "time": "1:00pm"}, {"days": "Sun", "time": "Closed"}], "id": "0710500046", "name": "USPS COLLECTION BOX - BLUE BOX", "address": {"city": "NEWARK", "state": "NJ", "street": "700 RAYMOND BLVD", "postcode": "07105"}}},
{"geometry": {"type": "Point", "coordinates": [-74.151043813, 40.7232325112]}, "type": "Feature", "properties": {"collection_times": [{"days": "Mon-Sat", "time": "1:00pm"}, {"days": "Sun", "time": "Closed"}], "id": "0710500051", "name": "USPS COLLECTION BOX - BLUE BOX", "address": {"city": "NEWARK", "state": "NJ", "street": "149 WILSON AVE", "postcode": "07105"}}},
{"geometry": {"type": "Point", "coordinates": [-74.1413535179, 40.7248395267]}, "type": "Feature", "properties": {"collection_times": [{"days": "Mon-Sat", "time": "1:00pm"}, {"days": "Sun", "time": "Closed"}], "id": "0710500055", "name": "USPS COLLECTION BOX - BLUE BOX", "address": {"city": "NEWARK", "state": "NJ", "street": "2 PENN PLZ E", "postcode": "07105"}}},
{"geometry": {"type": "Point", "coordinates": [-74.1653013202, 40.7231489161]}, "type": "Feature", "properties": {"collection_times": [{"days": "Mon-Sat", "time": "1:00pm"}, {"days": "Sun", "time": "Closed"}], "id": "0710500056", "name": "USPS COLLECTION BOX - BLUE BOX", "address": {"city": "NEWARK", "state": "NJ", "street": "247 CHESTNUT ST", "postcode": "07105"}}},
{"geometry": {"type": "Point", "coordinates": [-74.1516654216, 40.728639643]}, "type": "Feature", "properties": {"collection_times": [{"days": "Mon-Fri", "time": "5:00pm"}, {"days": "Sat", "time": "3:00pm"}, {"days": "Sun", "time": "Closed"}], "id": "0710500057", "name": "USPS COLLECTION BOX - PO LOBBY", "address": {"city": "NEWARK", "state": "NJ", "street": "279 FERRY ST STE 4", "postcode": "07105"}}},
{"geometry": {"type": "Point", "coordinates": [-74.2312082102, 40.7389280108]}, "type": "Feature", "properties": {"collection_times": [{"days": "Mon-Fri", "time": "5:00pm"}, {"days": "Sat", "time": "3:00pm"}, {"days": "Sun", "time": "Closed"}], "id": "0710600002", "name": "USPS COLLECTION BOX - BLUE BOX", "address": {"city": "NEWARK", "state": "NJ", "street": "210 STUYVESANT AVE", "postcode": "07106"}}},
{"geometry": {"type": "Point", "coordinates": [-74.2462598817, 40.7378260956]}, "type": "Feature", "properties": {"collection_times": [{"days": "Mon-Sat", "time": "1:00pm"}, {"days": "Sun", "time": "Closed"}], "id": "0710600004", "name": "USPS COLLECTION BOX - BLUE BOX", "address": {"city": "NEWARK", "state": "NJ", "street": "5 MANOR DR", "postcode": "07106"}}},
{"geometry": {"type": "Point", "coordinates": [-74.2403238713, 40.7362189837]}, "type": "Feature", "properties": {"collection_times": [{"days": "Mon-Sat", "time": "1:00pm"}, {"days": "Sun", "time": "Closed"}], "id": "0710600006", "name": "USPS COLLECTION BOX - BLUE BOX", "address": {"city": "NEWARK", "state": "NJ", "street": "72 MOUNT VERNON PL", "postcode": "07106"}}},
{"geometry": {"type": "Point", "coordinates": [-74.2442396862, 40.7335692067]}, "type": "Feature", "properties": {"collection_times": [{"days": "Mon-Sat", "time": "1:00pm"}, {"days": "Sun", "time": "Closed"}], "id": "0710600010", "name": "USPS COLLECTION BOX - BLUE BOX", "address": {"city": "NEWARK", "state": "NJ", "street": "202 NORMAN RD", "postcode": "07106"}}},
{"geometry": {"type": "Point", "coordinates": [-74.2364220708, 40.7456749109]}, "type": "Feature", "properties": {"collection_times": [{"days": "Mon-Sat", "time": "1:00pm"}, {"days": "Sun", "time": "Closed"}], "id": "0710600021", "name": "USPS COLLECTION BOX - BLUE BOX", "address": {"city": "NEWARK", "state": "NJ", "street": "1143 S ORANGE AVE", "postcode": "07106"}}},
{"geometry": {"type": "Point", "coordinates": [-74.2316339636, 40.7463260768]}, "type": "Feature", "properties": {"collection_times": [{"days": "Mon-Sat", "time": "1:00pm"}, {"days": "Sun", "time": "Closed"}], "id": "0710600023", "name": "USPS COLLECTION BOX - BLUE BOX", "address": {"city": "NEWARK", "state": "NJ", "street": "1039 S ORANGE AVE", "postcode": "07106"}}},
{"geometry": {"type": "Point", "coordinates": [-74.2312082102, 40.7389280108]}, "type": "Feature", "properties": {"collection_times": [{"days": "Mon-Fri", "time": "5:00pm"}, {"days": "Sat", "time": "3:00pm"}, {"days": "Sun", "time": "Closed"}], "id": "0710600024", "name": "USPS COLLECTION BOX - PO LOBBY", "address": {"city": "NEWARK", "state": "NJ", "street": "210 STUYVESANT AVE", "postcode": "07106"}}},
{"geometry": {"type": "Point", "coordinates": [-74.2049051176, 40.7368495519]}, "type": "Feature", "properties": {"collection_times": [{"days": "Mon-Sat", "time": "1:00pm"}, {"days": "Sun", "time": "Closed"}], "id": "0710700010", "name": "USPS COLLECTION BOX - BLUE BOX", "address": {"city": "NEWARK", "state": "NJ", "street": "495 N 13TH ST", "postcode": "07107"}}},
{"geometry": {"type": "Point", "coordinates": [-74.1751075256, 40.7828119468]}, "type": "Feature", "properties": {"collection_times": [{"days": "Mon-Sat", "time": "1:00pm"}, {"days": "Sun", "time": "Closed"}], "id": "0710700013", "name": "USPS COLLECTION BOX - BLUE BOX", "address": {"city": "NEWARK", "state": "NJ", "street": "60 CEDAR LN", "postcode": "07107"}}},
{"geometry": {"type": "Point", "coordinates": [-74.189758511, 40.7547264278]}, "type": "Feature", "properties": {"collection_times": [{"days": "Mon-Fri", "time": "5:00pm"}, {"days": "Sat", "time": "3:00pm"}, {"days": "Sun", "time": "Closed"}], "id": "0710700014", "name": "USPS COLLECTION BOX - BLUE BOX", "address": {"city": "NEWARK", "state": "NJ", "street": "374 7TH AVE", "postcode": "07107"}}},
{"geometry": {"type": "Point", "coordinates": [-74.1774343679, 40.7769001736]}, "type": "Feature", "properties": {"collection_times": [{"days": "Mon-Sat", "time": "1:00pm"}, {"days": "Sun", "time": "Closed"}], "id": "0710700015", "name": "USPS COLLECTION BOX - BLUE BOX", "address": {"city": "NEWARK", "state": "NJ", "street": "801 N 6TH ST", "postcode": "07107"}}},
{"geometry": {"type": "Point", "coordinates": [-74.1758057256, 40.7803028786]}, "type": "Feature", "properties": {"collection_times": [{"days": "Mon-Sat", "time": "1:00pm"}, {"days": "Sun", "time": "Closed"}], "id": "0710700016", "name": "USPS COLLECTION BOX - BLUE BOX", "address": {"city": "NEWARK", "state": "NJ", "street": "900 FRANKLIN AVE", "postcode": "07107"}}},
{"geometry": {"type": "Point", "coordinates": [-74.1809980333, 40.7673446915]}, "type": "Feature", "properties": {"collection_times": [{"days": "Mon-Sat", "time": "1:00pm"}, {"days": "Sun", "time": "Closed"}], "id": "0710700017", "name": "USPS COLLECTION BOX - BLUE BOX", "address": {"city": "NEWARK", "state": "NJ", "street": "355 BLOOMFIELD AVE", "postcode": "07107"}}},
{"geometry": {"type": "Point", "coordinates": [-74.1829174593, 40.7700149894]}, "type": "Feature", "properties": {"collection_times": [{"days": "Mon-Sat", "time": "1:00pm"}, {"days": "Sun", "time": "Closed"}], "id": "0710700019", "name": "USPS COLLECTION BOX - BLUE BOX", "address": {"city": "NEWARK", "state": "NJ", "street": "427 BLOOMFIELD AVE", "postcode": "07107"}}},
{"geometry": {"type": "Point", "coordinates": [-74.1826226238, 40.7738883452]}, "type": "Feature", "properties": {"collection_times": [{"days": "Mon-Sat", "time": "1:00pm"}, {"days": "Sun", "time": "Closed"}], "id": "0710700020", "name": "USPS COLLECTION BOX - BLUE BOX", "address": {"city": "NEWARK", "state": "NJ", "street": "81 DAVENPORT AVE", "postcode": "07107"}}},
{"geometry": {"type": "Point", "coordinates": [-74.189758511, 40.7547264278]}, "type": "Feature", "properties": {"collection_times": [{"days": "Mon-Fri", "time": "5:00pm"}, {"days": "Sat", "time": "3:00pm"}, {"days": "Sun", "time": "Closed"}], "id": "0710700023", "name": "USPS COLLECTION BOX - PO LOBBY", "address": {"city": "NEWARK", "state": "NJ", "street": "374 7TH AVE W", "postcode": "07107"}}},
{"geometry": {"type": "Point", "coordinates": [-74.1947243795, 40.7243739828]}, "type": "Feature", "properties": {"collection_times": [{"days": "Mon-Sat", "time": "1:00pm"}, {"days": "Sun", "time": "Closed"}], "id": "0710800001", "name": "USPS COLLECTION BOX - BLUE BOX", "address": {"city": "NEWARK", "state": "NJ", "street": "125 AVON AVE", "postcode": "07108"}}},
{"geometry": {"type": "Point", "coordinates": [-74.1727600835, 40.7889357857]}, "type": "Feature", "properties": {"collection_times": [{"days": "Mon-Sat", "time": "1:00pm"}, {"days": "Sun", "time": "Closed"}], "id": "0710900001", "name": "USPS COLLECTION BOX - BLUE BOX", "address": {"city": "BELLEVILLE", "state": "NJ", "street": "1 FRANKLIN AVE", "postcode": "07109"}}},
{"geometry": {"type": "Point", "coordinates": [-74.1531660414, 40.7863634823]}, "type": "Feature", "properties": {"collection_times": [{"days": "Mon-Sat", "time": "1:00pm"}, {"days": "Sun", "time": "Closed"}], "id": "0710900002", "name": "USPS COLLECTION BOX - BLUE BOX", "address": {"city": "BELLEVILLE", "state": "NJ", "street": "152 WASHINGTON AVE", "postcode": "07109"}}},
{"geometry": {"type": "Point", "coordinates": [-74.1777973149, 40.7840491639]}, "type": "Feature", "properties": {"collection_times": [{"days": "Mon-Sat", "time": "1:00pm"}, {"days": "Sun", "time": "Closed"}], "id": "0710900004", "name": "USPS COLLECTION BOX - BLUE BOX", "address": {"city": "BELLEVILLE", "state": "NJ", "street": "36 NEWARK AVE", "postcode": "07109"}}},
{"geometry": {"type": "Point", "coordinates": [-74.1495591995, 40.7948299196]}, "type": "Feature", "properties": {"collection_times": [{"days": "Mon-Fri", "time": "5:00pm"}, {"days": "Sat", "time": "3:00pm"}, {"days": "Sun", "time": "Closed"}], "id": "0710900006", "name": "USPS COLLECTION BOX - BLUE BOX", "address": {"city": "BELLEVILLE", "state": "NJ", "street": "413 WASHINGTON AVE UNIT 1", "postcode": "07109"}}},
{"geometry": {"type": "Point", "coordinates": [-74.1495591995, 40.7948299196]}, "type": "Feature", "properties": {"collection_times": [{"days": "Mon-Fri", "time": "5:00pm"}, {"days": "Sat", "time": "3:00pm"}, {"days": "Sun", "time": "Closed"}], "id": "0710900007", "name": "USPS COLLECTION BOX - BLUE BOX", "address": {"city": "BELLEVILLE", "state": "NJ", "street": "413 WASHINGTON AVE UNIT 2", "postcode": "07109"}}},
{"geometry": {"type": "Point", "coordinates": [-74.1727502031, 40.7889450673]}, "type": "Feature", "properties": {"collection_times": [{"days": "Mon-Sat", "time": "1:00pm"}, {"days": "Sun", "time": "Closed"}], "id": "0710900008", "name": "USPS COLLECTION BOX - BLUE BOX", "address": {"city": "BELLEVILLE", "state": "NJ", "street": "5 FRANKLIN AVE", "postcode": "07109"}}},
{"geometry": {"type": "Point", "coordinates": [-74.1783247003, 40.7843506982]}, "type": "Feature", "properties": {"collection_times": [{"days": "Mon-Sat", "time": "1:00pm"}, {"days": "Sun", "time": "Closed"}], "id": "0710900009", "name": "USPS COLLECTION BOX - BLUE BOX", "address": {"city": "BELLEVILLE", "state": "NJ", "street": "50 NEWARK AVE", "postcode": "07109"}}},
{"geometry": {"type": "Point", "coordinates": [-74.1697191365, 40.8030762274]}, "type": "Feature", "properties": {"collection_times": [{"days": "Mon-Sat", "time": "1:00pm"}, {"days": "Sun", "time": "Closed"}], "id": "0710900025", "name": "USPS COLLECTION BOX - BLUE BOX", "address": {"city": "BELLEVILLE", "state": "NJ", "street": "381 FRANKLIN AVE", "postcode": "07109"}}},
{"geometry": {"type": "Point", "coordinates": [-74.1823732982, 40.7825732818]}, "type": "Feature", "properties": {"collection_times": [{"days": "Mon-Sat", "time": "1:00pm"}, {"days": "Sun", "time": "Closed"}], "id": "0710900026", "name": "USPS COLLECTION BOX - BLUE BOX", "address": {"city": "BELLEVILLE", "state": "NJ", "street": "172 FRANKLIN ST", "postcode": "07109"}}},
{"geometry": {"type": "Point", "coordinates": [-74.1536796237, 40.8030163399]}, "type": "Feature", "properties": {"collection_times": [{"days": "Mon-Sat", "time": "1:00pm"}, {"days": "Sun", "time": "Closed"}], "id": "0710900031", "name": "USPS COLLECTION BOX - BLUE BOX", "address": {"city": "BELLEVILLE", "state": "NJ", "street": "562 UNION AVE", "postcode": "07109"}}},
{"geometry": {"type": "Point", "coordinates": [-74.1565161811, 40.7941698285]}, "type": "Feature", "properties": {"collection_times": [{"days": "Mon-Sat", "time": "1:00pm"}, {"days": "Sun", "time": "Closed"}], "id": "0710900032", "name": "USPS COLLECTION BOX - BLUE BOX", "address": {"city": "BELLEVILLE", "state": "NJ", "street": "298 UNION AVE", "postcode": "07109"}}},
{"geometry": {"type": "Point", "coordinates": [-74.1456117019, 40.7983354383]}, "type": "Feature", "properties": {"collection_times": [{"days": "Mon-Sat", "time": "1:00pm"}, {"days": "Sun", "time": "Closed"}], "id": "0710900043", "name": "USPS COLLECTION BOX - BLUE BOX", "address": {"city": "BELLEVILLE", "state": "NJ", "street": "500 CORTLANDT ST", "postcode": "07109"}}},
{"geometry": {"type": "Point", "coordinates": [-74.1832321264, 40.7774037511]}, "type": "Feature", "properties": {"collection_times": [{"days": "Mon-Sat", "time": "1:00pm"}, {"days": "Sun", "time": "Closed"}], "id": "0710900045", "name": "USPS COLLECTION BOX - BLUE BOX", "address": {"city": "BELLEVILLE", "state": "NJ", "street": "101 HECKEL ST", "postcode": "07109"}}},
{"geometry": {"type": "Point", "coordinates": [-74.1495591995, 40.7948299196]}, "type": "Feature", "properties": {"collection_times": [{"days": "Mon-Fri", "time": "5:00pm"}, {"days": "Sat", "time": "3:00pm"}, {"days": "Sun", "time": "Closed"}], "id": "0710900046", "name": "USPS COLLECTION BOX - PO LOBBY", "address": {"city": "BELLEVILLE", "state": "NJ", "street": "413 WASHINGTON AVE", "postcode": "07109"}}},
{"geometry": {"type": "Point", "coordinates": [-74.1409059761, 40.8058686104]}, "type": "Feature", "properties": {"collection_times": [{"days": "Mon-Sat", "time": "1:00pm"}, {"days": "Sun", "time": "Closed"}], "id": "0711000002", "name": "USPS COLLECTION BOX - BLUE BOX", "address": {"city": "NUTLEY", "state": "NJ", "street": "25 RIVER RD", "postcode": "07110"}}},
{"geometry": {"type": "Point", "coordinates": [-74.1607890289, 40.8143664869]}, "type": "Feature", "properties": {"collection_times": [{"days": "Mon-Sat", "time": "1:00pm"}, {"days": "Sun", "time": "Closed"}], "id": "0711000006", "name": "USPS COLLECTION BOX - BLUE BOX", "address": {"city": "NUTLEY", "state": "NJ", "street": "350 CENTRE ST", "postcode": "07110"}}},
{"geometry": {"type": "Point", "coordinates": [-74.1589358921, 40.8198912266]}, "type": "Feature", "properties": {"collection_times": [{"days": "Mon-Fri", "time": "5:00pm"}, {"days": "Sat", "time": "3:00pm"}, {"days": "Sun", "time": "Closed"}], "id": "0711000007", "name": "USPS COLLECTION BOX - BLUE BOX", "address": {"city": "NUTLEY", "state": "NJ", "street": "372 FRANKLIN AVE UNIT 3", "postcode": "07110"}}},
{"geometry": {"type": "Point", "coordinates": [-74.1589358921, 40.8198912266]}, "type": "Feature", "properties": {"collection_times": [{"days": "Mon-Fri", "time": "5:00pm"}, {"days": "Sat", "time": "3:00pm"}, {"days": "Sun", "time": "Closed"}], "id": "0711000008", "name": "USPS COLLECTION BOX - BLUE BOX", "address": {"city": "NUTLEY", "state": "NJ", "street": "372 FRANKLIN AVE UNIT 1", "postcode": "07110"}}},
{"geometry": {"type": "Point", "coordinates": [-74.1589358921, 40.8198912266]}, "type": "Feature", "properties": {"collection_times": [{"days": "Mon-Fri", "time": "5:00pm"}, {"days": "Sat", "time": "3:00pm"}, {"days": "Sun", "time": "Closed"}], "id": "0711000009", "name": "USPS COLLECTION BOX - BLUE BOX", "address": {"city": "NUTLEY", "state": "NJ", "street": "372 FRANKLIN AVE UNIT 2", "postcode": "07110"}}},
{"geometry": {"type": "Point", "coordinates": [-74.1509941287, 40.8269567192]}, "type": "Feature", "properties": {"collection_times": [{"days": "Mon-Sat", "time": "1:00pm"}, {"days": "Sun", "time": "Closed"}], "id": "0711000012", "name": "USPS COLLECTION BOX - BLUE BOX", "address": {"city": "NUTLEY", "state": "NJ", "street": "652 FRANKLIN AVE", "postcode": "07110"}}},
{"geometry": {"type": "Point", "coordinates": [-74.164040458, 40.8246650033]}, "type": "Feature", "properties": {"collection_times": [{"days": "Mon-Sat", "time": "1:00pm"}, {"days": "Sun", "time": "Closed"}], "id": "0711000019", "name": "USPS COLLECTION BOX - BLUE BOX", "address": {"city": "NUTLEY", "state": "NJ", "street": "509 BLOOMFIELD AVE", "postcode": "07110"}}},
{"geometry": {"type": "Point", "coordinates": [-74.1580262785, 40.8181416473]}, "type": "Feature", "properties": {"collection_times": [{"days": "Mon-Sat", "time": "1:00pm"}, {"days": "Sun", "time": "Closed"}], "id": "0711000031", "name": "USPS COLLECTION BOX - BLUE BOX", "address": {"city": "NUTLEY", "state": "NJ", "street": "1 KENNEDY DR    #1", "postcode": "07110"}}},
{"geometry": {"type": "Point", "coordinates": [-74.1580262785, 40.8181416473]}, "type": "Feature", "properties": {"collection_times": [{"days": "Mon-Sat", "time": "1:00pm"}, {"days": "Sun", "time": "Closed"}], "id": "0711000032", "name": "USPS COLLECTION BOX - BLUE BOX", "address": {"city": "NUTLEY", "state": "NJ", "street": "1 KENNEDY DR  #2", "postcode": "07110"}}},
{"geometry": {"type": "Point", "coordinates": [-74.1440619892, 40.8144670385]}, "type": "Feature", "properties": {"collection_times": [{"days": "Mon-Sat", "time": "1:00pm"}, {"days": "Sun", "time": "Closed"}], "id": "0711000044", "name": "USPS COLLECTION BOX - BLUE BOX", "address": {"city": "NUTLEY", "state": "NJ", "street": "246 WASHINGTON AVE", "postcode": "07110"}}},
{"geometry": {"type": "Point", "coordinates": [-74.1607890289, 40.8143664869]}, "type": "Feature", "properties": {"collection_times": [{"days": "Mon-Sat", "time": "1:00pm"}, {"days": "Sun", "time": "Closed"}], "id": "0711000046", "name": "USPS COLLECTION BOX - BLUE BOX", "address": {"city": "NUTLEY", "state": "NJ", "street": "350 CENTRE ST # 2", "postcode": "07110"}}},
{"geometry": {"type": "Point", "coordinates": [-74.1589358921, 40.8198912266]}, "type": "Feature", "properties": {"collection_times": [{"days": "Mon-Fri", "time": "5:00pm"}, {"days": "Sat", "time": "3:00pm"}, {"days": "Sun", "time": "Closed"}], "id": "0711000047", "name": "USPS COLLECTION BOX - PO LOBBY", "address": {"city": "NUTLEY", "state": "NJ", "street": "372 FRANKLIN AVE", "postcode": "07110"}}},
{"geometry": {"type": "Point", "coordinates": [-74.2293707364, 40.7268203785]}, "type": "Feature", "properties": {"collection_times": [{"days": "Mon-Sat", "time": "1:00pm"}, {"days": "Sun", "time": "Closed"}], "id": "0711100001", "name": "USPS COLLECTION BOX - BLUE BOX", "address": {"city": "IRVINGTON", "state": "NJ", "street": "1136 CLINTON AVE", "postcode": "07111"}}},
{"geometry": {"type": "Point", "coordinates": [-74.2204391826, 40.7293472945]}, "type": "Feature", "properties": {"collection_times": [{"days": "Mon-Sat", "time": "1:00pm"}, {"days": "Sun", "time": "Closed"}], "id": "0711100012", "name": "USPS COLLECTION BOX - BLUE BOX", "address": {"city": "IRVINGTON", "state": "NJ", "street": "12 MARSHALL ST", "postcode": "07111"}}},
{"geometry": {"type": "Point", "coordinates": [-74.2337058254, 40.7175583667]}, "type": "Feature", "properties": {"collection_times": [{"days": "Mon-Sat", "time": "1:00pm"}, {"days": "Sun", "time": "Closed"}], "id": "0711100014", "name": "USPS COLLECTION BOX - BLUE BOX", "address": {"city": "IRVINGTON", "state": "NJ", "street": "40 MOUNT VERNON AVE", "postcode": "07111"}}},
{"geometry": {"type": "Point", "coordinates": [-74.2305433873, 40.724680453]}, "type": "Feature", "properties": {"collection_times": [{"days": "Mon-Sat", "time": "1:00pm"}, {"days": "Sun", "time": "Closed"}], "id": "0711100016", "name": "USPS COLLECTION BOX - BLUE BOX", "address": {"city": "IRVINGTON", "state": "NJ", "street": "50 UNION AVE # 2", "postcode": "07111"}}},
{"geometry": {"type": "Point", "coordinates": [-74.2133156764, 40.7402349545]}, "type": "Feature", "properties": {"collection_times": [{"days": "Mon-Sat", "time": "1:00pm"}, {"days": "Sun", "time": "Closed"}], "id": "0711100018", "name": "USPS COLLECTION BOX - BLUE BOX", "address": {"city": "IRVINGTON", "state": "NJ", "street": "712 15TH AVE", "postcode": "07111"}}},
{"geometry": {"type": "Point", "coordinates": [-74.218766734, 40.7238741757]}, "type": "Feature", "properties": {"collection_times": [{"days": "Mon-Sat", "time": "1:00pm"}, {"days": "Sun", "time": "Closed"}], "id": "0711100020", "name": "USPS COLLECTION BOX - BLUE BOX", "address": {"city": "IRVINGTON", "state": "NJ", "street": "900 CLINTON AVE", "postcode": "07111"}}},
{"geometry": {"type": "Point", "coordinates": [-74.2244878203, 40.7205188034]}, "type": "Feature", "properties": {"collection_times": [{"days": "Mon-Sat", "time": "1:00pm"}, {"days": "Sun", "time": "Closed"}], "id": "0711100032", "name": "USPS COLLECTION BOX - BLUE BOX", "address": {"city": "IRVINGTON", "state": "NJ", "street": "119 COIT ST", "postcode": "07111"}}},
{"geometry": {"type": "Point", "coordinates": [-74.2152560086, 40.7358215605]}, "type": "Feature", "properties": {"collection_times": [{"days": "Mon-Sat", "time": "1:00pm"}, {"days": "Sun", "time": "Closed"}], "id": "0711100036", "name": "USPS COLLECTION BOX - BLUE BOX", "address": {"city": "IRVINGTON", "state": "NJ", "street": "635 GROVE ST", "postcode": "07111"}}},
{"geometry": {"type": "Point", "coordinates": [-74.2329693637, 40.7258482466]}, "type": "Feature", "properties": {"collection_times": [{"days": "Mon-Fri", "time": "5:00pm"}, {"days": "Sat", "time": "3:00pm"}, {"days": "Sun", "time": "Closed"}], "id": "0711100042", "name": "USPS COLLECTION BOX - BLUE BOX", "address": {"city": "IRVINGTON", "state": "NJ", "street": "1086 SPRINGFIELD AVE UNIT 1", "postcode": "07111"}}},
{"geometry": {"type": "Point", "coordinates": [-74.2329693637, 40.7258482466]}, "type": "Feature", "properties": {"collection_times": [{"days": "Mon-Fri", "time": "5:00pm"}, {"days": "Sat", "time": "3:00pm"}, {"days": "Sun", "time": "Closed"}], "id": "0711100043", "name": "USPS COLLECTION BOX - BLUE BOX", "address": {"city": "IRVINGTON", "state": "NJ", "street": "1086 SPRINGFIELD AVE UNIT 2", "postcode": "07111"}}},
{"geometry": {"type": "Point", "coordinates": [-74.2505179458, 40.7140920176]}, "type": "Feature", "properties": {"collection_times": [{"days": "Mon-Sat", "time": "1:00pm"}, {"days": "Sun", "time": "Closed"}], "id": "0711100046", "name": "USPS COLLECTION BOX - BLUE BOX", "address": {"city": "IRVINGTON", "state": "NJ", "street": "1 MILL RD", "postcode": "07111"}}},
{"geometry": {"type": "Point", "coordinates": [-74.2335988174, 40.7257659685]}, "type": "Feature", "properties": {"collection_times": [{"days": "Mon-Sat", "time": "1:00pm"}, {"days": "Sun", "time": "Closed"}], "id": "0711100066", "name": "USPS COLLECTION BOX - BLUE BOX", "address": {"city": "IRVINGTON", "state": "NJ", "street": "1 CIVIC SQ # 1", "postcode": "07111"}}},
{"geometry": {"type": "Point", "coordinates": [-74.2335988174, 40.7257659685]}, "type": "Feature", "properties": {"collection_times": [{"days": "Mon-Sat", "time": "1:00pm"}, {"days": "Sun", "time": "Closed"}], "id": "0711100067", "name": "USPS COLLECTION BOX - BLUE BOX", "address": {"city": "IRVINGTON", "state": "NJ", "street": "1 CIVIC SQ # 2", "postcode": "07111"}}},
{"geometry": {"type": "Point", "coordinates": [-74.2399053245, 40.729409923]}, "type": "Feature", "properties": {"collection_times": [{"days": "Mon-Sat", "time": "1:00pm"}, {"days": "Sun", "time": "Closed"}], "id": "0711100073", "name": "USPS COLLECTION BOX - BLUE BOX", "address": {"city": "IRVINGTON", "state": "NJ", "street": "1387 CLINTON AVE", "postcode": "07111"}}},
{"geometry": {"type": "Point", "coordinates": [-74.2329693637, 40.7258482466]}, "type": "Feature", "properties": {"collection_times": [{"days": "Mon-Fri", "time": "5:00pm"}, {"days": "Sat", "time": "3:00pm"}, {"days": "Sun", "time": "Closed"}], "id": "0711100074", "name": "USPS COLLECTION BOX - PO LOBBY", "address": {"city": "IRVINGTON", "state": "NJ", "street": "1086 SPRINGFIELD AVE", "postcode": "07111"}}},
{"geometry": {"type": "Point", "coordinates": [-74.2184333934, 40.7078287332]}, "type": "Feature", "properties": {"collection_times": [{"days": "Mon-Sat", "time": "1:00pm"}, {"days": "Sun", "time": "Closed"}], "id": "0711200013", "name": "USPS COLLECTION BOX - BLUE BOX", "address": {"city": "NEWARK", "state": "NJ", "street": "238 CHANCELLOR AVE", "postcode": "07112"}}},
{"geometry": {"type": "Point", "coordinates": [-74.2086743985, 40.7072682791]}, "type": "Feature", "properties": {"collection_times": [{"days": "Mon-Sat", "time": "1:00pm"}, {"days": "Sun", "time": "Closed"}], "id": "0711200020", "name": "USPS COLLECTION BOX - BLUE BOX", "address": {"city": "NEWARK", "state": "NJ", "street": "1080 BERGEN ST", "postcode": "07112"}}},
{"geometry": {"type": "Point", "coordinates": [-74.2118508097, 40.7102722077]}, "type": "Feature", "properties": {"collection_times": [{"days": "Mon-Sat", "time": "1:00pm"}, {"days": "Sun", "time": "Closed"}], "id": "0711200027", "name": "USPS COLLECTION BOX - BLUE BOX", "address": {"city": "NEWARK", "state": "NJ", "street": "400 OSBORNE TER", "postcode": "07112"}}},
{"geometry": {"type": "Point", "coordinates": [-74.1947911591, 40.7034112165]}, "type": "Feature", "properties": {"collection_times": [{"days": "Mon-Fri", "time": "5:00pm"}, {"days": "Sat", "time": "3:00pm"}, {"days": "Sun", "time": "Closed"}], "id": "0711400010", "name": "USPS COLLECTION BOX - BLUE BOX", "address": {"city": "NEWARK", "state": "NJ", "street": "514 FRELINGHUYSEN AVE # 1", "postcode": "07114"}}},
{"geometry": {"type": "Point", "coordinates": [-74.1947911591, 40.7034112165]}, "type": "Feature", "properties": {"collection_times": [{"days": "Mon-Fri", "time": "5:00pm"}, {"days": "Sat", "time": "3:00pm"}, {"days": "Sun", "time": "Closed"}], "id": "0711400011", "name": "USPS COLLECTION BOX - BLUE BOX", "address": {"city": "NEWARK", "state": "NJ", "street": "514 FRELINGHUYSEN AVE # 2", "postcode": "07114"}}},
{"geometry": {"type": "Point", "coordinates": [-74.2036429004, 40.6887516233]}, "type": "Feature", "properties": {"collection_times": [{"days": "Mon-Sat", "time": "1:00pm"}, {"days": "Sun", "time": "Closed"}], "id": "0711400016", "name": "USPS COLLECTION BOX - BLUE BOX", "address": {"city": "NEWARK", "state": "NJ", "street": "963 FRELINGHUYSEN AVE", "postcode": "07114"}}},
{"geometry": {"type": "Point", "coordinates": [-74.2012071879, 40.6928044407]}, "type": "Feature", "properties": {"collection_times": [{"days": "Mon-Sat", "time": "1:00pm"}, {"days": "Sun", "time": "Closed"}], "id": "0711400027", "name": "USPS COLLECTION BOX - BLUE BOX", "address": {"city": "NEWARK", "state": "NJ", "street": "839 FRELINGHUYSEN AVE", "postcode": "07114"}}},
{"geometry": {"type": "Point", "coordinates": [-74.1947911591, 40.7034112165]}, "type": "Feature", "properties": {"collection_times": [{"days": "Mon-Fri", "time": "5:00pm"}, {"days": "Sat", "time": "3:00pm"}, {"days": "Sun", "time": "Closed"}], "id": "0711400028", "name": "USPS COLLECTION BOX - PO LOBBY", "address": {"city": "NEWARK", "state": "NJ", "street": "514 FRELINGHUYSEN AVE", "postcode": "07114"}}}
]}
