{"type": "FeatureCollection", "features": [
{"geometry": {"type": "Point", "coordinates": [-74.2115620303, 40.6633785313]}, "type": "Feature", "properties": {"collection_times": [{"days": "Mon-Fri", "time": "10:00am"}, {"days": "Sat-Sun", "time": "Closed"}], "id": "0720100003", "name": "USPS COLLECTION BOX - BLUE BOX", "address": {"city": "ELIZABETH", "state": "NJ", "street": "50 WINFIELD SCOTT PLZ", "postcode": "07201"}}},
{"geometry": {"type": "Point", "coordinates": [-74.2067730098, 40.6602151042]}, "type": "Feature", "properties": {"collection_times": [{"days": "Mon-Fri", "time": "5:00pm"}, {"days": "Sat-Sun", "time": "Closed"}], "id": "0720100006", "name": "USPS COLLECTION BOX - PO LOBBY", "address": {"city": "ELIZABETH", "state": "NJ", "street": "946 ELIZABETH AVE", "postcode": "07201"}}},
{"geometry": {"type": "Point", "coordinates": [-74.2196536402, 40.6661539784]}, "type": "Feature", "properties": {"collection_times": [{"days": "Mon-Sat", "time": "10:00am"}, {"days": "Sun", "time": "Closed"}], "id": "0720200000", "name": "USPS COLLECTION BOX - BLUE BOX", "address": {"city": "ELIZABETH", "state": "NJ", "street": "80 W GRAND ST", "postcode": "07202"}}},
{"geometry": {"type": "Point", "coordinates": [-74.2131018403, 40.645115816]}, "type": "Feature", "properties": {"collection_times": [{"days": "Mon-Fri", "time": "5:00pm"}, {"days": "Sat", "time": "1:00pm"}, {"days": "Sun", "time": "Closed"}], "id": "0720200001", "name": "USPS COLLECTION BOX - PO LOBBY", "address": {"city": "ELIZABETH", "state": "NJ", "street": "544 BAYWAY AVE", "postcode": "07202"}}},
{"geometry": {"type": "Point", "coordinates": [-74.2336971559, 40.6631654039]}, "type": "Feature", "properties": {"collection_times": [{"days": "Mon-Fri", "time": "5:00pm"}, {"days": "Sat", "time": "1:00pm"}, {"days": "Sun", "time": "Closed"}], "id": "0720200002", "name": "USPS COLLECTION BOX - PO LOBBY", "address": {"city": "ELIZABETH", "state": "NJ", "street": "175 ELMORA AVE STE 1", "postcode": "07202"}}},
{"geometry": {"type": "Point", "coordinates": [-74.264984189, 40.642988107]}, "type": "Feature", "properties": {"collection_times": [{"days": "Mon-Sat", "time": "10:00am"}, {"days": "Sun", "time": "Closed"}], "id": "0720300006", "name": "USPS COLLECTION BOX - BLUE BOX", "address": {"city": "ROSELLE", "state": "NJ", "street": "400 BROOKLAWN AVE", "postcode": "07203"}}},
{"geometry": {"type": "Point", "coordinates": [-74.2625980263, 40.6559150484]}, "type": "Feature", "properties": {"collection_times": [{"days": "Mon-Sat", "time": "10:00am"}, {"days": "Sun", "time": "Closed"}], "id": "0720300008", "name": "USPS COLLECTION BOX - BLUE BOX", "address": {"city": "ROSELLE", "state": "NJ", "street": "411 CHESTNUT ST", "postcode": "07203"}}},
{"geometry": {"type": "Point", "coordinates": [-74.2635455058, 40.6597020902]}, "type": "Feature", "properties": {"collection_times": [{"days": "Mon-Fri", "time": "5:00pm"}, {"days": "Sat", "time": "10:00am"}, {"days": "Sun", "time": "Closed"}], "id": "0720300011", "name": "USPS COLLECTION BOX - BLUE BOX", "address": {"city": "ROSELLE", "state": "NJ", "street": "104 CHESTNUT ST UNIT 1", "postcode": "07203"}}},
{"geometry": {"type": "Point", "coordinates": [-74.2636450271, 40.660040569]}, "type": "Feature", "properties": {"collection_times": [{"days": "Mon-Fri", "time": "5:00pm"}, {"days": "Sat", "time": "10:00am"}, {"days": "Sun", "time": "Closed"}], "id": "0720300012", "name": "USPS COLLECTION BOX - BLUE BOX", "address": {"city": "ROSELLE", "state": "NJ", "street": "104 CHESTNUT ST UNIT 2", "postcode": "07203"}}},
{"geometry": {"type": "Point", "coordinates": [-74.2483339071, 40.6621563399]}, "type": "Feature", "properties": {"collection_times": [{"days": "Mon-Sat", "time": "10:00am"}, {"days": "Sun", "time": "Closed"}], "id": "0720300015", "name": "USPS COLLECTION BOX - BLUE BOX", "address": {"city": "ROSELLE", "state": "NJ", "street": "612 E 1ST AVE", "postcode": "07203"}}},
{"geometry": {"type": "Point", "coordinates": [-74.2756815525, 40.6509442548]}, "type": "Feature", "properties": {"collection_times": [{"days": "Mon-Sat", "time": "10:00am"}, {"days": "Sun", "time": "Closed"}], "id": "0720300019", "name": "USPS COLLECTION BOX - BLUE BOX", "address": {"city": "ROSELLE", "state": "NJ", "street": "484 W 5TH AVE", "postcode": "07203"}}},
{"geometry": {"type": "Point", "coordinates": [-74.2745508834, 40.6450536779]}, "type": "Feature", "properties": {"collection_times": [{"days": "Mon-Sat", "time": "10:00am"}, {"days": "Sun", "time": "Closed"}], "id": "0720300038", "name": "USPS COLLECTION BOX - BLUE BOX", "address": {"city": "ROSELLE", "state": "NJ", "street": "921 WOOD AVE", "postcode": "07203"}}},
{"geometry": {"type": "Point", "coordinates": [-74.2708533689, 40.6421010743]}, "type": "Feature", "properties": {"collection_times": [{"days": "Mon-Sat", "time": "10:00am"}, {"days": "Sun", "time": "Closed"}], "id": "0720300039", "name": "USPS COLLECTION BOX - BLUE BOX", "address": {"city": "ROSELLE", "state": "NJ", "street": "1913 WOOD AVE", "postcode": "07203"}}},
{"geometry": {"type": "Point", "coordinates": [-74.2636450271, 40.660040569]}, "type": "Feature", "properties": {"collection_times": [{"days": "Mon-Fri", "time": "5:00pm"}, {"days": "Sat", "time": "1:00pm"}, {"days": "Sun", "time": "Closed"}], "id": "0720300040", "name": "USPS COLLECTION BOX - PO LOBBY", "address": {"city": "ROSELLE", "state": "NJ", "street": "104 CHESTNUT ST", "postcode": "07203"}}},
{"geometry": {"type": "Point", "coordinates": [-74.2602368402, 40.6621279489]}, "type": "Feature", "properties": {"collection_times": [{"days": "Mon-Sat", "time": "10:00am"}, {"days": "Sun", "time": "Closed"}], "id": "0720400001", "name": "USPS COLLECTION BOX - BLUE BOX", "address": {"city": "ROSELLE PARK", "state": "NJ", "street": "110 E WESTFIELD AVE", "postcode": "07204"}}},
{"geometry": {"type": "Point", "coordinates": [-74.2802012527, 40.6595741603]}, "type": "Feature", "properties": {"collection_times": [{"days": "Mon-Sat", "time": "12:30pm"}, {"days": "Sun", "time": "Closed"}], "id": "0720400004", "name": "USPS COLLECTION BOX - BLUE BOX", "address": {"city": "ROSELLE PARK", "state": "NJ", "street": "529 W WESTFIELD AVE", "postcode": "07204"}}},
{"geometry": {"type": "Point", "coordinates": [-74.264550656, 40.6639998768]}, "type": "Feature", "properties": {"collection_times": [{"days": "Mon-Fri", "time": "5:00pm"}, {"days": "Sat", "time": "10:00am"}, {"days": "Sun", "time": "Closed"}], "id": "0720400006", "name": "USPS COLLECTION BOX - BLUE BOX", "address": {"city": "ROSELLE PARK", "state": "NJ", "street": "290 CHESTNUT ST", "postcode": "07204"}}},
{"geometry": {"type": "Point", "coordinates": [-74.2653969484, 40.6677194675]}, "type": "Feature", "properties": {"collection_times": [{"days": "Mon-Sat", "time": "10:00am"}, {"days": "Sun", "time": "Closed"}], "id": "0720400008", "name": "USPS COLLECTION BOX - BLUE BOX", "address": {"city": "ROSELLE PARK", "state": "NJ", "street": "594 CHESTNUT ST", "postcode": "07204"}}},
{"geometry": {"type": "Point", "coordinates": [-74.2687517789, 40.6689465243]}, "type": "Feature", "properties": {"collection_times": [{"days": "Mon-Sat", "time": "10:00am"}, {"days": "Sun", "time": "Closed"}], "id": "0720400010", "name": "USPS COLLECTION BOX - BLUE BOX", "address": {"city": "ROSELLE PARK", "state": "NJ", "street": "708 LOCUST ST", "postcode": "07204"}}},
{"geometry": {"type": "Point", "coordinates": [-74.2745790347, 40.6680995257]}, "type": "Feature", "properties": {"collection_times": [{"days": "Mon-Sat", "time": "10:00am"}, {"days": "Sun", "time": "Closed"}], "id": "0720400011", "name": "USPS COLLECTION BOX - BLUE BOX", "address": {"city": "ROSELLE PARK", "state": "NJ", "street": "47 W COLFAX AVE", "postcode": "07204"}}},
{"geometry": {"type": "Point", "coordinates": [-74.2496422597, 40.6674701916]}, "type": "Feature", "properties": {"collection_times": [{"days": "Mon-Sat", "time": "10:00am"}, {"days": "Sun", "time": "Closed"}], "id": "0720400013", "name": "USPS COLLECTION BOX - BLUE BOX", "address": {"city": "ROSELLE PARK", "state": "NJ", "street": "578 E GRANT AVE", "postcode": "07204"}}},
{"geometry": {"type": "Point", "coordinates": [-74.2627068586, 40.6707670982]}, "type": "Feature", "properties": {"collection_times": [{"days": "Mon-Sat", "time": "10:00am"}, {"days": "Sun", "time": "Closed"}], "id": "0720400016", "name": "USPS COLLECTION BOX - BLUE BOX", "address": {"city": "ROSELLE PARK", "state": "NJ", "street": "804 PROSPECT ST", "postcode": "07204"}}},
{"geometry": {"type": "Point", "coordinates": [-74.2590870041, 40.6679090693]}, "type": "Feature", "properties": {"collection_times": [{"days": "Mon-Sat", "time": "10:00am"}, {"days": "Sun", "time": "Closed"}], "id": "0720400018", "name": "USPS COLLECTION BOX - BLUE BOX", "address": {"city": "ROSELLE PARK", "state": "NJ", "street": "516 SPRUCE ST", "postcode": "07204"}}},
{"geometry": {"type": "Point", "coordinates": [-74.2764634884, 40.6640526231]}, "type": "Feature", "properties": {"collection_times": [{"days": "Mon-Sat", "time": "10:00am"}, {"days": "Sun", "time": "Closed"}], "id": "0720400020", "name": "USPS COLLECTION BOX - BLUE BOX", "address": {"city": "ROSELLE PARK", "state": "NJ", "street": "315 W WEBSTER AVE", "postcode": "07204"}}},
{"geometry": {"type": "Point", "coordinates": [-74.256986069, 40.662670927]}, "type": "Feature", "properties": {"collection_times": [{"days": "Mon-Sat", "time": "10:00am"}, {"days": "Sun", "time": "Closed"}], "id": "0720400021", "name": "USPS COLLECTION BOX - BLUE BOX", "address": {"city": "ROSELLE PARK", "state": "NJ", "street": "221 E WESTFIELD AVE", "postcode": "07204"}}},
{"geometry": {"type": "Point", "coordinates": [-74.2761523702, 40.6600837958]}, "type": "Feature", "properties": {"collection_times": [{"days": "Mon-Sat", "time": "3:30pm"}, {"days": "Sun", "time": "Closed"}], "id": "0720400024", "name": "USPS COLLECTION BOX - BLUE BOX", "address": {"city": "ROSELLE PARK", "state": "NJ", "street": "361 W WESTFIELD AVE", "postcode": "07204"}}},
{"geometry": {"type": "Point", "coordinates": [-74.2605467755, 40.6646429196]}, "type": "Feature", "properties": {"collection_times": [{"days": "Mon-Sat", "time": "11:30am"}, {"days": "Sun", "time": "Closed"}], "id": "0720400027", "name": "USPS COLLECTION BOX - BLUE BOX", "address": {"city": "ROSELLE PARK", "state": "NJ", "street": "128 E GRANT AVE", "postcode": "07204"}}},
{"geometry": {"type": "Point", "coordinates": [-74.264550656, 40.6639998768]}, "type": "Feature", "properties": {"collection_times": [{"days": "Mon-Fri", "time": "5:00pm"}, {"days": "Sat", "time": "1:00pm"}, {"days": "Sun", "time": "Closed"}], "id": "0720400028", "name": "USPS COLLECTION BOX - PO LOBBY", "address": {"city": "ROSELLE PARK", "state": "NJ", "street": "290 CHESTNUT ST", "postcode": "07204"}}},
{"geometry": {"type": "Point", "coordinates": [-74.2366858652, 40.6934771394]}, "type": "Feature", "properties": {"collection_times": [{"days": "Mon-Fri", "time": "5:00pm"}, {"days": "Sat", "time": "10:00am"}, {"days": "Sun", "time": "Closed"}], "id": "0720500003", "name": "USPS COLLECTION BOX - BLUE BOX", "address": {"city": "HILLSIDE", "state": "NJ", "street": "1146 LIBERTY AVE", "postcode": "07205"}}},
{"geometry": {"type": "Point", "coordinates": [-74.2377511562, 40.6966242152]}, "type": "Feature", "properties": {"collection_times": [{"days": "Mon-Sat", "time": "10:00am"}, {"days": "Sun", "time": "Closed"}], "id": "0720500011", "name": "USPS COLLECTION BOX - BLUE BOX", "address": {"city": "HILLSIDE", "state": "NJ", "street": "374 BLOY ST", "postcode": "07205"}}},
{"geometry": {"type": "Point", "coordinates": [-74.217717237, 40.6911411016]}, "type": "Feature", "properties": {"collection_times": [{"days": "Mon-Sat", "time": "10:00am"}, {"days": "Sun", "time": "Closed"}], "id": "0720500013", "name": "USPS COLLECTION BOX - BLUE BOX", "address": {"city": "HILLSIDE", "state": "NJ", "street": "45 COE AVE", "postcode": "07205"}}},
{"geometry": {"type": "Point", "coordinates": [-74.22392, 40.699195968]}, "type": "Feature", "properties": {"collection_times": [{"days": "Mon-Sat", "time": "10:00am"}, {"days": "Sun", "time": "Closed"}], "id": "0720500018", "name": "USPS COLLECTION BOX - BLUE BOX", "address": {"city": "HILLSIDE", "state": "NJ", "street": "1401 MAPLE AVE", "postcode": "07205"}}},
{"geometry": {"type": "Point", "coordinates": [-74.233200209, 40.7033206344]}, "type": "Feature", "properties": {"collection_times": [{"days": "Mon-Fri", "time": "5:00pm"}, {"days": "Sat", "time": "10:00am"}, {"days": "Sun", "time": "Closed"}], "id": "0720500020", "name": "USPS COLLECTION BOX - BLUE BOX", "address": {"city": "HILLSIDE", "state": "NJ", "street": "397 HILLSIDE AVE", "postcode": "07205"}}},
{"geometry": {"type": "Point", "coordinates": [-74.233200209, 40.7033206344]}, "type": "Feature", "properties": {"collection_times": [{"days": "Mon-Fri", "time": "5:00pm"}, {"days": "Sat", "time": "10:00am"}, {"days": "Sun", "time": "Closed"}], "id": "0720500021", "name": "USPS COLLECTION BOX - BLUE BOX", "address": {"city": "HILLSIDE", "state": "NJ", "street": "397 HILLSIDE AVE", "postcode": "07205"}}},
{"geometry": {"type": "Point", "coordinates": [-74.2293016359, 40.7013675759]}, "type": "Feature", "properties": {"collection_times": [{"days": "Mon-Sat", "time": "10:00am"}, {"days": "Sun", "time": "Closed"}], "id": "0720500025", "name": "USPS COLLECTION BOX - BLUE BOX", "address": {"city": "HILLSIDE", "state": "NJ", "street": "1409 LIBERTY AVE", "postcode": "07205"}}},
{"geometry": {"type": "Point", "coordinates": [-74.233037764, 40.6974513351]}, "type": "Feature", "properties": {"collection_times": [{"days": "Mon-Sat", "time": "10:00am"}, {"days": "Sun", "time": "Closed"}], "id": "0720500028", "name": "USPS COLLECTION BOX - BLUE BOX", "address": {"city": "HILLSIDE", "state": "NJ", "street": "1283 LIBERTY AVE", "postcode": "07205"}}},
{"geometry": {"type": "Point", "coordinates": [-74.224842708, 40.694525646]}, "type": "Feature", "properties": {"collection_times": [{"days": "Mon-Sat", "time": "10:00am"}, {"days": "Sun", "time": "Closed"}], "id": "0720500030", "name": "USPS COLLECTION BOX - BLUE BOX", "address": {"city": "HILLSIDE", "state": "NJ", "street": "39 LONG AVE", "postcode": "07205"}}},
{"geometry": {"type": "Point", "coordinates": [-74.2188108002, 40.6839949453]}, "type": "Feature", "properties": {"collection_times": [{"days": "Mon-Sat", "time": "10:00am"}, {"days": "Sun", "time": "Closed"}], "id": "0720500041", "name": "USPS COLLECTION BOX - BLUE BOX", "address": {"city": "HILLSIDE", "state": "NJ", "street": "880 SALEM AVE", "postcode": "07205"}}},
{"geometry": {"type": "Point", "coordinates": [-74.2254010646, 40.7058217212]}, "type": "Feature", "properties": {"collection_times": [{"days": "Mon-Sat", "time": "10:00am"}, {"days": "Sun", "time": "Closed"}], "id": "0720500043", "name": "USPS COLLECTION BOX - BLUE BOX", "address": {"city": "HILLSIDE", "state": "NJ", "street": "301 WINANS AVE", "postcode": "07205"}}},
{"geometry": {"type": "Point", "coordinates": [-74.2366858652, 40.6934771394]}, "type": "Feature", "properties": {"collection_times": [{"days": "Mon-Fri", "time": "4:15pm"}, {"days": "Sat", "time": "1:30pm"}, {"days": "Sun", "time": "Closed"}], "id": "0720500044", "name": "USPS COLLECTION BOX - PO LOBBY", "address": {"city": "HILLSIDE", "state": "NJ", "street": "1146 LIBERTY AVE", "postcode": "07205"}}},
{"geometry": {"type": "Point", "coordinates": [-74.233200209, 40.7033206344]}, "type": "Feature", "properties": {"collection_times": [{"days": "Mon-Fri", "time": "5:00pm"}, {"days": "Sat", "time": "1:00pm"}, {"days": "Sun", "time": "Closed"}], "id": "0720500045", "name": "USPS COLLECTION BOX - PO LOBBY", "address": {"city": "HILLSIDE", "state": "NJ", "street": "397 HILLSIDE AVE", "postcode": "07205"}}},
{"geometry": {"type": "Point", "coordinates": [-74.2150371611, 40.662325503]}, "type": "Feature", "properties": {"collection_times": [{"days": "Mon-Sat", "time": "10:00am"}, {"days": "Sun", "time": "Closed"}], "id": "0720700001", "name": "USPS COLLECTION BOX - BLUE BOX", "address": {"city": "ELIZABETH", "state": "NJ", "street": "1 BROAD ST", "postcode": "07207"}}},
{"geometry": {"type": "Point", "coordinates": [-74.2114948267, 40.6672721479]}, "type": "Feature", "properties": {"collection_times": [{"days": "Mon-Sat", "time": "10:00am"}, {"days": "Sun", "time": "Closed"}], "id": "0720700002", "name": "USPS COLLECTION BOX - BLUE BOX", "address": {"city": "ELIZABETH", "state": "NJ", "street": "1 POLICE PLZ", "postcode": "07207"}}},
{"geometry": {"type": "Point", "coordinates": [-74.1822056866, 40.6540854684]}, "type": "Feature", "properties": {"collection_times": [{"days": "Mon-Sat", "time": "10:00am"}, {"days": "Sun", "time": "Closed"}], "id": "0720700006", "name": "USPS COLLECTION BOX - BLUE BOX", "address": {"city": "ELIZABETH", "state": "NJ", "street": "278 2ND ST", "postcode": "07207"}}},
{"geometry": {"type": "Point", "coordinates": [-74.2145182608, 40.6594075962]}, "type": "Feature", "properties": {"collection_times": [{"days": "Mon-Sat", "time": "10:00am"}, {"days": "Sun", "time": "Closed"}], "id": "0720700018", "name": "USPS COLLECTION BOX - BLUE BOX", "address": {"city": "ELIZABETH", "state": "NJ", "street": "225 WILLIAMSON ST", "postcode": "07207"}}},
{"geometry": {"type": "Point", "coordinates": [-74.2166940132, 40.6616704834]}, "type": "Feature", "properties": {"collection_times": [{"days": "Mon-Sat", "time": "10:00am"}, {"days": "Sun", "time": "Closed"}], "id": "0720700020", "name": "USPS COLLECTION BOX - BLUE BOX", "address": {"city": "ELIZABETH", "state": "NJ", "street": "24-52 RAHWAY AVE", "postcode": "07207"}}},
{"geometry": {"type": "Point", "coordinates": [-74.2158441417, 40.6697220931]}, "type": "Feature", "properties": {"collection_times": [{"days": "Mon-Fri", "time": "5:00pm"}, {"days": "Sat", "time": "10:00am"}, {"days": "Sun", "time": "Closed"}], "id": "0720700027", "name": "USPS COLLECTION BOX - BLUE BOX", "address": {"city": "ELIZABETH", "state": "NJ", "street": "310 N BROAD ST      (1)", "postcode": "07207"}}},
{"geometry": {"type": "Point", "coordinates": [-74.2158441417, 40.6697220931]}, "type": "Feature", "properties": {"collection_times": [{"days": "Mon-Fri", "time": "5:00pm"}, {"days": "Sat", "time": "10:00am"}, {"days": "Sun", "time": "Closed"}], "id": "0720700028", "name": "USPS COLLECTION BOX - BLUE BOX", "address": {"city": "ELIZABETH", "state": "NJ", "street": "310 N BROAD ST      (2)", "postcode": "07207"}}},
{"geometry": {"type": "Point", "coordinates": [-74.2277855537, 40.6651158177]}, "type": "Feature", "properties": {"collection_times": [{"days": "Mon-Sat", "time": "10:00am"}, {"days": "Sun", "time": "Closed"}], "id": "0720700029", "name": "USPS COLLECTION BOX - BLUE BOX", "address": {"city": "ELIZABETH", "state": "NJ", "street": "315 W GRAND ST", "postcode": "07207"}}},
{"geometry": {"type": "Point", "coordinates": [-74.219507007, 40.6626894477]}, "type": "Feature", "properties": {"collection_times": [{"days": "Mon-Sat", "time": "10:00am"}, {"days": "Sun", "time": "Closed"}], "id": "0720700030", "name": "USPS COLLECTION BOX - BLUE BOX", "address": {"city": "ELIZABETH", "state": "NJ", "street": "33 CHERRY ST", "postcode": "07207"}}},
{"geometry": {"type": "Point", "coordinates": [-74.2170339959, 40.6664694083]}, "type": "Feature", "properties": {"collection_times": [{"days": "Mon-Sat", "time": "10:00am"}, {"days": "Sun", "time": "Closed"}], "id": "0720700031", "name": "USPS COLLECTION BOX - BLUE BOX", "address": {"city": "ELIZABETH", "state": "NJ", "street": "33 W GRAND ST", "postcode": "07207"}}},
{"geometry": {"type": "Point", "coordinates": [-74.2269761816, 40.6624901116]}, "type": "Feature", "properties": {"collection_times": [{"days": "Mon-Sat", "time": "12:00pm"}, {"days": "Sun", "time": "Closed"}], "id": "0720700032", "name": "USPS COLLECTION BOX - BLUE BOX", "address": {"city": "ELIZABETH", "state": "NJ", "street": "330 W JERSEY ST", "postcode": "07207"}}},
{"geometry": {"type": "Point", "coordinates": [-74.2226104644, 40.6672667226]}, "type": "Feature", "properties": {"collection_times": [{"days": "Mon-Sat", "time": "10:00am"}, {"days": "Sun", "time": "Closed"}], "id": "0720700036", "name": "USPS COLLECTION BOX - BLUE BOX", "address": {"city": "ELIZABETH", "state": "NJ", "street": "520 WESTFIELD AVE", "postcode": "07207"}}},
{"geometry": {"type": "Point", "coordinates": [-74.220214941, 40.6677342495]}, "type": "Feature", "properties": {"collection_times": [{"days": "Mon-Sat", "time": "10:00am"}, {"days": "Sun", "time": "Closed"}], "id": "0720700042", "name": "USPS COLLECTION BOX - BLUE BOX", "address": {"city": "ELIZABETH", "state": "NJ", "street": "76 WESTFIELD AVE", "postcode": "07207"}}},
{"geometry": {"type": "Point", "coordinates": [-74.2015656244, 40.6792619265]}, "type": "Feature", "properties": {"collection_times": [{"days": "Mon-Sat", "time": "10:00am"}, {"days": "Sun", "time": "Closed"}], "id": "0720700045", "name": "USPS COLLECTION BOX - BLUE BOX", "address": {"city": "ELIZABETH", "state": "NJ", "street": "1073 NORTH AVE", "postcode": "07207"}}},
{"geometry": {"type": "Point", "coordinates": [-74.2067730098, 40.6602151042]}, "type": "Feature", "properties": {"collection_times": [{"days": "Mon-Fri", "time": "5:00pm"}, {"days": "Sat", "time": "10:00am"}, {"days": "Sun", "time": "Closed"}], "id": "0720700051", "name": "USPS COLLECTION BOX - BLUE BOX", "address": {"city": "ELIZABETH", "state": "NJ", "street": "946 ELIZABETH AVE", "postcode": "07207"}}},
{"geometry": {"type": "Point", "coordinates": [-74.2131018403, 40.645115816]}, "type": "Feature", "properties": {"collection_times": [{"days": "Mon-Fri", "time": "5:00pm"}, {"days": "Sat", "time": "10:00am"}, {"days": "Sun", "time": "Closed"}], "id": "0720700059", "name": "USPS COLLECTION BOX - BLUE BOX", "address": {"city": "ELIZABETH", "state": "NJ", "street": "544 BAYWAY AVE", "postcode": "07207"}}},
{"geometry": {"type": "Point", "coordinates": [-74.2022079712, 40.6646050649]}, "type": "Feature", "properties": {"collection_times": [{"days": "Mon-Sat", "time": "10:00am"}, {"days": "Sun", "time": "Closed"}], "id": "0720700074", "name": "USPS COLLECTION BOX - BLUE BOX", "address": {"city": "ELIZABETH", "state": "NJ", "street": "900 E GRAND ST", "postcode": "07207"}}},
{"geometry": {"type": "Point", "coordinates": [-74.1979342324, 40.658968515]}, "type": "Feature", "properties": {"collection_times": [{"days": "Mon-Sat", "time": "10:00am"}, {"days": "Sun", "time": "Closed"}], "id": "0720700079", "name": "USPS COLLECTION BOX - BLUE BOX", "address": {"city": "ELIZABETH", "state": "NJ", "street": "655 E JERSEY ST", "postcode": "07207"}}},
{"geometry": {"type": "Point", "coordinates": [-74.2158278962, 40.6699112541]}, "type": "Feature", "properties": {"collection_times": [{"days": "Mon-Sat", "time": "10:00am"}, {"days": "Sun", "time": "Closed"}], "id": "0720700085", "name": "USPS COLLECTION BOX - BLUE BOX", "address": {"city": "ELIZABETH", "state": "NJ", "street": "715 ELIZABETH AVE", "postcode": "07207"}}},
{"geometry": {"type": "Point", "coordinates": [-74.2336663989, 40.6630281806]}, "type": "Feature", "properties": {"collection_times": [{"days": "Mon-Sat", "time": "10:00am"}, {"days": "Sun", "time": "Closed"}], "id": "0720700095", "name": "USPS COLLECTION BOX - BLUE BOX", "address": {"city": "ELIZABETH", "state": "NJ", "street": "162 ELMORA AVE", "postcode": "07207"}}},
{"geometry": {"type": "Point", "coordinates": [-74.2336971559, 40.6631654039]}, "type": "Feature", "properties": {"collection_times": [{"days": "Mon-Fri", "time": "5:00pm"}, {"days": "Sat", "time": "10:00am"}, {"days": "Sun", "time": "Closed"}], "id": "0720700096", "name": "USPS COLLECTION BOX - BLUE BOX", "address": {"city": "ELIZABETH", "state": "NJ", "street": "175 ELMORA AVE", "postcode": "07207"}}},
{"geometry": {"type": "Point", "coordinates": [-74.2298655518, 40.6568614156]}, "type": "Feature", "properties": {"collection_times": [{"days": "Mon-Sat", "time": "10:00am"}, {"days": "Sun", "time": "Closed"}], "id": "0720700097", "name": "USPS COLLECTION BOX - BLUE BOX", "address": {"city": "ELIZABETH", "state": "NJ", "street": "9 ELMORA AVE", "postcode": "07207"}}},
{"geometry": {"type": "Point", "coordinates": [-74.2346033024, 40.6656862894]}, "type": "Feature", "properties": {"collection_times": [{"days": "Mon-Sat", "time": "10:00am"}, {"days": "Sun", "time": "Closed"}], "id": "0720700098", "name": "USPS COLLECTION BOX - BLUE BOX", "address": {"city": "ELIZABETH", "state": "NJ", "street": "605 WESTFIELD AVE", "postcode": "07207"}}},
{"geometry": {"type": "Point", "coordinates": [-74.2063190815, 40.6533627263]}, "type": "Feature", "properties": {"collection_times": [{"days": "Mon-Sat", "time": "10:00am"}, {"days": "Sun", "time": "Closed"}], "id": "0720700105", "name": "USPS COLLECTION BOX - BLUE BOX", "address": {"city": "ELIZABETH", "state": "NJ", "street": "560 FOURTH AVE", "postcode": "07207"}}},
{"geometry": {"type": "Point", "coordinates": [-74.247100695, 40.6651664844]}, "type": "Feature", "properties": {"collection_times": [{"days": "Mon-Sat", "time": "10:00am"}, {"days": "Sun", "time": "Closed"}], "id": "0720700108", "name": "USPS COLLECTION BOX - BLUE BOX", "address": {"city": "ELIZABETH", "state": "NJ", "street": "25 GALLOPING HILL RD", "postcode": "07207"}}},
{"geometry": {"type": "Point", "coordinates": [-74.197357183, 40.6815816693]}, "type": "Feature", "properties": {"collection_times": [{"days": "Mon-Sat", "time": "11:00am"}, {"days": "Sun", "time": "Closed"}], "id": "0720700112", "name": "USPS COLLECTION BOX - BLUE BOX", "address": {"city": "ELIZABETH", "state": "NJ", "street": "963 JACKSON AVE", "postcode": "07207"}}},
{"geometry": {"type": "Point", "coordinates": [-74.238534552, 40.6609452529]}, "type": "Feature", "properties": {"collection_times": [{"days": "Mon-Sat", "time": "10:00am"}, {"days": "Sun", "time": "Closed"}], "id": "0720700118", "name": "USPS COLLECTION BOX - BLUE BOX", "address": {"city": "ELIZABETH", "state": "NJ", "street": "863 JERSEY AVE", "postcode": "07207"}}},
{"geometry": {"type": "Point", "coordinates": [-74.1907930003, 40.6523137353]}, "type": "Feature", "properties": {"collection_times": [{"days": "Mon-Sat", "time": "10:00am"}, {"days": "Sun", "time": "Closed"}], "id": "0720700121", "name": "USPS COLLECTION BOX - BLUE BOX", "address": {"city": "ELIZABETH", "state": "NJ", "street": "114 THIRD ST", "postcode": "07207"}}},
{"geometry": {"type": "Point", "coordinates": [-74.2518721996, 40.671083521]}, "type": "Feature", "properties": {"collection_times": [{"days": "Mon-Sat", "time": "10:00am"}, {"days": "Sun", "time": "Closed"}], "id": "0720700124", "name": "USPS COLLECTION BOX - BLUE BOX", "address": {"city": "ELIZABETH", "state": "NJ", "street": "1270 MAGIE AVE", "postcode": "07207"}}},
{"geometry": {"type": "Point", "coordinates": [-74.2291260822, 40.6670167255]}, "type": "Feature", "properties": {"collection_times": [{"days": "Mon-Sat", "time": "10:00am"}, {"days": "Sun", "time": "Closed"}], "id": "0720700128", "name": "USPS COLLECTION BOX - BLUE BOX", "address": {"city": "ELIZABETH", "state": "NJ", "street": "443 MAGIE AVE", "postcode": "07207"}}},
{"geometry": {"type": "Point", "coordinates": [-74.2158278962, 40.6699112541]}, "type": "Feature", "properties": {"collection_times": [{"days": "Mon-Sat", "time": "10:00am"}, {"days": "Sun", "time": "Closed"}], "id": "0720700133", "name": "USPS COLLECTION BOX - BLUE BOX", "address": {"city": "ELIZABETH", "state": "NJ", "street": "578 CHERRY ST", "postcode": "07207"}}},
{"geometry": {"type": "Point", "coordinates": [-74.2175911695, 40.6688850105]}, "type": "Feature", "properties": {"collection_times": [{"days": "Mon-Sat", "time": "10:00am"}, {"days": "Sun", "time": "Closed"}], "id": "0720700136", "name": "USPS COLLECTION BOX - BLUE BOX", "address": {"city": "ELIZABETH", "state": "NJ", "street": "300 MORRIS AVE", "postcode": "07207"}}},
{"geometry": {"type": "Point", "coordinates": [-74.2136701387, 40.6803224646]}, "type": "Feature", "properties": {"collection_times": [{"days": "Mon-Sat", "time": "10:00am"}, {"days": "Sun", "time": "Closed"}], "id": "0720700140", "name": "USPS COLLECTION BOX - BLUE BOX", "address": {"city": "ELIZABETH", "state": "NJ", "street": "725 N BROAD ST", "postcode": "07207"}}},
{"geometry": {"type": "Point", "coordinates": [-74.2147339168, 40.6879676375]}, "type": "Feature", "properties": {"collection_times": [{"days": "Mon-Sat", "time": "10:00am"}, {"days": "Sun", "time": "Closed"}], "id": "0720700141", "name": "USPS COLLECTION BOX - BLUE BOX", "address": {"city": "ELIZABETH", "state": "NJ", "street": "1037 N BROAD ST", "postcode": "07207"}}},
{"geometry": {"type": "Point", "coordinates": [-74.2152736174, 40.6707477569]}, "type": "Feature", "properties": {"collection_times": [{"days": "Mon-Sat", "time": "10:00am"}, {"days": "Sun", "time": "Closed"}], "id": "0720700142", "name": "USPS COLLECTION BOX - BLUE BOX", "address": {"city": "ELIZABETH", "state": "NJ", "street": "339 N BROAD ST", "postcode": "07207"}}},
{"geometry": {"type": "Point", "coordinates": [-74.2179212151, 40.6456540623]}, "type": "Feature", "properties": {"collection_times": [{"days": "Mon-Sat", "time": "10:00am"}, {"days": "Sun", "time": "Closed"}], "id": "0720700144", "name": "USPS COLLECTION BOX - BLUE BOX", "address": {"city": "ELIZABETH", "state": "NJ", "street": "750 N BROAD ST", "postcode": "07207"}}},
{"geometry": {"type": "Point", "coordinates": [-74.2132781012, 40.6737670821]}, "type": "Feature", "properties": {"collection_times": [{"days": "Mon-Sat", "time": "10:00am"}, {"days": "Sun", "time": "Closed"}], "id": "0720700145", "name": "USPS COLLECTION BOX - BLUE BOX", "address": {"city": "ELIZABETH", "state": "NJ", "street": "500 N BROAD ST", "postcode": "07207"}}},
{"geometry": {"type": "Point", "coordinates": [-74.1995285691, 40.6784042813]}, "type": "Feature", "properties": {"collection_times": [{"days": "Mon-Sat", "time": "10:00am"}, {"days": "Sun", "time": "Closed"}], "id": "0720700146", "name": "USPS COLLECTION BOX - BLUE BOX", "address": {"city": "ELIZABETH", "state": "NJ", "street": "1039 NORTH AVE", "postcode": "07207"}}},
{"geometry": {"type": "Point", "coordinates": [-74.2087487976, 40.6812609963]}, "type": "Feature", "properties": {"collection_times": [{"days": "Mon-Fri", "time": "5:00pm"}, {"days": "Sat", "time": "10:00am"}, {"days": "Sun", "time": "Closed"}], "id": "0720700148", "name": "USPS COLLECTION BOX - BLUE BOX", "address": {"city": "ELIZABETH", "state": "NJ", "street": "772 NEWARK AVE", "postcode": "07207"}}},
{"geometry": {"type": "Point", "coordinates": [-74.2386907375, 40.6664918443]}, "type": "Feature", "properties": {"collection_times": [{"days": "Mon-Sat", "time": "10:00am"}, {"days": "Sun", "time": "Closed"}], "id": "0720700150", "name": "USPS COLLECTION BOX - BLUE BOX", "address": {"city": "ELIZABETH", "state": "NJ", "street": "742 PARK AVE", "postcode": "07207"}}},
{"geometry": {"type": "Point", "coordinates": [-74.2232942147, 40.659268737]}, "type": "Feature", "properties": {"collection_times": [{"days": "Mon-Sat", "time": "10:00am"}, {"days": "Sun", "time": "Closed"}], "id": "0720700151", "name": "USPS COLLECTION BOX - BLUE BOX", "address": {"city": "ELIZABETH", "state": "NJ", "street": "301 RAHWAY AVE", "postcode": "07207"}}},
{"geometry": {"type": "Point", "coordinates": [-74.1969163758, 40.6478413593]}, "type": "Feature", "properties": {"collection_times": [{"days": "Mon-Sat", "time": "10:00am"}, {"days": "Sun", "time": "Closed"}], "id": "0720700159", "name": "USPS COLLECTION BOX - BLUE BOX", "address": {"city": "ELIZABETH", "state": "NJ", "street": "244 SECOND AVE", "postcode": "07207"}}},
{"geometry": {"type": "Point", "coordinates": [-74.2158278962, 40.6699112541]}, "type": "Feature", "properties": {"collection_times": [{"days": "Mon-Sat", "time": "1:30pm"}, {"days": "Sun", "time": "Closed"}], "id": "0720700162", "name": "USPS COLLECTION BOX - BLUE BOX", "address": {"city": "ELIZABETH", "state": "NJ", "street": "962 SHERMAN AVE", "postcode": "07207"}}},
{"geometry": {"type": "Point", "coordinates": [-74.2033004005, 40.652462624]}, "type": "Feature", "properties": {"collection_times": [{"days": "Mon-Sat", "time": "10:00am"}, {"days": "Sun", "time": "Closed"}], "id": "0720700172", "name": "USPS COLLECTION BOX - BLUE BOX", "address": {"city": "ELIZABETH", "state": "NJ", "street": "511 THIRD AVE", "postcode": "07207"}}},
{"geometry": {"type": "Point", "coordinates": [-74.2199464408, 40.6794511999]}, "type": "Feature", "properties": {"collection_times": [{"days": "Mon-Sat", "time": "10:00am"}, {"days": "Sun", "time": "Closed"}], "id": "0720700174", "name": "USPS COLLECTION BOX - BLUE BOX", "address": {"city": "ELIZABETH", "state": "NJ", "street": "144 MALDEN TER", "postcode": "07207"}}},
{"geometry": {"type": "Point", "coordinates": [-74.2198986472, 40.6643467018]}, "type": "Feature", "properties": {"collection_times": [{"days": "Mon-Sat", "time": "2:30pm"}, {"days": "Sun", "time": "Closed"}], "id": "0720700179", "name": "USPS COLLECTION BOX - BLUE BOX", "address": {"city": "ELIZABETH", "state": "NJ", "street": "94 W JERSEY ST", "postcode": "07207"}}},
{"geometry": {"type": "Point", "coordinates": [-74.2228232262, 40.6637527386]}, "type": "Feature", "properties": {"collection_times": [{"days": "Mon-Sat", "time": "2:00pm"}, {"days": "Sun", "time": "Closed"}], "id": "0720700180", "name": "USPS COLLECTION BOX - BLUE BOX", "address": {"city": "ELIZABETH", "state": "NJ", "street": "203 W JERSEY ST", "postcode": "07207"}}},
{"geometry": {"type": "Point", "coordinates": [-74.2183426125, 40.660290362]}, "type": "Feature", "properties": {"collection_times": [{"days": "Mon-Sat", "time": "10:00am"}, {"days": "Sun", "time": "Closed"}], "id": "0720700185", "name": "USPS COLLECTION BOX - BLUE BOX", "address": {"city": "ELIZABETH", "state": "NJ", "street": "809 PEARL ST", "postcode": "07207"}}},
{"geometry": {"type": "Point", "coordinates": [-74.2001435922, 40.6595119844]}, "type": "Feature", "properties": {"collection_times": [{"days": "Mon-Sat", "time": "10:00am"}, {"days": "Sun", "time": "Closed"}], "id": "0720700187", "name": "USPS COLLECTION BOX - BLUE BOX", "address": {"city": "ELIZABETH", "state": "NJ", "street": "69 DIVISION ST", "postcode": "07207"}}},
{"geometry": {"type": "Point", "coordinates": [-74.2385898741, 40.6651409453]}, "type": "Feature", "properties": {"collection_times": [{"days": "Mon-Sat", "time": "10:00am"}, {"days": "Sun", "time": "Closed"}], "id": "0720700189", "name": "USPS COLLECTION BOX - BLUE BOX", "address": {"city": "ELIZABETH", "state": "NJ", "street": "725 WESTFIELD AVE", "postcode": "07207"}}},
{"geometry": {"type": "Point", "coordinates": [-74.2015857522, 40.6754123215]}, "type": "Feature", "properties": {"collection_times": [{"days": "Mon-Sat", "time": "10:00am"}, {"days": "Sun", "time": "Closed"}], "id": "0720700208", "name": "USPS COLLECTION BOX - BLUE BOX", "address": {"city": "ELIZABETH", "state": "NJ", "street": "655 JACKSON AVE", "postcode": "07207"}}},
{"geometry": {"type": "Point", "coordinates": [-74.2076908377, 40.687164049]}, "type": "Feature", "properties": {"collection_times": [{"days": "Mon-Sat", "time": "12:00pm"}, {"days": "Sun", "time": "Closed"}], "id": "0720700209", "name": "USPS COLLECTION BOX - BLUE BOX", "address": {"city": "ELIZABETH", "state": "NJ", "street": "1041 SHERIDAN AVE", "postcode": "07207"}}},
{"geometry": {"type": "Point", "coordinates": [-74.2158441417, 40.6697220931]}, "type": "Feature", "properties": {"collection_times": [{"days": "Mon-Fri", "time": "5:00pm"}, {"days": "Sat", "time": "2:00pm"}, {"days": "Sun", "time": "Closed"}], "id": "0720700211", "name": "USPS COLLECTION BOX - PO LOBBY", "address": {"city": "ELIZABETH", "state": "NJ", "street": "310 N BROAD ST", "postcode": "07207"}}},
{"geometry": {"type": "Point", "coordinates": [-74.2087487976, 40.6812609963]}, "type": "Feature", "properties": {"collection_times": [{"days": "Mon-Fri", "time": "5:00pm"}, {"days": "Sat-Sun", "time": "Closed"}], "id": "0720800001", "name": "USPS COLLECTION BOX - PO LOBBY", "address": {"city": "ELIZABETH", "state": "NJ", "street": "772 NEWARK AVE", "postcode": "07208"}}}
]}
