{"type": "FeatureCollection", "features": [
{"geometry": {"type": "Point", "coordinates": [-74.0355633624, 40.7166925866]}, "type": "Feature", "properties": {"collection_times": [{"days": "Mon-Sat", "time": "1:00pm"}, {"days": "Sun", "time": "Closed"}], "id": "0730200008", "name": "USPS COLLECTION BOX - BLUE BOX", "address": {"city": "JERSEY CITY", "state": "NJ", "street": "30 MONTGOMERY ST", "postcode": "07302"}}},
{"geometry": {"type": "Point", "coordinates": [-74.0621929481, 40.7231390575]}, "type": "Feature", "properties": {"collection_times": [{"days": "Mon-Sat", "time": "11:00am"}, {"days": "Sun", "time": "Closed"}], "id": "0730200011", "name": "USPS COLLECTION BOX - BLUE BOX", "address": {"city": "JERSEY CITY", "state": "NJ", "street": "591 MONTGOMERY ST", "postcode": "07302"}}},
{"geometry": {"type": "Point", "coordinates": [-74.0424121398, 40.7158747825]}, "type": "Feature", "properties": {"collection_times": [{"days": "Mon-Sat", "time": "11:00am"}, {"days": "Sun", "time": "Closed"}], "id": "0730200014", "name": "USPS COLLECTION BOX - BLUE BOX", "address": {"city": "JERSEY CITY", "state": "NJ", "street": "190 GRAND ST", "postcode": "07302"}}},
{"geometry": {"type": "Point", "coordinates": [-74.0438724626, 40.7179293062]}, "type": "Feature", "properties": {"collection_times": [{"days": "Mon-Sat", "time": "1:00pm"}, {"days": "Sun", "time": "Closed"}], "id": "0730200017", "name": "USPS COLLECTION BOX - BLUE BOX", "address": {"city": "JERSEY CITY", "state": "NJ", "street": "280 GROVE ST", "postcode": "07302"}}},
{"geometry": {"type": "Point", "coordinates": [-74.0455660815, 40.7241958965]}, "type": "Feature", "properties": {"collection_times": [{"days": "Mon-Sat", "time": "11:00am"}, {"days": "Sun", "time": "Closed"}], "id": "0730200019", "name": "USPS COLLECTION BOX - BLUE BOX", "address": {"city": "JERSEY CITY", "state": "NJ", "street": "598 JERSEY AVE", "postcode": "07302"}}},
{"geometry": {"type": "Point", "coordinates": [-74.0474796493, 40.719273574]}, "type": "Feature", "properties": {"collection_times": [{"days": "Mon-Sat", "time": "11:00am"}, {"days": "Sun", "time": "Closed"}], "id": "0730200020", "name": "USPS COLLECTION BOX - BLUE BOX", "address": {"city": "JERSEY CITY", "state": "NJ", "street": "111 MERCER ST", "postcode": "07302"}}},
{"geometry": {"type": "Point", "coordinates": [-74.048530955, 40.7264832825]}, "type": "Feature", "properties": {"collection_times": [{"days": "Mon-Sat", "time": "11:00am"}, {"days": "Sun", "time": "Closed"}], "id": "0730200021", "name": "USPS COLLECTION BOX - BLUE BOX", "address": {"city": "JERSEY CITY", "state": "NJ", "street": "323 7TH ST", "postcode": "07302"}}},
{"geometry": {"type": "Point", "coordinates": [-74.0374839286, 40.7166886595]}, "type": "Feature", "properties": {"collection_times": [{"days": "Mon-Fri", "time": "5:00pm"}, {"days": "Sat", "time": "3:00pm"}, {"days": "Sun", "time": "Closed"}], "id": "0730200022", "name": "USPS COLLECTION BOX - BLUE BOX", "address": {"city": "JERSEY CITY", "state": "NJ", "street": "69 MONTGOMERY ST", "postcode": "07302"}}},
{"geometry": {"type": "Point", "coordinates": [-74.0443479092, 40.7209216186]}, "type": "Feature", "properties": {"collection_times": [{"days": "Mon-Fri", "time": "5:00pm"}, {"days": "Sat", "time": "3:00pm"}, {"days": "Sun", "time": "Closed"}], "id": "0730200023", "name": "USPS COLLECTION BOX - EXPRESS", "address": {"city": "JERSEY CITY", "state": "NJ", "street": "69 MONTGOMERY ST", "postcode": "07302"}}},
{"geometry": {"type": "Point", "coordinates": [-74.0444279081, 40.7208228492]}, "type": "Feature", "properties": {"collection_times": [{"days": "Mon-Sat", "time": "11:00am"}, {"days": "Sun", "time": "Closed"}], "id": "0730200027", "name": "USPS COLLECTION BOX - BLUE BOX", "address": {"city": "JERSEY CITY", "state": "NJ", "street": "156 NEWARK AVE", "postcode": "07302"}}},
{"geometry": {"type": "Point", "coordinates": [-74.0463152728, 40.7217076771]}, "type": "Feature", "properties": {"collection_times": [{"days": "Mon-Sat", "time": "1:00pm"}, {"days": "Sun", "time": "Closed"}], "id": "0730200028", "name": "USPS COLLECTION BOX - BLUE BOX", "address": {"city": "JERSEY CITY", "state": "NJ", "street": "194 NEWARK AVE", "postcode": "07302"}}},
{"geometry": {"type": "Point", "coordinates": [-74.0494063446, 40.7232727318]}, "type": "Feature", "properties": {"collection_times": [{"days": "Mon-Sat", "time": "11:00am"}, {"days": "Sun", "time": "Closed"}], "id": "0730200029", "name": "USPS COLLECTION BOX - BLUE BOX", "address": {"city": "JERSEY CITY", "state": "NJ", "street": "270 NEWARK AVE", "postcode": "07302"}}},
{"geometry": {"type": "Point", "coordinates": [-74.0467789928, 40.7279430538]}, "type": "Feature", "properties": {"collection_times": [{"days": "Mon-Sat", "time": "11:00am"}, {"days": "Sun", "time": "Closed"}], "id": "0730200030", "name": "USPS COLLECTION BOX - BLUE BOX", "address": {"city": "JERSEY CITY", "state": "NJ", "street": "155 COLES ST", "postcode": "07302"}}},
{"geometry": {"type": "Point", "coordinates": [-74.041776542, 40.7266411839]}, "type": "Feature", "properties": {"collection_times": [{"days": "Mon-Sat", "time": "11:00am"}, {"days": "Sun", "time": "Closed"}], "id": "0730200031", "name": "USPS COLLECTION BOX - BLUE BOX", "address": {"city": "JERSEY CITY", "state": "NJ", "street": "500 GROVE ST", "postcode": "07302"}}},
{"geometry": {"type": "Point", "coordinates": [-74.0376961925, 40.7145960641]}, "type": "Feature", "properties": {"collection_times": [{"days": "Mon-Sat", "time": "11:00am"}, {"days": "Sun", "time": "Closed"}], "id": "0730200033", "name": "USPS COLLECTION BOX - BLUE BOX", "address": {"city": "JERSEY CITY", "state": "NJ", "street": "82 SUSSEX ST", "postcode": "07302"}}},
{"geometry": {"type": "Point", "coordinates": [-74.0443479092, 40.7209216186]}, "type": "Feature", "properties": {"collection_times": [{"days": "Mon-Fri", "time": "5:00pm"}, {"days": "Sat", "time": "3:00pm"}, {"days": "Sun", "time": "Closed"}], "id": "0730200034", "name": "USPS COLLECTION BOX - BLUE BOX", "address": {"city": "JERSEY CITY", "state": "NJ", "street": "242 WASHINGTON ST", "postcode": "07302"}}},
{"geometry": {"type": "Point", "coordinates": [-74.0443479092, 40.7209216186]}, "type": "Feature", "properties": {"collection_times": [{"days": "Mon-Fri", "time": "5:00pm"}, {"days": "Sat", "time": "3:00pm"}, {"days": "Sun", "time": "Closed"}], "id": "0730200035", "name": "USPS COLLECTION BOX - BLUE BOX", "address": {"city": "JERSEY CITY", "state": "NJ", "street": "242 WASHINGTON ST", "postcode": "07302"}}},
{"geometry": {"type": "Point", "coordinates": [-74.0423830416, 40.7192568106]}, "type": "Feature", "properties": {"collection_times": [{"days": "Mon-Sat", "time": "1:00pm"}, {"days": "Sun", "time": "Closed"}], "id": "0730200037", "name": "USPS COLLECTION BOX - BLUE BOX", "address": {"city": "JERSEY CITY", "state": "NJ", "street": "95 CHRISTOPHER COLUMBUS DR", "postcode": "07302"}}},
{"geometry": {"type": "Point", "coordinates": [-74.0564272061, 40.7215184037]}, "type": "Feature", "properties": {"collection_times": [{"days": "Mon-Sat", "time": "11:00am"}, {"days": "Sun", "time": "Closed"}], "id": "0730200038", "name": "USPS COLLECTION BOX - BLUE BOX", "address": {"city": "JERSEY CITY", "state": "NJ", "street": "1 CHOPIN CT", "postcode": "07302"}}},
{"geometry": {"type": "Point", "coordinates": [-74.0374839286, 40.7166886595]}, "type": "Feature", "properties": {"collection_times": [{"days": "Mon-Fri", "time": "5:00pm"}, {"days": "Sat", "time": "3:00pm"}, {"days": "Sun", "time": "Closed"}], "id": "0730200041", "name": "USPS COLLECTION BOX - PO LOBBY", "address": {"city": "JERSEY CITY", "state": "NJ", "street": "69 MONTGOMERY ST", "postcode": "07302"}}},
{"geometry": {"type": "Point", "coordinates": [-74.0738157361, 40.7177411209]}, "type": "Feature", "properties": {"collection_times": [{"days": "Mon-Sat", "time": "11:00am"}, {"days": "Sun", "time": "Closed"}], "id": "0730400004", "name": "USPS COLLECTION BOX - BLUE BOX", "address": {"city": "JERSEY CITY", "state": "NJ", "street": "322 PACIFIC AVE # 324", "postcode": "07304"}}},
{"geometry": {"type": "Point", "coordinates": [-74.083821611, 40.718149658]}, "type": "Feature", "properties": {"collection_times": [{"days": "Mon-Fri", "time": "5:00pm"}, {"days": "Sat", "time": "3:00pm"}, {"days": "Sun", "time": "Closed"}], "id": "0730400007", "name": "USPS COLLECTION BOX - BLUE BOX", "address": {"city": "JERSEY CITY", "state": "NJ", "street": "504 W SIDE AVE", "postcode": "07304"}}},
{"geometry": {"type": "Point", "coordinates": [-74.0711575158, 40.7227305007]}, "type": "Feature", "properties": {"collection_times": [{"days": "Mon-Sat", "time": "11:00am"}, {"days": "Sun", "time": "Closed"}], "id": "0730400010", "name": "USPS COLLECTION BOX - BLUE BOX", "address": {"city": "JERSEY CITY", "state": "NJ", "street": "657 BERGEN AVE", "postcode": "07304"}}},
{"geometry": {"type": "Point", "coordinates": [-74.0749535264, 40.718741999]}, "type": "Feature", "properties": {"collection_times": [{"days": "Mon-Fri", "time": "5:00pm"}, {"days": "Sat", "time": "3:00pm"}, {"days": "Sun", "time": "Closed"}], "id": "0730400011", "name": "USPS COLLECTION BOX - BLUE BOX", "address": {"city": "JERSEY CITY", "state": "NJ", "street": "528 BERGEN AVE", "postcode": "07304"}}},
{"geometry": {"type": "Point", "coordinates": [-74.0921202697, 40.7221044322]}, "type": "Feature", "properties": {"collection_times": [{"days": "Mon-Sat", "time": "11:00am"}, {"days": "Sun", "time": "Closed"}], "id": "0730400016", "name": "USPS COLLECTION BOX - BLUE BOX", "address": {"city": "JERSEY CITY", "state": "NJ", "street": "701 ROUTE 440", "postcode": "07304"}}},
{"geometry": {"type": "Point", "coordinates": [-74.0671045937, 40.7200882063]}, "type": "Feature", "properties": {"collection_times": [{"days": "Mon-Sat", "time": "11:00am"}, {"days": "Sun", "time": "Closed"}], "id": "0730400044", "name": "USPS COLLECTION BOX - BLUE BOX", "address": {"city": "JERSEY CITY", "state": "NJ", "street": "1 JEWETT AVE", "postcode": "07304"}}},
{"geometry": {"type": "Point", "coordinates": [-74.0805654838, 40.7217147749]}, "type": "Feature", "properties": {"collection_times": [{"days": "Mon-Sat", "time": "11:00am"}, {"days": "Sun", "time": "Closed"}], "id": "0730400045", "name": "USPS COLLECTION BOX - BLUE BOX", "address": {"city": "JERSEY CITY", "state": "NJ", "street": "293 HARRISON AVE", "postcode": "07304"}}},
{"geometry": {"type": "Point", "coordinates": [-74.0877472276, 40.7199604467]}, "type": "Feature", "properties": {"collection_times": [{"days": "Mon-Sat", "time": "11:00am"}, {"days": "Sun", "time": "Closed"}], "id": "0730400046", "name": "USPS COLLECTION BOX - BLUE BOX", "address": {"city": "JERSEY CITY", "state": "NJ", "street": "163 MALLORY AVE", "postcode": "07304"}}},
{"geometry": {"type": "Point", "coordinates": [-74.07441307, 40.7236998502]}, "type": "Feature", "properties": {"collection_times": [{"days": "Mon-Sat", "time": "11:00am"}, {"days": "Sun", "time": "Closed"}], "id": "0730400053", "name": "USPS COLLECTION BOX - BLUE BOX", "address": {"city": "JERSEY CITY", "state": "NJ", "street": "2530 JOHN F KENNEDY BLVD", "postcode": "07304"}}},
{"geometry": {"type": "Point", "coordinates": [-74.0749535264, 40.718741999]}, "type": "Feature", "properties": {"collection_times": [{"days": "Mon-Fri", "time": "5:00pm"}, {"days": "Sat", "time": "3:00pm"}, {"days": "Sun", "time": "Closed"}], "id": "0730400054", "name": "USPS COLLECTION BOX - PO LOBBY", "address": {"city": "JERSEY CITY", "state": "NJ", "street": "528 BERGEN AVE", "postcode": "07304"}}},
{"geometry": {"type": "Point", "coordinates": [-74.083821611, 40.718149658]}, "type": "Feature", "properties": {"collection_times": [{"days": "Mon-Fri", "time": "5:00pm"}, {"days": "Sat", "time": "3:00pm"}, {"days": "Sun", "time": "Closed"}], "id": "0730400055", "name": "USPS COLLECTION BOX - PO LOBBY", "address": {"city": "JERSEY CITY", "state": "NJ", "street": "504 W SIDE AVE", "postcode": "07304"}}},
{"geometry": {"type": "Point", "coordinates": [-74.085546924, 40.7099691753]}, "type": "Feature", "properties": {"collection_times": [{"days": "Mon-Sat", "time": "1:00pm"}, {"days": "Sun", "time": "Closed"}], "id": "0730500003", "name": "USPS COLLECTION BOX - BLUE BOX", "address": {"city": "JERSEY CITY", "state": "NJ", "street": "2039 JOHN F KENNEDY BLVD", "postcode": "07305"}}},
{"geometry": {"type": "Point", "coordinates": [-74.0668810144, 40.6999850017]}, "type": "Feature", "properties": {"collection_times": [{"days": "Mon-Sat", "time": "11:00am"}, {"days": "Sun", "time": "Closed"}], "id": "0730500006", "name": "USPS COLLECTION BOX - BLUE BOX", "address": {"city": "JERSEY CITY", "state": "NJ", "street": "14 BURMA RD", "postcode": "07305"}}},
{"geometry": {"type": "Point", "coordinates": [-74.0712649326, 40.6855335958]}, "type": "Feature", "properties": {"collection_times": [{"days": "Mon-Sat", "time": "11:00am"}, {"days": "Sun", "time": "Closed"}], "id": "0730500008", "name": "USPS COLLECTION BOX - BLUE BOX", "address": {"city": "JERSEY CITY", "state": "NJ", "street": "16 CHAPEL AVE", "postcode": "07305"}}},
{"geometry": {"type": "Point", "coordinates": [-74.0788350008, 40.7009055666]}, "type": "Feature", "properties": {"collection_times": [{"days": "Mon-Sat", "time": "11:00am"}, {"days": "Sun", "time": "Closed"}], "id": "0730500011", "name": "USPS COLLECTION BOX - BLUE BOX", "address": {"city": "JERSEY CITY", "state": "NJ", "street": "593 GARFIELD AVE", "postcode": "07305"}}},
{"geometry": {"type": "Point", "coordinates": [-74.078833883, 40.7111646305]}, "type": "Feature", "properties": {"collection_times": [{"days": "Mon-Fri", "time": "5:00pm"}, {"days": "Sat", "time": "3:00pm"}, {"days": "Sun", "time": "Closed"}], "id": "0730500022", "name": "USPS COLLECTION BOX - BLUE BOX", "address": {"city": "JERSEY CITY", "state": "NJ", "street": "369 MARTIN LUTHER KING JR DR", "postcode": "07305"}}},
{"geometry": {"type": "Point", "coordinates": [-74.0936553955, 40.6932255648]}, "type": "Feature", "properties": {"collection_times": [{"days": "Mon-Fri", "time": "5:00pm"}, {"days": "Sat", "time": "3:00pm"}, {"days": "Sun", "time": "Closed"}], "id": "0730500025", "name": "USPS COLLECTION BOX - BLUE BOX", "address": {"city": "JERSEY CITY", "state": "NJ", "street": "137 OCEAN AVE", "postcode": "07305"}}},
{"geometry": {"type": "Point", "coordinates": [-74.0908448753, 40.6959079753]}, "type": "Feature", "properties": {"collection_times": [{"days": "Mon-Sat", "time": "11:00am"}, {"days": "Sun", "time": "Closed"}], "id": "0730500028", "name": "USPS COLLECTION BOX - BLUE BOX", "address": {"city": "JERSEY CITY", "state": "NJ", "street": "108 DANFORTH AVE", "postcode": "07305"}}},
{"geometry": {"type": "Point", "coordinates": [-74.098286209, 40.7046860806]}, "type": "Feature", "properties": {"collection_times": [{"days": "Mon-Sat", "time": "11:00am"}, {"days": "Sun", "time": "Closed"}], "id": "0730500052", "name": "USPS COLLECTION BOX - BLUE BOX", "address": {"city": "JERSEY CITY", "state": "NJ", "street": "395 DANFORTH AVE", "postcode": "07305"}}},
{"geometry": {"type": "Point", "coordinates": [-74.0910557065, 40.7030202244]}, "type": "Feature", "properties": {"collection_times": [{"days": "Mon-Sat", "time": "1:00pm"}, {"days": "Sun", "time": "Closed"}], "id": "0730500055", "name": "USPS COLLECTION BOX - BLUE BOX", "address": {"city": "JERSEY CITY", "state": "NJ", "street": "1841 JOHN F KENNEDY BLVD", "postcode": "07305"}}},
{"geometry": {"type": "Point", "coordinates": [-74.091549435, 40.7123586947]}, "type": "Feature", "properties": {"collection_times": [{"days": "Mon-Sat", "time": "11:00am"}, {"days": "Sun", "time": "Closed"}], "id": "0730500056", "name": "USPS COLLECTION BOX - BLUE BOX", "address": {"city": "JERSEY CITY", "state": "NJ", "street": "275 W SIDE AVE", "postcode": "07305"}}},
{"geometry": {"type": "Point", "coordinates": [-74.1012755464, 40.6992870559]}, "type": "Feature", "properties": {"collection_times": [{"days": "Mon-Sat", "time": "11:00am"}, {"days": "Sun", "time": "Closed"}], "id": "0730500059", "name": "USPS COLLECTION BOX - BLUE BOX", "address": {"city": "JERSEY CITY", "state": "NJ", "street": "116 SYCAMORE RD", "postcode": "07305"}}},
{"geometry": {"type": "Point", "coordinates": [-74.078833883, 40.7111646305]}, "type": "Feature", "properties": {"collection_times": [{"days": "Mon-Fri", "time": "5:00pm"}, {"days": "Sat", "time": "3:00pm"}, {"days": "Sun", "time": "Closed"}], "id": "0730500060", "name": "USPS COLLECTION BOX - PO LOBBY", "address": {"city": "JERSEY CITY", "state": "NJ", "street": "369 MARTIN LUTHER KING JR DR", "postcode": "07305"}}},
{"geometry": {"type": "Point", "coordinates": [-74.0935451045, 40.6932756096]}, "type": "Feature", "properties": {"collection_times": [{"days": "Mon-Fri", "time": "5:00pm"}, {"days": "Sat", "time": "3:00pm"}, {"days": "Sun", "time": "Closed"}], "id": "0730500061", "name": "USPS COLLECTION BOX - PO LOBBY", "address": {"city": "JERSEY CITY", "state": "NJ", "street": "137 OCEAN AVE", "postcode": "07305"}}},
{"geometry": {"type": "Point", "coordinates": [-74.0997413477, 40.6951026312]}, "type": "Feature", "properties": {"collection_times": [{"days": "Mon-Fri", "time": "11:00am"}, {"days": "Sat", "time": "1:00pm"}, {"days": "Sun", "time": "Closed"}], "id": "0730500063", "name": "USPS COLLECTION BOX - BLUE BOX", "address": {"city": "JERSEY CITY", "state": "NJ", "street": "1557 JOHN F KENNEDY BLVD", "postcode": "07305"}}},
{"geometry": {"type": "Point", "coordinates": [-74.064380135, 40.731163193]}, "type": "Feature", "properties": {"collection_times": [{"days": "Mon-Sat", "time": "1:00pm"}, {"days": "Sun", "time": "Closed"}], "id": "0730600011", "name": "USPS COLLECTION BOX - BLUE BOX", "address": {"city": "JERSEY CITY", "state": "NJ", "street": "30 JOURNAL SQ", "postcode": "07306"}}},
{"geometry": {"type": "Point", "coordinates": [-74.0650237689, 40.7324051751]}, "type": "Feature", "properties": {"collection_times": [{"days": "Mon-Fri", "time": "1:00pm"}, {"days": "Sat-Sun", "time": "Closed"}], "id": "0730600014", "name": "USPS COLLECTION BOX - BLUE BOX", "address": {"city": "JERSEY CITY", "state": "NJ", "street": "50 JOURNAL SQ", "postcode": "07306"}}},
{"geometry": {"type": "Point", "coordinates": [-74.058545558, 40.733889884]}, "type": "Feature", "properties": {"collection_times": [{"days": "Mon-Fri", "time": "5:00pm"}, {"days": "Sat", "time": "3:00pm"}, {"days": "Sun", "time": "Closed"}], "id": "0730600019", "name": "USPS COLLECTION BOX - BLUE BOX", "address": {"city": "JERSEY CITY", "state": "NJ", "street": "645 NEWARK AVE", "postcode": "07306"}}},
{"geometry": {"type": "Point", "coordinates": [-74.0588003947, 40.7343188262]}, "type": "Feature", "properties": {"collection_times": [{"days": "Mon-Sat", "time": "11:00am"}, {"days": "Sun", "time": "Closed"}], "id": "0730600020", "name": "USPS COLLECTION BOX - BLUE BOX", "address": {"city": "JERSEY CITY", "state": "NJ", "street": "666 NEWARK AVE", "postcode": "07306"}}},
{"geometry": {"type": "Point", "coordinates": [-74.0641394092, 40.7319101375]}, "type": "Feature", "properties": {"collection_times": [{"days": "Mon-Sat", "time": "11:00am"}, {"days": "Sun", "time": "Closed"}], "id": "0730600021", "name": "USPS COLLECTION BOX - BLUE BOX", "address": {"city": "JERSEY CITY", "state": "NJ", "street": "730 NEWARK AVE", "postcode": "07306"}}},
{"geometry": {"type": "Point", "coordinates": [-74.0656965672, 40.7296754103]}, "type": "Feature", "properties": {"collection_times": [{"days": "Mon-Fri", "time": "5:00pm"}, {"days": "Sat", "time": "3:00pm"}, {"days": "Sun", "time": "Closed"}], "id": "0730600023", "name": "USPS COLLECTION BOX - BLUE BOX", "address": {"city": "JERSEY CITY", "state": "NJ", "street": "899 BERGEN AVE", "postcode": "07306"}}},
{"geometry": {"type": "Point", "coordinates": [-74.0641394092, 40.7319101375]}, "type": "Feature", "properties": {"collection_times": [{"days": "Mon-Fri", "time": "5:00pm"}, {"days": "Sat", "time": "3:00pm"}, {"days": "Sun", "time": "Closed"}], "id": "0730600024", "name": "USPS COLLECTION BOX - EXPRESS", "address": {"city": "JERSEY CITY", "state": "NJ", "street": "899 BERGEN AVE", "postcode": "07306"}}},
{"geometry": {"type": "Point", "coordinates": [-74.0726337439, 40.736326684]}, "type": "Feature", "properties": {"collection_times": [{"days": "Mon-Sat", "time": "11:00am"}, {"days": "Sun", "time": "Closed"}], "id": "0730600036", "name": "USPS COLLECTION BOX - BLUE BOX", "address": {"city": "JERSEY CITY", "state": "NJ", "street": "99 BROADWAY", "postcode": "07306"}}},
{"geometry": {"type": "Point", "coordinates": [-74.0791636774, 40.7278259409]}, "type": "Feature", "properties": {"collection_times": [{"days": "Mon-Sat", "time": "11:00am"}, {"days": "Sun", "time": "Closed"}], "id": "0730600040", "name": "USPS COLLECTION BOX - BLUE BOX", "address": {"city": "JERSEY CITY", "state": "NJ", "street": "225 DUNCAN AVE", "postcode": "07306"}}},
{"geometry": {"type": "Point", "coordinates": [-74.0615777864, 40.7399151819]}, "type": "Feature", "properties": {"collection_times": [{"days": "Mon-Sat", "time": "11:00am"}, {"days": "Sun", "time": "Closed"}], "id": "0730600041", "name": "USPS COLLECTION BOX - BLUE BOX", "address": {"city": "JERSEY CITY", "state": "NJ", "street": "3130 JOHN F KENNEDY BLVD", "postcode": "07306"}}},
{"geometry": {"type": "Point", "coordinates": [-74.0596909899, 40.7427466023]}, "type": "Feature", "properties": {"collection_times": [{"days": "Mon-Sat", "time": "11:00am"}, {"days": "Sun", "time": "Closed"}], "id": "0730600042", "name": "USPS COLLECTION BOX - BLUE BOX", "address": {"city": "JERSEY CITY", "state": "NJ", "street": "3220 JOHN F KENNEDY BLVD", "postcode": "07306"}}},
{"geometry": {"type": "Point", "coordinates": [-74.0711373008, 40.7268795737]}, "type": "Feature", "properties": {"collection_times": [{"days": "Mon-Sat", "time": "1:00pm"}, {"days": "Sun", "time": "Closed"}], "id": "0730600045", "name": "USPS COLLECTION BOX - BLUE BOX", "address": {"city": "JERSEY CITY", "state": "NJ", "street": "2641 JOHN F KENNEDY BLVD", "postcode": "07306"}}},
{"geometry": {"type": "Point", "coordinates": [-74.0641394092, 40.7319101375]}, "type": "Feature", "properties": {"collection_times": [{"days": "Mon-Sat", "time": "11:00am"}, {"days": "Sun", "time": "Closed"}], "id": "0730600049", "name": "USPS COLLECTION BOX - BLUE BOX", "address": {"city": "JERSEY CITY", "state": "NJ", "street": "133 CARLTON AVE", "postcode": "07306"}}},
{"geometry": {"type": "Point", "coordinates": [-74.0665109136, 40.7358336341]}, "type": "Feature", "properties": {"collection_times": [{"days": "Mon-Sat", "time": "11:00am"}, {"days": "Sun", "time": "Closed"}], "id": "0730600056", "name": "USPS COLLECTION BOX - BLUE BOX", "address": {"city": "JERSEY CITY", "state": "NJ", "street": "836 NEWARK AVE", "postcode": "07306"}}},
{"geometry": {"type": "Point", "coordinates": [-74.0502734535, 40.7346752733]}, "type": "Feature", "properties": {"collection_times": [{"days": "Mon-Sat", "time": "1:00pm"}, {"days": "Sun", "time": "Closed"}], "id": "0730600057", "name": "USPS COLLECTION BOX - BLUE BOX", "address": {"city": "JERSEY CITY", "state": "NJ", "street": "176 PALISADE AVE", "postcode": "07306"}}},
{"geometry": {"type": "Point", "coordinates": [-74.0494276379, 40.7359765282]}, "type": "Feature", "properties": {"collection_times": [{"days": "Mon-Sat", "time": "11:00am"}, {"days": "Sun", "time": "Closed"}], "id": "0730600058", "name": "USPS COLLECTION BOX - BLUE BOX", "address": {"city": "JERSEY CITY", "state": "NJ", "street": "205 PALISADE AVE", "postcode": "07306"}}},
{"geometry": {"type": "Point", "coordinates": [-74.062500601, 40.730539461]}, "type": "Feature", "properties": {"collection_times": [{"days": "Mon-Sat", "time": "1:00pm"}, {"days": "Sun", "time": "Closed"}], "id": "0730600059", "name": "USPS COLLECTION BOX - BLUE BOX", "address": {"city": "JERSEY CITY", "state": "NJ", "street": "71 SIP AVE", "postcode": "07306"}}},
{"geometry": {"type": "Point", "coordinates": [-74.0643907282, 40.7253998123]}, "type": "Feature", "properties": {"collection_times": [{"days": "Mon-Sat", "time": "11:00am"}, {"days": "Sun", "time": "Closed"}], "id": "0730600063", "name": "USPS COLLECTION BOX - BLUE BOX", "address": {"city": "JERSEY CITY", "state": "NJ", "street": "296 SUMMIT AVE", "postcode": "07306"}}},
{"geometry": {"type": "Point", "coordinates": [-74.0597856266, 40.7322253653]}, "type": "Feature", "properties": {"collection_times": [{"days": "Mon-Sat", "time": "11:00am"}, {"days": "Sun", "time": "Closed"}], "id": "0730600065", "name": "USPS COLLECTION BOX - BLUE BOX", "address": {"city": "JERSEY CITY", "state": "NJ", "street": "532 SUMMIT AVE", "postcode": "07306"}}},
{"geometry": {"type": "Point", "coordinates": [-74.0706546535, 40.7355707732]}, "type": "Feature", "properties": {"collection_times": [{"days": "Mon-Sat", "time": "11:00am"}, {"days": "Sun", "time": "Closed"}], "id": "0730600067", "name": "USPS COLLECTION BOX - BLUE BOX", "address": {"city": "JERSEY CITY", "state": "NJ", "street": "1063 W SIDE AVE", "postcode": "07306"}}},
{"geometry": {"type": "Point", "coordinates": [-74.0755556525, 40.7331303289]}, "type": "Feature", "properties": {"collection_times": [{"days": "Mon-Sat", "time": "11:00am"}, {"days": "Sun", "time": "Closed"}], "id": "0730600073", "name": "USPS COLLECTION BOX - BLUE BOX", "address": {"city": "JERSEY CITY", "state": "NJ", "street": "321 SIP AVE", "postcode": "07306"}}},
{"geometry": {"type": "Point", "coordinates": [-74.0628352948, 40.7332273315]}, "type": "Feature", "properties": {"collection_times": [{"days": "Mon-Sat", "time": "11:00am"}, {"days": "Sun", "time": "Closed"}], "id": "0730600078", "name": "USPS COLLECTION BOX - BLUE BOX", "address": {"city": "JERSEY CITY", "state": "NJ", "street": "2932 JOHN F KENNEDY BLVD", "postcode": "07306"}}},
{"geometry": {"type": "Point", "coordinates": [-74.067973035, 40.7255132337]}, "type": "Feature", "properties": {"collection_times": [{"days": "Mon-Sat", "time": "1:00pm"}, {"days": "Sun", "time": "Closed"}], "id": "0730600081", "name": "USPS COLLECTION BOX - BLUE BOX", "address": {"city": "JERSEY CITY", "state": "NJ", "street": "761 BERGEN AVE", "postcode": "07306"}}},
{"geometry": {"type": "Point", "coordinates": [-74.057061272, 40.7321307287]}, "type": "Feature", "properties": {"collection_times": [{"days": "Mon-Sat", "time": "1:00pm"}, {"days": "Sun", "time": "Closed"}], "id": "0730600082", "name": "USPS COLLECTION BOX - BLUE BOX", "address": {"city": "JERSEY CITY", "state": "NJ", "street": "595 NEWARK AVE", "postcode": "07306"}}},
{"geometry": {"type": "Point", "coordinates": [-74.0740757709, 40.729926876]}, "type": "Feature", "properties": {"collection_times": [{"days": "Mon-Sat", "time": "11:00am"}, {"days": "Sun", "time": "Closed"}], "id": "0730600083", "name": "USPS COLLECTION BOX - BLUE BOX", "address": {"city": "JERSEY CITY", "state": "NJ", "street": "168 HIGHLAND AVE", "postcode": "07306"}}},
{"geometry": {"type": "Point", "coordinates": [-74.0720162393, 40.7322691348]}, "type": "Feature", "properties": {"collection_times": [{"days": "Mon-Sat", "time": "11:00am"}, {"days": "Sun", "time": "Closed"}], "id": "0730600084", "name": "USPS COLLECTION BOX - BLUE BOX", "address": {"city": "JERSEY CITY", "state": "NJ", "street": "252 SIP AVE", "postcode": "07306"}}},
{"geometry": {"type": "Point", "coordinates": [-74.0543842359, 40.7386535643]}, "type": "Feature", "properties": {"collection_times": [{"days": "Mon-Sat", "time": "11:00am"}, {"days": "Sun", "time": "Closed"}], "id": "0730600085", "name": "USPS COLLECTION BOX - BLUE BOX", "address": {"city": "JERSEY CITY", "state": "NJ", "street": "114 CENTRAL AVE", "postcode": "07306"}}},
{"geometry": {"type": "Point", "coordinates": [-74.0653778152, 40.7299781245]}, "type": "Feature", "properties": {"collection_times": [{"days": "Mon-Sat", "time": "1:00pm"}, {"days": "Sun", "time": "Closed"}], "id": "0730600086", "name": "USPS COLLECTION BOX - BLUE BOX", "address": {"city": "JERSEY CITY", "state": "NJ", "street": "921 BERGEN AVE", "postcode": "07306"}}},
{"geometry": {"type": "Point", "coordinates": [-74.0567241288, 40.7293626046]}, "type": "Feature", "properties": {"collection_times": [{"days": "Mon-Sat", "time": "11:00am"}, {"days": "Sun", "time": "Closed"}], "id": "0730600087", "name": "USPS COLLECTION BOX - BLUE BOX", "address": {"city": "JERSEY CITY", "state": "NJ", "street": "132 CHESTNUT AVE", "postcode": "07306"}}},
{"geometry": {"type": "Point", "coordinates": [-74.058545558, 40.733889884]}, "type": "Feature", "properties": {"collection_times": [{"days": "Mon-Fri", "time": "5:00pm"}, {"days": "Sat", "time": "3:00pm"}, {"days": "Sun", "time": "Closed"}], "id": "0730600090", "name": "USPS COLLECTION BOX - PO LOBBY", "address": {"city": "JERSEY CITY", "state": "NJ", "street": "645 NEWARK AVE", "postcode": "07306"}}},
{"geometry": {"type": "Point", "coordinates": [-74.0656965672, 40.7296754103]}, "type": "Feature", "properties": {"collection_times": [{"days": "Mon-Fri", "time": "5:00pm"}, {"days": "Sat", "time": "3:00pm"}, {"days": "Sun", "time": "Closed"}], "id": "0730600091", "name": "USPS COLLECTION BOX - PO LOBBY", "address": {"city": "JERSEY CITY", "state": "NJ", "street": "899 BERGEN AVE", "postcode": "07306"}}},
{"geometry": {"type": "Point", "coordinates": [-74.047779776, 40.748289948]}, "type": "Feature", "properties": {"collection_times": [{"days": "Mon-Fri", "time": "5:00pm"}, {"days": "Sat", "time": "3:00pm"}, {"days": "Sun", "time": "Closed"}], "id": "0730700001", "name": "USPS COLLECTION BOX - BLUE BOX", "address": {"city": "JERSEY CITY", "state": "NJ", "street": "392 CENTRAL AVE", "postcode": "07307"}}},
{"geometry": {"type": "Point", "coordinates": [-74.0475443672, 40.7467994197]}, "type": "Feature", "properties": {"collection_times": [{"days": "Mon-Sat", "time": "11:00am"}, {"days": "Sun", "time": "Closed"}], "id": "0730700003", "name": "USPS COLLECTION BOX - BLUE BOX", "address": {"city": "JERSEY CITY", "state": "NJ", "street": "80 CAMBRIDGE AVE", "postcode": "07307"}}},
{"geometry": {"type": "Point", "coordinates": [-74.0434808492, 40.7546881869]}, "type": "Feature", "properties": {"collection_times": [{"days": "Mon-Sat", "time": "11:00am"}, {"days": "Sun", "time": "Closed"}], "id": "0730700009", "name": "USPS COLLECTION BOX - BLUE BOX", "address": {"city": "JERSEY CITY", "state": "NJ", "street": "587 CENTRAL AVE", "postcode": "07307"}}},
{"geometry": {"type": "Point", "coordinates": [-74.0496961696, 40.7455218241]}, "type": "Feature", "properties": {"collection_times": [{"days": "Mon-Sat", "time": "11:00am"}, {"days": "Sun", "time": "Closed"}], "id": "0730700010", "name": "USPS COLLECTION BOX - BLUE BOX", "address": {"city": "JERSEY CITY", "state": "NJ", "street": "303 CENTRAL AVE", "postcode": "07307"}}},
{"geometry": {"type": "Point", "coordinates": [-74.0504993987, 40.7579582717]}, "type": "Feature", "properties": {"collection_times": [{"days": "Mon-Sat", "time": "11:00am"}, {"days": "Sun", "time": "Closed"}], "id": "0730700011", "name": "USPS COLLECTION BOX - BLUE BOX", "address": {"city": "JERSEY CITY", "state": "NJ", "street": "299 COLUMBIA AVE", "postcode": "07307"}}},
{"geometry": {"type": "Point", "coordinates": [-74.0467967371, 40.7559756324]}, "type": "Feature", "properties": {"collection_times": [{"days": "Mon-Sat", "time": "11:00am"}, {"days": "Sun", "time": "Closed"}], "id": "0730700014", "name": "USPS COLLECTION BOX - BLUE BOX", "address": {"city": "JERSEY CITY", "state": "NJ", "street": "3677 JOHN F KENNEDY BLVD", "postcode": "07307"}}},
{"geometry": {"type": "Point", "coordinates": [-74.0552063924, 40.7493061098]}, "type": "Feature", "properties": {"collection_times": [{"days": "Mon-Sat", "time": "11:00am"}, {"days": "Sun", "time": "Closed"}], "id": "0730700015", "name": "USPS COLLECTION BOX - BLUE BOX", "address": {"city": "JERSEY CITY", "state": "NJ", "street": "3424 JOHN F KENNEDY BLVD", "postcode": "07307"}}},
{"geometry": {"type": "Point", "coordinates": [-74.0580463499, 40.7455180943]}, "type": "Feature", "properties": {"collection_times": [{"days": "Mon-Sat", "time": "1:00pm"}, {"days": "Sun", "time": "Closed"}], "id": "0730700016", "name": "USPS COLLECTION BOX - BLUE BOX", "address": {"city": "JERSEY CITY", "state": "NJ", "street": "206 MANHATTAN AVE # 1", "postcode": "07307"}}},
{"geometry": {"type": "Point", "coordinates": [-74.0540762325, 40.7511405766]}, "type": "Feature", "properties": {"collection_times": [{"days": "Mon-Sat", "time": "1:00pm"}, {"days": "Sun", "time": "Closed"}], "id": "0730700018", "name": "USPS COLLECTION BOX - BLUE BOX", "address": {"city": "JERSEY CITY", "state": "NJ", "street": "3487 JOHN F KENNEDY BLVD", "postcode": "07307"}}},
{"geometry": {"type": "Point", "coordinates": [-74.0547403066, 40.7530927614]}, "type": "Feature", "properties": {"collection_times": [{"days": "Mon-Sat", "time": "11:00am"}, {"days": "Sun", "time": "Closed"}], "id": "0730700020", "name": "USPS COLLECTION BOX - BLUE BOX", "address": {"city": "JERSEY CITY", "state": "NJ", "street": "477 LIBERTY AVE", "postcode": "07307"}}},
{"geometry": {"type": "Point", "coordinates": [-74.0552631745, 40.7443081082]}, "type": "Feature", "properties": {"collection_times": [{"days": "Mon-Sat", "time": "11:00am"}, {"days": "Sun", "time": "Closed"}], "id": "0730700021", "name": "USPS COLLECTION BOX - BLUE BOX", "address": {"city": "JERSEY CITY", "state": "NJ", "street": "155 MANHATTAN AVE", "postcode": "07307"}}},
{"geometry": {"type": "Point", "coordinates": [-74.0492509241, 40.7577952756]}, "type": "Feature", "properties": {"collection_times": [{"days": "Mon-Sat", "time": "11:00am"}, {"days": "Sun", "time": "Closed"}], "id": "0730700023", "name": "USPS COLLECTION BOX - BLUE BOX", "address": {"city": "JERSEY CITY", "state": "NJ", "street": "174 NELSON AVE", "postcode": "07307"}}},
{"geometry": {"type": "Point", "coordinates": [-74.0482032753, 40.7389978054]}, "type": "Feature", "properties": {"collection_times": [{"days": "Mon-Sat", "time": "11:00am"}, {"days": "Sun", "time": "Closed"}], "id": "0730700025", "name": "USPS COLLECTION BOX - BLUE BOX", "address": {"city": "JERSEY CITY", "state": "NJ", "street": "32 BOORAEM AVE", "postcode": "07307"}}},
{"geometry": {"type": "Point", "coordinates": [-74.0432525921, 40.745637754]}, "type": "Feature", "properties": {"collection_times": [{"days": "Mon-Sat", "time": "11:00am"}, {"days": "Sun", "time": "Closed"}], "id": "0730700026", "name": "USPS COLLECTION BOX - BLUE BOX", "address": {"city": "JERSEY CITY", "state": "NJ", "street": "499 PALISADE AVE", "postcode": "07307"}}},
{"geometry": {"type": "Point", "coordinates": [-74.0410262633, 40.7490837135]}, "type": "Feature", "properties": {"collection_times": [{"days": "Mon-Sat", "time": "1:00pm"}, {"days": "Sun", "time": "Closed"}], "id": "0730700027", "name": "USPS COLLECTION BOX - BLUE BOX", "address": {"city": "JERSEY CITY", "state": "NJ", "street": "601 PALISADE AVE", "postcode": "07307"}}},
{"geometry": {"type": "Point", "coordinates": [-74.0455553451, 40.7488323293]}, "type": "Feature", "properties": {"collection_times": [{"days": "Mon-Sat", "time": "11:00am"}, {"days": "Sun", "time": "Closed"}], "id": "0730700029", "name": "USPS COLLECTION BOX - BLUE BOX", "address": {"city": "JERSEY CITY", "state": "NJ", "street": "183 HANCOCK AVE", "postcode": "07307"}}},
{"geometry": {"type": "Point", "coordinates": [-74.0489946749, 40.7509740819]}, "type": "Feature", "properties": {"collection_times": [{"days": "Mon-Sat", "time": "11:00am"}, {"days": "Sun", "time": "Closed"}], "id": "0730700031", "name": "USPS COLLECTION BOX - BLUE BOX", "address": {"city": "JERSEY CITY", "state": "NJ", "street": "1065 SUMMIT AVE", "postcode": "07307"}}},
{"geometry": {"type": "Point", "coordinates": [-74.0538720147, 40.7560004746]}, "type": "Feature", "properties": {"collection_times": [{"days": "Mon-Sat", "time": "11:00am"}, {"days": "Sun", "time": "Closed"}], "id": "0730700033", "name": "USPS COLLECTION BOX - BLUE BOX", "address": {"city": "JERSEY CITY", "state": "NJ", "street": "283 TERRACE AVE", "postcode": "07307"}}},
{"geometry": {"type": "Point", "coordinates": [-74.0590853149, 40.7486199936]}, "type": "Feature", "properties": {"collection_times": [{"days": "Mon-Sat", "time": "11:30am"}, {"days": "Sun", "time": "Closed"}], "id": "0730700035", "name": "USPS COLLECTION BOX - BLUE BOX", "address": {"city": "JERSEY CITY", "state": "NJ", "street": "198 ZABRISKIE ST", "postcode": "07307"}}},
{"geometry": {"type": "Point", "coordinates": [-74.047779776, 40.748289948]}, "type": "Feature", "properties": {"collection_times": [{"days": "Mon-Fri", "time": "5:00pm"}, {"days": "Sat", "time": "4:00pm"}, {"days": "Sun", "time": "Closed"}], "id": "0730700040", "name": "USPS COLLECTION BOX - PO LOBBY", "address": {"city": "JERSEY CITY", "state": "NJ", "street": "392 CENTRAL AVE", "postcode": "07307"}}},
{"geometry": {"type": "Point", "coordinates": [-74.033712028, 40.726613408]}, "type": "Feature", "properties": {"collection_times": [{"days": "Mon-Sat", "time": "1:00pm"}, {"days": "Sun", "time": "Closed"}], "id": "0731000001", "name": "USPS COLLECTION BOX - BLUE BOX", "address": {"city": "JERSEY CITY", "state": "NJ", "street": "111 PAVONIA AVE", "postcode": "07310"}}},
{"geometry": {"type": "Point", "coordinates": [-74.0376311711, 40.7336283546]}, "type": "Feature", "properties": {"collection_times": [{"days": "Mon-Sat", "time": "11:00am"}, {"days": "Sun", "time": "Closed"}], "id": "0731000009", "name": "USPS COLLECTION BOX - BLUE BOX", "address": {"city": "JERSEY CITY", "state": "NJ", "street": "125 18TH ST", "postcode": "07310"}}},
{"geometry": {"type": "Point", "coordinates": [-74.0356295, 40.7257685097]}, "type": "Feature", "properties": {"collection_times": [{"days": "Mon-Sat", "time": "1:00pm"}, {"days": "Sun", "time": "Closed"}], "id": "0731000011", "name": "USPS COLLECTION BOX - BLUE BOX", "address": {"city": "JERSEY CITY", "state": "NJ", "street": "499 WASHINGTON BLVD", "postcode": "07310"}}},
{"geometry": {"type": "Point", "coordinates": [-74.033712028, 40.726613408]}, "type": "Feature", "properties": {"collection_times": [{"days": "Mon-Sat", "time": "1:00pm"}, {"days": "Sun", "time": "Closed"}], "id": "0731000013", "name": "USPS COLLECTION BOX - BLUE BOX", "address": {"city": "JERSEY CITY", "state": "NJ", "street": "111 PAVONIA AVE", "postcode": "07310"}}}
]}
