{"type": "FeatureCollection", "features": [
{"geometry": {"type": "Point", "coordinates": [-74.114891404, 41.0373885577]}, "type": "Feature", "properties": {"collection_times": [{"days": "Mon-Sat", "time": "10:30am"}, {"days": "Sun", "time": "Closed"}], "id": "0740100006", "name": "USPS COLLECTION BOX - BLUE BOX", "address": {"city": "ALLENDALE", "state": "NJ", "street": "90 BOROLINE RD", "postcode": "07401"}}},
{"geometry": {"type": "Point", "coordinates": [-74.1368388417, 41.0309071255]}, "type": "Feature", "properties": {"collection_times": [{"days": "Mon-Sat", "time": "10:30am"}, {"days": "Sun", "time": "Closed"}], "id": "0740100007", "name": "USPS COLLECTION BOX - BLUE BOX", "address": {"city": "ALLENDALE", "state": "NJ", "street": "500 W CRESCENT AVE", "postcode": "07401"}}},
{"geometry": {"type": "Point", "coordinates": [-74.1298901408, 41.0311449002]}, "type": "Feature", "properties": {"collection_times": [{"days": "Mon-Fri", "time": "5:00pm"}, {"days": "Sat", "time": "3:00pm"}, {"days": "Sun", "time": "Closed"}], "id": "0740100009", "name": "USPS COLLECTION BOX - BLUE BOX", "address": {"city": "ALLENDALE", "state": "NJ", "street": "2 MYRTLE AVE", "postcode": "07401"}}},
{"geometry": {"type": "Point", "coordinates": [-74.1323559956, 41.0315634419]}, "type": "Feature", "properties": {"collection_times": [{"days": "Mon-Fri", "time": "5:00pm"}, {"days": "Sat", "time": "3:00pm"}, {"days": "Sun", "time": "Closed"}], "id": "0740100010", "name": "USPS COLLECTION BOX - EXPRESS", "address": {"city": "ALLENDALE", "state": "NJ", "street": "2 MYRTLE AVE", "postcode": "07401"}}},
{"geometry": {"type": "Point", "coordinates": [-74.1298901408, 41.0311449002]}, "type": "Feature", "properties": {"collection_times": [{"days": "Mon-Fri", "time": "5:00pm"}, {"days": "Sat", "time": "3:00pm"}, {"days": "Sun", "time": "Closed"}], "id": "0740100011", "name": "USPS COLLECTION BOX - BLUE BOX", "address": {"city": "ALLENDALE", "state": "NJ", "street": "2 MYRTLE AVE", "postcode": "07401"}}},
{"geometry": {"type": "Point", "coordinates": [-74.1272494478, 41.0289740711]}, "type": "Feature", "properties": {"collection_times": [{"days": "Mon-Sat", "time": "10:30am"}, {"days": "Sun", "time": "Closed"}], "id": "0740100014", "name": "USPS COLLECTION BOX - BLUE BOX", "address": {"city": "ALLENDALE", "state": "NJ", "street": "49 DEMERCURIO DR", "postcode": "07401"}}},
{"geometry": {"type": "Point", "coordinates": [-74.1298901408, 41.0311449002]}, "type": "Feature", "properties": {"collection_times": [{"days": "Mon-Fri", "time": "5:00pm"}, {"days": "Sat", "time": "12:00pm"}, {"days": "Sun", "time": "Closed"}], "id": "0740100017", "name": "USPS COLLECTION BOX - PO LOBBY", "address": {"city": "ALLENDALE", "state": "NJ", "street": "2 MYRTLE AVE", "postcode": "07401"}}},
{"geometry": {"type": "Point", "coordinates": [-74.339202681, 41.0080509095]}, "type": "Feature", "properties": {"collection_times": [{"days": "Mon-Sat", "time": "9:30am"}, {"days": "Sun", "time": "Closed"}], "id": "0740300001", "name": "USPS COLLECTION BOX - BLUE BOX", "address": {"city": "BLOOMINGDALE", "state": "NJ", "street": "101 HAMBURG TPKE", "postcode": "07403"}}},
{"geometry": {"type": "Point", "coordinates": [-74.3363171725, 41.0149350504]}, "type": "Feature", "properties": {"collection_times": [{"days": "Mon-Sat", "time": "10:00am"}, {"days": "Sun", "time": "Closed"}], "id": "0740300002", "name": "USPS COLLECTION BOX - BLUE BOX", "address": {"city": "BLOOMINGDALE", "state": "NJ", "street": "138 GLENWILD AVE", "postcode": "07403"}}},
{"geometry": {"type": "Point", "coordinates": [-74.3257431929, 41.0112700067]}, "type": "Feature", "properties": {"collection_times": [{"days": "Mon-Sat", "time": "10:00am"}, {"days": "Sun", "time": "Closed"}], "id": "0740300003", "name": "USPS COLLECTION BOX - BLUE BOX", "address": {"city": "BLOOMINGDALE", "state": "NJ", "street": "59 KNOLLS RD", "postcode": "07403"}}},
{"geometry": {"type": "Point", "coordinates": [-74.3331686263, 41.0036623976]}, "type": "Feature", "properties": {"collection_times": [{"days": "Mon-Fri", "time": "5:00pm"}, {"days": "Sat", "time": "12:30pm"}, {"days": "Sun", "time": "Closed"}], "id": "0740300005", "name": "USPS COLLECTION BOX - BLUE BOX", "address": {"city": "BLOOMINGDALE", "state": "NJ", "street": "126 MAIN ST", "postcode": "07403"}}},
{"geometry": {"type": "Point", "coordinates": [-74.329316912, 41.0027870079]}, "type": "Feature", "properties": {"collection_times": [{"days": "Mon-Sat", "time": "10:00am"}, {"days": "Sun", "time": "Closed"}], "id": "0740300006", "name": "USPS COLLECTION BOX - BLUE BOX", "address": {"city": "BLOOMINGDALE", "state": "NJ", "street": "78 MAIN ST", "postcode": "07403"}}},
{"geometry": {"type": "Point", "coordinates": [-74.3227604794, 41.0014962028]}, "type": "Feature", "properties": {"collection_times": [{"days": "Mon-Sat", "time": "10:00am"}, {"days": "Sun", "time": "Closed"}], "id": "0740300008", "name": "USPS COLLECTION BOX - BLUE BOX", "address": {"city": "BLOOMINGDALE", "state": "NJ", "street": "9 MAIN ST", "postcode": "07403"}}},
{"geometry": {"type": "Point", "coordinates": [-74.3553048967, 41.0148561231]}, "type": "Feature", "properties": {"collection_times": [{"days": "Mon-Sat", "time": "10:00am"}, {"days": "Sun", "time": "Closed"}], "id": "0740300010", "name": "USPS COLLECTION BOX - BLUE BOX", "address": {"city": "BLOOMINGDALE", "state": "NJ", "street": "6 TREETOP CT", "postcode": "07403"}}},
{"geometry": {"type": "Point", "coordinates": [-74.3331686263, 41.0036623976]}, "type": "Feature", "properties": {"collection_times": [{"days": "Mon-Fri", "time": "5:00pm"}, {"days": "Sat", "time": "12:30pm"}, {"days": "Sun", "time": "Closed"}], "id": "0740300012", "name": "USPS COLLECTION BOX - PO LOBBY", "address": {"city": "BLOOMINGDALE", "state": "NJ", "street": "126 MAIN ST", "postcode": "07403"}}},
{"geometry": {"type": "Point", "coordinates": [-74.3413759956, 40.9908438542]}, "type": "Feature", "properties": {"collection_times": [{"days": "Mon-Fri", "time": "4:00pm"}, {"days": "Sat", "time": "10:00am"}, {"days": "Sun", "time": "Closed"}], "id": "0740500002", "name": "USPS COLLECTION BOX - BLUE BOX", "address": {"city": "KINNELON", "state": "NJ", "street": "1250 STATE RT 23", "postcode": "07405"}}},
{"geometry": {"type": "Point", "coordinates": [-74.3785504811, 40.9960950091]}, "type": "Feature", "properties": {"collection_times": [{"days": "Mon-Fri", "time": "4:00pm"}, {"days": "Sat", "time": "10:00am"}, {"days": "Sun", "time": "Closed"}], "id": "0740500003", "name": "USPS COLLECTION BOX - BLUE BOX", "address": {"city": "KINNELON", "state": "NJ", "street": "130 KINNELON RD", "postcode": "07405"}}},
{"geometry": {"type": "Point", "coordinates": [-74.365726241, 40.9949828405]}, "type": "Feature", "properties": {"collection_times": [{"days": "Mon-Fri", "time": "4:00pm"}, {"days": "Sat", "time": "1:00pm"}, {"days": "Sun", "time": "Closed"}], "id": "0740500004", "name": "USPS COLLECTION BOX - EXPRESS", "address": {"city": "KINNELON", "state": "NJ", "street": "1375 STATE RT 23", "postcode": "07405"}}},
{"geometry": {"type": "Point", "coordinates": [-74.3586701704, 41.0058205591]}, "type": "Feature", "properties": {"collection_times": [{"days": "Mon-Fri", "time": "4:00pm"}, {"days": "Sat", "time": "10:00am"}, {"days": "Sun", "time": "Closed"}], "id": "0740500005", "name": "USPS COLLECTION BOX - BLUE BOX", "address": {"city": "KINNELON", "state": "NJ", "street": "1501 STATE ROUTE 23 S", "postcode": "07405"}}},
{"geometry": {"type": "Point", "coordinates": [-74.3570703122, 41.003102858]}, "type": "Feature", "properties": {"collection_times": [{"days": "Mon-Sat", "time": "10:30am"}, {"days": "Sun", "time": "Closed"}], "id": "0740500006", "name": "USPS COLLECTION BOX - BLUE BOX", "address": {"city": "KINNELON", "state": "NJ", "street": "1510 STATE RT 23", "postcode": "07405"}}},
{"geometry": {"type": "Point", "coordinates": [-74.3844756922, 40.9893051484]}, "type": "Feature", "properties": {"collection_times": [{"days": "Mon-Fri", "time": "4:00pm"}, {"days": "Sat", "time": "10:00am"}, {"days": "Sun", "time": "Closed"}], "id": "0740500007", "name": "USPS COLLECTION BOX - BLUE BOX", "address": {"city": "KINNELON", "state": "NJ", "street": "170 KINNELON RD", "postcode": "07405"}}},
{"geometry": {"type": "Point", "coordinates": [-74.3432344242, 40.99353272]}, "type": "Feature", "properties": {"collection_times": [{"days": "Mon-Sat", "time": "10:30am"}, {"days": "Sun", "time": "Closed"}], "id": "0740500008", "name": "USPS COLLECTION BOX - BLUE BOX", "address": {"city": "KINNELON", "state": "NJ", "street": "174 BOONTON AVE", "postcode": "07405"}}},
{"geometry": {"type": "Point", "coordinates": [-74.3607729738, 41.0037179966]}, "type": "Feature", "properties": {"collection_times": [{"days": "Mon-Sat", "time": "10:30am"}, {"days": "Sun", "time": "Closed"}], "id": "0740500009", "name": "USPS COLLECTION BOX - BLUE BOX", "address": {"city": "KINNELON", "state": "NJ", "street": "25 KINNELON RD", "postcode": "07405"}}},
{"geometry": {"type": "Point", "coordinates": [-74.3396368624, 41.0013722339]}, "type": "Feature", "properties": {"collection_times": [{"days": "Mon-Sat", "time": "10:30am"}, {"days": "Sun", "time": "Closed"}], "id": "0740500010", "name": "USPS COLLECTION BOX - BLUE BOX", "address": {"city": "KINNELON", "state": "NJ", "street": "10 HIGH ST", "postcode": "07405"}}},
{"geometry": {"type": "Point", "coordinates": [-74.3406756839, 41.0029455244]}, "type": "Feature", "properties": {"collection_times": [{"days": "Mon-Fri", "time": "5:00pm"}, {"days": "Sat", "time": "1:00pm"}, {"days": "Sun", "time": "Closed"}], "id": "0740500011", "name": "USPS COLLECTION BOX - BLUE BOX", "address": {"city": "KINNELON", "state": "NJ", "street": "180 MAIN ST", "postcode": "07405"}}},
{"geometry": {"type": "Point", "coordinates": [-74.3406756839, 41.0029455244]}, "type": "Feature", "properties": {"collection_times": [{"days": "Mon-Fri", "time": "5:00pm"}, {"days": "Sat", "time": "1:00pm"}, {"days": "Sun", "time": "Closed"}], "id": "0740500012", "name": "USPS COLLECTION BOX - BLUE BOX", "address": {"city": "KINNELON", "state": "NJ", "street": "180 MAIN ST", "postcode": "07405"}}},
{"geometry": {"type": "Point", "coordinates": [-74.3655795805, 41.0102533773]}, "type": "Feature", "properties": {"collection_times": [{"days": "Mon-Sat", "time": "10:30am"}, {"days": "Sun", "time": "Closed"}], "id": "0740500013", "name": "USPS COLLECTION BOX - BLUE BOX", "address": {"city": "KINNELON", "state": "NJ", "street": "1607 STATE RT 23", "postcode": "07405"}}},
{"geometry": {"type": "Point", "coordinates": [-74.365726241, 40.9949828405]}, "type": "Feature", "properties": {"collection_times": [{"days": "Mon-Fri", "time": "4:00pm"}, {"days": "Sat", "time": "10:00am"}, {"days": "Sun", "time": "Closed"}], "id": "0740500015", "name": "USPS COLLECTION BOX - EXPRESS", "address": {"city": "KINNELON", "state": "NJ", "street": "11 KIEL AVE", "postcode": "07405"}}},
{"geometry": {"type": "Point", "coordinates": [-74.3406756839, 41.0029455244]}, "type": "Feature", "properties": {"collection_times": [{"days": "Mon-Fri", "time": "5:00pm"}, {"days": "Sat", "time": "2:00pm"}, {"days": "Sun", "time": "Closed"}], "id": "0740500016", "name": "USPS COLLECTION BOX - PO LOBBY", "address": {"city": "KINNELON", "state": "NJ", "street": "180 MAIN ST STE A", "postcode": "07405"}}},
{"geometry": {"type": "Point", "coordinates": [-74.1122841625, 40.8990072009]}, "type": "Feature", "properties": {"collection_times": [{"days": "Mon-Sat", "time": "10:00am"}, {"days": "Sun", "time": "Closed"}], "id": "0740700003", "name": "USPS COLLECTION BOX - BLUE BOX", "address": {"city": "ELMWOOD PARK", "state": "NJ", "street": "430 MARKET ST", "postcode": "07407"}}},
{"geometry": {"type": "Point", "coordinates": [-74.1253109066, 40.9238564369]}, "type": "Feature", "properties": {"collection_times": [{"days": "Mon-Sat", "time": "10:00am"}, {"days": "Sun", "time": "Closed"}], "id": "0740700005", "name": "USPS COLLECTION BOX - BLUE BOX", "address": {"city": "ELMWOOD PARK", "state": "NJ", "street": "88 WILLOW ST", "postcode": "07407"}}},
{"geometry": {"type": "Point", "coordinates": [-74.1173018037, 40.9211188932]}, "type": "Feature", "properties": {"collection_times": [{"days": "Mon-Sat", "time": "10:00am"}, {"days": "Sun", "time": "Closed"}], "id": "0740700010", "name": "USPS COLLECTION BOX - BLUE BOX", "address": {"city": "ELMWOOD PARK", "state": "NJ", "street": "280 BROADWAY", "postcode": "07407"}}},
{"geometry": {"type": "Point", "coordinates": [-74.1263703608, 40.8995125312]}, "type": "Feature", "properties": {"collection_times": [{"days": "Mon-Fri", "time": "3:00pm"}, {"days": "Sat", "time": "10:00am"}, {"days": "Sun", "time": "Closed"}], "id": "0740700012", "name": "USPS COLLECTION BOX - BLUE BOX", "address": {"city": "ELMWOOD PARK", "state": "NJ", "street": "611 RIVER DR", "postcode": "07407"}}},
{"geometry": {"type": "Point", "coordinates": [-74.1265624772, 40.90520354]}, "type": "Feature", "properties": {"collection_times": [{"days": "Mon-Sat", "time": "10:00am"}, {"days": "Sun", "time": "Closed"}], "id": "0740700014", "name": "USPS COLLECTION BOX - BLUE BOX", "address": {"city": "ELMWOOD PARK", "state": "NJ", "street": "251 ELM ST", "postcode": "07407"}}},
{"geometry": {"type": "Point", "coordinates": [-74.1281199609, 40.9134545089]}, "type": "Feature", "properties": {"collection_times": [{"days": "Mon-Sat", "time": "10:00am"}, {"days": "Sun", "time": "Closed"}], "id": "0740700015", "name": "USPS COLLECTION BOX - BLUE BOX", "address": {"city": "ELMWOOD PARK", "state": "NJ", "street": "106 ELMWOOD DR", "postcode": "07407"}}},
{"geometry": {"type": "Point", "coordinates": [-74.122444597, 40.9134251048]}, "type": "Feature", "properties": {"collection_times": [{"days": "Mon-Sat", "time": "10:00am"}, {"days": "Sun", "time": "Closed"}], "id": "0740700020", "name": "USPS COLLECTION BOX - BLUE BOX", "address": {"city": "ELMWOOD PARK", "state": "NJ", "street": "201 LINCOLN AVE", "postcode": "07407"}}},
{"geometry": {"type": "Point", "coordinates": [-74.1191914544, 40.9068162893]}, "type": "Feature", "properties": {"collection_times": [{"days": "Mon-Fri", "time": "5:00pm"}, {"days": "Sat", "time": "4:00pm"}, {"days": "Sun", "time": "Closed"}], "id": "0740700023", "name": "USPS COLLECTION BOX - BLUE BOX", "address": {"city": "ELMWOOD PARK", "state": "NJ", "street": "335 BOULEVARD UNIT 1", "postcode": "07407"}}},
{"geometry": {"type": "Point", "coordinates": [-74.1200856914, 40.9003737097]}, "type": "Feature", "properties": {"collection_times": [{"days": "Mon-Sat", "time": "10:00am"}, {"days": "Sun", "time": "Closed"}], "id": "0740700025", "name": "USPS COLLECTION BOX - BLUE BOX", "address": {"city": "ELMWOOD PARK", "state": "NJ", "street": "249 MARKET ST", "postcode": "07407"}}},
{"geometry": {"type": "Point", "coordinates": [-74.1239266179, 40.9009030392]}, "type": "Feature", "properties": {"collection_times": [{"days": "Mon-Fri", "time": "3:00pm"}, {"days": "Sat", "time": "10:00am"}, {"days": "Sun", "time": "Closed"}], "id": "0740700027", "name": "USPS COLLECTION BOX - BLUE BOX", "address": {"city": "ELMWOOD PARK", "state": "NJ", "street": "180 MARKET ST", "postcode": "07407"}}},
{"geometry": {"type": "Point", "coordinates": [-74.1237605651, 40.8899417974]}, "type": "Feature", "properties": {"collection_times": [{"days": "Mon-Sat", "time": "10:00am"}, {"days": "Sun", "time": "Closed"}], "id": "0740700029", "name": "USPS COLLECTION BOX - BLUE BOX", "address": {"city": "ELMWOOD PARK", "state": "NJ", "street": "101 MARTHA AVE", "postcode": "07407"}}},
{"geometry": {"type": "Point", "coordinates": [-74.1262466271, 40.8987327544]}, "type": "Feature", "properties": {"collection_times": [{"days": "Mon-Fri", "time": "3:00pm"}, {"days": "Sat", "time": "10:00am"}, {"days": "Sun", "time": "Closed"}], "id": "0740700033", "name": "USPS COLLECTION BOX - BLUE BOX", "address": {"city": "ELMWOOD PARK", "state": "NJ", "street": "619 RIVER DR", "postcode": "07407"}}},
{"geometry": {"type": "Point", "coordinates": [-74.1260971428, 40.8984415759]}, "type": "Feature", "properties": {"collection_times": [{"days": "Mon-Fri", "time": "3:00pm"}, {"days": "Sat", "time": "10:00am"}, {"days": "Sun", "time": "Closed"}], "id": "0740700034", "name": "USPS COLLECTION BOX - BLUE BOX", "address": {"city": "ELMWOOD PARK", "state": "NJ", "street": "669 RIVER DR", "postcode": "07407"}}},
{"geometry": {"type": "Point", "coordinates": [-74.1143283156, 40.8963656535]}, "type": "Feature", "properties": {"collection_times": [{"days": "Mon-Sat", "time": "10:00am"}, {"days": "Sun", "time": "Closed"}], "id": "0740700035", "name": "USPS COLLECTION BOX - BLUE BOX", "address": {"city": "ELMWOOD PARK", "state": "NJ", "street": "618 BOULEVARD", "postcode": "07407"}}},
{"geometry": {"type": "Point", "coordinates": [-74.1191914544, 40.9068162893]}, "type": "Feature", "properties": {"collection_times": [{"days": "Mon-Fri", "time": "5:00pm"}, {"days": "Sat", "time": "4:00pm"}, {"days": "Sun", "time": "Closed"}], "id": "0740700037", "name": "USPS COLLECTION BOX - BLUE BOX", "address": {"city": "ELMWOOD PARK", "state": "NJ", "street": "335 BOULEVARD UNIT 2", "postcode": "07407"}}},
{"geometry": {"type": "Point", "coordinates": [-74.1098354374, 40.8985955312]}, "type": "Feature", "properties": {"collection_times": [{"days": "Mon-Sat", "time": "10:00am"}, {"days": "Sun", "time": "Closed"}], "id": "0740700038", "name": "USPS COLLECTION BOX - BLUE BOX", "address": {"city": "ELMWOOD PARK", "state": "NJ", "street": "475 MARKET ST", "postcode": "07407"}}},
{"geometry": {"type": "Point", "coordinates": [-74.1295031092, 40.9182172875]}, "type": "Feature", "properties": {"collection_times": [{"days": "Mon-Sat", "time": "10:00am"}, {"days": "Sun", "time": "Closed"}], "id": "0740700039", "name": "USPS COLLECTION BOX - BLUE BOX", "address": {"city": "ELMWOOD PARK", "state": "NJ", "street": "1 BROADWAY", "postcode": "07407"}}},
{"geometry": {"type": "Point", "coordinates": [-74.1191914544, 40.9068162893]}, "type": "Feature", "properties": {"collection_times": [{"days": "Mon-Fri", "time": "5:00pm"}, {"days": "Sat", "time": "4:00pm"}, {"days": "Sun", "time": "Closed"}], "id": "0740700040", "name": "USPS COLLECTION BOX - PO LOBBY", "address": {"city": "ELMWOOD PARK", "state": "NJ", "street": "335 BOULEVARD", "postcode": "07407"}}},
{"geometry": {"type": "Point", "coordinates": [-74.1270226482, 40.9317160163]}, "type": "Feature", "properties": {"collection_times": [{"days": "Mon-Fri", "time": "9:00am"}, {"days": "Sat", "time": "10:00am"}, {"days": "Sun", "time": "Closed"}], "id": "0741000001", "name": "USPS COLLECTION BOX - BLUE BOX", "address": {"city": "FAIRLAWN", "state": "NJ", "street": "11-12 SADDLE RIVER RD", "postcode": "07410"}}},
{"geometry": {"type": "Point", "coordinates": [-74.1272398189, 40.9445222331]}, "type": "Feature", "properties": {"collection_times": [{"days": "Mon-Fri", "time": "9:00am"}, {"days": "Sat", "time": "10:00am"}, {"days": "Sun", "time": "Closed"}], "id": "0741000003", "name": "USPS COLLECTION BOX - BLUE BOX", "address": {"city": "FAIRLAWN", "state": "NJ", "street": "16-00 POLLITT DR", "postcode": "07410"}}},
{"geometry": {"type": "Point", "coordinates": [-74.1302343534, 40.9430930495]}, "type": "Feature", "properties": {"collection_times": [{"days": "Mon-Fri", "time": "9:00am"}, {"days": "Sat", "time": "10:00am"}, {"days": "Sun", "time": "Closed"}], "id": "0741000005", "name": "USPS COLLECTION BOX - BLUE BOX", "address": {"city": "FAIRLAWN", "state": "NJ", "street": "16-00 ROUTE 208", "postcode": "07410"}}},
{"geometry": {"type": "Point", "coordinates": [-74.1394981219, 40.9386742115]}, "type": "Feature", "properties": {"collection_times": [{"days": "Mon-Fri", "time": "9:00am"}, {"days": "Sat", "time": "10:00am"}, {"days": "Sun", "time": "Closed"}], "id": "0741000007", "name": "USPS COLLECTION BOX - BLUE BOX", "address": {"city": "FAIRLAWN", "state": "NJ", "street": "17-71 RIVER RD", "postcode": "07410"}}},
{"geometry": {"type": "Point", "coordinates": [-74.1177556996, 40.9358942988]}, "type": "Feature", "properties": {"collection_times": [{"days": "Mon-Fri", "time": "9:00am"}, {"days": "Sat", "time": "10:00am"}, {"days": "Sun", "time": "Closed"}], "id": "0741000010", "name": "USPS COLLECTION BOX - BLUE BOX", "address": {"city": "FAIRLAWN", "state": "NJ", "street": "20-21 WAGARAW RD", "postcode": "07410"}}},
{"geometry": {"type": "Point", "coordinates": [-74.1400151151, 40.9451564999]}, "type": "Feature", "properties": {"collection_times": [{"days": "Mon-Fri", "time": "9:00am"}, {"days": "Sat", "time": "10:00am"}, {"days": "Sun", "time": "Closed"}], "id": "0741000012", "name": "USPS COLLECTION BOX - BLUE BOX", "address": {"city": "FAIRLAWN", "state": "NJ", "street": "22-00 MAPLE AVE", "postcode": "07410"}}},
{"geometry": {"type": "Point", "coordinates": [-74.1091378809, 40.9234528427]}, "type": "Feature", "properties": {"collection_times": [{"days": "Mon-Fri", "time": "9:00am"}, {"days": "Sat", "time": "10:00am"}, {"days": "Sun", "time": "Closed"}], "id": "0741000016", "name": "USPS COLLECTION BOX - BLUE BOX", "address": {"city": "FAIRLAWN", "state": "NJ", "street": "26-07 BROADWAY", "postcode": "07410"}}},
{"geometry": {"type": "Point", "coordinates": [-74.1325718191, 40.9458175429]}, "type": "Feature", "properties": {"collection_times": [{"days": "Mon-Fri", "time": "9:00am"}, {"days": "Sat", "time": "10:00am"}, {"days": "Sun", "time": "Closed"}], "id": "0741000018", "name": "USPS COLLECTION BOX - BLUE BOX", "address": {"city": "FAIRLAWN", "state": "NJ", "street": "21-00 ROUTE 208", "postcode": "07410"}}},
{"geometry": {"type": "Point", "coordinates": [-74.1194997244, 40.9211350158]}, "type": "Feature", "properties": {"collection_times": [{"days": "Mon-Fri", "time": "9:00am"}, {"days": "Sat", "time": "10:00am"}, {"days": "Sun", "time": "Closed"}], "id": "0741000019", "name": "USPS COLLECTION BOX - BLUE BOX", "address": {"city": "FAIRLAWN", "state": "NJ", "street": "1-24 LYNCREST AVE", "postcode": "07410"}}},
{"geometry": {"type": "Point", "coordinates": [-74.1068697593, 40.9196675792]}, "type": "Feature", "properties": {"collection_times": [{"days": "Mon-Fri", "time": "9:00am"}, {"days": "Sat", "time": "10:00am"}, {"days": "Sun", "time": "Closed"}], "id": "0741000024", "name": "USPS COLLECTION BOX - BLUE BOX", "address": {"city": "FAIRLAWN", "state": "NJ", "street": "5-27 DORTHEY ST", "postcode": "07410"}}},
{"geometry": {"type": "Point", "coordinates": [-74.12331981, 40.9384068556]}, "type": "Feature", "properties": {"collection_times": [{"days": "Mon-Fri", "time": "9:00am"}, {"days": "Sat", "time": "10:00am"}, {"days": "Sun", "time": "Closed"}], "id": "0741000026", "name": "USPS COLLECTION BOX - BLUE BOX", "address": {"city": "FAIRLAWN", "state": "NJ", "street": "19-20 FAIRLAWN AVE", "postcode": "07410"}}},
{"geometry": {"type": "Point", "coordinates": [-74.1085343082, 40.923410682]}, "type": "Feature", "properties": {"collection_times": [{"days": "Mon-Fri", "time": "9:00am"}, {"days": "Sat", "time": "10:00am"}, {"days": "Sun", "time": "Closed"}], "id": "0741000027", "name": "USPS COLLECTION BOX - BLUE BOX", "address": {"city": "FAIRLAWN", "state": "NJ", "street": "27-02 BROADWAY", "postcode": "07410"}}},
{"geometry": {"type": "Point", "coordinates": [-74.1187851064, 40.9405640658]}, "type": "Feature", "properties": {"collection_times": [{"days": "Mon-Fri", "time": "5:00pm"}, {"days": "Sat", "time": "2:00pm"}, {"days": "Sun", "time": "Closed"}], "id": "0741000037", "name": "USPS COLLECTION BOX - BLUE BOX", "address": {"city": "FAIRLAWN", "state": "NJ", "street": "14-24 ABBOTT RD # 1", "postcode": "07410"}}},
{"geometry": {"type": "Point", "coordinates": [-74.116700562, 40.9292148487]}, "type": "Feature", "properties": {"collection_times": [{"days": "Mon-Fri", "time": "9:00am"}, {"days": "Sat", "time": "10:00am"}, {"days": "Sun", "time": "Closed"}], "id": "0741000041", "name": "USPS COLLECTION BOX - BLUE BOX", "address": {"city": "FAIRLAWN", "state": "NJ", "street": "5-23 BANTA PL", "postcode": "07410"}}},
{"geometry": {"type": "Point", "coordinates": [-74.1362925353, 40.9252903072]}, "type": "Feature", "properties": {"collection_times": [{"days": "Mon-Fri", "time": "9:00am"}, {"days": "Sat", "time": "10:00am"}, {"days": "Sun", "time": "Closed"}], "id": "0741000042", "name": "USPS COLLECTION BOX - BLUE BOX", "address": {"city": "FAIRLAWN", "state": "NJ", "street": "6-08 ESSEX PL", "postcode": "07410"}}},
{"geometry": {"type": "Point", "coordinates": [-74.1267492394, 40.9430875187]}, "type": "Feature", "properties": {"collection_times": [{"days": "Mon-Fri", "time": "9:00am"}, {"days": "Sat", "time": "10:00am"}, {"days": "Sun", "time": "Closed"}], "id": "0741000049", "name": "USPS COLLECTION BOX - BLUE BOX", "address": {"city": "FAIRLAWN", "state": "NJ", "street": "13-25 POLLITT DR", "postcode": "07410"}}},
{"geometry": {"type": "Point", "coordinates": [-74.1348140078, 40.9374473082]}, "type": "Feature", "properties": {"collection_times": [{"days": "Mon-Fri", "time": "9:00am"}, {"days": "Sat", "time": "10:00am"}, {"days": "Sun", "time": "Closed"}], "id": "0741000053", "name": "USPS COLLECTION BOX - BLUE BOX", "address": {"city": "FAIRLAWN", "state": "NJ", "street": "7-26 CAMPBELL RD", "postcode": "07410"}}},
{"geometry": {"type": "Point", "coordinates": [-74.1298597081, 40.9270904622]}, "type": "Feature", "properties": {"collection_times": [{"days": "Mon-Fri", "time": "9:00am"}, {"days": "Sat", "time": "10:00am"}, {"days": "Sun", "time": "Closed"}], "id": "0741000055", "name": "USPS COLLECTION BOX - BLUE BOX", "address": {"city": "FAIRLAWN", "state": "NJ", "street": "7-13 RIVER RD", "postcode": "07410"}}},
{"geometry": {"type": "Point", "coordinates": [-74.132430879, 40.9323582932]}, "type": "Feature", "properties": {"collection_times": [{"days": "Mon-Fri", "time": "5:00pm"}, {"days": "Sat", "time": "2:00pm"}, {"days": "Sun", "time": "Closed"}], "id": "0741000056", "name": "USPS COLLECTION BOX - BLUE BOX", "address": {"city": "FAIRLAWN", "state": "NJ", "street": "12-44 RIVER RD", "postcode": "07410"}}},
{"geometry": {"type": "Point", "coordinates": [-74.1058775181, 40.924094903]}, "type": "Feature", "properties": {"collection_times": [{"days": "Mon-Fri", "time": "5:00pm"}, {"days": "Sat", "time": "2:00pm"}, {"days": "Sun", "time": "Closed"}], "id": "0741000060", "name": "USPS COLLECTION BOX - BLUE BOX", "address": {"city": "FAIRLAWN", "state": "NJ", "street": "30-10 BROADWAY", "postcode": "07410"}}},
{"geometry": {"type": "Point", "coordinates": [-74.1187851064, 40.9405640658]}, "type": "Feature", "properties": {"collection_times": [{"days": "Mon-Fri", "time": "5:00pm"}, {"days": "Sat", "time": "2:00pm"}, {"days": "Sun", "time": "Closed"}], "id": "0741000066", "name": "USPS COLLECTION BOX - BLUE BOX", "address": {"city": "FAIRLAWN", "state": "NJ", "street": "14-24 ABBOTT RD # 3", "postcode": "07410"}}},
{"geometry": {"type": "Point", "coordinates": [-74.1187851064, 40.9405640658]}, "type": "Feature", "properties": {"collection_times": [{"days": "Mon-Fri", "time": "5:00pm"}, {"days": "Sat", "time": "2:00pm"}, {"days": "Sun", "time": "Closed"}], "id": "0741000067", "name": "USPS COLLECTION BOX - BLUE BOX", "address": {"city": "FAIRLAWN", "state": "NJ", "street": "14-24 ABBOTT RD # 4", "postcode": "07410"}}},
{"geometry": {"type": "Point", "coordinates": [-74.132005603, 40.9361148224]}, "type": "Feature", "properties": {"collection_times": [{"days": "Mon-Fri", "time": "9:00am"}, {"days": "Sat", "time": "10:00am"}, {"days": "Sun", "time": "Closed"}], "id": "0741000068", "name": "USPS COLLECTION BOX - BLUE BOX", "address": {"city": "FAIRLAWN", "state": "NJ", "street": "8-01 FAIR LAWN AVE", "postcode": "07410"}}},
{"geometry": {"type": "Point", "coordinates": [-74.1187851064, 40.9405640658]}, "type": "Feature", "properties": {"collection_times": [{"days": "Mon-Fri", "time": "5:00pm"}, {"days": "Sat", "time": "1:00pm"}, {"days": "Sun", "time": "Closed"}], "id": "0741000069", "name": "USPS COLLECTION BOX - PO LOBBY", "address": {"city": "FAIRLAWN", "state": "NJ", "street": "14-24 ABBOTT RD", "postcode": "07410"}}},
{"geometry": {"type": "Point", "coordinates": [-74.132430879, 40.9323582932]}, "type": "Feature", "properties": {"collection_times": [{"days": "Mon-Fri", "time": "3:30pm"}, {"days": "Sat-Sun", "time": "Closed"}], "id": "0741000070", "name": "USPS COLLECTION BOX - PO LOBBY", "address": {"city": "FAIRLAWN", "state": "NJ", "street": "12-44 RIVER RD STE 1", "postcode": "07410"}}},
{"geometry": {"type": "Point", "coordinates": [-74.1058775181, 40.924094903]}, "type": "Feature", "properties": {"collection_times": [{"days": "Mon-Fri", "time": "3:30pm"}, {"days": "Sat-Sun", "time": "Closed"}], "id": "0741000071", "name": "USPS COLLECTION BOX - PO LOBBY", "address": {"city": "FAIRLAWN", "state": "NJ", "street": "30-10 BROADWAY", "postcode": "07410"}}},
{"geometry": {"type": "Point", "coordinates": [-74.5812735892, 41.1147514551]}, "type": "Feature", "properties": {"collection_times": [{"days": "Mon-Sat", "time": "11:00am"}, {"days": "Sun", "time": "Closed"}], "id": "0741600002", "name": "USPS COLLECTION BOX - BLUE BOX", "address": {"city": "FRANKLIN", "state": "NJ", "street": "300 ROUTE 23", "postcode": "07416"}}},
{"geometry": {"type": "Point", "coordinates": [-74.5799737658, 41.120561415]}, "type": "Feature", "properties": {"collection_times": [{"days": "Mon-Sat", "time": "11:00am"}, {"days": "Sun", "time": "Closed"}], "id": "0741600003", "name": "USPS COLLECTION BOX - BLUE BOX", "address": {"city": "FRANKLIN", "state": "NJ", "street": "399 ROUTE 23", "postcode": "07416"}}},
{"geometry": {"type": "Point", "coordinates": [-74.5818929642, 41.1255320023]}, "type": "Feature", "properties": {"collection_times": [{"days": "Mon-Sat", "time": "11:00am"}, {"days": "Sun", "time": "Closed"}], "id": "0741600004", "name": "USPS COLLECTION BOX - BLUE BOX", "address": {"city": "FRANKLIN", "state": "NJ", "street": "46 MAIN ST", "postcode": "07416"}}},
{"geometry": {"type": "Point", "coordinates": [-74.5805907926, 41.1127830685]}, "type": "Feature", "properties": {"collection_times": [{"days": "Mon-Fri", "time": "5:00pm"}, {"days": "Sat", "time": "1:30pm"}, {"days": "Sun", "time": "Closed"}], "id": "0741600006", "name": "USPS COLLECTION BOX - BLUE BOX", "address": {"city": "FRANKLIN", "state": "NJ", "street": "270 ROUTE 23", "postcode": "07416"}}},
{"geometry": {"type": "Point", "coordinates": [-74.5806211832, 41.1128444699]}, "type": "Feature", "properties": {"collection_times": [{"days": "Mon-Fri", "time": "5:00pm"}, {"days": "Sat", "time": "1:30pm"}, {"days": "Sun", "time": "Closed"}], "id": "0741600007", "name": "USPS COLLECTION BOX - PO LOBBY", "address": {"city": "FRANKLIN", "state": "NJ", "street": "270K STATE RT 23", "postcode": "07416"}}},
{"geometry": {"type": "Point", "coordinates": [-74.2008972526, 41.0237892614]}, "type": "Feature", "properties": {"collection_times": [{"days": "Mon-Fri", "time": "12:00pm"}, {"days": "Sat", "time": "2:00pm"}, {"days": "Sun", "time": "Closed"}], "id": "0741700001", "name": "USPS COLLECTION BOX - BLUE BOX", "address": {"city": "FRANKLIN LAKES", "state": "NJ", "street": "434 PULIS AVE", "postcode": "07417"}}},
{"geometry": {"type": "Point", "coordinates": [-74.2069910881, 41.02236994]}, "type": "Feature", "properties": {"collection_times": [{"days": "Mon-Fri", "time": "5:00pm"}, {"days": "Sat", "time": "2:00pm"}, {"days": "Sun", "time": "Closed"}], "id": "0741700003", "name": "USPS COLLECTION BOX - BLUE BOX", "address": {"city": "FRANKLIN LAKES", "state": "NJ", "street": "785 FRANKLIN AVE", "postcode": "07417"}}},
{"geometry": {"type": "Point", "coordinates": [-74.2069910881, 41.02236994]}, "type": "Feature", "properties": {"collection_times": [{"days": "Mon-Fri", "time": "5:00pm"}, {"days": "Sat", "time": "8:00am"}, {"days": "Sun", "time": "Closed"}], "id": "0741700005", "name": "USPS COLLECTION BOX - BLUE BOX", "address": {"city": "FRANKLIN LAKES", "state": "NJ", "street": "785 FRANKLIN AVE", "postcode": "07417"}}},
{"geometry": {"type": "Point", "coordinates": [-74.2135370724, 40.9932955375]}, "type": "Feature", "properties": {"collection_times": [{"days": "Mon-Fri", "time": "3:00pm"}, {"days": "Sat", "time": "2:00pm"}, {"days": "Sun", "time": "Closed"}], "id": "0741700006", "name": "USPS COLLECTION BOX - BLUE BOX", "address": {"city": "FRANKLIN LAKES", "state": "NJ", "street": "809 FRANKLIN LAKES RD", "postcode": "07417"}}},
{"geometry": {"type": "Point", "coordinates": [-74.2055332688, 41.0212518144]}, "type": "Feature", "properties": {"collection_times": [{"days": "Mon-Fri", "time": "12:00pm"}, {"days": "Sat", "time": "2:00pm"}, {"days": "Sun", "time": "Closed"}], "id": "0741700009", "name": "USPS COLLECTION BOX - BLUE BOX", "address": {"city": "FRANKLIN LAKES", "state": "NJ", "street": "795 FRANKLIN AVE", "postcode": "07417"}}},
{"geometry": {"type": "Point", "coordinates": [-74.2070935917, 41.0223614299]}, "type": "Feature", "properties": {"collection_times": [{"days": "Mon-Fri", "time": "12:00pm"}, {"days": "Sat", "time": "2:00pm"}, {"days": "Sun", "time": "Closed"}], "id": "0741700010", "name": "USPS COLLECTION BOX - BLUE BOX", "address": {"city": "FRANKLIN LAKES", "state": "NJ", "street": "799 FRANKLIN AVE", "postcode": "07417"}}},
{"geometry": {"type": "Point", "coordinates": [-74.209621575, 41.0242210414]}, "type": "Feature", "properties": {"collection_times": [{"days": "Mon-Fri", "time": "3:00pm"}, {"days": "Sat", "time": "2:00pm"}, {"days": "Sun", "time": "Closed"}], "id": "0741700012", "name": "USPS COLLECTION BOX - BLUE BOX", "address": {"city": "FRANKLIN LAKES", "state": "NJ", "street": "830 FRANKLIN AVE", "postcode": "07417"}}},
{"geometry": {"type": "Point", "coordinates": [-74.2069910881, 41.02236994]}, "type": "Feature", "properties": {"collection_times": [{"days": "Mon-Fri", "time": "5:00pm"}, {"days": "Sat", "time": "3:00pm"}, {"days": "Sun", "time": "Closed"}], "id": "0741700013", "name": "USPS COLLECTION BOX - PO LOBBY", "address": {"city": "FRANKLIN LAKES", "state": "NJ", "street": "785 FRANKLIN AVE", "postcode": "07417"}}},
{"geometry": {"type": "Point", "coordinates": [-74.478472768, 41.2510380273]}, "type": "Feature", "properties": {"collection_times": [{"days": "Mon-Fri", "time": "5:00pm"}, {"days": "Sat", "time": "2:00pm"}, {"days": "Sun", "time": "Closed"}], "id": "0741800001", "name": "USPS COLLECTION BOX - BLUE BOX", "address": {"city": "GLENWOOD", "state": "NJ", "street": "958 ROUTE 517", "postcode": "07418"}}},
{"geometry": {"type": "Point", "coordinates": [-74.478472768, 41.2510380273]}, "type": "Feature", "properties": {"collection_times": [{"days": "Mon-Fri", "time": "5:00pm"}, {"days": "Sat", "time": "2:00pm"}, {"days": "Sun", "time": "Closed"}], "id": "0741800003", "name": "USPS COLLECTION BOX - PO LOBBY", "address": {"city": "GLENWOOD", "state": "NJ", "street": "958 958 COUNTY RT 517", "postcode": "07418"}}},
{"geometry": {"type": "Point", "coordinates": [-74.5778940988, 41.157213338]}, "type": "Feature", "properties": {"collection_times": [{"days": "Mon-Sat", "time": "11:00am"}, {"days": "Sun", "time": "Closed"}], "id": "0741900002", "name": "USPS COLLECTION BOX - BLUE BOX", "address": {"city": "HAMBURG", "state": "NJ", "street": "99 ROUTE 23 NORTH", "postcode": "07419"}}},
{"geometry": {"type": "Point", "coordinates": [-74.5764107619, 41.1525627221]}, "type": "Feature", "properties": {"collection_times": [{"days": "Mon-Fri", "time": "5:00pm"}, {"days": "Sat", "time": "2:30pm"}, {"days": "Sun", "time": "Closed"}], "id": "0741900004", "name": "USPS COLLECTION BOX - BLUE BOX", "address": {"city": "HAMBURG", "state": "NJ", "street": "28 MAIN ST", "postcode": "07419"}}},
{"geometry": {"type": "Point", "coordinates": [-74.5776893978, 41.1539927551]}, "type": "Feature", "properties": {"collection_times": [{"days": "Mon-Sat", "time": "9:30am"}, {"days": "Sun", "time": "Closed"}], "id": "0741900008", "name": "USPS COLLECTION BOX - BLUE BOX", "address": {"city": "HAMBURG", "state": "NJ", "street": "11 ORCHARD ST", "postcode": "07419"}}},
{"geometry": {"type": "Point", "coordinates": [-74.5764107619, 41.1525627221]}, "type": "Feature", "properties": {"collection_times": [{"days": "Mon-Fri", "time": "5:00pm"}, {"days": "Sat", "time": "12:00pm"}, {"days": "Sun", "time": "Closed"}], "id": "0741900009", "name": "USPS COLLECTION BOX - PO LOBBY", "address": {"city": "HAMBURG", "state": "NJ", "street": "28 MAIN ST", "postcode": "07419"}}},
{"geometry": {"type": "Point", "coordinates": [-74.2963170887, 41.0221130085]}, "type": "Feature", "properties": {"collection_times": [{"days": "Mon-Sat", "time": "11:00am"}, {"days": "Sun", "time": "Closed"}], "id": "0742000003", "name": "USPS COLLECTION BOX - BLUE BOX", "address": {"city": "HASKELL", "state": "NJ", "street": "1267 RINGWOOD AVE", "postcode": "07420"}}},
{"geometry": {"type": "Point", "coordinates": [-74.2994587483, 41.0306101026]}, "type": "Feature", "properties": {"collection_times": [{"days": "Mon-Sat", "time": "10:00am"}, {"days": "Sun", "time": "Closed"}], "id": "0742000004", "name": "USPS COLLECTION BOX - BLUE BOX", "address": {"city": "HASKELL", "state": "NJ", "street": "28 LAKESIDE AVE", "postcode": "07420"}}},
{"geometry": {"type": "Point", "coordinates": [-74.2931230995, 41.025762437]}, "type": "Feature", "properties": {"collection_times": [{"days": "Mon-Sat", "time": "10:00am"}, {"days": "Sun", "time": "Closed"}], "id": "0742000005", "name": "USPS COLLECTION BOX - BLUE BOX", "address": {"city": "HASKELL", "state": "NJ", "street": "39 BOULEVARD", "postcode": "07420"}}},
{"geometry": {"type": "Point", "coordinates": [-74.2912209014, 41.0337627884]}, "type": "Feature", "properties": {"collection_times": [{"days": "Mon-Sat", "time": "9:00am"}, {"days": "Sun", "time": "Closed"}], "id": "0742000006", "name": "USPS COLLECTION BOX - BLUE BOX", "address": {"city": "HASKELL", "state": "NJ", "street": "55 BURNSIDE PL", "postcode": "07420"}}},
{"geometry": {"type": "Point", "coordinates": [-74.2992000833, 41.0227200263]}, "type": "Feature", "properties": {"collection_times": [{"days": "Mon-Sat", "time": "11:00am"}, {"days": "Sun", "time": "Closed"}], "id": "0742000009", "name": "USPS COLLECTION BOX - BLUE BOX", "address": {"city": "HASKELL", "state": "NJ", "street": "98 GREENWOOD AVE", "postcode": "07420"}}},
{"geometry": {"type": "Point", "coordinates": [-74.2996033487, 41.0339603426]}, "type": "Feature", "properties": {"collection_times": [{"days": "Mon-Sat", "time": "11:00am"}, {"days": "Sun", "time": "Closed"}], "id": "0742000010", "name": "USPS COLLECTION BOX - BLUE BOX", "address": {"city": "HASKELL", "state": "NJ", "street": "10 GREENWOOD ST", "postcode": "07420"}}},
{"geometry": {"type": "Point", "coordinates": [-74.2969168489, 41.0276871112]}, "type": "Feature", "properties": {"collection_times": [{"days": "Mon-Fri", "time": "5:00pm"}, {"days": "Sat", "time": "1:00pm"}, {"days": "Sun", "time": "Closed"}], "id": "0742000011", "name": "USPS COLLECTION BOX - BLUE BOX", "address": {"city": "HASKELL", "state": "NJ", "street": "1108 RINGWOOD AVE", "postcode": "07420"}}},
{"geometry": {"type": "Point", "coordinates": [-74.2969168489, 41.0276871112]}, "type": "Feature", "properties": {"collection_times": [{"days": "Mon-Fri", "time": "5:00pm"}, {"days": "Sat", "time": "1:00pm"}, {"days": "Sun", "time": "Closed"}], "id": "0742000012", "name": "USPS COLLECTION BOX - BLUE BOX", "address": {"city": "HASKELL", "state": "NJ", "street": "1108 RINGWOOD AVE", "postcode": "07420"}}},
{"geometry": {"type": "Point", "coordinates": [-74.2939523537, 41.0356898286]}, "type": "Feature", "properties": {"collection_times": [{"days": "Mon-Sat", "time": "10:00am"}, {"days": "Sun", "time": "Closed"}], "id": "0742000013", "name": "USPS COLLECTION BOX - BLUE BOX", "address": {"city": "HASKELL", "state": "NJ", "street": "7 SMITH AVE", "postcode": "07420"}}},
{"geometry": {"type": "Point", "coordinates": [-74.3009152502, 41.0320214728]}, "type": "Feature", "properties": {"collection_times": [{"days": "Mon-Sat", "time": "10:30am"}, {"days": "Sun", "time": "Closed"}], "id": "0742000014", "name": "USPS COLLECTION BOX - BLUE BOX", "address": {"city": "HASKELL", "state": "NJ", "street": "14 SAINT GEORGE PL", "postcode": "07420"}}},
{"geometry": {"type": "Point", "coordinates": [-74.300314307, 41.0187817961]}, "type": "Feature", "properties": {"collection_times": [{"days": "Mon-Sat", "time": "11:00am"}, {"days": "Sun", "time": "Closed"}], "id": "0742000015", "name": "USPS COLLECTION BOX - BLUE BOX", "address": {"city": "HASKELL", "state": "NJ", "street": "156 GREENWOOD AVE", "postcode": "07420"}}},
{"geometry": {"type": "Point", "coordinates": [-74.2936116615, 41.0338314001]}, "type": "Feature", "properties": {"collection_times": [{"days": "Mon-Sat", "time": "9:00am"}, {"days": "Sun", "time": "Closed"}], "id": "0742000018", "name": "USPS COLLECTION BOX - BLUE BOX", "address": {"city": "HASKELL", "state": "NJ", "street": "10 BUTLER PL", "postcode": "07420"}}},
{"geometry": {"type": "Point", "coordinates": [-74.2969168489, 41.0276871112]}, "type": "Feature", "properties": {"collection_times": [{"days": "Mon-Fri", "time": "5:00pm"}, {"days": "Sat", "time": "1:00pm"}, {"days": "Sun", "time": "Closed"}], "id": "0742000019", "name": "USPS COLLECTION BOX - PO LOBBY", "address": {"city": "HASKELL", "state": "NJ", "street": "1108 RINGWOOD AVE", "postcode": "07420"}}},
{"geometry": {"type": "Point", "coordinates": [-74.3542069975, 41.1542599411]}, "type": "Feature", "properties": {"collection_times": [{"days": "Mon-Fri", "time": "4:45pm"}, {"days": "Sat", "time": "3:00pm"}, {"days": "Sun", "time": "Closed"}], "id": "0742100002", "name": "USPS COLLECTION BOX - BLUE BOX", "address": {"city": "HEWITT", "state": "NJ", "street": "1926 UNION VALLEY RD", "postcode": "07421"}}},
{"geometry": {"type": "Point", "coordinates": [-74.3542069975, 41.1542599411]}, "type": "Feature", "properties": {"collection_times": [{"days": "Mon-Fri", "time": "4:45pm"}, {"days": "Sat", "time": "3:00pm"}, {"days": "Sun", "time": "Closed"}], "id": "0742100003", "name": "USPS COLLECTION BOX - PO LOBBY", "address": {"city": "HEWITT", "state": "NJ", "street": "1926 UNION VALLEY RD STE 3", "postcode": "07421"}}},
{"geometry": {"type": "Point", "coordinates": [-74.4620605736, 41.1816624459]}, "type": "Feature", "properties": {"collection_times": [{"days": "Mon-Fri", "time": "4:30pm"}, {"days": "Sat", "time": "3:00pm"}, {"days": "Sun", "time": "Closed"}], "id": "0742200001", "name": "USPS COLLECTION BOX - BLUE BOX", "address": {"city": "HIGHLAND LAKES", "state": "NJ", "street": "177 BREAKNECK RD", "postcode": "07422"}}},
{"geometry": {"type": "Point", "coordinates": [-74.4620605736, 41.1816624459]}, "type": "Feature", "properties": {"collection_times": [{"days": "Mon-Fri", "time": "4:30pm"}, {"days": "Sat", "time": "12:00pm"}, {"days": "Sun", "time": "Closed"}], "id": "0742200003", "name": "USPS COLLECTION BOX - PO LOBBY", "address": {"city": "HIGHLAND LAKES", "state": "NJ", "street": "177 BREAKNECK RD", "postcode": "07422"}}},
{"geometry": {"type": "Point", "coordinates": [-74.1088736918, 41.0047507198]}, "type": "Feature", "properties": {"collection_times": [{"days": "Mon-Sat", "time": "11:00am"}, {"days": "Sun", "time": "Closed"}], "id": "0742300003", "name": "USPS COLLECTION BOX - BLUE BOX", "address": {"city": "HOHOKUS", "state": "NJ", "street": "241 BLAUVELT AVE", "postcode": "07423"}}},
{"geometry": {"type": "Point", "coordinates": [-74.1118038398, 40.9992218605]}, "type": "Feature", "properties": {"collection_times": [{"days": "Mon-Fri", "time": "5:00pm"}, {"days": "Sat", "time": "3:00pm"}, {"days": "Sun", "time": "Closed"}], "id": "0742300005", "name": "USPS COLLECTION BOX - BLUE BOX", "address": {"city": "HOHOKUS", "state": "NJ", "street": "30 N FRANKLIN TPKE", "postcode": "07423"}}},
{"geometry": {"type": "Point", "coordinates": [-74.1118038398, 40.9992218605]}, "type": "Feature", "properties": {"collection_times": [{"days": "Mon-Fri", "time": "5:00pm"}, {"days": "Sat", "time": "3:00pm"}, {"days": "Sun", "time": "Closed"}], "id": "0742300007", "name": "USPS COLLECTION BOX - BLUE BOX", "address": {"city": "HOHOKUS", "state": "NJ", "street": "30 N FRANKLIN TPKE", "postcode": "07423"}}},
{"geometry": {"type": "Point", "coordinates": [-74.1102246309, 40.9968390903]}, "type": "Feature", "properties": {"collection_times": [{"days": "Mon-Sat", "time": "11:00am"}, {"days": "Sun", "time": "Closed"}], "id": "0742300008", "name": "USPS COLLECTION BOX - BLUE BOX", "address": {"city": "HOHOKUS", "state": "NJ", "street": "622 N MAPLE AVE", "postcode": "07423"}}},
{"geometry": {"type": "Point", "coordinates": [-74.1050976868, 40.9978777282]}, "type": "Feature", "properties": {"collection_times": [{"days": "Mon-Sat", "time": "11:00am"}, {"days": "Sun", "time": "Closed"}], "id": "0742300012", "name": "USPS COLLECTION BOX - BLUE BOX", "address": {"city": "HOHOKUS", "state": "NJ", "street": "333 WARREN AVE", "postcode": "07423"}}},
{"geometry": {"type": "Point", "coordinates": [-74.1118038398, 40.9992218605]}, "type": "Feature", "properties": {"collection_times": [{"days": "Mon-Fri", "time": "5:00pm"}, {"days": "Sat", "time": "12:30pm"}, {"days": "Sun", "time": "Closed"}], "id": "0742300013", "name": "USPS COLLECTION BOX - PO LOBBY", "address": {"city": "HOHOKUS", "state": "NJ", "street": "30 N FRANKLIN TPKE", "postcode": "07423"}}},
{"geometry": {"type": "Point", "coordinates": [-74.206196932, 40.8722013097]}, "type": "Feature", "properties": {"collection_times": [{"days": "Mon-Sat", "time": "2:00pm"}, {"days": "Sun", "time": "Closed"}], "id": "0742400003", "name": "USPS COLLECTION BOX - BLUE BOX", "address": {"city": "WOODLAND PARK", "state": "NJ", "street": "181 LONG HILL RD", "postcode": "07424"}}},
{"geometry": {"type": "Point", "coordinates": [-74.1999080046, 40.8936744118]}, "type": "Feature", "properties": {"collection_times": [{"days": "Mon-Sat", "time": "12:00pm"}, {"days": "Sun", "time": "Closed"}], "id": "0742400004", "name": "USPS COLLECTION BOX - BLUE BOX", "address": {"city": "WOODLAND PARK", "state": "NJ", "street": "295 MOUNT PLEASANT AVE", "postcode": "07424"}}},
{"geometry": {"type": "Point", "coordinates": [-74.211696485, 40.880670154]}, "type": "Feature", "properties": {"collection_times": [{"days": "Mon-Sat", "time": "11:00am"}, {"days": "Sun", "time": "Closed"}], "id": "0742400005", "name": "USPS COLLECTION BOX - BLUE BOX", "address": {"city": "WOODLAND PARK", "state": "NJ", "street": "171 BROWERTOWN RD", "postcode": "07424"}}},
{"geometry": {"type": "Point", "coordinates": [-74.2095942493, 40.8803131093]}, "type": "Feature", "properties": {"collection_times": [{"days": "Mon-Sat", "time": "1:00pm"}, {"days": "Sun", "time": "Closed"}], "id": "0742400007", "name": "USPS COLLECTION BOX - BLUE BOX", "address": {"city": "WOODLAND PARK", "state": "NJ", "street": "17 COLONIAL DR", "postcode": "07424"}}},
{"geometry": {"type": "Point", "coordinates": [-74.2218143331, 40.8791772598]}, "type": "Feature", "properties": {"collection_times": [{"days": "Mon-Sat", "time": "10:30am"}, {"days": "Sun", "time": "Closed"}], "id": "0742400008", "name": "USPS COLLECTION BOX - BLUE BOX", "address": {"city": "WOODLAND PARK", "state": "NJ", "street": "69 E MAIN ST", "postcode": "07424"}}},
{"geometry": {"type": "Point", "coordinates": [-74.2082857912, 40.8769121592]}, "type": "Feature", "properties": {"collection_times": [{"days": "Mon-Sat", "time": "10:30am"}, {"days": "Sun", "time": "Closed"}], "id": "0742400013", "name": "USPS COLLECTION BOX - BLUE BOX", "address": {"city": "WOODLAND PARK", "state": "NJ", "street": "20 OVERLOOK AVE", "postcode": "07424"}}},
{"geometry": {"type": "Point", "coordinates": [-74.2281561761, 40.8813397088]}, "type": "Feature", "properties": {"collection_times": [{"days": "Mon-Sat", "time": "11:00am"}, {"days": "Sun", "time": "Closed"}], "id": "0742400016", "name": "USPS COLLECTION BOX - BLUE BOX", "address": {"city": "WOODLAND PARK", "state": "NJ", "street": "89 MAIN ST", "postcode": "07424"}}},
{"geometry": {"type": "Point", "coordinates": [-74.2300328891, 40.8806297747]}, "type": "Feature", "properties": {"collection_times": [{"days": "Mon-Sat", "time": "9:45am"}, {"days": "Sun", "time": "Closed"}], "id": "0742400017", "name": "USPS COLLECTION BOX - BLUE BOX", "address": {"city": "WOODLAND PARK", "state": "NJ", "street": "19 WARREN ST", "postcode": "07424"}}},
{"geometry": {"type": "Point", "coordinates": [-74.2349156036, 40.8833258969]}, "type": "Feature", "properties": {"collection_times": [{"days": "Mon-Fri", "time": "5:00pm"}, {"days": "Sat", "time": "2:20pm"}, {"days": "Sun", "time": "Closed"}], "id": "0742400018", "name": "USPS COLLECTION BOX - BLUE BOX", "address": {"city": "WOODLAND PARK", "state": "NJ", "street": "229 MAIN ST", "postcode": "07424"}}},
{"geometry": {"type": "Point", "coordinates": [-74.2007417383, 40.895999495]}, "type": "Feature", "properties": {"collection_times": [{"days": "Mon-Sat", "time": "10:00am"}, {"days": "Sun", "time": "Closed"}], "id": "0742400026", "name": "USPS COLLECTION BOX - BLUE BOX", "address": {"city": "WOODLAND PARK", "state": "NJ", "street": "1 BROPHY LN", "postcode": "07424"}}},
{"geometry": {"type": "Point", "coordinates": [-74.225850589, 40.8769663095]}, "type": "Feature", "properties": {"collection_times": [{"days": "Mon-Sat", "time": "12:00pm"}, {"days": "Sun", "time": "Closed"}], "id": "0742400027", "name": "USPS COLLECTION BOX - BLUE BOX", "address": {"city": "WOODLAND PARK", "state": "NJ", "street": "75 PROSPECT ST", "postcode": "07424"}}},
{"geometry": {"type": "Point", "coordinates": [-74.2435039083, 40.8821094932]}, "type": "Feature", "properties": {"collection_times": [{"days": "Mon-Sat", "time": "3:00pm"}, {"days": "Sun", "time": "Closed"}], "id": "0742400031", "name": "USPS COLLECTION BOX - BLUE BOX", "address": {"city": "WOODLAND PARK", "state": "NJ", "street": "6 WEAVER ST", "postcode": "07424"}}},
{"geometry": {"type": "Point", "coordinates": [-74.2065079885, 40.8934665631]}, "type": "Feature", "properties": {"collection_times": [{"days": "Mon-Fri", "time": "5:00pm"}, {"days": "Sat", "time": "2:00pm"}, {"days": "Sun", "time": "Closed"}], "id": "0742400036", "name": "USPS COLLECTION BOX - BLUE BOX", "address": {"city": "WOODLAND PARK", "state": "NJ", "street": "1017 MCBRIDE AVE # 1", "postcode": "07424"}}},
{"geometry": {"type": "Point", "coordinates": [-74.2065079885, 40.8934665631]}, "type": "Feature", "properties": {"collection_times": [{"days": "Mon-Fri", "time": "5:00pm"}, {"days": "Sat", "time": "2:00pm"}, {"days": "Sun", "time": "Closed"}], "id": "0742400037", "name": "USPS COLLECTION BOX - BLUE BOX", "address": {"city": "WOODLAND PARK", "state": "NJ", "street": "1017 MCBRIDE AVE # 2", "postcode": "07424"}}},
{"geometry": {"type": "Point", "coordinates": [-74.2104058768, 40.8925707212]}, "type": "Feature", "properties": {"collection_times": [{"days": "Mon-Sat", "time": "11:45am"}, {"days": "Sun", "time": "Closed"}], "id": "0742400038", "name": "USPS COLLECTION BOX - BLUE BOX", "address": {"city": "WOODLAND PARK", "state": "NJ", "street": "1108 MCBRIDE AVE", "postcode": "07424"}}},
{"geometry": {"type": "Point", "coordinates": [-74.2149299031, 40.8856615872]}, "type": "Feature", "properties": {"collection_times": [{"days": "Mon-Sat", "time": "2:00pm"}, {"days": "Sun", "time": "Closed"}], "id": "0742400041", "name": "USPS COLLECTION BOX - BLUE BOX", "address": {"city": "WOODLAND PARK", "state": "NJ", "street": "1530 ROUTE 46", "postcode": "07424"}}},
{"geometry": {"type": "Point", "coordinates": [-74.2152916996, 40.8898528461]}, "type": "Feature", "properties": {"collection_times": [{"days": "Mon-Sat", "time": "10:00am"}, {"days": "Sun", "time": "Closed"}], "id": "0742400048", "name": "USPS COLLECTION BOX - BLUE BOX", "address": {"city": "WOODLAND PARK", "state": "NJ", "street": "86 LACKAWANNA AVE", "postcode": "07424"}}},
{"geometry": {"type": "Point", "coordinates": [-74.2349156036, 40.8833258969]}, "type": "Feature", "properties": {"collection_times": [{"days": "Mon-Fri", "time": "5:00pm"}, {"days": "Sat", "time": "2:20pm"}, {"days": "Sun", "time": "Closed"}], "id": "0742400053", "name": "USPS COLLECTION BOX - BLUE BOX", "address": {"city": "WOODLAND PARK", "state": "NJ", "street": "229 MAIN ST", "postcode": "07424"}}},
{"geometry": {"type": "Point", "coordinates": [-74.2127385973, 40.8843416205]}, "type": "Feature", "properties": {"collection_times": [{"days": "Mon-Fri", "time": "5:00pm"}, {"days": "Sat", "time": "2:20pm"}, {"days": "Sun", "time": "Closed"}], "id": "0742400054", "name": "USPS COLLECTION BOX - EXPRESS", "address": {"city": "WOODLAND PARK", "state": "NJ", "street": "229 MAIN ST", "postcode": "07424"}}},
{"geometry": {"type": "Point", "coordinates": [-74.2349156036, 40.8833258969]}, "type": "Feature", "properties": {"collection_times": [{"days": "Mon-Fri", "time": "5:00pm"}, {"days": "Sat", "time": "2:00pm"}, {"days": "Sun", "time": "Closed"}], "id": "0742400055", "name": "USPS COLLECTION BOX - PO LOBBY", "address": {"city": "WOODLAND PARK", "state": "NJ", "street": "229 MAIN ST", "postcode": "07424"}}},
{"geometry": {"type": "Point", "coordinates": [-74.2065079885, 40.8934665631]}, "type": "Feature", "properties": {"collection_times": [{"days": "Mon-Fri", "time": "5:00pm"}, {"days": "Sat", "time": "12:30pm"}, {"days": "Sun", "time": "Closed"}], "id": "0742400056", "name": "USPS COLLECTION BOX - PO LOBBY", "address": {"city": "WOODLAND PARK", "state": "NJ", "street": "1017 MCBRIDE AVE", "postcode": "07424"}}},
{"geometry": {"type": "Point", "coordinates": [-74.5418586051, 41.1775414137]}, "type": "Feature", "properties": {"collection_times": [{"days": "Mon-Fri", "time": "5:00pm"}, {"days": "Sat", "time": "2:00pm"}, {"days": "Sun", "time": "Closed"}], "id": "0742800001", "name": "USPS COLLECTION BOX - BLUE BOX", "address": {"city": "MCAFEE", "state": "NJ", "street": "40 STATE RT 94", "postcode": "07428"}}},
{"geometry": {"type": "Point", "coordinates": [-74.5418586051, 41.1775414137]}, "type": "Feature", "properties": {"collection_times": [{"days": "Mon-Fri", "time": "5:00pm"}, {"days": "Sat", "time": "2:00pm"}, {"days": "Sun", "time": "Closed"}], "id": "0742800002", "name": "USPS COLLECTION BOX - BLUE BOX", "address": {"city": "MCAFEE", "state": "NJ", "street": "40 STATE RT 94", "postcode": "07428"}}},
{"geometry": {"type": "Point", "coordinates": [-74.5418586051, 41.1775414137]}, "type": "Feature", "properties": {"collection_times": [{"days": "Mon-Fri", "time": "5:00pm"}, {"days": "Sat", "time": "2:00pm"}, {"days": "Sun", "time": "Closed"}], "id": "0742800003", "name": "USPS COLLECTION BOX - PO LOBBY", "address": {"city": "MCAFEE", "state": "NJ", "street": "40 STATE RT 94", "postcode": "07428"}}},
{"geometry": {"type": "Point", "coordinates": [-74.1506049352, 41.0836126792]}, "type": "Feature", "properties": {"collection_times": [{"days": "Mon-Sat", "time": "2:00pm"}, {"days": "Sun", "time": "Closed"}], "id": "0743000001", "name": "USPS COLLECTION BOX - BLUE BOX", "address": {"city": "MAHWAH", "state": "NJ", "street": "1 LETHBRIDGE PLZ", "postcode": "07430"}}},
{"geometry": {"type": "Point", "coordinates": [-74.1471743542, 41.0999517084]}, "type": "Feature", "properties": {"collection_times": [{"days": "Mon-Sat", "time": "2:00pm"}, {"days": "Sun", "time": "Closed"}], "id": "0743000003", "name": "USPS COLLECTION BOX - BLUE BOX", "address": {"city": "MAHWAH", "state": "NJ", "street": "115 FRANKLIN TPKE", "postcode": "07430"}}},
{"geometry": {"type": "Point", "coordinates": [-74.1608623724, 41.078602848]}, "type": "Feature", "properties": {"collection_times": [{"days": "Mon-Sat", "time": "2:00pm"}, {"days": "Sun", "time": "Closed"}], "id": "0743000004", "name": "USPS COLLECTION BOX - BLUE BOX", "address": {"city": "MAHWAH", "state": "NJ", "street": "1200 MACARTHUR BLVD", "postcode": "07430"}}},
{"geometry": {"type": "Point", "coordinates": [-74.1585283943, 41.0835180425]}, "type": "Feature", "properties": {"collection_times": [{"days": "Mon-Sat", "time": "2:00pm"}, {"days": "Sun", "time": "Closed"}], "id": "0743000006", "name": "USPS COLLECTION BOX - BLUE BOX", "address": {"city": "MAHWAH", "state": "NJ", "street": "575 CORPORATE DR", "postcode": "07430"}}},
{"geometry": {"type": "Point", "coordinates": [-74.1249370916, 41.0776896037]}, "type": "Feature", "properties": {"collection_times": [{"days": "Mon-Sat", "time": "2:00pm"}, {"days": "Sun", "time": "Closed"}], "id": "0743000009", "name": "USPS COLLECTION BOX - BLUE BOX", "address": {"city": "MAHWAH", "state": "NJ", "street": "268 APPLE RIDGE BLVD", "postcode": "07430"}}},
{"geometry": {"type": "Point", "coordinates": [-74.1399405601, 41.0801868301]}, "type": "Feature", "properties": {"collection_times": [{"days": "Mon-Sat", "time": "2:00pm"}, {"days": "Sun", "time": "Closed"}], "id": "0743000010", "name": "USPS COLLECTION BOX - BLUE BOX", "address": {"city": "MAHWAH", "state": "NJ", "street": "400 FRANKLIN TPKE", "postcode": "07430"}}},
{"geometry": {"type": "Point", "coordinates": [-74.1279943199, 41.0826939122]}, "type": "Feature", "properties": {"collection_times": [{"days": "Mon-Sat", "time": "2:00pm"}, {"days": "Sun", "time": "Closed"}], "id": "0743000011", "name": "USPS COLLECTION BOX - BLUE BOX", "address": {"city": "MAHWAH", "state": "NJ", "street": "1018 CROWN CT", "postcode": "07430"}}},
{"geometry": {"type": "Point", "coordinates": [-74.1813408943, 41.0374367356]}, "type": "Feature", "properties": {"collection_times": [{"days": "Mon-Sat", "time": "2:00pm"}, {"days": "Sun", "time": "Closed"}], "id": "0743000012", "name": "USPS COLLECTION BOX - BLUE BOX", "address": {"city": "MAHWAH", "state": "NJ", "street": "121 CHAPEL RD", "postcode": "07430"}}},
{"geometry": {"type": "Point", "coordinates": [-74.131438634, 41.080043692]}, "type": "Feature", "properties": {"collection_times": [{"days": "Mon-Sat", "time": "2:00pm"}, {"days": "Sun", "time": "Closed"}], "id": "0743000013", "name": "USPS COLLECTION BOX - BLUE BOX", "address": {"city": "MAHWAH", "state": "NJ", "street": "33 GRIST MILL RUN", "postcode": "07430"}}},
{"geometry": {"type": "Point", "coordinates": [-74.1512932623, 41.1027043893]}, "type": "Feature", "properties": {"collection_times": [{"days": "Mon-Sat", "time": "2:00pm"}, {"days": "Sun", "time": "Closed"}], "id": "0743000015", "name": "USPS COLLECTION BOX - BLUE BOX", "address": {"city": "MAHWAH", "state": "NJ", "street": "65 RAMAPO VALLEY RD", "postcode": "07430"}}},
{"geometry": {"type": "Point", "coordinates": [-74.1676738501, 41.0246528214]}, "type": "Feature", "properties": {"collection_times": [{"days": "Mon-Sat", "time": "2:00pm"}, {"days": "Sun", "time": "Closed"}], "id": "0743000016", "name": "USPS COLLECTION BOX - BLUE BOX", "address": {"city": "MAHWAH", "state": "NJ", "street": "860 WYCKOFF AVE", "postcode": "07430"}}},
{"geometry": {"type": "Point", "coordinates": [-74.1461157911, 41.0938463352]}, "type": "Feature", "properties": {"collection_times": [{"days": "Mon-Fri", "time": "5:00pm"}, {"days": "Sat", "time": "2:00pm"}, {"days": "Sun", "time": "Closed"}], "id": "0743000018", "name": "USPS COLLECTION BOX - BLUE BOX", "address": {"city": "MAHWAH", "state": "NJ", "street": "12 E RAMAPO AVE UNIT 1", "postcode": "07430"}}},
{"geometry": {"type": "Point", "coordinates": [-74.1461157911, 41.0938463352]}, "type": "Feature", "properties": {"collection_times": [{"days": "Mon-Fri", "time": "5:00pm"}, {"days": "Sat", "time": "2:00pm"}, {"days": "Sun", "time": "Closed"}], "id": "0743000020", "name": "USPS COLLECTION BOX - BLUE BOX", "address": {"city": "MAHWAH", "state": "NJ", "street": "12 E RAMAPO AVE", "postcode": "07430"}}},
{"geometry": {"type": "Point", "coordinates": [-74.1461157911, 41.0938463352]}, "type": "Feature", "properties": {"collection_times": [{"days": "Mon-Fri", "time": "5:00pm"}, {"days": "Sat", "time": "2:00pm"}, {"days": "Sun", "time": "Closed"}], "id": "0743000022", "name": "USPS COLLECTION BOX - BLUE BOX", "address": {"city": "MAHWAH", "state": "NJ", "street": "12 E RAMAPO AVE UNIT 2", "postcode": "07430"}}},
{"geometry": {"type": "Point", "coordinates": [-74.1461157911, 41.0938463352]}, "type": "Feature", "properties": {"collection_times": [{"days": "Mon-Fri", "time": "5:00pm"}, {"days": "Sat", "time": "1:00pm"}, {"days": "Sun", "time": "Closed"}], "id": "0743000023", "name": "USPS COLLECTION BOX - PO LOBBY", "address": {"city": "MAHWAH", "state": "NJ", "street": "12 E RAMAPO AVE", "postcode": "07430"}}},
{"geometry": {"type": "Point", "coordinates": [-74.1382974301, 40.9849633652]}, "type": "Feature", "properties": {"collection_times": [{"days": "Mon-Sat", "time": "9:30am"}, {"days": "Sun", "time": "Closed"}], "id": "0743200001", "name": "USPS COLLECTION BOX - BLUE BOX", "address": {"city": "MIDLAND PARK", "state": "NJ", "street": "85 GODWIN AVE", "postcode": "07432"}}},
{"geometry": {"type": "Point", "coordinates": [-74.1362308008, 40.9912874638]}, "type": "Feature", "properties": {"collection_times": [{"days": "Mon-Sat", "time": "9:30am"}, {"days": "Sun", "time": "Closed"}], "id": "0743200003", "name": "USPS COLLECTION BOX - BLUE BOX", "address": {"city": "MIDLAND PARK", "state": "NJ", "street": "125 E CENTER ST", "postcode": "07432"}}},
{"geometry": {"type": "Point", "coordinates": [-74.1406290422, 40.988948754]}, "type": "Feature", "properties": {"collection_times": [{"days": "Mon-Fri", "time": "5:00pm"}, {"days": "Sat", "time": "3:15pm"}, {"days": "Sun", "time": "Closed"}], "id": "0743200006", "name": "USPS COLLECTION BOX - BLUE BOX", "address": {"city": "MIDLAND PARK", "state": "NJ", "street": "215 GODWIN AVE", "postcode": "07432"}}},
{"geometry": {"type": "Point", "coordinates": [-74.1406290422, 40.988948754]}, "type": "Feature", "properties": {"collection_times": [{"days": "Mon-Fri", "time": "5:00pm"}, {"days": "Sat", "time": "8:00am"}, {"days": "Sun", "time": "Closed"}], "id": "0743200007", "name": "USPS COLLECTION BOX - BLUE BOX", "address": {"city": "MIDLAND PARK", "state": "NJ", "street": "215 GODWIN AVE", "postcode": "07432"}}},
{"geometry": {"type": "Point", "coordinates": [-74.1536912751, 41.0014609109]}, "type": "Feature", "properties": {"collection_times": [{"days": "Mon-Sat", "time": "9:30am"}, {"days": "Sun", "time": "Closed"}], "id": "0743200009", "name": "USPS COLLECTION BOX - BLUE BOX", "address": {"city": "MIDLAND PARK", "state": "NJ", "street": "101 MIDLAND AVE", "postcode": "07432"}}},
{"geometry": {"type": "Point", "coordinates": [-74.1396909558, 40.9824543092]}, "type": "Feature", "properties": {"collection_times": [{"days": "Mon-Sat", "time": "9:30am"}, {"days": "Sun", "time": "Closed"}], "id": "0743200013", "name": "USPS COLLECTION BOX - BLUE BOX", "address": {"city": "MIDLAND PARK", "state": "NJ", "street": "136 LAKE AVE", "postcode": "07432"}}},
{"geometry": {"type": "Point", "coordinates": [-74.1406290422, 40.988948754]}, "type": "Feature", "properties": {"collection_times": [{"days": "Mon-Fri", "time": "5:00pm"}, {"days": "Sat", "time": "12:30pm"}, {"days": "Sun", "time": "Closed"}], "id": "0743200014", "name": "USPS COLLECTION BOX - PO LOBBY", "address": {"city": "MIDLAND PARK", "state": "NJ", "street": "215 GODWIN AVE", "postcode": "07432"}}},
{"geometry": {"type": "Point", "coordinates": [-74.4212901611, 41.0336127759]}, "type": "Feature", "properties": {"collection_times": [{"days": "Mon-Fri", "time": "4:30pm"}, {"days": "Sat", "time": "12:00pm"}, {"days": "Sun", "time": "Closed"}], "id": "0743500001", "name": "USPS COLLECTION BOX - BLUE BOX", "address": {"city": "NEW FOUNDLAND", "state": "NJ", "street": "2717 ROUTE 23", "postcode": "07435"}}},
{"geometry": {"type": "Point", "coordinates": [-74.4332764756, 41.0404754227]}, "type": "Feature", "properties": {"collection_times": [{"days": "Mon-Fri", "time": "4:30pm"}, {"days": "Sat", "time": "12:00pm"}, {"days": "Sun", "time": "Closed"}], "id": "0743500002", "name": "USPS COLLECTION BOX - PO LOBBY", "address": {"city": "NEW FOUNDLAND", "state": "NJ", "street": "2727 STATE RT 23 STE 1", "postcode": "07435"}}},
{"geometry": {"type": "Point", "coordinates": [-74.2563330757, 41.01368206]}, "type": "Feature", "properties": {"collection_times": [{"days": "Mon-Sat", "time": "1:00pm"}, {"days": "Sun", "time": "Closed"}], "id": "0743600001", "name": "USPS COLLECTION BOX - BLUE BOX", "address": {"city": "OAKLAND", "state": "NJ", "street": "14 POST RD", "postcode": "07436"}}},
{"geometry": {"type": "Point", "coordinates": [-74.2533744953, 41.0151690394]}, "type": "Feature", "properties": {"collection_times": [{"days": "Mon-Sat", "time": "1:00pm"}, {"days": "Sun", "time": "Closed"}], "id": "0743600002", "name": "USPS COLLECTION BOX - BLUE BOX", "address": {"city": "OAKLAND", "state": "NJ", "street": "169 RAMAPO VALLEY RD", "postcode": "07436"}}},
{"geometry": {"type": "Point", "coordinates": [-74.2350883156, 41.0242151266]}, "type": "Feature", "properties": {"collection_times": [{"days": "Mon-Sat", "time": "1:00pm"}, {"days": "Sun", "time": "Closed"}], "id": "0743600004", "name": "USPS COLLECTION BOX - BLUE BOX", "address": {"city": "OAKLAND", "state": "NJ", "street": "8 RARITAN RD", "postcode": "07436"}}},
{"geometry": {"type": "Point", "coordinates": [-74.255435615, 41.0139990134]}, "type": "Feature", "properties": {"collection_times": [{"days": "Mon-Sat", "time": "1:00pm"}, {"days": "Sun", "time": "Closed"}], "id": "0743600006", "name": "USPS COLLECTION BOX - BLUE BOX", "address": {"city": "OAKLAND", "state": "NJ", "street": "9 POST RD", "postcode": "07436"}}},
{"geometry": {"type": "Point", "coordinates": [-74.2412136771, 41.0055291068]}, "type": "Feature", "properties": {"collection_times": [{"days": "Mon-Sat", "time": "1:00pm"}, {"days": "Sun", "time": "Closed"}], "id": "0743600010", "name": "USPS COLLECTION BOX - BLUE BOX", "address": {"city": "OAKLAND", "state": "NJ", "street": "107 BAUER DR", "postcode": "07436"}}},
{"geometry": {"type": "Point", "coordinates": [-74.2428721856, 41.0238472264]}, "type": "Feature", "properties": {"collection_times": [{"days": "Mon-Fri", "time": "5:00pm"}, {"days": "Sat", "time": "3:45pm"}, {"days": "Sun", "time": "Closed"}], "id": "0743600012", "name": "USPS COLLECTION BOX - BLUE BOX", "address": {"city": "OAKLAND", "state": "NJ", "street": "332 RAMAPO VALLEY RD", "postcode": "07436"}}},
{"geometry": {"type": "Point", "coordinates": [-74.2428721856, 41.0238472264]}, "type": "Feature", "properties": {"collection_times": [{"days": "Mon-Fri", "time": "5:00pm"}, {"days": "Sat", "time": "8:00am"}, {"days": "Sun", "time": "Closed"}], "id": "0743600013", "name": "USPS COLLECTION BOX - BLUE BOX", "address": {"city": "OAKLAND", "state": "NJ", "street": "332 RAMAPO VALLEY RD", "postcode": "07436"}}},
{"geometry": {"type": "Point", "coordinates": [-74.2443990276, 41.0241292558]}, "type": "Feature", "properties": {"collection_times": [{"days": "Mon-Sat", "time": "1:00pm"}, {"days": "Sun", "time": "Closed"}], "id": "0743600014", "name": "USPS COLLECTION BOX - BLUE BOX", "address": {"city": "OAKLAND", "state": "NJ", "street": "1 MUNICIPAL PLZ", "postcode": "07436"}}},
{"geometry": {"type": "Point", "coordinates": [-74.225475591, 41.0287742505]}, "type": "Feature", "properties": {"collection_times": [{"days": "Mon-Sat", "time": "1:00pm"}, {"days": "Sun", "time": "Closed"}], "id": "0743600016", "name": "USPS COLLECTION BOX - BLUE BOX", "address": {"city": "OAKLAND", "state": "NJ", "street": "3 RUTGERS DR", "postcode": "07436"}}},
{"geometry": {"type": "Point", "coordinates": [-74.2428721856, 41.0238472264]}, "type": "Feature", "properties": {"collection_times": [{"days": "Mon-Fri", "time": "5:00pm"}, {"days": "Sat", "time": "2:00pm"}, {"days": "Sun", "time": "Closed"}], "id": "0743600018", "name": "USPS COLLECTION BOX - PO LOBBY", "address": {"city": "OAKLAND", "state": "NJ", "street": "332 RAMAPO VALLEY RD", "postcode": "07436"}}},
{"geometry": {"type": "Point", "coordinates": [-74.5068234535, 41.0353727956]}, "type": "Feature", "properties": {"collection_times": [{"days": "Mon-Fri", "time": "5:00pm"}, {"days": "Sat", "time": "12:00pm"}, {"days": "Sun", "time": "Closed"}], "id": "0743800001", "name": "USPS COLLECTION BOX - BLUE BOX", "address": {"city": "OAK RIDGE", "state": "NJ", "street": "5716 BERKSHIRE VALLEY RD", "postcode": "07438"}}},
{"geometry": {"type": "Point", "coordinates": [-74.5148119754, 41.0199186197]}, "type": "Feature", "properties": {"collection_times": [{"days": "Mon-Sat", "time": "12:30pm"}, {"days": "Sun", "time": "Closed"}], "id": "0743800004", "name": "USPS COLLECTION BOX - BLUE BOX", "address": {"city": "OAK RIDGE", "state": "NJ", "street": "5561 BERKSHIRE VALLEY RD", "postcode": "07438"}}},
{"geometry": {"type": "Point", "coordinates": [-74.4783614608, 41.0507914827]}, "type": "Feature", "properties": {"collection_times": [{"days": "Mon-Fri", "time": "5:00pm"}, {"days": "Sat", "time": "3:00pm"}, {"days": "Sun", "time": "Closed"}], "id": "0743800005", "name": "USPS COLLECTION BOX - BLUE BOX", "address": {"city": "OAK RIDGE", "state": "NJ", "street": "247 OAK RIDGE RD", "postcode": "07438"}}},
{"geometry": {"type": "Point", "coordinates": [-74.5129493868, 41.0159892692]}, "type": "Feature", "properties": {"collection_times": [{"days": "Mon-Sat", "time": "12:30pm"}, {"days": "Sun", "time": "Closed"}], "id": "0743800006", "name": "USPS COLLECTION BOX - BLUE BOX", "address": {"city": "OAK RIDGE", "state": "NJ", "street": "5523 BERKSHIRE VALLEY RD", "postcode": "07438"}}},
{"geometry": {"type": "Point", "coordinates": [-74.4783614608, 41.0507914827]}, "type": "Feature", "properties": {"collection_times": [{"days": "Mon-Fri", "time": "5:00pm"}, {"days": "Sat", "time": "3:00pm"}, {"days": "Sun", "time": "Closed"}], "id": "0743800008", "name": "USPS COLLECTION BOX - BLUE BOX", "address": {"city": "OAK RIDGE", "state": "NJ", "street": "247 OAK RIDGE RD", "postcode": "07438"}}},
{"geometry": {"type": "Point", "coordinates": [-74.5829728368, 41.0098213531]}, "type": "Feature", "properties": {"collection_times": [{"days": "Mon-Sat", "time": "12:30pm"}, {"days": "Sun", "time": "Closed"}], "id": "0743800010", "name": "USPS COLLECTION BOX - BLUE BOX", "address": {"city": "OAK RIDGE", "state": "NJ", "street": "1033 WELDON RD", "postcode": "07438"}}},
{"geometry": {"type": "Point", "coordinates": [-74.5068234535, 41.0353727956]}, "type": "Feature", "properties": {"collection_times": [{"days": "Mon-Fri", "time": "5:00pm"}, {"days": "Sat", "time": "1:00pm"}, {"days": "Sun", "time": "Closed"}], "id": "0743800011", "name": "USPS COLLECTION BOX - PO LOBBY", "address": {"city": "OAK RIDGE", "state": "NJ", "street": "5716 BERKSHIRE VALLEY RD STE 5", "postcode": "07438"}}},
{"geometry": {"type": "Point", "coordinates": [-74.4783614608, 41.0507914827]}, "type": "Feature", "properties": {"collection_times": [{"days": "Mon-Fri", "time": "5:00pm"}, {"days": "Sat", "time": "12:00pm"}, {"days": "Sun", "time": "Closed"}], "id": "0743800012", "name": "USPS COLLECTION BOX - PO LOBBY", "address": {"city": "OAK RIDGE", "state": "NJ", "street": "247 OAK RIDGE RD", "postcode": "07438"}}},
{"geometry": {"type": "Point", "coordinates": [-74.6020569941, 41.0692955557]}, "type": "Feature", "properties": {"collection_times": [{"days": "Mon-Fri", "time": "5:00pm"}, {"days": "Sat", "time": "12:00pm"}, {"days": "Sun", "time": "Closed"}], "id": "0743900003", "name": "USPS COLLECTION BOX - BLUE BOX", "address": {"city": "OGDENSBURG", "state": "NJ", "street": "328 MAIN ST", "postcode": "07439"}}},
{"geometry": {"type": "Point", "coordinates": [-74.6020569941, 41.0692955557]}, "type": "Feature", "properties": {"collection_times": [{"days": "Mon-Fri", "time": "5:00pm"}, {"days": "Sat", "time": "12:00pm"}, {"days": "Sun", "time": "Closed"}], "id": "0743900004", "name": "USPS COLLECTION BOX - BLUE BOX", "address": {"city": "OGDENSBURG", "state": "NJ", "street": "328 MAIN ST", "postcode": "07439"}}},
{"geometry": {"type": "Point", "coordinates": [-74.6020569941, 41.0692955557]}, "type": "Feature", "properties": {"collection_times": [{"days": "Mon-Fri", "time": "5:00pm"}, {"days": "Sat", "time": "12:00pm"}, {"days": "Sun", "time": "Closed"}], "id": "0743900005", "name": "USPS COLLECTION BOX - PO LOBBY", "address": {"city": "OGDENSBURG", "state": "NJ", "street": "328 MAIN ST", "postcode": "07439"}}},
{"geometry": {"type": "Point", "coordinates": [-74.2986640793, 40.9498791682]}, "type": "Feature", "properties": {"collection_times": [{"days": "Mon-Sat", "time": "10:00am"}, {"days": "Sun", "time": "Closed"}], "id": "0744000001", "name": "USPS COLLECTION BOX - BLUE BOX", "address": {"city": "PEQUANNOCK", "state": "NJ", "street": "101 BOULEVARD", "postcode": "07440"}}},
{"geometry": {"type": "Point", "coordinates": [-74.2891661017, 40.9473606486]}, "type": "Feature", "properties": {"collection_times": [{"days": "Mon-Fri", "time": "5:00pm"}, {"days": "Sat", "time": "2:00pm"}, {"days": "Sun", "time": "Closed"}], "id": "0744000016", "name": "USPS COLLECTION BOX - BLUE BOX", "address": {"city": "PEQUANNOCK", "state": "NJ", "street": "190 NEWARK POMPTON TPKE", "postcode": "07440"}}},
{"geometry": {"type": "Point", "coordinates": [-74.2891661017, 40.9473606486]}, "type": "Feature", "properties": {"collection_times": [{"days": "Mon-Fri", "time": "5:00pm"}, {"days": "Sat", "time": "12:00pm"}, {"days": "Sun", "time": "Closed"}], "id": "0744000022", "name": "USPS COLLECTION BOX - PO LOBBY", "address": {"city": "PEQUANNOCK", "state": "NJ", "street": "190 NEWARK POMPTON TPKE", "postcode": "07440"}}},
{"geometry": {"type": "Point", "coordinates": [-74.2914527614, 41.0060827316]}, "type": "Feature", "properties": {"collection_times": [{"days": "Mon-Fri", "time": "11:00am"}, {"days": "Sat", "time": "10:00am"}, {"days": "Sun", "time": "Closed"}], "id": "0744200001", "name": "USPS COLLECTION BOX - BLUE BOX", "address": {"city": "POMPTON LAKES", "state": "NJ", "street": "115 WANAQUE AVE", "postcode": "07442"}}},
{"geometry": {"type": "Point", "coordinates": [-74.2809697006, 40.9929791267]}, "type": "Feature", "properties": {"collection_times": [{"days": "Mon-Fri", "time": "11:00am"}, {"days": "Sat", "time": "10:00am"}, {"days": "Sun", "time": "Closed"}], "id": "0744200006", "name": "USPS COLLECTION BOX - BLUE BOX", "address": {"city": "POMPTON LAKES", "state": "NJ", "street": "760 HAMBURG TPKE", "postcode": "07442"}}},
{"geometry": {"type": "Point", "coordinates": [-74.2895949094, 41.0050772215]}, "type": "Feature", "properties": {"collection_times": [{"days": "Mon-Fri", "time": "5:00pm"}, {"days": "Sat", "time": "3:00pm"}, {"days": "Sun", "time": "Closed"}], "id": "0744200014", "name": "USPS COLLECTION BOX - BLUE BOX", "address": {"city": "POMPTON LAKES", "state": "NJ", "street": "47 LAKESIDE AVE", "postcode": "07442"}}},
{"geometry": {"type": "Point", "coordinates": [-74.2895949094, 41.0050772215]}, "type": "Feature", "properties": {"collection_times": [{"days": "Mon-Fri", "time": "5:00pm"}, {"days": "Sat", "time": "3:00pm"}, {"days": "Sun", "time": "Closed"}], "id": "0744200015", "name": "USPS COLLECTION BOX - BLUE BOX", "address": {"city": "POMPTON LAKES", "state": "NJ", "street": "47 LAKESIDE AVE", "postcode": "07442"}}},
{"geometry": {"type": "Point", "coordinates": [-74.2853971945, 40.9939786955]}, "type": "Feature", "properties": {"collection_times": [{"days": "Mon-Fri", "time": "11:00am"}, {"days": "Sat", "time": "10:00am"}, {"days": "Sun", "time": "Closed"}], "id": "0744200018", "name": "USPS COLLECTION BOX - BLUE BOX", "address": {"city": "POMPTON LAKES", "state": "NJ", "street": "711 RAMAPO AVE", "postcode": "07442"}}},
{"geometry": {"type": "Point", "coordinates": [-74.2922075228, 40.9852656303]}, "type": "Feature", "properties": {"collection_times": [{"days": "Mon-Sat", "time": "10:00am"}, {"days": "Sun", "time": "Closed"}], "id": "0744200020", "name": "USPS COLLECTION BOX - BLUE BOX", "address": {"city": "POMPTON LAKES", "state": "NJ", "street": "403 RIVERDALE BLVD", "postcode": "07442"}}},
{"geometry": {"type": "Point", "coordinates": [-74.2903462959, 41.0030643735]}, "type": "Feature", "properties": {"collection_times": [{"days": "Mon-Fri", "time": "11:00am"}, {"days": "Sat", "time": "10:00am"}, {"days": "Sun", "time": "Closed"}], "id": "0744200022", "name": "USPS COLLECTION BOX - BLUE BOX", "address": {"city": "POMPTON LAKES", "state": "NJ", "street": "25 LENOX AVE", "postcode": "07442"}}},
{"geometry": {"type": "Point", "coordinates": [-74.2895949094, 41.0050772215]}, "type": "Feature", "properties": {"collection_times": [{"days": "Mon-Fri", "time": "5:00pm"}, {"days": "Sat", "time": "3:00pm"}, {"days": "Sun", "time": "Closed"}], "id": "0744200024", "name": "USPS COLLECTION BOX - BLUE BOX", "address": {"city": "POMPTON LAKES", "state": "NJ", "street": "47 LAKESIDE AVE # 3", "postcode": "07442"}}},
{"geometry": {"type": "Point", "coordinates": [-74.2895949094, 41.0050772215]}, "type": "Feature", "properties": {"collection_times": [{"days": "Mon-Fri", "time": "5:00pm"}, {"days": "Sat", "time": "12:30pm"}, {"days": "Sun", "time": "Closed"}], "id": "0744200026", "name": "USPS COLLECTION BOX - PO LOBBY", "address": {"city": "POMPTON LAKES", "state": "NJ", "street": "47 LAKESIDE AVE", "postcode": "07442"}}},
{"geometry": {"type": "Point", "coordinates": [-74.3109869435, 40.9805825394]}, "type": "Feature", "properties": {"collection_times": [{"days": "Mon-Fri", "time": "10:00am"}, {"days": "Sat-Sun", "time": "Closed"}], "id": "0744400001", "name": "USPS COLLECTION BOX - BLUE BOX", "address": {"city": "POMPTON PLAINS", "state": "NJ", "street": "210 W PARKWAY", "postcode": "07444"}}},
{"geometry": {"type": "Point", "coordinates": [-74.2953529771, 40.9653155998]}, "type": "Feature", "properties": {"collection_times": [{"days": "Mon-Fri", "time": "5:00pm"}, {"days": "Sat", "time": "1:00pm"}, {"days": "Sun", "time": "Closed"}], "id": "0744400006", "name": "USPS COLLECTION BOX - BLUE BOX", "address": {"city": "POMPTON PLAINS", "state": "NJ", "street": "538 NEWARK POMPTON TPKE # 1", "postcode": "07444"}}},
{"geometry": {"type": "Point", "coordinates": [-74.2953529771, 40.9653155998]}, "type": "Feature", "properties": {"collection_times": [{"days": "Mon-Fri", "time": "5:00pm"}, {"days": "Sat", "time": "1:00pm"}, {"days": "Sun", "time": "Closed"}], "id": "0744400007", "name": "USPS COLLECTION BOX - BLUE BOX", "address": {"city": "POMPTON PLAINS", "state": "NJ", "street": "538 NEWARK POMPTON TPKE # 2", "postcode": "07444"}}},
{"geometry": {"type": "Point", "coordinates": [-74.2953529771, 40.9653155998]}, "type": "Feature", "properties": {"collection_times": [{"days": "Mon-Fri", "time": "5:00pm"}, {"days": "Sat", "time": "8:00am"}, {"days": "Sun", "time": "Closed"}], "id": "0744400008", "name": "USPS COLLECTION BOX - BLUE BOX", "address": {"city": "POMPTON PLAINS", "state": "NJ", "street": "538 NEWARK POMPTON TPKE", "postcode": "07444"}}},
{"geometry": {"type": "Point", "coordinates": [-74.2953529771, 40.9653155998]}, "type": "Feature", "properties": {"collection_times": [{"days": "Mon-Fri", "time": "5:00pm"}, {"days": "Sat", "time": "1:00pm"}, {"days": "Sun", "time": "Closed"}], "id": "0744400011", "name": "USPS COLLECTION BOX - BLUE BOX", "address": {"city": "POMPTON PLAINS", "state": "NJ", "street": "538 NEWARK POMPTON TPKE UNIT 3", "postcode": "07444"}}},
{"geometry": {"type": "Point", "coordinates": [-74.2953529771, 40.9653155998]}, "type": "Feature", "properties": {"collection_times": [{"days": "Mon-Fri", "time": "5:00pm"}, {"days": "Sat", "time": "12:30pm"}, {"days": "Sun", "time": "Closed"}], "id": "0744400012", "name": "USPS COLLECTION BOX - PO LOBBY", "address": {"city": "POMPTON PLAINS", "state": "NJ", "street": "538 NEWARK POMPTON TPKE STE 1", "postcode": "07444"}}},
{"geometry": {"type": "Point", "coordinates": [-74.1318570926, 41.057799596]}, "type": "Feature", "properties": {"collection_times": [{"days": "Mon-Sat", "time": "2:00pm"}, {"days": "Sun", "time": "Closed"}], "id": "0744600001", "name": "USPS COLLECTION BOX - BLUE BOX", "address": {"city": "RAMSEY", "state": "NJ", "street": "10 S FRANKLIN TPKE", "postcode": "07446"}}},
{"geometry": {"type": "Point", "coordinates": [-74.1372422307, 41.0576822187]}, "type": "Feature", "properties": {"collection_times": [{"days": "Mon-Sat", "time": "2:00pm"}, {"days": "Sun", "time": "Closed"}], "id": "0744600002", "name": "USPS COLLECTION BOX - BLUE BOX", "address": {"city": "RAMSEY", "state": "NJ", "street": "160 E MAIN ST", "postcode": "07446"}}},
{"geometry": {"type": "Point", "coordinates": [-74.1243197659, 41.0621191608]}, "type": "Feature", "properties": {"collection_times": [{"days": "Mon-Fri", "time": "5:00pm"}, {"days": "Sat", "time": "2:00pm"}, {"days": "Sun", "time": "Closed"}], "id": "0744600004", "name": "USPS COLLECTION BOX - BLUE BOX", "address": {"city": "RAMSEY", "state": "NJ", "street": "400 LAKE ST", "postcode": "07446"}}},
{"geometry": {"type": "Point", "coordinates": [-74.1327304252, 41.0607768394]}, "type": "Feature", "properties": {"collection_times": [{"days": "Mon-Sat", "time": "2:00pm"}, {"days": "Sun", "time": "Closed"}], "id": "0744600006", "name": "USPS COLLECTION BOX - BLUE BOX", "address": {"city": "RAMSEY", "state": "NJ", "street": "79 N FRANKLIN TPKE", "postcode": "07446"}}},
{"geometry": {"type": "Point", "coordinates": [-74.1440016583, 41.0585292173]}, "type": "Feature", "properties": {"collection_times": [{"days": "Mon-Sat", "time": "2:00pm"}, {"days": "Sun", "time": "Closed"}], "id": "0744600007", "name": "USPS COLLECTION BOX - BLUE BOX", "address": {"city": "RAMSEY", "state": "NJ", "street": "33 N CENTRAL AVE", "postcode": "07446"}}},
{"geometry": {"type": "Point", "coordinates": [-74.1429684189, 41.055363581]}, "type": "Feature", "properties": {"collection_times": [{"days": "Mon-Sat", "time": "2:00pm"}, {"days": "Sun", "time": "Closed"}], "id": "0744600010", "name": "USPS COLLECTION BOX - BLUE BOX", "address": {"city": "RAMSEY", "state": "NJ", "street": "10 ERIE PLZ", "postcode": "07446"}}},
{"geometry": {"type": "Point", "coordinates": [-74.1387311781, 41.0706579314]}, "type": "Feature", "properties": {"collection_times": [{"days": "Mon-Sat", "time": "2:00pm"}, {"days": "Sun", "time": "Closed"}], "id": "0744600011", "name": "USPS COLLECTION BOX - BLUE BOX", "address": {"city": "RAMSEY", "state": "NJ", "street": "125 INTERSTATE", "postcode": "07446"}}},
{"geometry": {"type": "Point", "coordinates": [-74.1369353746, 41.0577701499]}, "type": "Feature", "properties": {"collection_times": [{"days": "Mon-Fri", "time": "5:00pm"}, {"days": "Sat", "time": "2:00pm"}, {"days": "Sun", "time": "Closed"}], "id": "0744600012", "name": "USPS COLLECTION BOX - BLUE BOX", "address": {"city": "RAMSEY", "state": "NJ", "street": "175 E MAIN ST", "postcode": "07446"}}},
{"geometry": {"type": "Point", "coordinates": [-74.1369353746, 41.0577701499]}, "type": "Feature", "properties": {"collection_times": [{"days": "Mon-Fri", "time": "5:00pm"}, {"days": "Sat", "time": "2:00pm"}, {"days": "Sun", "time": "Closed"}], "id": "0744600013", "name": "USPS COLLECTION BOX - BLUE BOX", "address": {"city": "RAMSEY", "state": "NJ", "street": "175 E MAIN ST UNIT 1", "postcode": "07446"}}},
{"geometry": {"type": "Point", "coordinates": [-74.1369353746, 41.0577701499]}, "type": "Feature", "properties": {"collection_times": [{"days": "Mon-Fri", "time": "5:00pm"}, {"days": "Sat", "time": "2:00pm"}, {"days": "Sun", "time": "Closed"}], "id": "0744600014", "name": "USPS COLLECTION BOX - BLUE BOX", "address": {"city": "RAMSEY", "state": "NJ", "street": "175 E MAIN ST UNIT 2", "postcode": "07446"}}},
{"geometry": {"type": "Point", "coordinates": [-74.1369353746, 41.0577701499]}, "type": "Feature", "properties": {"collection_times": [{"days": "Mon-Fri", "time": "5:00pm"}, {"days": "Sat", "time": "12:45pm"}, {"days": "Sun", "time": "Closed"}], "id": "0744600015", "name": "USPS COLLECTION BOX - PO LOBBY", "address": {"city": "RAMSEY", "state": "NJ", "street": "175 E MAIN ST", "postcode": "07446"}}},
{"geometry": {"type": "Point", "coordinates": [-74.1184840504, 40.9823147201]}, "type": "Feature", "properties": {"collection_times": [{"days": "Mon-Sat", "time": "10:00am"}, {"days": "Sun", "time": "Closed"}], "id": "0745000001", "name": "USPS COLLECTION BOX - BLUE BOX", "address": {"city": "RIDGEWOOD", "state": "NJ", "street": "104 CHESTNUT ST", "postcode": "07450"}}},
{"geometry": {"type": "Point", "coordinates": [-74.1152779202, 40.9779315012]}, "type": "Feature", "properties": {"collection_times": [{"days": "Mon-Sat", "time": "10:00am"}, {"days": "Sun", "time": "Closed"}], "id": "0745000004", "name": "USPS COLLECTION BOX - BLUE BOX", "address": {"city": "RIDGEWOOD", "state": "NJ", "street": "199 DAYTON ST", "postcode": "07450"}}},
{"geometry": {"type": "Point", "coordinates": [-74.1147603585, 40.9796224271]}, "type": "Feature", "properties": {"collection_times": [{"days": "Mon-Sat", "time": "10:00am"}, {"days": "Sun", "time": "Closed"}], "id": "0745000014", "name": "USPS COLLECTION BOX - BLUE BOX", "address": {"city": "RIDGEWOOD", "state": "NJ", "street": "49 COTTAGE PL", "postcode": "07450"}}},
{"geometry": {"type": "Point", "coordinates": [-74.0926233845, 40.9851928592]}, "type": "Feature", "properties": {"collection_times": [{"days": "Mon-Sat", "time": "10:00am"}, {"days": "Sun", "time": "Closed"}], "id": "0745000019", "name": "USPS COLLECTION BOX - BLUE BOX", "address": {"city": "RIDGEWOOD", "state": "NJ", "street": "660 E GLEN AVE", "postcode": "07450"}}},
{"geometry": {"type": "Point", "coordinates": [-74.1148464516, 40.9789125301]}, "type": "Feature", "properties": {"collection_times": [{"days": "Mon-Sat", "time": "10:00am"}, {"days": "Sun", "time": "Closed"}], "id": "0745000020", "name": "USPS COLLECTION BOX - BLUE BOX", "address": {"city": "RIDGEWOOD", "state": "NJ", "street": "201 E RIDGEWOOD AVE", "postcode": "07450"}}},
{"geometry": {"type": "Point", "coordinates": [-74.1179846387, 40.9795778281]}, "type": "Feature", "properties": {"collection_times": [{"days": "Mon-Sat", "time": "10:00am"}, {"days": "Sun", "time": "Closed"}], "id": "0745000022", "name": "USPS COLLECTION BOX - BLUE BOX", "address": {"city": "RIDGEWOOD", "state": "NJ", "street": "9 OAK ST", "postcode": "07450"}}},
{"geometry": {"type": "Point", "coordinates": [-74.1196587287, 40.9813399619]}, "type": "Feature", "properties": {"collection_times": [{"days": "Mon-Sat", "time": "10:30am"}, {"days": "Sun", "time": "Closed"}], "id": "0745000039", "name": "USPS COLLECTION BOX - BLUE BOX", "address": {"city": "RIDGEWOOD", "state": "NJ", "street": "4 FRANKLIN AVE", "postcode": "07450"}}},
{"geometry": {"type": "Point", "coordinates": [-74.1168894217, 40.9830883752]}, "type": "Feature", "properties": {"collection_times": [{"days": "Mon-Sat", "time": "10:00am"}, {"days": "Sun", "time": "Closed"}], "id": "0745000044", "name": "USPS COLLECTION BOX - BLUE BOX", "address": {"city": "RIDGEWOOD", "state": "NJ", "street": "112 OAK ST", "postcode": "07450"}}},
{"geometry": {"type": "Point", "coordinates": [-74.1168057396, 40.9793564628]}, "type": "Feature", "properties": {"collection_times": [{"days": "Mon-Fri", "time": "5:00pm"}, {"days": "Sat", "time": "1:00pm"}, {"days": "Sun", "time": "Closed"}], "id": "0745000047", "name": "USPS COLLECTION BOX - BLUE BOX", "address": {"city": "RIDGEWOOD", "state": "NJ", "street": "143 E RIDGEWOOD AVE", "postcode": "07450"}}},
{"geometry": {"type": "Point", "coordinates": [-74.1166480981, 40.9801014039]}, "type": "Feature", "properties": {"collection_times": [{"days": "Mon-Fri", "time": "5:00pm"}, {"days": "Sat", "time": "1:00pm"}, {"days": "Sun", "time": "Closed"}], "id": "0745000051", "name": "USPS COLLECTION BOX - BLUE BOX", "address": {"city": "RIDGEWOOD", "state": "NJ", "street": "41 N WALNUT ST      #2", "postcode": "07450"}}},
{"geometry": {"type": "Point", "coordinates": [-74.1062782798, 40.9693885275]}, "type": "Feature", "properties": {"collection_times": [{"days": "Mon-Sat", "time": "10:00am"}, {"days": "Sun", "time": "Closed"}], "id": "0745000056", "name": "USPS COLLECTION BOX - BLUE BOX", "address": {"city": "RIDGEWOOD", "state": "NJ", "street": "304 S VAN DIEN AVE", "postcode": "07450"}}},
{"geometry": {"type": "Point", "coordinates": [-74.1125101614, 40.9821280639]}, "type": "Feature", "properties": {"collection_times": [{"days": "Mon-Sat", "time": "10:00am"}, {"days": "Sun", "time": "Closed"}], "id": "0745000057", "name": "USPS COLLECTION BOX - BLUE BOX", "address": {"city": "RIDGEWOOD", "state": "NJ", "street": "195 SPRING AVE", "postcode": "07450"}}},
{"geometry": {"type": "Point", "coordinates": [-74.1128705155, 40.9790263747]}, "type": "Feature", "properties": {"collection_times": [{"days": "Mon-Sat", "time": "10:00am"}, {"days": "Sun", "time": "Closed"}], "id": "0745000059", "name": "USPS COLLECTION BOX - BLUE BOX", "address": {"city": "RIDGEWOOD", "state": "NJ", "street": "25 N MAPLE AVE", "postcode": "07450"}}},
{"geometry": {"type": "Point", "coordinates": [-74.1015357973, 40.984479535]}, "type": "Feature", "properties": {"collection_times": [{"days": "Mon-Sat", "time": "10:00am"}, {"days": "Sun", "time": "Closed"}], "id": "0745000060", "name": "USPS COLLECTION BOX - BLUE BOX", "address": {"city": "RIDGEWOOD", "state": "NJ", "street": "223 N VAN DIEN AVE", "postcode": "07450"}}},
{"geometry": {"type": "Point", "coordinates": [-74.1197427188, 40.9797098444]}, "type": "Feature", "properties": {"collection_times": [{"days": "Mon-Sat", "time": "10:00am"}, {"days": "Sun", "time": "Closed"}], "id": "0745000063", "name": "USPS COLLECTION BOX - BLUE BOX", "address": {"city": "RIDGEWOOD", "state": "NJ", "street": "15 W RIDGEWOOD AVE", "postcode": "07450"}}},
{"geometry": {"type": "Point", "coordinates": [-74.1216792226, 40.9797039297]}, "type": "Feature", "properties": {"collection_times": [{"days": "Mon-Sat", "time": "10:00am"}, {"days": "Sun", "time": "Closed"}], "id": "0745000066", "name": "USPS COLLECTION BOX - BLUE BOX", "address": {"city": "RIDGEWOOD", "state": "NJ", "street": "10 WILSEY SQ", "postcode": "07450"}}},
{"geometry": {"type": "Point", "coordinates": [-74.094079607, 40.9732804625]}, "type": "Feature", "properties": {"collection_times": [{"days": "Mon-Sat", "time": "10:00am"}, {"days": "Sun", "time": "Closed"}], "id": "0745000067", "name": "USPS COLLECTION BOX - BLUE BOX", "address": {"city": "RIDGEWOOD", "state": "NJ", "street": "1200 E RIDGEWOOD AVE", "postcode": "07450"}}},
{"geometry": {"type": "Point", "coordinates": [-74.1125976466, 40.9821077023]}, "type": "Feature", "properties": {"collection_times": [{"days": "Mon-Sat", "time": "10:00am"}, {"days": "Sun", "time": "Closed"}], "id": "0745000068", "name": "USPS COLLECTION BOX - BLUE BOX", "address": {"city": "RIDGEWOOD", "state": "NJ", "street": "131 N MAPLE AVE", "postcode": "07450"}}},
{"geometry": {"type": "Point", "coordinates": [-74.1166480981, 40.9801014039]}, "type": "Feature", "properties": {"collection_times": [{"days": "Mon-Fri", "time": "5:00pm"}, {"days": "Sat", "time": "1:00pm"}, {"days": "Sun", "time": "Closed"}], "id": "0745000069", "name": "USPS COLLECTION BOX - BLUE BOX", "address": {"city": "RIDGEWOOD", "state": "NJ", "street": "41 N WALNUT ST", "postcode": "07450"}}},
{"geometry": {"type": "Point", "coordinates": [-74.1168057396, 40.9793564628]}, "type": "Feature", "properties": {"collection_times": [{"days": "Mon-Fri", "time": "5:00pm"}, {"days": "Sat", "time": "1:00pm"}, {"days": "Sun", "time": "Closed"}], "id": "0745000070", "name": "USPS COLLECTION BOX - PO LOBBY", "address": {"city": "RIDGEWOOD", "state": "NJ", "street": "143 E RIDGEWOOD AVE", "postcode": "07450"}}},
{"geometry": {"type": "Point", "coordinates": [-74.1308743626, 40.9615230333]}, "type": "Feature", "properties": {"collection_times": [{"days": "Mon-Fri", "time": "5:00pm"}, {"days": "Sat", "time": "1:00pm"}, {"days": "Sun", "time": "Closed"}], "id": "0745200002", "name": "USPS COLLECTION BOX - BLUE BOX", "address": {"city": "GLEN ROCK", "state": "NJ", "street": "73 GLEN AVE", "postcode": "07452"}}},
{"geometry": {"type": "Point", "coordinates": [-74.133168815, 40.9626118284]}, "type": "Feature", "properties": {"collection_times": [{"days": "Mon-Sat", "time": "10:00am"}, {"days": "Sun", "time": "Closed"}], "id": "0745200003", "name": "USPS COLLECTION BOX - BLUE BOX", "address": {"city": "GLEN ROCK", "state": "NJ", "street": "176 ROCK RD", "postcode": "07452"}}},
{"geometry": {"type": "Point", "coordinates": [-74.1414843216, 40.9503570836]}, "type": "Feature", "properties": {"collection_times": [{"days": "Mon-Sat", "time": "10:00am"}, {"days": "Sun", "time": "Closed"}], "id": "0745200004", "name": "USPS COLLECTION BOX - BLUE BOX", "address": {"city": "GLEN ROCK", "state": "NJ", "street": "1 DE BOER DR # 1", "postcode": "07452"}}},
{"geometry": {"type": "Point", "coordinates": [-74.1357542011, 40.9519131252]}, "type": "Feature", "properties": {"collection_times": [{"days": "Mon-Sat", "time": "10:00am"}, {"days": "Sun", "time": "Closed"}], "id": "0745200006", "name": "USPS COLLECTION BOX - BLUE BOX", "address": {"city": "GLEN ROCK", "state": "NJ", "street": "266 HARRISTOWN RD", "postcode": "07452"}}},
{"geometry": {"type": "Point", "coordinates": [-74.1188414618, 40.9700284404]}, "type": "Feature", "properties": {"collection_times": [{"days": "Mon-Sat", "time": "10:00am"}, {"days": "Sun", "time": "Closed"}], "id": "0745200007", "name": "USPS COLLECTION BOX - BLUE BOX", "address": {"city": "GLEN ROCK", "state": "NJ", "street": "385 S MAPLE AVE", "postcode": "07452"}}},
{"geometry": {"type": "Point", "coordinates": [-74.1079256444, 40.9526339503]}, "type": "Feature", "properties": {"collection_times": [{"days": "Mon-Sat", "time": "10:00am"}, {"days": "Sun", "time": "Closed"}], "id": "0745200016", "name": "USPS COLLECTION BOX - BLUE BOX", "address": {"city": "GLEN ROCK", "state": "NJ", "street": "886 PROSPECT ST", "postcode": "07452"}}},
{"geometry": {"type": "Point", "coordinates": [-74.1287124401, 40.9622669285]}, "type": "Feature", "properties": {"collection_times": [{"days": "Mon-Sat", "time": "10:00am"}, {"days": "Sun", "time": "Closed"}], "id": "0745200018", "name": "USPS COLLECTION BOX - BLUE BOX", "address": {"city": "GLEN ROCK", "state": "NJ", "street": "1 HARDING PLZ", "postcode": "07452"}}},
{"geometry": {"type": "Point", "coordinates": [-74.1296383694, 40.9615886412]}, "type": "Feature", "properties": {"collection_times": [{"days": "Mon-Sat", "time": "10:00am"}, {"days": "Sun", "time": "Closed"}], "id": "0745200019", "name": "USPS COLLECTION BOX - BLUE BOX", "address": {"city": "GLEN ROCK", "state": "NJ", "street": "1 W PLAZA EXT", "postcode": "07452"}}},
{"geometry": {"type": "Point", "coordinates": [-74.1308743626, 40.9615230333]}, "type": "Feature", "properties": {"collection_times": [{"days": "Mon-Fri", "time": "5:00pm"}, {"days": "Sat", "time": "3:30pm"}, {"days": "Sun", "time": "Closed"}], "id": "0745200023", "name": "USPS COLLECTION BOX - PO LOBBY", "address": {"city": "GLEN ROCK", "state": "NJ", "street": "73 GLEN AVE", "postcode": "07452"}}},
{"geometry": {"type": "Point", "coordinates": [-74.2512569987, 41.1105758629]}, "type": "Feature", "properties": {"collection_times": [{"days": "Mon-Sat", "time": "10:00am"}, {"days": "Sun", "time": "Closed"}], "id": "0745600001", "name": "USPS COLLECTION BOX - BLUE BOX", "address": {"city": "RINGWOOD", "state": "NJ", "street": "1 CUPSAW DR", "postcode": "07456"}}},
{"geometry": {"type": "Point", "coordinates": [-74.2643488056, 41.0899947428]}, "type": "Feature", "properties": {"collection_times": [{"days": "Mon-Sat", "time": "10:00am"}, {"days": "Sun", "time": "Closed"}], "id": "0745600003", "name": "USPS COLLECTION BOX - BLUE BOX", "address": {"city": "RINGWOOD", "state": "NJ", "street": "55 SKYLINE DR", "postcode": "07456"}}},
{"geometry": {"type": "Point", "coordinates": [-74.26523011, 41.1289578623]}, "type": "Feature", "properties": {"collection_times": [{"days": "Mon-Sat", "time": "10:00am"}, {"days": "Sun", "time": "Closed"}], "id": "0745600006", "name": "USPS COLLECTION BOX - BLUE BOX", "address": {"city": "RINGWOOD", "state": "NJ", "street": "60 MARGARET KING AVE", "postcode": "07456"}}},
{"geometry": {"type": "Point", "coordinates": [-74.2623022866, 41.0853610926]}, "type": "Feature", "properties": {"collection_times": [{"days": "Mon-Fri", "time": "5:00pm"}, {"days": "Sat", "time": "3:30pm"}, {"days": "Sun", "time": "Closed"}], "id": "0745600010", "name": "USPS COLLECTION BOX - BLUE BOX", "address": {"city": "RINGWOOD", "state": "NJ", "street": "130 SKYLINE DR STE 1", "postcode": "07456"}}},
{"geometry": {"type": "Point", "coordinates": [-74.2623022866, 41.0853610926]}, "type": "Feature", "properties": {"collection_times": [{"days": "Mon-Fri", "time": "5:00pm"}, {"days": "Sat", "time": "3:30pm"}, {"days": "Sun", "time": "Closed"}], "id": "0745600011", "name": "USPS COLLECTION BOX - PO LOBBY", "address": {"city": "RINGWOOD", "state": "NJ", "street": "130 SKYLINE DR STE 5", "postcode": "07456"}}},
{"geometry": {"type": "Point", "coordinates": [-74.3027778659, 40.9985217572]}, "type": "Feature", "properties": {"collection_times": [{"days": "Mon-Fri", "time": "5:00pm"}, {"days": "Sat", "time": "3:00pm"}, {"days": "Sun", "time": "Closed"}], "id": "0745700006", "name": "USPS COLLECTION BOX - BLUE BOX", "address": {"city": "RIVERDALE", "state": "NJ", "street": "56 HAMBURG TPKE", "postcode": "07457"}}},
{"geometry": {"type": "Point", "coordinates": [-74.3027778659, 40.9985217572]}, "type": "Feature", "properties": {"collection_times": [{"days": "Mon-Fri", "time": "5:00pm"}, {"days": "Sat", "time": "12:00pm"}, {"days": "Sun", "time": "Closed"}], "id": "0745700007", "name": "USPS COLLECTION BOX - PO LOBBY", "address": {"city": "RIVERDALE", "state": "NJ", "street": "56 HAMBURG TPKE", "postcode": "07457"}}},
{"geometry": {"type": "Point", "coordinates": [-74.1192439639, 41.0626365282]}, "type": "Feature", "properties": {"collection_times": [{"days": "Mon-Sat", "time": "10:30am"}, {"days": "Sun", "time": "Closed"}], "id": "0745800001", "name": "USPS COLLECTION BOX - BLUE BOX", "address": {"city": "U SADDLE RIV", "state": "NJ", "street": "10 MOUNTAINVIEW RD", "postcode": "07458"}}},
{"geometry": {"type": "Point", "coordinates": [-74.0969880851, 41.0459781423]}, "type": "Feature", "properties": {"collection_times": [{"days": "Mon-Sat", "time": "10:30am"}, {"days": "Sun", "time": "Closed"}], "id": "0745800004", "name": "USPS COLLECTION BOX - BLUE BOX", "address": {"city": "U SADDLE RIV", "state": "NJ", "street": "2 PARKWAY PKWY", "postcode": "07458"}}},
{"geometry": {"type": "Point", "coordinates": [-74.1021544849, 41.0379055107]}, "type": "Feature", "properties": {"collection_times": [{"days": "Mon-Fri", "time": "5:00pm"}, {"days": "Sat", "time": "4:00pm"}, {"days": "Sun", "time": "Closed"}], "id": "0745800013", "name": "USPS COLLECTION BOX - BLUE BOX", "address": {"city": "U SADDLE RIV", "state": "NJ", "street": "177 E SADDLE RIVER RD", "postcode": "07458"}}},
{"geometry": {"type": "Point", "coordinates": [-74.1021544849, 41.0379055107]}, "type": "Feature", "properties": {"collection_times": [{"days": "Mon-Fri", "time": "5:00pm"}, {"days": "Sat", "time": "4:00pm"}, {"days": "Sun", "time": "Closed"}], "id": "0745800014", "name": "USPS COLLECTION BOX - BLUE BOX", "address": {"city": "U SADDLE RIV", "state": "NJ", "street": "177 E SADDLE RIVER RD", "postcode": "07458"}}},
{"geometry": {"type": "Point", "coordinates": [-74.1021544849, 41.0379055107]}, "type": "Feature", "properties": {"collection_times": [{"days": "Mon-Fri", "time": "5:00pm"}, {"days": "Sat", "time": "4:00pm"}, {"days": "Sun", "time": "Closed"}], "id": "0745800015", "name": "USPS COLLECTION BOX - BLUE BOX", "address": {"city": "U SADDLE RIV", "state": "NJ", "street": "177 E SADDLE RIVER RD", "postcode": "07458"}}},
{"geometry": {"type": "Point", "coordinates": [-74.1021544849, 41.0379055107]}, "type": "Feature", "properties": {"collection_times": [{"days": "Mon-Fri", "time": "5:00pm"}, {"days": "Sat", "time": "4:00pm"}, {"days": "Sun", "time": "Closed"}], "id": "0745800016", "name": "USPS COLLECTION BOX - BLUE BOX", "address": {"city": "U SADDLE RIV", "state": "NJ", "street": "177 E SADDLE RIVER RD", "postcode": "07458"}}},
{"geometry": {"type": "Point", "coordinates": [-74.1021544849, 41.0379055107]}, "type": "Feature", "properties": {"collection_times": [{"days": "Mon-Fri", "time": "5:00pm"}, {"days": "Sat", "time": "2:00pm"}, {"days": "Sun", "time": "Closed"}], "id": "0745800017", "name": "USPS COLLECTION BOX - PO LOBBY", "address": {"city": "U SADDLE RIV", "state": "NJ", "street": "177 E SADDLE RIVER RD STE 2", "postcode": "07458"}}},
{"geometry": {"type": "Point", "coordinates": [-74.5707079529, 41.102850262]}, "type": "Feature", "properties": {"collection_times": [{"days": "Mon-Fri", "time": "4:30pm"}, {"days": "Sat", "time": "2:45pm"}, {"days": "Sun", "time": "Closed"}], "id": "0746000001", "name": "USPS COLLECTION BOX - BLUE BOX", "address": {"city": "STOCKHOLM", "state": "NJ", "street": "2741 ROUTE 23", "postcode": "07460"}}},
{"geometry": {"type": "Point", "coordinates": [-74.5707079529, 41.102850262]}, "type": "Feature", "properties": {"collection_times": [{"days": "Mon-Fri", "time": "4:30pm"}, {"days": "Sat", "time": "2:45pm"}, {"days": "Sun", "time": "Closed"}], "id": "0746000002", "name": "USPS COLLECTION BOX - PO LOBBY", "address": {"city": "STOCKHOLM", "state": "NJ", "street": "2741 STATE RT 23 STE 4", "postcode": "07460"}}},
{"geometry": {"type": "Point", "coordinates": [-74.5817778066, 41.2405940767]}, "type": "Feature", "properties": {"collection_times": [{"days": "Mon-Sat", "time": "9:00am"}, {"days": "Sun", "time": "Closed"}], "id": "0746100001", "name": "USPS COLLECTION BOX - BLUE BOX", "address": {"city": "SUSSEX", "state": "NJ", "street": "199 ROUTE 284", "postcode": "07461"}}},
{"geometry": {"type": "Point", "coordinates": [-74.6211404357, 41.2402460924]}, "type": "Feature", "properties": {"collection_times": [{"days": "Mon-Sat", "time": "10:00am"}, {"days": "Sun", "time": "Closed"}], "id": "0746100002", "name": "USPS COLLECTION BOX - BLUE BOX", "address": {"city": "SUSSEX", "state": "NJ", "street": "888 ROUTE 23", "postcode": "07461"}}},
{"geometry": {"type": "Point", "coordinates": [-74.590284967, 41.1814094869]}, "type": "Feature", "properties": {"collection_times": [{"days": "Mon-Sat", "time": "9:00am"}, {"days": "Sun", "time": "Closed"}], "id": "0746100006", "name": "USPS COLLECTION BOX - BLUE BOX", "address": {"city": "SUSSEX", "state": "NJ", "street": "205 ROUTE 23", "postcode": "07461"}}},
{"geometry": {"type": "Point", "coordinates": [-74.6080605658, 41.2111863469]}, "type": "Feature", "properties": {"collection_times": [{"days": "Mon-Sat", "time": "10:00am"}, {"days": "Sun", "time": "Closed"}], "id": "0746100009", "name": "USPS COLLECTION BOX - BLUE BOX", "address": {"city": "SUSSEX", "state": "NJ", "street": "59 MAIN ST", "postcode": "07461"}}},
{"geometry": {"type": "Point", "coordinates": [-74.599735739, 41.2012974003]}, "type": "Feature", "properties": {"collection_times": [{"days": "Mon-Fri", "time": "5:00pm"}, {"days": "Sat", "time": "3:30pm"}, {"days": "Sun", "time": "Closed"}], "id": "0746100010", "name": "USPS COLLECTION BOX - BLUE BOX", "address": {"city": "SUSSEX", "state": "NJ", "street": "455 ROUTE 23", "postcode": "07461"}}},
{"geometry": {"type": "Point", "coordinates": [-74.599735739, 41.2012974003]}, "type": "Feature", "properties": {"collection_times": [{"days": "Mon-Fri", "time": "5:00pm"}, {"days": "Sat", "time": "3:30pm"}, {"days": "Sun", "time": "Closed"}], "id": "0746100011", "name": "USPS COLLECTION BOX - BLUE BOX", "address": {"city": "SUSSEX", "state": "NJ", "street": "455 ROUTE 23", "postcode": "07461"}}},
{"geometry": {"type": "Point", "coordinates": [-74.6036081198, 41.207726257]}, "type": "Feature", "properties": {"collection_times": [{"days": "Mon-Sat", "time": "1:00pm"}, {"days": "Sun", "time": "Closed"}], "id": "0746100014", "name": "USPS COLLECTION BOX - BLUE BOX", "address": {"city": "SUSSEX", "state": "NJ", "street": "20 WALNUT ST", "postcode": "07461"}}},
{"geometry": {"type": "Point", "coordinates": [-74.5363177334, 41.2389971584]}, "type": "Feature", "properties": {"collection_times": [{"days": "Mon-Sat", "time": "10:00am"}, {"days": "Sun", "time": "Closed"}], "id": "0746100016", "name": "USPS COLLECTION BOX - BLUE BOX", "address": {"city": "SUSSEX", "state": "NJ", "street": "5 WALLKILL DR", "postcode": "07461"}}},
{"geometry": {"type": "Point", "coordinates": [-74.6061292359, 41.2410064594]}, "type": "Feature", "properties": {"collection_times": [{"days": "Mon-Fri", "time": "5:00pm"}, {"days": "Sat", "time": "3:30pm"}, {"days": "Sun", "time": "Closed"}], "id": "0746100017", "name": "USPS COLLECTION BOX - PO LOBBY", "address": {"city": "SUSSEX", "state": "NJ", "street": "455 STATE RT 23 STE 5", "postcode": "07461"}}},
{"geometry": {"type": "Point", "coordinates": [-74.4852346285, 41.1898443102]}, "type": "Feature", "properties": {"collection_times": [{"days": "Mon-Fri", "time": "4:45pm"}, {"days": "Sat", "time": "2:45pm"}, {"days": "Sun", "time": "Closed"}], "id": "0746200001", "name": "USPS COLLECTION BOX - BLUE BOX", "address": {"city": "VERNON", "state": "NJ", "street": "530 ROUTE 515", "postcode": "07462"}}},
{"geometry": {"type": "Point", "coordinates": [-74.4852346285, 41.1898443102]}, "type": "Feature", "properties": {"collection_times": [{"days": "Mon-Fri", "time": "12:00pm"}, {"days": "Sat", "time": "11:30am"}, {"days": "Sun", "time": "Closed"}], "id": "0746200003", "name": "USPS COLLECTION BOX - BLUE BOX", "address": {"city": "VERNON", "state": "NJ", "street": "530 ROUTE 515", "postcode": "07462"}}},
{"geometry": {"type": "Point", "coordinates": [-74.5178379482, 41.185860013]}, "type": "Feature", "properties": {"collection_times": [{"days": "Mon-Sat", "time": "11:00am"}, {"days": "Sun", "time": "Closed"}], "id": "0746200005", "name": "USPS COLLECTION BOX - BLUE BOX", "address": {"city": "VERNON", "state": "NJ", "street": "1 SNOWMASS CT", "postcode": "07462"}}},
{"geometry": {"type": "Point", "coordinates": [-74.5197873234, 41.1849956057]}, "type": "Feature", "properties": {"collection_times": [{"days": "Mon-Sat", "time": "11:00am"}, {"days": "Sun", "time": "Closed"}], "id": "0746200006", "name": "USPS COLLECTION BOX - BLUE BOX", "address": {"city": "VERNON", "state": "NJ", "street": "1 INSBROOK DR", "postcode": "07462"}}},
{"geometry": {"type": "Point", "coordinates": [-74.4852346285, 41.1898443102]}, "type": "Feature", "properties": {"collection_times": [{"days": "Mon-Fri", "time": "4:45pm"}, {"days": "Sat", "time": "1:00pm"}, {"days": "Sun", "time": "Closed"}], "id": "0746200007", "name": "USPS COLLECTION BOX - PO LOBBY", "address": {"city": "VERNON", "state": "NJ", "street": "530 STATE ROUTE 515 UNIT 13", "postcode": "07462"}}},
{"geometry": {"type": "Point", "coordinates": [-74.1185065266, 41.0109648033]}, "type": "Feature", "properties": {"collection_times": [{"days": "Mon-Sat", "time": "10:00am"}, {"days": "Sun", "time": "Closed"}], "id": "0746300001", "name": "USPS COLLECTION BOX - BLUE BOX", "address": {"city": "WALDWICK", "state": "NJ", "street": "15 E PROSPECT ST", "postcode": "07463"}}},
{"geometry": {"type": "Point", "coordinates": [-74.1226066624, 41.0196524539]}, "type": "Feature", "properties": {"collection_times": [{"days": "Mon-Sat", "time": "10:00am"}, {"days": "Sun", "time": "Closed"}], "id": "0746300015", "name": "USPS COLLECTION BOX - BLUE BOX", "address": {"city": "WALDWICK", "state": "NJ", "street": "167 FRANKLIN TPKE", "postcode": "07463"}}},
{"geometry": {"type": "Point", "coordinates": [-74.1204964784, 41.008940075]}, "type": "Feature", "properties": {"collection_times": [{"days": "Mon-Fri", "time": "5:00pm"}, {"days": "Sat", "time": "2:00pm"}, {"days": "Sun", "time": "Closed"}], "id": "0746300016", "name": "USPS COLLECTION BOX - BLUE BOX", "address": {"city": "WALDWICK", "state": "NJ", "street": "1 WALTER HAMMOND PL", "postcode": "07463"}}},
{"geometry": {"type": "Point", "coordinates": [-74.1204964784, 41.008940075]}, "type": "Feature", "properties": {"collection_times": [{"days": "Mon-Fri", "time": "5:00pm"}, {"days": "Sat", "time": "2:00pm"}, {"days": "Sun", "time": "Closed"}], "id": "0746300018", "name": "USPS COLLECTION BOX - BLUE BOX", "address": {"city": "WALDWICK", "state": "NJ", "street": "1 WALTER HAMMOND PL", "postcode": "07463"}}},
{"geometry": {"type": "Point", "coordinates": [-74.149299841, 41.0132960512]}, "type": "Feature", "properties": {"collection_times": [{"days": "Mon-Sat", "time": "10:00am"}, {"days": "Sun", "time": "Closed"}], "id": "0746300024", "name": "USPS COLLECTION BOX - BLUE BOX", "address": {"city": "WALDWICK", "state": "NJ", "street": "1 TAMARON DR", "postcode": "07463"}}},
{"geometry": {"type": "Point", "coordinates": [-74.1137439338, 41.0138760653]}, "type": "Feature", "properties": {"collection_times": [{"days": "Mon-Sat", "time": "10:00am"}, {"days": "Sun", "time": "Closed"}], "id": "0746300030", "name": "USPS COLLECTION BOX - BLUE BOX", "address": {"city": "WALDWICK", "state": "NJ", "street": "75 LINCOLN PL", "postcode": "07463"}}},
{"geometry": {"type": "Point", "coordinates": [-74.1227486175, 41.017025102]}, "type": "Feature", "properties": {"collection_times": [{"days": "Mon-Fri", "time": "10:00am"}, {"days": "Sat-Sun", "time": "Closed"}], "id": "0746300032", "name": "USPS COLLECTION BOX - BLUE BOX", "address": {"city": "WALDWICK", "state": "NJ", "street": "4 NORTH ST CIR", "postcode": "07463"}}},
{"geometry": {"type": "Point", "coordinates": [-74.1204964784, 41.008940075]}, "type": "Feature", "properties": {"collection_times": [{"days": "Mon-Fri", "time": "5:00pm"}, {"days": "Sat", "time": "12:30pm"}, {"days": "Sun", "time": "Closed"}], "id": "0746300033", "name": "USPS COLLECTION BOX - PO LOBBY", "address": {"city": "WALDWICK", "state": "NJ", "street": "1 WALTER HAMMOND PL", "postcode": "07463"}}},
{"geometry": {"type": "Point", "coordinates": [-74.2889320089, 41.0514723163]}, "type": "Feature", "properties": {"collection_times": [{"days": "Mon-Sat", "time": "10:00am"}, {"days": "Sun", "time": "Closed"}], "id": "0746500003", "name": "USPS COLLECTION BOX - BLUE BOX", "address": {"city": "WANAQUE", "state": "NJ", "street": "579 RINGWOOD AVE", "postcode": "07465"}}},
{"geometry": {"type": "Point", "coordinates": [-74.2898843088, 41.0482350357]}, "type": "Feature", "properties": {"collection_times": [{"days": "Mon-Sat", "time": "10:00am"}, {"days": "Sun", "time": "Closed"}], "id": "0746500004", "name": "USPS COLLECTION BOX - BLUE BOX", "address": {"city": "WANAQUE", "state": "NJ", "street": "662 RINGWOOD AVE", "postcode": "07465"}}},
{"geometry": {"type": "Point", "coordinates": [-74.2879027015, 41.0543711166]}, "type": "Feature", "properties": {"collection_times": [{"days": "Mon-Fri", "time": "5:00pm"}, {"days": "Sat", "time": "2:45pm"}, {"days": "Sun", "time": "Closed"}], "id": "0746500006", "name": "USPS COLLECTION BOX - BLUE BOX", "address": {"city": "WANAQUE", "state": "NJ", "street": "500 RINGWOOD AVE", "postcode": "07465"}}},
{"geometry": {"type": "Point", "coordinates": [-74.2879027015, 41.0543711166]}, "type": "Feature", "properties": {"collection_times": [{"days": "Mon-Fri", "time": "5:00pm"}, {"days": "Sat", "time": "2:45pm"}, {"days": "Sun", "time": "Closed"}], "id": "0746500007", "name": "USPS COLLECTION BOX - BLUE BOX", "address": {"city": "WANAQUE", "state": "NJ", "street": "500 RINGWOOD AVE", "postcode": "07465"}}},
{"geometry": {"type": "Point", "coordinates": [-74.2879027015, 41.0543711166]}, "type": "Feature", "properties": {"collection_times": [{"days": "Mon-Fri", "time": "5:00pm"}, {"days": "Sat", "time": "12:30pm"}, {"days": "Sun", "time": "Closed"}], "id": "0746500008", "name": "USPS COLLECTION BOX - PO LOBBY", "address": {"city": "WANAQUE", "state": "NJ", "street": "500 RINGWOOD AVE", "postcode": "07465"}}},
{"geometry": {"type": "Point", "coordinates": [-74.2493602062, 40.9619176998]}, "type": "Feature", "properties": {"collection_times": [{"days": "Mon-Sat", "time": "3:30pm"}, {"days": "Sun", "time": "Closed"}], "id": "0747000008", "name": "USPS COLLECTION BOX - BLUE BOX", "address": {"city": "WAYNE", "state": "NJ", "street": "1341 HAMBURG TPKE", "postcode": "07470"}}},
{"geometry": {"type": "Point", "coordinates": [-74.2693365678, 40.9348601819]}, "type": "Feature", "properties": {"collection_times": [{"days": "Mon-Fri", "time": "2:00pm"}, {"days": "Sat", "time": "1:00pm"}, {"days": "Sun", "time": "Closed"}], "id": "0747000011", "name": "USPS COLLECTION BOX - BLUE BOX", "address": {"city": "WAYNE", "state": "NJ", "street": "1489 ROUTE 23     #1", "postcode": "07470"}}},
{"geometry": {"type": "Point", "coordinates": [-74.269084232, 40.9355019855]}, "type": "Feature", "properties": {"collection_times": [{"days": "Mon-Fri", "time": "2:00pm"}, {"days": "Sat", "time": "1:00pm"}, {"days": "Sun", "time": "Closed"}], "id": "0747000014", "name": "USPS COLLECTION BOX - BLUE BOX", "address": {"city": "WAYNE", "state": "NJ", "street": "1494 ROUTE 23", "postcode": "07470"}}},
{"geometry": {"type": "Point", "coordinates": [-74.2736491129, 40.9462792767]}, "type": "Feature", "properties": {"collection_times": [{"days": "Mon-Fri", "time": "2:00pm"}, {"days": "Sat", "time": "1:00pm"}, {"days": "Sun", "time": "Closed"}], "id": "0747000016", "name": "USPS COLLECTION BOX - BLUE BOX", "address": {"city": "WAYNE", "state": "NJ", "street": "1680 ROUTE 23   #1", "postcode": "07470"}}},
{"geometry": {"type": "Point", "coordinates": [-74.2710983653, 40.9775913491]}, "type": "Feature", "properties": {"collection_times": [{"days": "Mon-Fri", "time": "2:00pm"}, {"days": "Sat", "time": "1:00pm"}, {"days": "Sun", "time": "Closed"}], "id": "0747000022", "name": "USPS COLLECTION BOX - BLUE BOX", "address": {"city": "WAYNE", "state": "NJ", "street": "2035 HAMBURG TPKE", "postcode": "07470"}}},
{"geometry": {"type": "Point", "coordinates": [-74.2059689054, 40.9468142514]}, "type": "Feature", "properties": {"collection_times": [{"days": "Mon-Fri", "time": "2:00pm"}, {"days": "Sat", "time": "1:00pm"}, {"days": "Sun", "time": "Closed"}], "id": "0747000024", "name": "USPS COLLECTION BOX - BLUE BOX", "address": {"city": "WAYNE", "state": "NJ", "street": "220 HAMBURG TPKE", "postcode": "07470"}}},
{"geometry": {"type": "Point", "coordinates": [-74.2442698467, 40.8963823777]}, "type": "Feature", "properties": {"collection_times": [{"days": "Mon-Fri", "time": "2:00pm"}, {"days": "Sat", "time": "1:00pm"}, {"days": "Sun", "time": "Closed"}], "id": "0747000029", "name": "USPS COLLECTION BOX - BLUE BOX", "address": {"city": "WAYNE", "state": "NJ", "street": "50 GALESI DR # 1", "postcode": "07470"}}},
{"geometry": {"type": "Point", "coordinates": [-74.2442698467, 40.8963823777]}, "type": "Feature", "properties": {"collection_times": [{"days": "Mon-Fri", "time": "2:00pm"}, {"days": "Sat", "time": "1:00pm"}, {"days": "Sun", "time": "Closed"}], "id": "0747000030", "name": "USPS COLLECTION BOX - BLUE BOX", "address": {"city": "WAYNE", "state": "NJ", "street": "50 GALESI DR # 2", "postcode": "07470"}}},
{"geometry": {"type": "Point", "coordinates": [-74.2623582779, 40.9480215606]}, "type": "Feature", "properties": {"collection_times": [{"days": "Mon-Fri", "time": "2:00pm"}, {"days": "Sat", "time": "1:00pm"}, {"days": "Sun", "time": "Closed"}], "id": "0747000034", "name": "USPS COLLECTION BOX - BLUE BOX", "address": {"city": "WAYNE", "state": "NJ", "street": "330 RATZER RD", "postcode": "07470"}}},
{"geometry": {"type": "Point", "coordinates": [-74.2477887856, 40.9464763056]}, "type": "Feature", "properties": {"collection_times": [{"days": "Mon-Fri", "time": "5:00pm"}, {"days": "Sat", "time": "1:30pm"}, {"days": "Sun", "time": "Closed"}], "id": "0747000036", "name": "USPS COLLECTION BOX - BLUE BOX", "address": {"city": "WAYNE", "state": "NJ", "street": "38 PREAKNESS SHOPPING CTR # 2", "postcode": "07470"}}},
{"geometry": {"type": "Point", "coordinates": [-74.2293098991, 40.9289897833]}, "type": "Feature", "properties": {"collection_times": [{"days": "Mon-Fri", "time": "2:00pm"}, {"days": "Sat", "time": "1:00pm"}, {"days": "Sun", "time": "Closed"}], "id": "0747000039", "name": "USPS COLLECTION BOX - BLUE BOX", "address": {"city": "WAYNE", "state": "NJ", "street": "475 VALLEY RD", "postcode": "07470"}}},
{"geometry": {"type": "Point", "coordinates": [-74.2505649638, 40.8887881456]}, "type": "Feature", "properties": {"collection_times": [{"days": "Mon-Fri", "time": "2:00pm"}, {"days": "Sat", "time": "1:00pm"}, {"days": "Sun", "time": "Closed"}], "id": "0747000040", "name": "USPS COLLECTION BOX - BLUE BOX", "address": {"city": "WAYNE", "state": "NJ", "street": "57 WILLOWBROOK BLVD # 1", "postcode": "07470"}}},
{"geometry": {"type": "Point", "coordinates": [-74.2426366283, 40.9121402299]}, "type": "Feature", "properties": {"collection_times": [{"days": "Mon-Fri", "time": "2:00pm"}, {"days": "Sat", "time": "1:00pm"}, {"days": "Sun", "time": "Closed"}], "id": "0747000048", "name": "USPS COLLECTION BOX - BLUE BOX", "address": {"city": "WAYNE", "state": "NJ", "street": "22 EDISON DR # 1", "postcode": "07470"}}},
{"geometry": {"type": "Point", "coordinates": [-74.2267114397, 40.9513861461]}, "type": "Feature", "properties": {"collection_times": [{"days": "Mon-Sat", "time": "10:00am"}, {"days": "Sun", "time": "Closed"}], "id": "0747000054", "name": "USPS COLLECTION BOX - BLUE BOX", "address": {"city": "WAYNE", "state": "NJ", "street": "2 KNOX TER", "postcode": "07470"}}},
{"geometry": {"type": "Point", "coordinates": [-74.2581026357, 40.9359386432]}, "type": "Feature", "properties": {"collection_times": [{"days": "Mon-Fri", "time": "5:00pm"}, {"days": "Sat", "time": "1:00pm"}, {"days": "Sun", "time": "Closed"}], "id": "0747000055", "name": "USPS COLLECTION BOX - BLUE BOX", "address": {"city": "WAYNE", "state": "NJ", "street": "40 LAKE DR       (1) W", "postcode": "07470"}}},
{"geometry": {"type": "Point", "coordinates": [-74.2260697814, 40.9596567429]}, "type": "Feature", "properties": {"collection_times": [{"days": "Mon-Sat", "time": "10:00am"}, {"days": "Sun", "time": "Closed"}], "id": "0747000057", "name": "USPS COLLECTION BOX - BLUE BOX", "address": {"city": "WAYNE", "state": "NJ", "street": "1385 VALLEY RD", "postcode": "07470"}}},
{"geometry": {"type": "Point", "coordinates": [-74.2628667711, 40.9127935812]}, "type": "Feature", "properties": {"collection_times": [{"days": "Mon-Fri", "time": "5:00pm"}, {"days": "Sat", "time": "4:00pm"}, {"days": "Sun", "time": "Closed"}], "id": "0747000059", "name": "USPS COLLECTION BOX - BLUE BOX", "address": {"city": "WAYNE", "state": "NJ", "street": "35 TAYLOR DR", "postcode": "07470"}}},
{"geometry": {"type": "Point", "coordinates": [-74.2628667711, 40.9127935812]}, "type": "Feature", "properties": {"collection_times": [{"days": "Mon-Fri", "time": "5:00pm"}, {"days": "Sat", "time": "4:00pm"}, {"days": "Sun", "time": "Closed"}], "id": "0747000060", "name": "USPS COLLECTION BOX - BLUE BOX", "address": {"city": "WAYNE", "state": "NJ", "street": "35 TAYLOR DR", "postcode": "07470"}}},
{"geometry": {"type": "Point", "coordinates": [-74.2520862998, 40.9328440462]}, "type": "Feature", "properties": {"collection_times": [{"days": "Mon-Sat", "time": "10:00am"}, {"days": "Sun", "time": "Closed"}], "id": "0747000062", "name": "USPS COLLECTION BOX - BLUE BOX", "address": {"city": "WAYNE", "state": "NJ", "street": "1 LAKE TRL E", "postcode": "07470"}}},
{"geometry": {"type": "Point", "coordinates": [-74.2171624438, 40.9275840933]}, "type": "Feature", "properties": {"collection_times": [{"days": "Mon-Sat", "time": "10:00am"}, {"days": "Sun", "time": "Closed"}], "id": "0747000063", "name": "USPS COLLECTION BOX - BLUE BOX", "address": {"city": "WAYNE", "state": "NJ", "street": "1030 PREAKNESS AVE", "postcode": "07470"}}},
{"geometry": {"type": "Point", "coordinates": [-74.2773802816, 40.9693932593]}, "type": "Feature", "properties": {"collection_times": [{"days": "Mon-Fri", "time": "5:00pm"}, {"days": "Sat", "time": "1:30pm"}, {"days": "Sun", "time": "Closed"}], "id": "0747000066", "name": "USPS COLLECTION BOX - BLUE BOX", "address": {"city": "WAYNE", "state": "NJ", "street": "150 POMPTON PLAINS CROSSR", "postcode": "07470"}}},
{"geometry": {"type": "Point", "coordinates": [-74.2773802816, 40.9693932593]}, "type": "Feature", "properties": {"collection_times": [{"days": "Mon-Fri", "time": "5:00pm"}, {"days": "Sat", "time": "1:30pm"}, {"days": "Sun", "time": "Closed"}], "id": "0747000067", "name": "USPS COLLECTION BOX - BLUE BOX", "address": {"city": "WAYNE", "state": "NJ", "street": "150 POMPTON PLAINS XRD", "postcode": "07470"}}},
{"geometry": {"type": "Point", "coordinates": [-74.218958663, 40.9554459661]}, "type": "Feature", "properties": {"collection_times": [{"days": "Mon-Fri", "time": "2:00pm"}, {"days": "Sat", "time": "1:00pm"}, {"days": "Sun", "time": "Closed"}], "id": "0747000069", "name": "USPS COLLECTION BOX - BLUE BOX", "address": {"city": "WAYNE", "state": "NJ", "street": "641 HAMBURG TPKE", "postcode": "07470"}}},
{"geometry": {"type": "Point", "coordinates": [-74.2334670624, 40.9249903108]}, "type": "Feature", "properties": {"collection_times": [{"days": "Mon-Fri", "time": "2:00pm"}, {"days": "Sat", "time": "1:00pm"}, {"days": "Sun", "time": "Closed"}], "id": "0747000070", "name": "USPS COLLECTION BOX - BLUE BOX", "address": {"city": "WAYNE", "state": "NJ", "street": "321 VALLEY RD", "postcode": "07470"}}},
{"geometry": {"type": "Point", "coordinates": [-74.2277979343, 40.9316447647]}, "type": "Feature", "properties": {"collection_times": [{"days": "Mon-Fri", "time": "5:00pm"}, {"days": "Sat", "time": "1:30pm"}, {"days": "Sun", "time": "Closed"}], "id": "0747000072", "name": "USPS COLLECTION BOX - BLUE BOX", "address": {"city": "WAYNE", "state": "NJ", "street": "586 VALLEY RD # 1", "postcode": "07470"}}},
{"geometry": {"type": "Point", "coordinates": [-74.2277979343, 40.9316447647]}, "type": "Feature", "properties": {"collection_times": [{"days": "Mon-Fri", "time": "5:00pm"}, {"days": "Sat", "time": "1:30pm"}, {"days": "Sun", "time": "Closed"}], "id": "0747000073", "name": "USPS COLLECTION BOX - BLUE BOX", "address": {"city": "WAYNE", "state": "NJ", "street": "586 VALLEY RD # 2", "postcode": "07470"}}},
{"geometry": {"type": "Point", "coordinates": [-74.2390673491, 40.9606323515]}, "type": "Feature", "properties": {"collection_times": [{"days": "Mon-Fri", "time": "2:00pm"}, {"days": "Sat", "time": "1:00pm"}, {"days": "Sun", "time": "Closed"}], "id": "0747000074", "name": "USPS COLLECTION BOX - BLUE BOX", "address": {"city": "WAYNE", "state": "NJ", "street": "24 WAYNE HILLS MALL", "postcode": "07470"}}},
{"geometry": {"type": "Point", "coordinates": [-74.2461299646, 40.945571438]}, "type": "Feature", "properties": {"collection_times": [{"days": "Mon-Fri", "time": "5:00pm"}, {"days": "Sat", "time": "4:00pm"}, {"days": "Sun", "time": "Closed"}], "id": "0747000077", "name": "USPS COLLECTION BOX - EXPRESS", "address": {"city": "WAYNE", "state": "NJ", "street": "35 TAYLOR DR", "postcode": "07470"}}},
{"geometry": {"type": "Point", "coordinates": [-74.2411656995, 40.9122814437]}, "type": "Feature", "properties": {"collection_times": [{"days": "Mon-Fri", "time": "2:00pm"}, {"days": "Sat", "time": "1:00pm"}, {"days": "Sun", "time": "Closed"}], "id": "0747000078", "name": "USPS COLLECTION BOX - BLUE BOX", "address": {"city": "WAYNE", "state": "NJ", "street": "30 CORPORATE DR", "postcode": "07470"}}},
{"geometry": {"type": "Point", "coordinates": [-74.2096890037, 40.951038468]}, "type": "Feature", "properties": {"collection_times": [{"days": "Mon-Fri", "time": "2:00pm"}, {"days": "Sat", "time": "1:00pm"}, {"days": "Sun", "time": "Closed"}], "id": "0747000084", "name": "USPS COLLECTION BOX - BLUE BOX", "address": {"city": "WAYNE", "state": "NJ", "street": "400 HAMBURG TPKE", "postcode": "07470"}}},
{"geometry": {"type": "Point", "coordinates": [-74.2624253143, 40.9713782645]}, "type": "Feature", "properties": {"collection_times": [{"days": "Mon-Fri", "time": "2:00pm"}, {"days": "Sat", "time": "1:00pm"}, {"days": "Sun", "time": "Closed"}], "id": "0747000085", "name": "USPS COLLECTION BOX - BLUE BOX", "address": {"city": "WAYNE", "state": "NJ", "street": "1777 HAMBURG TPKE", "postcode": "07470"}}},
{"geometry": {"type": "Point", "coordinates": [-74.2446347944, 40.9609599448]}, "type": "Feature", "properties": {"collection_times": [{"days": "Mon-Fri", "time": "2:00pm"}, {"days": "Sat-Sun", "time": "Closed"}], "id": "0747000093", "name": "USPS COLLECTION BOX - BLUE BOX", "address": {"city": "WAYNE", "state": "NJ", "street": "1211 HAMBURG TPKE # 2", "postcode": "07470"}}},
{"geometry": {"type": "Point", "coordinates": [-74.2679674771, 40.9218146497]}, "type": "Feature", "properties": {"collection_times": [{"days": "Mon-Fri", "time": "2:00pm"}, {"days": "Sat", "time": "1:00pm"}, {"days": "Sun", "time": "Closed"}], "id": "0747000095", "name": "USPS COLLECTION BOX - BLUE BOX", "address": {"city": "WAYNE", "state": "NJ", "street": "1044 ROUTE 23", "postcode": "07470"}}},
{"geometry": {"type": "Point", "coordinates": [-74.2581026357, 40.9359386432]}, "type": "Feature", "properties": {"collection_times": [{"days": "Mon-Fri", "time": "4:30pm"}, {"days": "Sat-Sun", "time": "Closed"}], "id": "0747000098", "name": "USPS COLLECTION BOX - PO LOBBY", "address": {"city": "WAYNE", "state": "NJ", "street": "40 LAKE DR W", "postcode": "07470"}}},
{"geometry": {"type": "Point", "coordinates": [-74.2477887856, 40.9464763056]}, "type": "Feature", "properties": {"collection_times": [{"days": "Mon-Fri", "time": "5:00pm"}, {"days": "Sat", "time": "1:30pm"}, {"days": "Sun", "time": "Closed"}], "id": "0747000099", "name": "USPS COLLECTION BOX - PO LOBBY", "address": {"city": "WAYNE", "state": "NJ", "street": "42 PREAKNESS SHOPPING CTR", "postcode": "07470"}}},
{"geometry": {"type": "Point", "coordinates": [-74.2773802816, 40.9693932593]}, "type": "Feature", "properties": {"collection_times": [{"days": "Mon-Fri", "time": "5:00pm"}, {"days": "Sat", "time": "1:30pm"}, {"days": "Sun", "time": "Closed"}], "id": "0747000100", "name": "USPS COLLECTION BOX - PO LOBBY", "address": {"city": "WAYNE", "state": "NJ", "street": "150 POMPTON PLAINS XRD", "postcode": "07470"}}},
{"geometry": {"type": "Point", "coordinates": [-74.2277979343, 40.9316447647]}, "type": "Feature", "properties": {"collection_times": [{"days": "Mon-Fri", "time": "5:00pm"}, {"days": "Sat", "time": "1:30pm"}, {"days": "Sun", "time": "Closed"}], "id": "0747000101", "name": "USPS COLLECTION BOX - PO LOBBY", "address": {"city": "WAYNE", "state": "NJ", "street": "586 VALLEY RD", "postcode": "07470"}}},
{"geometry": {"type": "Point", "coordinates": [-74.3670689335, 41.1383221469]}, "type": "Feature", "properties": {"collection_times": [{"days": "Mon-Sat", "time": "9:00am"}, {"days": "Sun", "time": "Closed"}], "id": "0748000001", "name": "USPS COLLECTION BOX - BLUE BOX", "address": {"city": "WEST MILFORD", "state": "NJ", "street": "1614 UNION VALLEY RD", "postcode": "07480"}}},
{"geometry": {"type": "Point", "coordinates": [-74.3904576759, 41.1134372607]}, "type": "Feature", "properties": {"collection_times": [{"days": "Mon-Sat", "time": "9:00am"}, {"days": "Sun", "time": "Closed"}], "id": "0748000002", "name": "USPS COLLECTION BOX - BLUE BOX", "address": {"city": "WEST MILFORD", "state": "NJ", "street": "7 NEW BEDFORD RD", "postcode": "07480"}}},
{"geometry": {"type": "Point", "coordinates": [-74.3642721463, 41.1317822751]}, "type": "Feature", "properties": {"collection_times": [{"days": "Mon-Sat", "time": "9:00am"}, {"days": "Sun", "time": "Closed"}], "id": "0748000003", "name": "USPS COLLECTION BOX - BLUE BOX", "address": {"city": "WEST MILFORD", "state": "NJ", "street": "33 MARSHALL HILL RD", "postcode": "07480"}}},
{"geometry": {"type": "Point", "coordinates": [-74.3673868974, 41.1347224213]}, "type": "Feature", "properties": {"collection_times": [{"days": "Mon-Fri", "time": "5:00pm"}, {"days": "Sat", "time": "2:45pm"}, {"days": "Sun", "time": "Closed"}], "id": "0748000004", "name": "USPS COLLECTION BOX - BLUE BOX", "address": {"city": "WEST MILFORD", "state": "NJ", "street": "1560 UNION VALLEY RD", "postcode": "07480"}}},
{"geometry": {"type": "Point", "coordinates": [-74.3673868974, 41.1347224213]}, "type": "Feature", "properties": {"collection_times": [{"days": "Mon-Fri", "time": "5:00pm"}, {"days": "Sat", "time": "2:45pm"}, {"days": "Sun", "time": "Closed"}], "id": "0748000005", "name": "USPS COLLECTION BOX - BLUE BOX", "address": {"city": "WEST MILFORD", "state": "NJ", "street": "1560 UNION VALLEY RD", "postcode": "07480"}}},
{"geometry": {"type": "Point", "coordinates": [-74.3696566833, 41.1298614136]}, "type": "Feature", "properties": {"collection_times": [{"days": "Mon-Fri", "time": "9:00am"}, {"days": "Sat-Sun", "time": "Closed"}], "id": "0748000006", "name": "USPS COLLECTION BOX - BLUE BOX", "address": {"city": "WEST MILFORD", "state": "NJ", "street": "1480 UNION VALLEY RD", "postcode": "07480"}}},
{"geometry": {"type": "Point", "coordinates": [-74.3673868974, 41.1347224213]}, "type": "Feature", "properties": {"collection_times": [{"days": "Mon-Fri", "time": "5:00pm"}, {"days": "Sat", "time": "1:00pm"}, {"days": "Sun", "time": "Closed"}], "id": "0748000007", "name": "USPS COLLECTION BOX - PO LOBBY", "address": {"city": "WEST MILFORD", "state": "NJ", "street": "1560 UNION VALLEY RD", "postcode": "07480"}}},
{"geometry": {"type": "Point", "coordinates": [-74.16850194, 40.9861660817]}, "type": "Feature", "properties": {"collection_times": [{"days": "Mon-Sat", "time": "10:00am"}, {"days": "Sun", "time": "Closed"}], "id": "0748100002", "name": "USPS COLLECTION BOX - BLUE BOX", "address": {"city": "WYCKOFF", "state": "NJ", "street": "519 CEDAR HILL AVE", "postcode": "07481"}}},
{"geometry": {"type": "Point", "coordinates": [-74.1713303763, 40.9845173897]}, "type": "Feature", "properties": {"collection_times": [{"days": "Mon-Sat", "time": "10:00am"}, {"days": "Sun", "time": "Closed"}], "id": "0748100014", "name": "USPS COLLECTION BOX - BLUE BOX", "address": {"city": "WYCKOFF", "state": "NJ", "street": "300 SICOMAC AVE", "postcode": "07481"}}},
{"geometry": {"type": "Point", "coordinates": [-74.1667813865, 41.0143276549]}, "type": "Feature", "properties": {"collection_times": [{"days": "Mon-Fri", "time": "5:00pm"}, {"days": "Sat", "time": "3:00pm"}, {"days": "Sun", "time": "Closed"}], "id": "0748100021", "name": "USPS COLLECTION BOX - BLUE BOX", "address": {"city": "WYCKOFF", "state": "NJ", "street": "411 GREENWOOD AVE UNIT 3", "postcode": "07481"}}},
{"geometry": {"type": "Point", "coordinates": [-74.1667813865, 41.0143276549]}, "type": "Feature", "properties": {"collection_times": [{"days": "Mon-Fri", "time": "5:00pm"}, {"days": "Sat", "time": "3:00pm"}, {"days": "Sun", "time": "Closed"}], "id": "0748100024", "name": "USPS COLLECTION BOX - BLUE BOX", "address": {"city": "WYCKOFF", "state": "NJ", "street": "411 GREENWOOD AVE UNIT 2", "postcode": "07481"}}},
{"geometry": {"type": "Point", "coordinates": [-74.1667813865, 41.0143276549]}, "type": "Feature", "properties": {"collection_times": [{"days": "Mon-Fri", "time": "5:00pm"}, {"days": "Sat", "time": "12:30pm"}, {"days": "Sun", "time": "Closed"}], "id": "0748100026", "name": "USPS COLLECTION BOX - PO LOBBY", "address": {"city": "WYCKOFF", "state": "NJ", "street": "411 GREENWOOD AVE", "postcode": "07481"}}}
]}
