{"type": "FeatureCollection", "features": [
{"geometry": {"type": "Point", "coordinates": [-74.1617954295, 40.9090755519]}, "type": "Feature", "properties": {"collection_times": [{"days": "Mon-Sat", "time": "10:00am"}, {"days": "Sun", "time": "Closed"}], "id": "0750100000", "name": "USPS COLLECTION BOX - BLUE BOX", "address": {"city": "PATERSON", "state": "NJ", "street": "195 20TH AVE", "postcode": "07501"}}},
{"geometry": {"type": "Point", "coordinates": [-74.1803384955, 40.90497415]}, "type": "Feature", "properties": {"collection_times": [{"days": "Mon-Sat", "time": "10:00am"}, {"days": "Sun", "time": "Closed"}], "id": "0750100002", "name": "USPS COLLECTION BOX - BLUE BOX", "address": {"city": "PATERSON", "state": "NJ", "street": "1 BOULDER RUN RD", "postcode": "07501"}}},
{"geometry": {"type": "Point", "coordinates": [-74.1591901435, 40.9185773272]}, "type": "Feature", "properties": {"collection_times": [{"days": "Mon-Sat", "time": "10:00am"}, {"days": "Sun", "time": "Closed"}], "id": "0750100003", "name": "USPS COLLECTION BOX - BLUE BOX", "address": {"city": "PATERSON", "state": "NJ", "street": "361 BROADWAY", "postcode": "07501"}}},
{"geometry": {"type": "Point", "coordinates": [-74.1885145376, 40.907914996]}, "type": "Feature", "properties": {"collection_times": [{"days": "Mon-Sat", "time": "2:30pm"}, {"days": "Sun", "time": "Closed"}], "id": "0750100005", "name": "USPS COLLECTION BOX - BLUE BOX", "address": {"city": "PATERSON", "state": "NJ", "street": "173 CARLISLE AVE", "postcode": "07501"}}},
{"geometry": {"type": "Point", "coordinates": [-74.1619342375, 40.917122359]}, "type": "Feature", "properties": {"collection_times": [{"days": "Mon-Sat", "time": "10:00am"}, {"days": "Sun", "time": "Closed"}], "id": "0750100009", "name": "USPS COLLECTION BOX - BLUE BOX", "address": {"city": "PATERSON", "state": "NJ", "street": "199 CARROLL ST", "postcode": "07501"}}},
{"geometry": {"type": "Point", "coordinates": [-74.1764456771, 40.9168291072]}, "type": "Feature", "properties": {"collection_times": [{"days": "Mon-Sat", "time": "2:30pm"}, {"days": "Sun", "time": "Closed"}], "id": "0750100010", "name": "USPS COLLECTION BOX - BLUE BOX", "address": {"city": "PATERSON", "state": "NJ", "street": "22 ELLISON ST # 26", "postcode": "07501"}}},
{"geometry": {"type": "Point", "coordinates": [-74.1705670307, 40.92106669]}, "type": "Feature", "properties": {"collection_times": [{"days": "Mon-Sat", "time": "10:00am"}, {"days": "Sun", "time": "Closed"}], "id": "0750100011", "name": "USPS COLLECTION BOX - BLUE BOX", "address": {"city": "PATERSON", "state": "NJ", "street": "52 GODWIN ST", "postcode": "07501"}}},
{"geometry": {"type": "Point", "coordinates": [-74.1847368502, 40.9096230746]}, "type": "Feature", "properties": {"collection_times": [{"days": "Mon-Sat", "time": "9:00am"}, {"days": "Sun", "time": "Closed"}], "id": "0750100012", "name": "USPS COLLECTION BOX - BLUE BOX", "address": {"city": "PATERSON", "state": "NJ", "street": "83 GRAND ST", "postcode": "07501"}}},
{"geometry": {"type": "Point", "coordinates": [-74.1591979491, 40.9199857952]}, "type": "Feature", "properties": {"collection_times": [{"days": "Mon-Sat", "time": "10:00am"}, {"days": "Sun", "time": "Closed"}], "id": "0750100013", "name": "USPS COLLECTION BOX - BLUE BOX", "address": {"city": "PATERSON", "state": "NJ", "street": "293 HAMILTON AVE", "postcode": "07501"}}},
{"geometry": {"type": "Point", "coordinates": [-74.1574400721, 40.9066278225]}, "type": "Feature", "properties": {"collection_times": [{"days": "Mon-Sat", "time": "10:00am"}, {"days": "Sun", "time": "Closed"}], "id": "0750100014", "name": "USPS COLLECTION BOX - BLUE BOX", "address": {"city": "PATERSON", "state": "NJ", "street": "1008 MADISON AVE", "postcode": "07501"}}},
{"geometry": {"type": "Point", "coordinates": [-74.1791979433, 40.9135793357]}, "type": "Feature", "properties": {"collection_times": [{"days": "Mon-Sat", "time": "10:00am"}, {"days": "Sun", "time": "Closed"}], "id": "0750100015", "name": "USPS COLLECTION BOX - BLUE BOX", "address": {"city": "PATERSON", "state": "NJ", "street": "2 MARKET ST", "postcode": "07501"}}},
{"geometry": {"type": "Point", "coordinates": [-74.1614835148, 40.9137958599]}, "type": "Feature", "properties": {"collection_times": [{"days": "Mon-Sat", "time": "10:00am"}, {"days": "Sun", "time": "Closed"}], "id": "0750100017", "name": "USPS COLLECTION BOX - BLUE BOX", "address": {"city": "PATERSON", "state": "NJ", "street": "399 MARKET ST", "postcode": "07501"}}},
{"geometry": {"type": "Point", "coordinates": [-74.156475686, 40.9122224492]}, "type": "Feature", "properties": {"collection_times": [{"days": "Mon-Sat", "time": "10:00am"}, {"days": "Sun", "time": "Closed"}], "id": "0750100018", "name": "USPS COLLECTION BOX - BLUE BOX", "address": {"city": "PATERSON", "state": "NJ", "street": "512 MARKET ST", "postcode": "07501"}}},
{"geometry": {"type": "Point", "coordinates": [-74.1838691719, 40.9114643186]}, "type": "Feature", "properties": {"collection_times": [{"days": "Mon-Sat", "time": "9:00am"}, {"days": "Sun", "time": "Closed"}], "id": "0750100020", "name": "USPS COLLECTION BOX - BLUE BOX", "address": {"city": "PATERSON", "state": "NJ", "street": "209 MCBRIDE AVE", "postcode": "07501"}}},
{"geometry": {"type": "Point", "coordinates": [-74.1946689281, 40.9072802383]}, "type": "Feature", "properties": {"collection_times": [{"days": "Mon-Sat", "time": "12:00pm"}, {"days": "Sun", "time": "Closed"}], "id": "0750100021", "name": "USPS COLLECTION BOX - BLUE BOX", "address": {"city": "PATERSON", "state": "NJ", "street": "485 MCBRIDE AVE", "postcode": "07501"}}},
{"geometry": {"type": "Point", "coordinates": [-74.1874221671, 40.9097342728]}, "type": "Feature", "properties": {"collection_times": [{"days": "Mon-Sat", "time": "10:30am"}, {"days": "Sun", "time": "Closed"}], "id": "0750100022", "name": "USPS COLLECTION BOX - BLUE BOX", "address": {"city": "PATERSON", "state": "NJ", "street": "70 MURRAY AVE", "postcode": "07501"}}},
{"geometry": {"type": "Point", "coordinates": [-74.1636409989, 40.9115554276]}, "type": "Feature", "properties": {"collection_times": [{"days": "Mon-Sat", "time": "2:30pm"}, {"days": "Sun", "time": "Closed"}], "id": "0750100023", "name": "USPS COLLECTION BOX - BLUE BOX", "address": {"city": "PATERSON", "state": "NJ", "street": "55 OAK ST", "postcode": "07501"}}},
{"geometry": {"type": "Point", "coordinates": [-74.1782690325, 40.9121226294]}, "type": "Feature", "properties": {"collection_times": [{"days": "Mon-Sat", "time": "10:00am"}, {"days": "Sun", "time": "Closed"}], "id": "0750100024", "name": "USPS COLLECTION BOX - BLUE BOX", "address": {"city": "PATERSON", "state": "NJ", "street": "101 OLIVER ST", "postcode": "07501"}}},
{"geometry": {"type": "Point", "coordinates": [-74.1587144343, 40.9247402413]}, "type": "Feature", "properties": {"collection_times": [{"days": "Mon-Sat", "time": "10:00am"}, {"days": "Sun", "time": "Closed"}], "id": "0750100027", "name": "USPS COLLECTION BOX - BLUE BOX", "address": {"city": "PATERSON", "state": "NJ", "street": "92 ROSA PARKS BLVD", "postcode": "07501"}}},
{"geometry": {"type": "Point", "coordinates": [-74.1712199439, 40.9110577413]}, "type": "Feature", "properties": {"collection_times": [{"days": "Mon-Sat", "time": "1:30pm"}, {"days": "Sun", "time": "Closed"}], "id": "0750100028", "name": "USPS COLLECTION BOX - BLUE BOX", "address": {"city": "PATERSON", "state": "NJ", "street": "210 SLATER ST", "postcode": "07501"}}},
{"geometry": {"type": "Point", "coordinates": [-74.1671190411, 40.9153822828]}, "type": "Feature", "properties": {"collection_times": [{"days": "Mon-Sat", "time": "10:00am"}, {"days": "Sun", "time": "Closed"}], "id": "0750100032", "name": "USPS COLLECTION BOX - BLUE BOX", "address": {"city": "PATERSON", "state": "NJ", "street": "2 PARK AVE", "postcode": "07501"}}},
{"geometry": {"type": "Point", "coordinates": [-74.186762076, 40.9202141063]}, "type": "Feature", "properties": {"collection_times": [{"days": "Mon-Sat", "time": "10:00am"}, {"days": "Sun", "time": "Closed"}], "id": "0750200001", "name": "USPS COLLECTION BOX - BLUE BOX", "address": {"city": "PATERSON", "state": "NJ", "street": "374 UNION AVE", "postcode": "07502"}}},
{"geometry": {"type": "Point", "coordinates": [-74.2006186324, 40.9176329141]}, "type": "Feature", "properties": {"collection_times": [{"days": "Mon-Sat", "time": "2:00pm"}, {"days": "Sun", "time": "Closed"}], "id": "0750200005", "name": "USPS COLLECTION BOX - BLUE BOX", "address": {"city": "PATERSON", "state": "NJ", "street": "200 ARLINGTON AVE", "postcode": "07502"}}},
{"geometry": {"type": "Point", "coordinates": [-74.1964528758, 40.920250778]}, "type": "Feature", "properties": {"collection_times": [{"days": "Mon-Sat", "time": "10:00am"}, {"days": "Sun", "time": "Closed"}], "id": "0750200006", "name": "USPS COLLECTION BOX - BLUE BOX", "address": {"city": "PATERSON", "state": "NJ", "street": "214 CHAMERLAIN AVE", "postcode": "07502"}}},
{"geometry": {"type": "Point", "coordinates": [-74.1963192014, 40.9237239455]}, "type": "Feature", "properties": {"collection_times": [{"days": "Mon-Sat", "time": "10:00am"}, {"days": "Sun", "time": "Closed"}], "id": "0750200007", "name": "USPS COLLECTION BOX - BLUE BOX", "address": {"city": "PATERSON", "state": "NJ", "street": "428 PREAKNESS AVE", "postcode": "07502"}}},
{"geometry": {"type": "Point", "coordinates": [-74.1898661055, 40.9212346844]}, "type": "Feature", "properties": {"collection_times": [{"days": "Mon-Sat", "time": "10:00am"}, {"days": "Sun", "time": "Closed"}], "id": "0750200009", "name": "USPS COLLECTION BOX - BLUE BOX", "address": {"city": "PATERSON", "state": "NJ", "street": "145 MANCHESTER AVE", "postcode": "07502"}}},
{"geometry": {"type": "Point", "coordinates": [-74.1884184877, 40.9158315666]}, "type": "Feature", "properties": {"collection_times": [{"days": "Mon-Sat", "time": "10:00am"}, {"days": "Sun", "time": "Closed"}], "id": "0750200011", "name": "USPS COLLECTION BOX - BLUE BOX", "address": {"city": "PATERSON", "state": "NJ", "street": "265 TOTOWA AVE", "postcode": "07502"}}},
{"geometry": {"type": "Point", "coordinates": [-74.195264002, 40.9148245452]}, "type": "Feature", "properties": {"collection_times": [{"days": "Mon-Sat", "time": "10:00am"}, {"days": "Sun", "time": "Closed"}], "id": "0750200012", "name": "USPS COLLECTION BOX - BLUE BOX", "address": {"city": "PATERSON", "state": "NJ", "street": "133 UNION AVE", "postcode": "07502"}}},
{"geometry": {"type": "Point", "coordinates": [-74.2031717478, 40.9155268104]}, "type": "Feature", "properties": {"collection_times": [{"days": "Mon-Sat", "time": "10:00am"}, {"days": "Sun", "time": "Closed"}], "id": "0750200013", "name": "USPS COLLECTION BOX - BLUE BOX", "address": {"city": "PATERSON", "state": "NJ", "street": "252 MAITLAND AVE", "postcode": "07502"}}},
{"geometry": {"type": "Point", "coordinates": [-74.1850929209, 40.9179298125]}, "type": "Feature", "properties": {"collection_times": [{"days": "Mon-Sat", "time": "10:00am"}, {"days": "Sun", "time": "Closed"}], "id": "0750200017", "name": "USPS COLLECTION BOX - BLUE BOX", "address": {"city": "PATERSON", "state": "NJ", "street": "359 TOTOWA AVE", "postcode": "07502"}}},
{"geometry": {"type": "Point", "coordinates": [-74.1939948461, 40.9160022336]}, "type": "Feature", "properties": {"collection_times": [{"days": "Mon-Sat", "time": "10:00am"}, {"days": "Sun", "time": "Closed"}], "id": "0750200018", "name": "USPS COLLECTION BOX - BLUE BOX", "address": {"city": "PATERSON", "state": "NJ", "street": "81 BERSHIRE AVE", "postcode": "07502"}}},
{"geometry": {"type": "Point", "coordinates": [-74.1598345221, 40.8949711]}, "type": "Feature", "properties": {"collection_times": [{"days": "Mon-Sat", "time": "5:00pm"}, {"days": "Sun", "time": "Closed"}], "id": "0750300000", "name": "USPS COLLECTION BOX - BLUE BOX", "address": {"city": "PATERSON", "state": "NJ", "street": "958 MAIN ST STE 1", "postcode": "07503"}}},
{"geometry": {"type": "Point", "coordinates": [-74.1598345221, 40.8949711]}, "type": "Feature", "properties": {"collection_times": [{"days": "Mon-Sat", "time": "5:00pm"}, {"days": "Sun", "time": "Closed"}], "id": "0750300001", "name": "USPS COLLECTION BOX - BLUE BOX", "address": {"city": "PATERSON", "state": "NJ", "street": "958 MAIN ST STE 2", "postcode": "07503"}}},
{"geometry": {"type": "Point", "coordinates": [-74.1489251335, 40.8937536801]}, "type": "Feature", "properties": {"collection_times": [{"days": "Mon-Sat", "time": "10:00am"}, {"days": "Sun", "time": "Closed"}], "id": "0750300004", "name": "USPS COLLECTION BOX - BLUE BOX", "address": {"city": "PATERSON", "state": "NJ", "street": "262 BUFFALO AVE", "postcode": "07503"}}},
{"geometry": {"type": "Point", "coordinates": [-74.1492603404, 40.8906046687]}, "type": "Feature", "properties": {"collection_times": [{"days": "Mon-Sat", "time": "10:00am"}, {"days": "Sun", "time": "Closed"}], "id": "0750300005", "name": "USPS COLLECTION BOX - BLUE BOX", "address": {"city": "PATERSON", "state": "NJ", "street": "233 CROOKS AVE", "postcode": "07503"}}},
{"geometry": {"type": "Point", "coordinates": [-74.1577043618, 40.892142056]}, "type": "Feature", "properties": {"collection_times": [{"days": "Mon-Sat", "time": "10:00am"}, {"days": "Sun", "time": "Closed"}], "id": "0750300007", "name": "USPS COLLECTION BOX - BLUE BOX", "address": {"city": "PATERSON", "state": "NJ", "street": "70 DEY ST", "postcode": "07503"}}},
{"geometry": {"type": "Point", "coordinates": [-74.1528265321, 40.8970624164]}, "type": "Feature", "properties": {"collection_times": [{"days": "Mon-Sat", "time": "10:00am"}, {"days": "Sun", "time": "Closed"}], "id": "0750300008", "name": "USPS COLLECTION BOX - BLUE BOX", "address": {"city": "PATERSON", "state": "NJ", "street": "215 PENNSYLVANIA AVE", "postcode": "07503"}}},
{"geometry": {"type": "Point", "coordinates": [-74.1534393049, 40.8989657973]}, "type": "Feature", "properties": {"collection_times": [{"days": "Mon-Sat", "time": "10:00am"}, {"days": "Sun", "time": "Closed"}], "id": "0750300009", "name": "USPS COLLECTION BOX - BLUE BOX", "address": {"city": "PATERSON", "state": "NJ", "street": "155 PENNSYLVANIA AVE", "postcode": "07503"}}},
{"geometry": {"type": "Point", "coordinates": [-74.153666433, 40.8916030607]}, "type": "Feature", "properties": {"collection_times": [{"days": "Mon-Sat", "time": "10:00am"}, {"days": "Sun", "time": "Closed"}], "id": "0750300010", "name": "USPS COLLECTION BOX - BLUE BOX", "address": {"city": "PATERSON", "state": "NJ", "street": "473 GETTY AVE", "postcode": "07503"}}},
{"geometry": {"type": "Point", "coordinates": [-74.1405142952, 40.8964591073]}, "type": "Feature", "properties": {"collection_times": [{"days": "Mon-Sat", "time": "10:00am"}, {"days": "Sun", "time": "Closed"}], "id": "0750300011", "name": "USPS COLLECTION BOX - BLUE BOX", "address": {"city": "PATERSON", "state": "NJ", "street": "172 LAKEVIEW AVE", "postcode": "07503"}}},
{"geometry": {"type": "Point", "coordinates": [-74.1592143419, 40.9011207761]}, "type": "Feature", "properties": {"collection_times": [{"days": "Mon-Sat", "time": "10:00am"}, {"days": "Sun", "time": "Closed"}], "id": "0750300013", "name": "USPS COLLECTION BOX - BLUE BOX", "address": {"city": "PATERSON", "state": "NJ", "street": "1171 MADISON AVE", "postcode": "07503"}}},
{"geometry": {"type": "Point", "coordinates": [-74.1681206801, 40.9039822667]}, "type": "Feature", "properties": {"collection_times": [{"days": "Mon-Sat", "time": "10:00am"}, {"days": "Sun", "time": "Closed"}], "id": "0750300017", "name": "USPS COLLECTION BOX - BLUE BOX", "address": {"city": "PATERSON", "state": "NJ", "street": "645 MAIN ST", "postcode": "07503"}}},
{"geometry": {"type": "Point", "coordinates": [-74.1519862242, 40.8946260109]}, "type": "Feature", "properties": {"collection_times": [{"days": "Mon-Sat", "time": "10:00am"}, {"days": "Sun", "time": "Closed"}], "id": "0750300021", "name": "USPS COLLECTION BOX - BLUE BOX", "address": {"city": "PATERSON", "state": "NJ", "street": "317 PENNSYLVANIA AVE STE 1", "postcode": "07503"}}},
{"geometry": {"type": "Point", "coordinates": [-74.147123487, 40.8989208449]}, "type": "Feature", "properties": {"collection_times": [{"days": "Mon-Sat", "time": "10:00am"}, {"days": "Sun", "time": "Closed"}], "id": "0750300024", "name": "USPS COLLECTION BOX - BLUE BOX", "address": {"city": "PATERSON", "state": "NJ", "street": "209 TRENTON AVE", "postcode": "07503"}}},
{"geometry": {"type": "Point", "coordinates": [-74.149311544, 40.8957972878]}, "type": "Feature", "properties": {"collection_times": [{"days": "Mon-Sat", "time": "10:00am"}, {"days": "Sun", "time": "Closed"}], "id": "0750300026", "name": "USPS COLLECTION BOX - BLUE BOX", "address": {"city": "PATERSON", "state": "NJ", "street": "235 WABASH AVE", "postcode": "07503"}}},
{"geometry": {"type": "Point", "coordinates": [-74.1598345221, 40.8949711]}, "type": "Feature", "properties": {"collection_times": [{"days": "Mon-Fri", "time": "5:00pm"}, {"days": "Sat", "time": "1:00pm"}, {"days": "Sun", "time": "Closed"}], "id": "0750300027", "name": "USPS COLLECTION BOX - PO LOBBY", "address": {"city": "PATERSON", "state": "NJ", "street": "958 MAIN ST STE 1", "postcode": "07503"}}},
{"geometry": {"type": "Point", "coordinates": [-74.1405896497, 40.915809146]}, "type": "Feature", "properties": {"collection_times": [{"days": "Mon-Sat", "time": "10:00am"}, {"days": "Sun", "time": "Closed"}], "id": "0750400000", "name": "USPS COLLECTION BOX - BLUE BOX", "address": {"city": "PATERSON", "state": "NJ", "street": "777 14TH AVE", "postcode": "07504"}}},
{"geometry": {"type": "Point", "coordinates": [-74.1369326724, 40.9113205973]}, "type": "Feature", "properties": {"collection_times": [{"days": "Mon-Sat", "time": "10:00am"}, {"days": "Sun", "time": "Closed"}], "id": "0750400001", "name": "USPS COLLECTION BOX - BLUE BOX", "address": {"city": "PATERSON", "state": "NJ", "street": "467 17TH AVE", "postcode": "07504"}}},
{"geometry": {"type": "Point", "coordinates": [-74.144436427, 40.9182270952]}, "type": "Feature", "properties": {"collection_times": [{"days": "Mon-Sat", "time": "10:00am"}, {"days": "Sun", "time": "Closed"}], "id": "0750400002", "name": "USPS COLLECTION BOX - BLUE BOX", "address": {"city": "PATERSON", "state": "NJ", "street": "680 BROADWAY", "postcode": "07504"}}},
{"geometry": {"type": "Point", "coordinates": [-74.1762920856, 40.9177409257]}, "type": "Feature", "properties": {"collection_times": [{"days": "Mon-Sat", "time": "10:00am"}, {"days": "Sun", "time": "Closed"}], "id": "0750500000", "name": "USPS COLLECTION BOX - BLUE BOX", "address": {"city": "PATERSON", "state": "NJ", "street": "31 VAN HOUTEN ST", "postcode": "07505"}}},
{"geometry": {"type": "Point", "coordinates": [-74.1733379844, 40.9146334253]}, "type": "Feature", "properties": {"collection_times": [{"days": "Mon-Sat", "time": "10:00am"}, {"days": "Sun", "time": "Closed"}], "id": "0750500001", "name": "USPS COLLECTION BOX - BLUE BOX", "address": {"city": "PATERSON", "state": "NJ", "street": "45 WARD ST", "postcode": "07505"}}},
{"geometry": {"type": "Point", "coordinates": [-74.1701849671, 40.9189468444]}, "type": "Feature", "properties": {"collection_times": [{"days": "Mon-Sat", "time": "10:00am"}, {"days": "Sun", "time": "Closed"}], "id": "0750500004", "name": "USPS COLLECTION BOX - BLUE BOX", "address": {"city": "PATERSON", "state": "NJ", "street": "111 BROADWAY", "postcode": "07505"}}},
{"geometry": {"type": "Point", "coordinates": [-74.1752163965, 40.9190997589]}, "type": "Feature", "properties": {"collection_times": [{"days": "Mon-Sat", "time": "10:00am"}, {"days": "Sun", "time": "Closed"}], "id": "0750500006", "name": "USPS COLLECTION BOX - BLUE BOX", "address": {"city": "PATERSON", "state": "NJ", "street": "2 W BROADWAY # 2", "postcode": "07505"}}},
{"geometry": {"type": "Point", "coordinates": [-74.1705169917, 40.9173795798]}, "type": "Feature", "properties": {"collection_times": [{"days": "Mon-Sat", "time": "10:00am"}, {"days": "Sun", "time": "Closed"}], "id": "0750500007", "name": "USPS COLLECTION BOX - BLUE BOX", "address": {"city": "PATERSON", "state": "NJ", "street": "32 CHURCH ST", "postcode": "07505"}}},
{"geometry": {"type": "Point", "coordinates": [-74.1722071365, 40.9173415788]}, "type": "Feature", "properties": {"collection_times": [{"days": "Mon-Sat", "time": "10:00am"}, {"days": "Sun", "time": "Closed"}], "id": "0750500012", "name": "USPS COLLECTION BOX - BLUE BOX", "address": {"city": "PATERSON", "state": "NJ", "street": "125 ELLISON ST", "postcode": "07505"}}},
{"geometry": {"type": "Point", "coordinates": [-74.1715386879, 40.9127104177]}, "type": "Feature", "properties": {"collection_times": [{"days": "Mon-Sat", "time": "10:00am"}, {"days": "Sun", "time": "Closed"}], "id": "0750500014", "name": "USPS COLLECTION BOX - BLUE BOX", "address": {"city": "PATERSON", "state": "NJ", "street": "381 GRAND ST", "postcode": "07505"}}},
{"geometry": {"type": "Point", "coordinates": [-74.1719176836, 40.9143461915]}, "type": "Feature", "properties": {"collection_times": [{"days": "Mon-Sat", "time": "10:00am"}, {"days": "Sun", "time": "Closed"}], "id": "0750500018", "name": "USPS COLLECTION BOX - BLUE BOX", "address": {"city": "PATERSON", "state": "NJ", "street": "64 HAMILTON ST", "postcode": "07505"}}},
{"geometry": {"type": "Point", "coordinates": [-74.1716887365, 40.9141640623]}, "type": "Feature", "properties": {"collection_times": [{"days": "Mon-Sat", "time": "10:00am"}, {"days": "Sun", "time": "Closed"}], "id": "0750500019", "name": "USPS COLLECTION BOX - BLUE BOX", "address": {"city": "PATERSON", "state": "NJ", "street": "77 HAMILTON ST", "postcode": "07505"}}},
{"geometry": {"type": "Point", "coordinates": [-74.1732781878, 40.9163698312]}, "type": "Feature", "properties": {"collection_times": [{"days": "Mon-Sat", "time": "10:00am"}, {"days": "Sun", "time": "Closed"}], "id": "0750500021", "name": "USPS COLLECTION BOX - BLUE BOX", "address": {"city": "PATERSON", "state": "NJ", "street": "244 MAIN ST", "postcode": "07505"}}},
{"geometry": {"type": "Point", "coordinates": [-74.1732241459, 40.9138450814]}, "type": "Feature", "properties": {"collection_times": [{"days": "Mon-Sat", "time": "10:00am"}, {"days": "Sun", "time": "Closed"}], "id": "0750500023", "name": "USPS COLLECTION BOX - BLUE BOX", "address": {"city": "PATERSON", "state": "NJ", "street": "329 MAIN ST", "postcode": "07505"}}},
{"geometry": {"type": "Point", "coordinates": [-74.1712155468, 40.9164068065]}, "type": "Feature", "properties": {"collection_times": [{"days": "Mon-Sat", "time": "10:00am"}, {"days": "Sun", "time": "Closed"}], "id": "0750500025", "name": "USPS COLLECTION BOX - BLUE BOX", "address": {"city": "PATERSON", "state": "NJ", "street": "152 MARKET ST", "postcode": "07505"}}},
{"geometry": {"type": "Point", "coordinates": [-74.1718426711, 40.9166649992]}, "type": "Feature", "properties": {"collection_times": [{"days": "Mon-Sat", "time": "10:00am"}, {"days": "Sun", "time": "Closed"}], "id": "0750500027", "name": "USPS COLLECTION BOX - BLUE BOX", "address": {"city": "PATERSON", "state": "NJ", "street": "155 MARKET ST", "postcode": "07505"}}},
{"geometry": {"type": "Point", "coordinates": [-74.1721712581, 40.9165597737]}, "type": "Feature", "properties": {"collection_times": [{"days": "Mon-Sat", "time": "10:00am"}, {"days": "Sun", "time": "Closed"}], "id": "0750500029", "name": "USPS COLLECTION BOX - BLUE BOX", "address": {"city": "PATERSON", "state": "NJ", "street": "126 MARKET ST", "postcode": "07505"}}},
{"geometry": {"type": "Point", "coordinates": [-74.1471163892, 40.9687733888]}, "type": "Feature", "properties": {"collection_times": [{"days": "Mon-Sat", "time": "10:00am"}, {"days": "Sun", "time": "Closed"}], "id": "0750600001", "name": "USPS COLLECTION BOX - BLUE BOX", "address": {"city": "HAWTHORNE", "state": "NJ", "street": "100 ROCK RD", "postcode": "07506"}}},
{"geometry": {"type": "Point", "coordinates": [-74.1553626749, 40.9533237939]}, "type": "Feature", "properties": {"collection_times": [{"days": "Mon-Sat", "time": "10:00am"}, {"days": "Sun", "time": "Closed"}], "id": "0750600003", "name": "USPS COLLECTION BOX - BLUE BOX", "address": {"city": "HAWTHORNE", "state": "NJ", "street": "445 LAFAYETTE AVE", "postcode": "07506"}}},
{"geometry": {"type": "Point", "coordinates": [-74.1515768021, 40.9558446849]}, "type": "Feature", "properties": {"collection_times": [{"days": "Mon-Sat", "time": "10:00am"}, {"days": "Sun", "time": "Closed"}], "id": "0750600005", "name": "USPS COLLECTION BOX - BLUE BOX", "address": {"city": "HAWTHORNE", "state": "NJ", "street": "66 5TH AVE", "postcode": "07506"}}},
{"geometry": {"type": "Point", "coordinates": [-74.1565489864, 40.9568033237]}, "type": "Feature", "properties": {"collection_times": [{"days": "Mon-Sat", "time": "10:00am"}, {"days": "Sun", "time": "Closed"}], "id": "0750600006", "name": "USPS COLLECTION BOX - BLUE BOX", "address": {"city": "HAWTHORNE", "state": "NJ", "street": "296 REA AVE", "postcode": "07506"}}},
{"geometry": {"type": "Point", "coordinates": [-74.1490999893, 40.9637544188]}, "type": "Feature", "properties": {"collection_times": [{"days": "Mon-Sat", "time": "10:00am"}, {"days": "Sun", "time": "Closed"}], "id": "0750600007", "name": "USPS COLLECTION BOX - BLUE BOX", "address": {"city": "HAWTHORNE", "state": "NJ", "street": "252 VAN WINKLE AVE", "postcode": "07506"}}},
{"geometry": {"type": "Point", "coordinates": [-74.1609521827, 40.9523945155]}, "type": "Feature", "properties": {"collection_times": [{"days": "Mon-Sat", "time": "2:30pm"}, {"days": "Sun", "time": "Closed"}], "id": "0750600008", "name": "USPS COLLECTION BOX - BLUE BOX", "address": {"city": "HAWTHORNE", "state": "NJ", "street": "50 WARBURTON AVE", "postcode": "07506"}}},
{"geometry": {"type": "Point", "coordinates": [-74.1554081234, 40.9549400563]}, "type": "Feature", "properties": {"collection_times": [{"days": "Mon-Sat", "time": "10:30am"}, {"days": "Sun", "time": "Closed"}], "id": "0750600014", "name": "USPS COLLECTION BOX - BLUE BOX", "address": {"city": "HAWTHORNE", "state": "NJ", "street": "485 LAFAYETTE AVE", "postcode": "07506"}}},
{"geometry": {"type": "Point", "coordinates": [-74.1562488324, 40.96282902]}, "type": "Feature", "properties": {"collection_times": [{"days": "Mon-Sat", "time": "10:00am"}, {"days": "Sun", "time": "Closed"}], "id": "0750600017", "name": "USPS COLLECTION BOX - BLUE BOX", "address": {"city": "HAWTHORNE", "state": "NJ", "street": "720 LAFAYETTE AVE", "postcode": "07506"}}},
{"geometry": {"type": "Point", "coordinates": [-74.142785091, 40.9605925632]}, "type": "Feature", "properties": {"collection_times": [{"days": "Mon-Sat", "time": "10:00am"}, {"days": "Sun", "time": "Closed"}], "id": "0750600019", "name": "USPS COLLECTION BOX - BLUE BOX", "address": {"city": "HAWTHORNE", "state": "NJ", "street": "542 LINCOLN AVE", "postcode": "07506"}}},
{"geometry": {"type": "Point", "coordinates": [-74.1691383533, 40.9407301636]}, "type": "Feature", "properties": {"collection_times": [{"days": "Mon-Sat", "time": "10:00am"}, {"days": "Sun", "time": "Closed"}], "id": "0750600021", "name": "USPS COLLECTION BOX - BLUE BOX", "address": {"city": "HAWTHORNE", "state": "NJ", "street": "163 WESTERVELT AVE", "postcode": "07506"}}},
{"geometry": {"type": "Point", "coordinates": [-74.153210621, 40.9490273718]}, "type": "Feature", "properties": {"collection_times": [{"days": "Mon-Sat", "time": "5:00pm"}, {"days": "Sun", "time": "Closed"}], "id": "0750600024", "name": "USPS COLLECTION BOX - BLUE BOX", "address": {"city": "HAWTHORNE", "state": "NJ", "street": "226 DIAMOND BRIDGE AVE # 1", "postcode": "07506"}}},
{"geometry": {"type": "Point", "coordinates": [-74.153210621, 40.9490273718]}, "type": "Feature", "properties": {"collection_times": [{"days": "Mon-Sat", "time": "5:00pm"}, {"days": "Sun", "time": "Closed"}], "id": "0750600025", "name": "USPS COLLECTION BOX - BLUE BOX", "address": {"city": "HAWTHORNE", "state": "NJ", "street": "226 DIAMOND BRIDGE AVE # 2", "postcode": "07506"}}},
{"geometry": {"type": "Point", "coordinates": [-74.153210621, 40.9490273718]}, "type": "Feature", "properties": {"collection_times": [{"days": "Mon-Sat", "time": "5:00pm"}, {"days": "Sun", "time": "Closed"}], "id": "0750600027", "name": "USPS COLLECTION BOX - BLUE BOX", "address": {"city": "HAWTHORNE", "state": "NJ", "street": "226 DIAMOND BRIDGE AVE", "postcode": "07506"}}},
{"geometry": {"type": "Point", "coordinates": [-74.1581841372, 40.9577687048]}, "type": "Feature", "properties": {"collection_times": [{"days": "Mon-Sat", "time": "10:00am"}, {"days": "Sun", "time": "Closed"}], "id": "0750600028", "name": "USPS COLLECTION BOX - BLUE BOX", "address": {"city": "HAWTHORNE", "state": "NJ", "street": "870 LAFAYETTE EXT", "postcode": "07506"}}},
{"geometry": {"type": "Point", "coordinates": [-74.1488613671, 40.9528620178]}, "type": "Feature", "properties": {"collection_times": [{"days": "Mon-Sat", "time": "10:00am"}, {"days": "Sun", "time": "Closed"}], "id": "0750600031", "name": "USPS COLLECTION BOX - BLUE BOX", "address": {"city": "HAWTHORNE", "state": "NJ", "street": "321 WARBURTON AVE", "postcode": "07506"}}},
{"geometry": {"type": "Point", "coordinates": [-74.1665727661, 40.9355309895]}, "type": "Feature", "properties": {"collection_times": [{"days": "Mon-Sat", "time": "10:00am"}, {"days": "Sun", "time": "Closed"}], "id": "0750600033", "name": "USPS COLLECTION BOX - BLUE BOX", "address": {"city": "HAWTHORNE", "state": "NJ", "street": "5 WESTERVELT AVE", "postcode": "07506"}}},
{"geometry": {"type": "Point", "coordinates": [-74.153210621, 40.9490273718]}, "type": "Feature", "properties": {"collection_times": [{"days": "Mon-Sat", "time": "5:00pm"}, {"days": "Sun", "time": "Closed"}], "id": "0750600034", "name": "USPS COLLECTION BOX - BLUE BOX", "address": {"city": "HAWTHORNE", "state": "NJ", "street": "226 DIAMOND BRIDGE AVE", "postcode": "07506"}}},
{"geometry": {"type": "Point", "coordinates": [-74.153210621, 40.9490273718]}, "type": "Feature", "properties": {"collection_times": [{"days": "Mon-Fri", "time": "5:00pm"}, {"days": "Sat", "time": "4:00pm"}, {"days": "Sun", "time": "Closed"}], "id": "0750600035", "name": "USPS COLLECTION BOX - PO LOBBY", "address": {"city": "HAWTHORNE", "state": "NJ", "street": "226 DIAMOND BRIDGE AVE", "postcode": "07506"}}},
{"geometry": {"type": "Point", "coordinates": [-74.1842198971, 40.9530778893]}, "type": "Feature", "properties": {"collection_times": [{"days": "Mon-Sat", "time": "10:00am"}, {"days": "Sun", "time": "Closed"}], "id": "0750800001", "name": "USPS COLLECTION BOX - BLUE BOX", "address": {"city": "NORTH HALEDON", "state": "NJ", "street": "103 OVERLOOK AVE", "postcode": "07508"}}},
{"geometry": {"type": "Point", "coordinates": [-74.1921470761, 40.971777066]}, "type": "Feature", "properties": {"collection_times": [{"days": "Mon-Sat", "time": "10:00am"}, {"days": "Sun", "time": "Closed"}], "id": "0750800002", "name": "USPS COLLECTION BOX - BLUE BOX", "address": {"city": "NORTH HALEDON", "state": "NJ", "street": "1070 HIGH MOUNTAIN RD", "postcode": "07508"}}},
{"geometry": {"type": "Point", "coordinates": [-74.1839454507, 40.9321773703]}, "type": "Feature", "properties": {"collection_times": [{"days": "Mon-Sat", "time": "10:00am"}, {"days": "Sun", "time": "Closed"}], "id": "0750800008", "name": "USPS COLLECTION BOX - BLUE BOX", "address": {"city": "NORTH HALEDON", "state": "NJ", "street": "271 BELMONT AVE", "postcode": "07508"}}},
{"geometry": {"type": "Point", "coordinates": [-74.1851184573, 40.9406402003]}, "type": "Feature", "properties": {"collection_times": [{"days": "Mon-Sat", "time": "10:00am"}, {"days": "Sun", "time": "Closed"}], "id": "0750800009", "name": "USPS COLLECTION BOX - BLUE BOX", "address": {"city": "NORTH HALEDON", "state": "NJ", "street": "510 BELMONT AVE", "postcode": "07508"}}},
{"geometry": {"type": "Point", "coordinates": [-74.1902719152, 40.9302160243]}, "type": "Feature", "properties": {"collection_times": [{"days": "Mon-Sat", "time": "10:00am"}, {"days": "Sun", "time": "Closed"}], "id": "0750800010", "name": "USPS COLLECTION BOX - BLUE BOX", "address": {"city": "NORTH HALEDON", "state": "NJ", "street": "522 W BROADWAY", "postcode": "07508"}}},
{"geometry": {"type": "Point", "coordinates": [-74.1823652227, 40.9576177104]}, "type": "Feature", "properties": {"collection_times": [{"days": "Mon-Sat", "time": "10:00am"}, {"days": "Sun", "time": "Closed"}], "id": "0750800012", "name": "USPS COLLECTION BOX - BLUE BOX", "address": {"city": "NORTH HALEDON", "state": "NJ", "street": "572 HIGH MOUNTAIN RD", "postcode": "07508"}}},
{"geometry": {"type": "Point", "coordinates": [-74.1731637448, 40.9304750927]}, "type": "Feature", "properties": {"collection_times": [{"days": "Mon-Sat", "time": "10:00am"}, {"days": "Sun", "time": "Closed"}], "id": "0750800015", "name": "USPS COLLECTION BOX - BLUE BOX", "address": {"city": "NORTH HALEDON", "state": "NJ", "street": "124 HALEDON AVE", "postcode": "07508"}}},
{"geometry": {"type": "Point", "coordinates": [-74.1722838412, 40.9334301238]}, "type": "Feature", "properties": {"collection_times": [{"days": "Mon-Sat", "time": "10:00am"}, {"days": "Sun", "time": "Closed"}], "id": "0750800017", "name": "USPS COLLECTION BOX - BLUE BOX", "address": {"city": "NORTH HALEDON", "state": "NJ", "street": "294 N 8TH ST", "postcode": "07508"}}},
{"geometry": {"type": "Point", "coordinates": [-74.1702089312, 40.9648566117]}, "type": "Feature", "properties": {"collection_times": [{"days": "Mon-Sat", "time": "5:00pm"}, {"days": "Sun", "time": "Closed"}], "id": "0750800021", "name": "USPS COLLECTION BOX - BLUE BOX", "address": {"city": "NORTH HALEDON", "state": "NJ", "street": "400 HALEDON AVE", "postcode": "07508"}}},
{"geometry": {"type": "Point", "coordinates": [-74.1702089312, 40.9648566117]}, "type": "Feature", "properties": {"collection_times": [{"days": "Mon-Sat", "time": "5:00pm"}, {"days": "Sun", "time": "Closed"}], "id": "0750800023", "name": "USPS COLLECTION BOX - BLUE BOX", "address": {"city": "NORTH HALEDON", "state": "NJ", "street": "400 HALEDON AVE", "postcode": "07508"}}},
{"geometry": {"type": "Point", "coordinates": [-74.1702089312, 40.9648566117]}, "type": "Feature", "properties": {"collection_times": [{"days": "Mon-Fri", "time": "4:00pm"}, {"days": "Sat", "time": "12:00pm"}, {"days": "Sun", "time": "Closed"}], "id": "0750800026", "name": "USPS COLLECTION BOX - PO LOBBY", "address": {"city": "NORTH HALEDON", "state": "NJ", "street": "400 HALEDON AVE", "postcode": "07508"}}},
{"geometry": {"type": "Point", "coordinates": [-74.1671814462, 40.9147634049]}, "type": "Feature", "properties": {"collection_times": [{"days": "Mon-Sat", "time": "5:00pm"}, {"days": "Sun", "time": "Closed"}], "id": "0751000104", "name": "USPS COLLECTION BOX - BLUE BOX", "address": {"city": "PATERSON", "state": "NJ", "street": "194 WARD ST", "postcode": "07510"}}},
{"geometry": {"type": "Point", "coordinates": [-74.1671814462, 40.9147634049]}, "type": "Feature", "properties": {"collection_times": [{"days": "Mon-Sat", "time": "5:00pm"}, {"days": "Sun", "time": "Closed"}], "id": "0751000105", "name": "USPS COLLECTION BOX - BLUE BOX", "address": {"city": "PATERSON", "state": "NJ", "street": "194 WARD ST", "postcode": "07510"}}},
{"geometry": {"type": "Point", "coordinates": [-74.1673013254, 40.9147606782]}, "type": "Feature", "properties": {"collection_times": [{"days": "Mon-Fri", "time": "5:00pm"}, {"days": "Sat", "time": "1:30pm"}, {"days": "Sun", "time": "Closed"}], "id": "0751000106", "name": "USPS COLLECTION BOX - PO LOBBY", "address": {"city": "PATERSON", "state": "NJ", "street": "194 WARD ST", "postcode": "07510"}}},
{"geometry": {"type": "Point", "coordinates": [-74.2277858746, 40.8937881196]}, "type": "Feature", "properties": {"collection_times": [{"days": "Mon-Sat", "time": "10:00am"}, {"days": "Sun", "time": "Closed"}], "id": "0751200003", "name": "USPS COLLECTION BOX - BLUE BOX", "address": {"city": "TOTOWA", "state": "NJ", "street": "205 ROUTE 46    #1", "postcode": "07512"}}},
{"geometry": {"type": "Point", "coordinates": [-74.2330425642, 40.8946257931]}, "type": "Feature", "properties": {"collection_times": [{"days": "Mon-Sat", "time": "10:30am"}, {"days": "Sun", "time": "Closed"}], "id": "0751200007", "name": "USPS COLLECTION BOX - BLUE BOX", "address": {"city": "TOTOWA", "state": "NJ", "street": "465 ROUTE 46", "postcode": "07512"}}},
{"geometry": {"type": "Point", "coordinates": [-74.2029880016, 40.9099939319]}, "type": "Feature", "properties": {"collection_times": [{"days": "Mon-Sat", "time": "10:00am"}, {"days": "Sun", "time": "Closed"}], "id": "0751200008", "name": "USPS COLLECTION BOX - BLUE BOX", "address": {"city": "TOTOWA", "state": "NJ", "street": "79 UNION BLVD", "postcode": "07512"}}},
{"geometry": {"type": "Point", "coordinates": [-74.2210808985, 40.8938116451]}, "type": "Feature", "properties": {"collection_times": [{"days": "Mon-Sat", "time": "10:00am"}, {"days": "Sun", "time": "Closed"}], "id": "0751200009", "name": "USPS COLLECTION BOX - BLUE BOX", "address": {"city": "TOTOWA", "state": "NJ", "street": "87 LACKAWANNA AVE", "postcode": "07512"}}},
{"geometry": {"type": "Point", "coordinates": [-74.2102722024, 40.9079054182]}, "type": "Feature", "properties": {"collection_times": [{"days": "Mon-Sat", "time": "10:00am"}, {"days": "Sun", "time": "Closed"}], "id": "0751200017", "name": "USPS COLLECTION BOX - BLUE BOX", "address": {"city": "TOTOWA", "state": "NJ", "street": "60 HOBART PL", "postcode": "07512"}}},
{"geometry": {"type": "Point", "coordinates": [-74.2081464252, 40.9047386371]}, "type": "Feature", "properties": {"collection_times": [{"days": "Mon-Sat", "time": "10:00am"}, {"days": "Sun", "time": "Closed"}], "id": "0751200018", "name": "USPS COLLECTION BOX - BLUE BOX", "address": {"city": "TOTOWA", "state": "NJ", "street": "315 TOTOWA RD", "postcode": "07512"}}},
{"geometry": {"type": "Point", "coordinates": [-74.2141534908, 40.906931843]}, "type": "Feature", "properties": {"collection_times": [{"days": "Mon-Sat", "time": "10:00am"}, {"days": "Sun", "time": "Closed"}], "id": "0751200020", "name": "USPS COLLECTION BOX - BLUE BOX", "address": {"city": "TOTOWA", "state": "NJ", "street": "65 GREENE AVE", "postcode": "07512"}}},
{"geometry": {"type": "Point", "coordinates": [-74.2056444536, 40.9081902507]}, "type": "Feature", "properties": {"collection_times": [{"days": "Mon-Sat", "time": "10:00am"}, {"days": "Sun", "time": "Closed"}], "id": "0751200021", "name": "USPS COLLECTION BOX - BLUE BOX", "address": {"city": "TOTOWA", "state": "NJ", "street": "159 UNION BLVD", "postcode": "07512"}}},
{"geometry": {"type": "Point", "coordinates": [-74.2025486633, 40.9071897281]}, "type": "Feature", "properties": {"collection_times": [{"days": "Mon-Sat", "time": "10:00am"}, {"days": "Sun", "time": "Closed"}], "id": "0751200023", "name": "USPS COLLECTION BOX - BLUE BOX", "address": {"city": "TOTOWA", "state": "NJ", "street": "93 LINCOLN AVE", "postcode": "07512"}}},
{"geometry": {"type": "Point", "coordinates": [-74.21527257, 40.9027429853]}, "type": "Feature", "properties": {"collection_times": [{"days": "Mon-Fri", "time": "5:00pm"}, {"days": "Sat", "time": "4:30pm"}, {"days": "Sun", "time": "Closed"}], "id": "0751200025", "name": "USPS COLLECTION BOX - BLUE BOX", "address": {"city": "TOTOWA", "state": "NJ", "street": "20 CREWS ST", "postcode": "07512"}}},
{"geometry": {"type": "Point", "coordinates": [-74.21527257, 40.9027429853]}, "type": "Feature", "properties": {"collection_times": [{"days": "Mon-Fri", "time": "5:00pm"}, {"days": "Sat", "time": "4:30pm"}, {"days": "Sun", "time": "Closed"}], "id": "0751200027", "name": "USPS COLLECTION BOX - BLUE BOX", "address": {"city": "TOTOWA", "state": "NJ", "street": "20 CREWS ST", "postcode": "07512"}}},
{"geometry": {"type": "Point", "coordinates": [-74.242312646, 40.9018510342]}, "type": "Feature", "properties": {"collection_times": [{"days": "Mon-Sat", "time": "10:00am"}, {"days": "Sun", "time": "Closed"}], "id": "0751200030", "name": "USPS COLLECTION BOX - BLUE BOX", "address": {"city": "TOTOWA", "state": "NJ", "street": "50 MALTESE DR # 1", "postcode": "07512"}}},
{"geometry": {"type": "Point", "coordinates": [-74.2181577321, 40.9000653592]}, "type": "Feature", "properties": {"collection_times": [{"days": "Mon-Sat", "time": "10:00am"}, {"days": "Sun", "time": "Closed"}], "id": "0751200036", "name": "USPS COLLECTION BOX - BLUE BOX", "address": {"city": "TOTOWA", "state": "NJ", "street": "539 UNION BLVD", "postcode": "07512"}}},
{"geometry": {"type": "Point", "coordinates": [-74.20999539, 40.905000071]}, "type": "Feature", "properties": {"collection_times": [{"days": "Mon-Sat", "time": "10:00am"}, {"days": "Sun", "time": "Closed"}], "id": "0751200037", "name": "USPS COLLECTION BOX - BLUE BOX", "address": {"city": "TOTOWA", "state": "NJ", "street": "537 TOTOWA RD", "postcode": "07512"}}},
{"geometry": {"type": "Point", "coordinates": [-74.2394830826, 40.9087116297]}, "type": "Feature", "properties": {"collection_times": [{"days": "Mon-Sat", "time": "10:00am"}, {"days": "Sun", "time": "Closed"}], "id": "0751200039", "name": "USPS COLLECTION BOX - BLUE BOX", "address": {"city": "TOTOWA", "state": "NJ", "street": "40 COMMERCE WAY # 1", "postcode": "07512"}}},
{"geometry": {"type": "Point", "coordinates": [-74.2358115841, 40.9091017357]}, "type": "Feature", "properties": {"collection_times": [{"days": "Mon-Sat", "time": "10:00am"}, {"days": "Sun", "time": "Closed"}], "id": "0751200041", "name": "USPS COLLECTION BOX - BLUE BOX", "address": {"city": "TOTOWA", "state": "NJ", "street": "140 COMMERCE WAY", "postcode": "07512"}}},
{"geometry": {"type": "Point", "coordinates": [-74.21527257, 40.9027429853]}, "type": "Feature", "properties": {"collection_times": [{"days": "Mon-Fri", "time": "5:00pm"}, {"days": "Sat", "time": "2:00pm"}, {"days": "Sun", "time": "Closed"}], "id": "0751200042", "name": "USPS COLLECTION BOX - PO LOBBY", "address": {"city": "TOTOWA", "state": "NJ", "street": "20 CREWS ST", "postcode": "07512"}}},
{"geometry": {"type": "Point", "coordinates": [-74.1395557206, 40.904440683]}, "type": "Feature", "properties": {"collection_times": [{"days": "Mon-Sat", "time": "10:00am"}, {"days": "Sun", "time": "Closed"}], "id": "0751300002", "name": "USPS COLLECTION BOX - BLUE BOX", "address": {"city": "PATERSON", "state": "NJ", "street": "766 21ST AVE", "postcode": "07513"}}},
{"geometry": {"type": "Point", "coordinates": [-74.1521068162, 40.9061145268]}, "type": "Feature", "properties": {"collection_times": [{"days": "Mon-Sat", "time": "5:00pm"}, {"days": "Sun", "time": "Closed"}], "id": "0751300003", "name": "USPS COLLECTION BOX - BLUE BOX", "address": {"city": "PATERSON", "state": "NJ", "street": "497 21ST AVE # 1", "postcode": "07513"}}},
{"geometry": {"type": "Point", "coordinates": [-74.1521068162, 40.9061145268]}, "type": "Feature", "properties": {"collection_times": [{"days": "Mon-Sat", "time": "5:00pm"}, {"days": "Sun", "time": "Closed"}], "id": "0751300004", "name": "USPS COLLECTION BOX - BLUE BOX", "address": {"city": "PATERSON", "state": "NJ", "street": "497 21ST AVE", "postcode": "07513"}}},
{"geometry": {"type": "Point", "coordinates": [-74.1494302569, 40.907335232]}, "type": "Feature", "properties": {"collection_times": [{"days": "Mon-Sat", "time": "10:00am"}, {"days": "Sun", "time": "Closed"}], "id": "0751300012", "name": "USPS COLLECTION BOX - BLUE BOX", "address": {"city": "PATERSON", "state": "NJ", "street": "726 MARKET ST", "postcode": "07513"}}},
{"geometry": {"type": "Point", "coordinates": [-74.1521068162, 40.9061145268]}, "type": "Feature", "properties": {"collection_times": [{"days": "Mon-Fri", "time": "5:00pm"}, {"days": "Sat", "time": "12:00pm"}, {"days": "Sun", "time": "Closed"}], "id": "0751300015", "name": "USPS COLLECTION BOX - PO LOBBY", "address": {"city": "PATERSON", "state": "NJ", "street": "497 21ST AVE", "postcode": "07513"}}},
{"geometry": {"type": "Point", "coordinates": [-74.153854886, 40.924390603]}, "type": "Feature", "properties": {"collection_times": [{"days": "Mon-Sat", "time": "10:00am"}, {"days": "Sun", "time": "Closed"}], "id": "0751400000", "name": "USPS COLLECTION BOX - BLUE BOX", "address": {"city": "PATERSON", "state": "NJ", "street": "456 E 18TH ST", "postcode": "07514"}}},
{"geometry": {"type": "Point", "coordinates": [-74.1486057345, 40.9218868102]}, "type": "Feature", "properties": {"collection_times": [{"days": "Mon-Sat", "time": "10:00am"}, {"days": "Sun", "time": "Closed"}], "id": "0751400002", "name": "USPS COLLECTION BOX - BLUE BOX", "address": {"city": "PATERSON", "state": "NJ", "street": "445 11TH AVE", "postcode": "07514"}}},
{"geometry": {"type": "Point", "coordinates": [-74.133165082, 40.920070621]}, "type": "Feature", "properties": {"collection_times": [{"days": "Mon-Sat", "time": "10:00am"}, {"days": "Sun", "time": "Closed"}], "id": "0751400004", "name": "USPS COLLECTION BOX - BLUE BOX", "address": {"city": "PATERSON", "state": "NJ", "street": "793 11TH AVE", "postcode": "07514"}}},
{"geometry": {"type": "Point", "coordinates": [-74.1443754733, 40.9329557573]}, "type": "Feature", "properties": {"collection_times": [{"days": "Mon-Sat", "time": "10:00am"}, {"days": "Sun", "time": "Closed"}], "id": "0751400007", "name": "USPS COLLECTION BOX - BLUE BOX", "address": {"city": "PATERSON", "state": "NJ", "street": "154 E 26TH ST", "postcode": "07514"}}},
{"geometry": {"type": "Point", "coordinates": [-74.1474332221, 40.9186007022]}, "type": "Feature", "properties": {"collection_times": [{"days": "Mon-Sat", "time": "10:00am"}, {"days": "Sun", "time": "Closed"}], "id": "0751400008", "name": "USPS COLLECTION BOX - BLUE BOX", "address": {"city": "PATERSON", "state": "NJ", "street": "555 E 27TH ST", "postcode": "07514"}}},
{"geometry": {"type": "Point", "coordinates": [-74.1413632907, 40.9208196761]}, "type": "Feature", "properties": {"collection_times": [{"days": "Mon-Sat", "time": "10:00am"}, {"days": "Sun", "time": "Closed"}], "id": "0751400009", "name": "USPS COLLECTION BOX - BLUE BOX", "address": {"city": "PATERSON", "state": "NJ", "street": "88 E 33RD ST", "postcode": "07514"}}},
{"geometry": {"type": "Point", "coordinates": [-74.141762886, 40.9181655009]}, "type": "Feature", "properties": {"collection_times": [{"days": "Mon-Sat", "time": "10:00am"}, {"days": "Sun", "time": "Closed"}], "id": "0751400012", "name": "USPS COLLECTION BOX - BLUE BOX", "address": {"city": "PATERSON", "state": "NJ", "street": "732 BROADWAY", "postcode": "07514"}}},
{"geometry": {"type": "Point", "coordinates": [-74.153900232, 40.933896553]}, "type": "Feature", "properties": {"collection_times": [{"days": "Mon-Sat", "time": "10:00am"}, {"days": "Sun", "time": "Closed"}], "id": "0752400001", "name": "USPS COLLECTION BOX - BLUE BOX", "address": {"city": "PATERSON", "state": "NJ", "street": "82 E 15TH ST", "postcode": "07524"}}},
{"geometry": {"type": "Point", "coordinates": [-74.153900232, 40.933896553]}, "type": "Feature", "properties": {"collection_times": [{"days": "Mon-Sat", "time": "10:00am"}, {"days": "Sun", "time": "Closed"}], "id": "0752400002", "name": "USPS COLLECTION BOX - BLUE BOX", "address": {"city": "PATERSON", "state": "NJ", "street": "82 E 15TH ST", "postcode": "07524"}}},
{"geometry": {"type": "Point", "coordinates": [-74.1492539961, 40.9394300917]}, "type": "Feature", "properties": {"collection_times": [{"days": "Mon-Sat", "time": "10:00am"}, {"days": "Sun", "time": "Closed"}], "id": "0752400003", "name": "USPS COLLECTION BOX - BLUE BOX", "address": {"city": "PATERSON", "state": "NJ", "street": "13 E 18TH ST", "postcode": "07524"}}},
{"geometry": {"type": "Point", "coordinates": [-74.1521577017, 40.9345323525]}, "type": "Feature", "properties": {"collection_times": [{"days": "Mon-Sat", "time": "10:00am"}, {"days": "Sun", "time": "Closed"}], "id": "0752400007", "name": "USPS COLLECTION BOX - BLUE BOX", "address": {"city": "PATERSON", "state": "NJ", "street": "233 5TH AVE", "postcode": "07524"}}},
{"geometry": {"type": "Point", "coordinates": [-74.1618797104, 40.9269635268]}, "type": "Feature", "properties": {"collection_times": [{"days": "Mon-Sat", "time": "10:00am"}, {"days": "Sun", "time": "Closed"}], "id": "0752400008", "name": "USPS COLLECTION BOX - BLUE BOX", "address": {"city": "PATERSON", "state": "NJ", "street": "68 KEEN ST", "postcode": "07524"}}},
{"geometry": {"type": "Point", "coordinates": [-74.1491140759, 40.9337340459]}, "type": "Feature", "properties": {"collection_times": [{"days": "Mon-Sat", "time": "10:00am"}, {"days": "Sun", "time": "Closed"}], "id": "0752400009", "name": "USPS COLLECTION BOX - BLUE BOX", "address": {"city": "PATERSON", "state": "NJ", "street": "204 MADISON AVE", "postcode": "07524"}}}
]}
