{"type": "FeatureCollection", "features": [
{"geometry": {"type": "Point", "coordinates": [-74.0432969282, 40.8826549956]}, "type": "Feature", "properties": {"collection_times": [{"days": "Mon-Fri", "time": "1:00pm"}, {"days": "Sat", "time": "12:00pm"}, {"days": "Sun", "time": "Closed"}], "id": "0760100006", "name": "USPS COLLECTION BOX - BLUE BOX", "address": {"city": "HACKENSACK", "state": "NJ", "street": "140 MAIN ST # 1", "postcode": "07601"}}},
{"geometry": {"type": "Point", "coordinates": [-74.0432969282, 40.8826549956]}, "type": "Feature", "properties": {"collection_times": [{"days": "Mon-Fri", "time": "1:00pm"}, {"days": "Sat", "time": "12:00pm"}, {"days": "Sun", "time": "Closed"}], "id": "0760100007", "name": "USPS COLLECTION BOX - BLUE BOX", "address": {"city": "HACKENSACK", "state": "NJ", "street": "140 MAIN ST # 2", "postcode": "07601"}}},
{"geometry": {"type": "Point", "coordinates": [-74.0494844199, 40.8931858598]}, "type": "Feature", "properties": {"collection_times": [{"days": "Mon-Fri", "time": "1:00pm"}, {"days": "Sat", "time": "12:00pm"}, {"days": "Sun", "time": "Closed"}], "id": "0760100008", "name": "USPS COLLECTION BOX - BLUE BOX", "address": {"city": "HACKENSACK", "state": "NJ", "street": "260 BERRY ST", "postcode": "07601"}}},
{"geometry": {"type": "Point", "coordinates": [-74.0427711278, 40.8840049153]}, "type": "Feature", "properties": {"collection_times": [{"days": "Mon-Fri", "time": "1:00pm"}, {"days": "Sat", "time": "12:00pm"}, {"days": "Sun", "time": "Closed"}], "id": "0760100012", "name": "USPS COLLECTION BOX - BLUE BOX", "address": {"city": "HACKENSACK", "state": "NJ", "street": "184 MAIN ST", "postcode": "07601"}}},
{"geometry": {"type": "Point", "coordinates": [-74.0417786252, 40.8840557825]}, "type": "Feature", "properties": {"collection_times": [{"days": "Mon-Fri", "time": "1:00pm"}, {"days": "Sat", "time": "12:00pm"}, {"days": "Sun", "time": "Closed"}], "id": "0760100013", "name": "USPS COLLECTION BOX - BLUE BOX", "address": {"city": "HACKENSACK", "state": "NJ", "street": "190 MOORE ST # 1", "postcode": "07601"}}},
{"geometry": {"type": "Point", "coordinates": [-74.0423440796, 40.8849027812]}, "type": "Feature", "properties": {"collection_times": [{"days": "Mon-Fri", "time": "1:00pm"}, {"days": "Sat", "time": "12:00pm"}, {"days": "Sun", "time": "Closed"}], "id": "0760100015", "name": "USPS COLLECTION BOX - BLUE BOX", "address": {"city": "HACKENSACK", "state": "NJ", "street": "210 MAIN ST # 2", "postcode": "07601"}}},
{"geometry": {"type": "Point", "coordinates": [-74.0458246209, 40.8853444355]}, "type": "Feature", "properties": {"collection_times": [{"days": "Mon-Fri", "time": "1:00pm"}, {"days": "Sat", "time": "12:00pm"}, {"days": "Sun", "time": "Closed"}], "id": "0760100018", "name": "USPS COLLECTION BOX - BLUE BOX", "address": {"city": "HACKENSACK", "state": "NJ", "street": "215 UNION ST", "postcode": "07601"}}},
{"geometry": {"type": "Point", "coordinates": [-74.0419268897, 40.8858711927]}, "type": "Feature", "properties": {"collection_times": [{"days": "Mon-Fri", "time": "1:00pm"}, {"days": "Sat", "time": "12:00pm"}, {"days": "Sun", "time": "Closed"}], "id": "0760100023", "name": "USPS COLLECTION BOX - BLUE BOX", "address": {"city": "HACKENSACK", "state": "NJ", "street": "241 MAIN ST FL 3", "postcode": "07601"}}},
{"geometry": {"type": "Point", "coordinates": [-74.041949741, 40.8892565031]}, "type": "Feature", "properties": {"collection_times": [{"days": "Mon-Fri", "time": "1:00pm"}, {"days": "Sat", "time": "12:00pm"}, {"days": "Sun", "time": "Closed"}], "id": "0760100038", "name": "USPS COLLECTION BOX - BLUE BOX", "address": {"city": "HACKENSACK", "state": "NJ", "street": "355 STATE ST", "postcode": "07601"}}},
{"geometry": {"type": "Point", "coordinates": [-74.0398125474, 40.8897387174]}, "type": "Feature", "properties": {"collection_times": [{"days": "Mon-Fri", "time": "1:00pm"}, {"days": "Sat", "time": "12:00pm"}, {"days": "Sun", "time": "Closed"}], "id": "0760100040", "name": "USPS COLLECTION BOX - BLUE BOX", "address": {"city": "HACKENSACK", "state": "NJ", "street": "360 MAIN ST", "postcode": "07601"}}},
{"geometry": {"type": "Point", "coordinates": [-74.0441809994, 40.879554212]}, "type": "Feature", "properties": {"collection_times": [{"days": "Mon-Fri", "time": "1:00pm"}, {"days": "Sat", "time": "12:00pm"}, {"days": "Sun", "time": "Closed"}], "id": "0760100049", "name": "USPS COLLECTION BOX - BLUE BOX", "address": {"city": "HACKENSACK", "state": "NJ", "street": "50 MAIN ST STE 1", "postcode": "07601"}}},
{"geometry": {"type": "Point", "coordinates": [-74.0441809994, 40.879554212]}, "type": "Feature", "properties": {"collection_times": [{"days": "Mon-Fri", "time": "1:00pm"}, {"days": "Sat", "time": "12:00pm"}, {"days": "Sun", "time": "Closed"}], "id": "0760100050", "name": "USPS COLLECTION BOX - BLUE BOX", "address": {"city": "HACKENSACK", "state": "NJ", "street": "50 MAIN ST STE 2", "postcode": "07601"}}},
{"geometry": {"type": "Point", "coordinates": [-74.0454907504, 40.8766682038]}, "type": "Feature", "properties": {"collection_times": [{"days": "Mon-Fri", "time": "1:00pm"}, {"days": "Sat", "time": "12:00pm"}, {"days": "Sun", "time": "Closed"}], "id": "0760100056", "name": "USPS COLLECTION BOX - BLUE BOX", "address": {"city": "HACKENSACK", "state": "NJ", "street": "60 KANSAS ST", "postcode": "07601"}}},
{"geometry": {"type": "Point", "coordinates": [-74.0425052783, 40.9040423733]}, "type": "Feature", "properties": {"collection_times": [{"days": "Mon-Fri", "time": "1:00pm"}, {"days": "Sat", "time": "12:00pm"}, {"days": "Sun", "time": "Closed"}], "id": "0760100059", "name": "USPS COLLECTION BOX - BLUE BOX", "address": {"city": "HACKENSACK", "state": "NJ", "street": "789 MAIN ST", "postcode": "07601"}}},
{"geometry": {"type": "Point", "coordinates": [-74.0437920993, 40.8810452158]}, "type": "Feature", "properties": {"collection_times": [{"days": "Mon-Fri", "time": "1:00pm"}, {"days": "Sat", "time": "12:00pm"}, {"days": "Sun", "time": "Closed"}], "id": "0760100061", "name": "USPS COLLECTION BOX - BLUE BOX", "address": {"city": "HACKENSACK", "state": "NJ", "street": "90 MAIN ST # 1", "postcode": "07601"}}},
{"geometry": {"type": "Point", "coordinates": [-74.0437920993, 40.8810452158]}, "type": "Feature", "properties": {"collection_times": [{"days": "Mon-Fri", "time": "1:00pm"}, {"days": "Sat", "time": "12:00pm"}, {"days": "Sun", "time": "Closed"}], "id": "0760100063", "name": "USPS COLLECTION BOX - BLUE BOX", "address": {"city": "HACKENSACK", "state": "NJ", "street": "90 MAIN ST # 3", "postcode": "07601"}}},
{"geometry": {"type": "Point", "coordinates": [-74.0412540824, 40.9085139457]}, "type": "Feature", "properties": {"collection_times": [{"days": "Mon-Fri", "time": "1:00pm"}, {"days": "Sat", "time": "12:00pm"}, {"days": "Sun", "time": "Closed"}], "id": "0760100064", "name": "USPS COLLECTION BOX - BLUE BOX", "address": {"city": "HACKENSACK", "state": "NJ", "street": "920 MAIN ST", "postcode": "07601"}}},
{"geometry": {"type": "Point", "coordinates": [-74.0484055613, 40.8740313883]}, "type": "Feature", "properties": {"collection_times": [{"days": "Mon-Fri", "time": "1:00pm"}, {"days": "Sat", "time": "12:00pm"}, {"days": "Sun", "time": "Closed"}], "id": "0760100067", "name": "USPS COLLECTION BOX - BLUE BOX", "address": {"city": "HACKENSACK", "state": "NJ", "street": "125 STATE ST FL 1", "postcode": "07601"}}},
{"geometry": {"type": "Point", "coordinates": [-74.0380262794, 40.8630346017]}, "type": "Feature", "properties": {"collection_times": [{"days": "Mon-Fri", "time": "1:00pm"}, {"days": "Sat", "time": "12:00pm"}, {"days": "Sun", "time": "Closed"}], "id": "0760100072", "name": "USPS COLLECTION BOX - BLUE BOX", "address": {"city": "HACKENSACK", "state": "NJ", "street": "487 HUDSON ST", "postcode": "07601"}}},
{"geometry": {"type": "Point", "coordinates": [-74.0398287782, 40.9071424176]}, "type": "Feature", "properties": {"collection_times": [{"days": "Mon-Fri", "time": "1:00pm"}, {"days": "Sat", "time": "12:00pm"}, {"days": "Sun", "time": "Closed"}], "id": "0760100073", "name": "USPS COLLECTION BOX - BLUE BOX", "address": {"city": "HACKENSACK", "state": "NJ", "street": "185 JOHNSON AVE", "postcode": "07601"}}},
{"geometry": {"type": "Point", "coordinates": [-74.0419910855, 40.9069975075]}, "type": "Feature", "properties": {"collection_times": [{"days": "Mon-Fri", "time": "1:00pm"}, {"days": "Sat", "time": "12:00pm"}, {"days": "Sun", "time": "Closed"}], "id": "0760100085", "name": "USPS COLLECTION BOX - BLUE BOX", "address": {"city": "HACKENSACK", "state": "NJ", "street": "875 MAIN ST", "postcode": "07601"}}},
{"geometry": {"type": "Point", "coordinates": [-74.0434426906, 40.8838356571]}, "type": "Feature", "properties": {"collection_times": [{"days": "Mon-Fri", "time": "1:00pm"}, {"days": "Sat", "time": "12:00pm"}, {"days": "Sun", "time": "Closed"}], "id": "0760100090", "name": "USPS COLLECTION BOX - BLUE BOX", "address": {"city": "HACKENSACK", "state": "NJ", "street": "31 MERCER ST # 1", "postcode": "07601"}}},
{"geometry": {"type": "Point", "coordinates": [-74.0444559203, 40.8874550451]}, "type": "Feature", "properties": {"collection_times": [{"days": "Mon-Fri", "time": "1:00pm"}, {"days": "Sat", "time": "12:00pm"}, {"days": "Sun", "time": "Closed"}], "id": "0760100092", "name": "USPS COLLECTION BOX - BLUE BOX", "address": {"city": "HACKENSACK", "state": "NJ", "street": "286 UNION ST", "postcode": "07601"}}},
{"geometry": {"type": "Point", "coordinates": [-74.058418126, 40.8766469105]}, "type": "Feature", "properties": {"collection_times": [{"days": "Mon-Fri", "time": "1:00pm"}, {"days": "Sat", "time": "12:00pm"}, {"days": "Sun", "time": "Closed"}], "id": "0760100096", "name": "USPS COLLECTION BOX - BLUE BOX", "address": {"city": "HACKENSACK", "state": "NJ", "street": "155 POLIFLY RD # 1", "postcode": "07601"}}},
{"geometry": {"type": "Point", "coordinates": [-74.0437461173, 40.8855909999]}, "type": "Feature", "properties": {"collection_times": [{"days": "Mon-Fri", "time": "5:00pm"}, {"days": "Sat", "time": "2:00pm"}, {"days": "Sun", "time": "Closed"}], "id": "0760100097", "name": "USPS COLLECTION BOX - BLUE BOX", "address": {"city": "HACKENSACK", "state": "NJ", "street": "226 STATE ST # 1", "postcode": "07601"}}},
{"geometry": {"type": "Point", "coordinates": [-74.0437461173, 40.8855909999]}, "type": "Feature", "properties": {"collection_times": [{"days": "Mon-Fri", "time": "5:00pm"}, {"days": "Sat", "time": "2:00pm"}, {"days": "Sun", "time": "Closed"}], "id": "0760100098", "name": "USPS COLLECTION BOX - BLUE BOX", "address": {"city": "HACKENSACK", "state": "NJ", "street": "226 STATE ST # 2", "postcode": "07601"}}},
{"geometry": {"type": "Point", "coordinates": [-74.0437461173, 40.8855909999]}, "type": "Feature", "properties": {"collection_times": [{"days": "Mon-Fri", "time": "5:00pm"}, {"days": "Sat", "time": "2:00pm"}, {"days": "Sun", "time": "Closed"}], "id": "0760100099", "name": "USPS COLLECTION BOX - BLUE BOX", "address": {"city": "HACKENSACK", "state": "NJ", "street": "226 STATE ST # 3", "postcode": "07601"}}},
{"geometry": {"type": "Point", "coordinates": [-74.0477587385, 40.8882738505]}, "type": "Feature", "properties": {"collection_times": [{"days": "Mon-Fri", "time": "5:00pm"}, {"days": "Sat", "time": "2:00pm"}, {"days": "Sun", "time": "Closed"}], "id": "0760100100", "name": "USPS COLLECTION BOX - EXPRESS", "address": {"city": "HACKENSACK", "state": "NJ", "street": "226 STATE ST", "postcode": "07601"}}},
{"geometry": {"type": "Point", "coordinates": [-74.0437461173, 40.8855909999]}, "type": "Feature", "properties": {"collection_times": [{"days": "Mon-Fri", "time": "5:00pm"}, {"days": "Sat", "time": "2:00pm"}, {"days": "Sun", "time": "Closed"}], "id": "0760100101", "name": "USPS COLLECTION BOX - BLUE BOX", "address": {"city": "HACKENSACK", "state": "NJ", "street": "226 STATE ST  HACKENSACK", "postcode": "07601"}}},
{"geometry": {"type": "Point", "coordinates": [-74.046016002, 40.8891121107]}, "type": "Feature", "properties": {"collection_times": [{"days": "Mon-Fri", "time": "1:00pm"}, {"days": "Sat", "time": "12:00pm"}, {"days": "Sun", "time": "Closed"}], "id": "0760100102", "name": "USPS COLLECTION BOX - BLUE BOX", "address": {"city": "HACKENSACK", "state": "NJ", "street": "1 RIVERSIDE SQ MALL", "postcode": "07601"}}},
{"geometry": {"type": "Point", "coordinates": [-74.058418126, 40.8766469105]}, "type": "Feature", "properties": {"collection_times": [{"days": "Mon-Fri", "time": "1:00pm"}, {"days": "Sat", "time": "12:00pm"}, {"days": "Sun", "time": "Closed"}], "id": "0760100105", "name": "USPS COLLECTION BOX - BLUE BOX", "address": {"city": "HACKENSACK", "state": "NJ", "street": "155 POLIFLY RD # 2", "postcode": "07601"}}},
{"geometry": {"type": "Point", "coordinates": [-74.0533761938, 40.880318401]}, "type": "Feature", "properties": {"collection_times": [{"days": "Mon-Fri", "time": "1:00pm"}, {"days": "Sat", "time": "12:00pm"}, {"days": "Sun", "time": "Closed"}], "id": "0760100108", "name": "USPS COLLECTION BOX - BLUE BOX", "address": {"city": "HACKENSACK", "state": "NJ", "street": "211 ESSEX ST", "postcode": "07601"}}},
{"geometry": {"type": "Point", "coordinates": [-74.0407761509, 40.8853721213]}, "type": "Feature", "properties": {"collection_times": [{"days": "Mon-Fri", "time": "1:00pm"}, {"days": "Sat", "time": "12:00pm"}, {"days": "Sun", "time": "Closed"}], "id": "0760100109", "name": "USPS COLLECTION BOX - BLUE BOX", "address": {"city": "HACKENSACK", "state": "NJ", "street": "25 E SALEM ST # 1", "postcode": "07601"}}},
{"geometry": {"type": "Point", "coordinates": [-74.0647481394, 40.8747234193]}, "type": "Feature", "properties": {"collection_times": [{"days": "Mon-Fri", "time": "1:00pm"}, {"days": "Sat", "time": "12:00pm"}, {"days": "Sun", "time": "Closed"}], "id": "0760100116", "name": "USPS COLLECTION BOX - BLUE BOX", "address": {"city": "HACKENSACK", "state": "NJ", "street": "314 W PLEASANTVIEW AVE", "postcode": "07601"}}},
{"geometry": {"type": "Point", "coordinates": [-74.0466689776, 40.8783432737]}, "type": "Feature", "properties": {"collection_times": [{"days": "Mon-Fri", "time": "1:00pm"}, {"days": "Sat", "time": "12:00pm"}, {"days": "Sun", "time": "Closed"}], "id": "0760100124", "name": "USPS COLLECTION BOX - BLUE BOX", "address": {"city": "HACKENSACK", "state": "NJ", "street": "45 ESSEX ST # 2", "postcode": "07601"}}},
{"geometry": {"type": "Point", "coordinates": [-74.0400909161, 40.8969612922]}, "type": "Feature", "properties": {"collection_times": [{"days": "Mon-Fri", "time": "1:00pm"}, {"days": "Sat", "time": "12:00pm"}, {"days": "Sun", "time": "Closed"}], "id": "0760100125", "name": "USPS COLLECTION BOX - BLUE BOX", "address": {"city": "HACKENSACK", "state": "NJ", "street": "575 MAIN ST", "postcode": "07601"}}},
{"geometry": {"type": "Point", "coordinates": [-74.0532886729, 40.8831356754]}, "type": "Feature", "properties": {"collection_times": [{"days": "Mon-Fri", "time": "1:00pm"}, {"days": "Sat", "time": "12:00pm"}, {"days": "Sun", "time": "Closed"}], "id": "0760100126", "name": "USPS COLLECTION BOX - BLUE BOX", "address": {"city": "HACKENSACK", "state": "NJ", "street": "65 1ST ST", "postcode": "07601"}}},
{"geometry": {"type": "Point", "coordinates": [-74.0458835553, 40.8955318077]}, "type": "Feature", "properties": {"collection_times": [{"days": "Mon-Fri", "time": "1:00pm"}, {"days": "Sat", "time": "12:00pm"}, {"days": "Sun", "time": "Closed"}], "id": "0760100127", "name": "USPS COLLECTION BOX - BLUE BOX", "address": {"city": "HACKENSACK", "state": "NJ", "street": "208 ANDERSON ST", "postcode": "07601"}}},
{"geometry": {"type": "Point", "coordinates": [-74.0599510534, 40.8892361279]}, "type": "Feature", "properties": {"collection_times": [{"days": "Mon-Fri", "time": "1:00pm"}, {"days": "Sat", "time": "12:00pm"}, {"days": "Sun", "time": "Closed"}], "id": "0760100131", "name": "USPS COLLECTION BOX - BLUE BOX", "address": {"city": "HACKENSACK", "state": "NJ", "street": "429 BEECH ST", "postcode": "07601"}}},
{"geometry": {"type": "Point", "coordinates": [-74.0482210197, 40.909671576]}, "type": "Feature", "properties": {"collection_times": [{"days": "Mon-Fri", "time": "1:00pm"}, {"days": "Sat", "time": "12:00pm"}, {"days": "Sun", "time": "Closed"}], "id": "0760100136", "name": "USPS COLLECTION BOX - BLUE BOX", "address": {"city": "HACKENSACK", "state": "NJ", "street": "797 SUMMIT AVE", "postcode": "07601"}}},
{"geometry": {"type": "Point", "coordinates": [-74.0584063181, 40.8975292164]}, "type": "Feature", "properties": {"collection_times": [{"days": "Mon-Fri", "time": "1:00pm"}, {"days": "Sat", "time": "12:00pm"}, {"days": "Sun", "time": "Closed"}], "id": "0760100141", "name": "USPS COLLECTION BOX - BLUE BOX", "address": {"city": "HACKENSACK", "state": "NJ", "street": "370 ESPLANADE", "postcode": "07601"}}},
{"geometry": {"type": "Point", "coordinates": [-74.0433835919, 40.9001716721]}, "type": "Feature", "properties": {"collection_times": [{"days": "Mon-Fri", "time": "1:00pm"}, {"days": "Sat", "time": "12:00pm"}, {"days": "Sun", "time": "Closed"}], "id": "0760100147", "name": "USPS COLLECTION BOX - BLUE BOX", "address": {"city": "HACKENSACK", "state": "NJ", "street": "105 GRAND AVE", "postcode": "07601"}}},
{"geometry": {"type": "Point", "coordinates": [-74.0444947525, 40.8703834844]}, "type": "Feature", "properties": {"collection_times": [{"days": "Mon-Fri", "time": "1:00pm"}, {"days": "Sat", "time": "12:00pm"}, {"days": "Sun", "time": "Closed"}], "id": "0760100152", "name": "USPS COLLECTION BOX - BLUE BOX", "address": {"city": "HACKENSACK", "state": "NJ", "street": "77 FREDERICK ST", "postcode": "07601"}}},
{"geometry": {"type": "Point", "coordinates": [-74.0625331312, 40.8840282573]}, "type": "Feature", "properties": {"collection_times": [{"days": "Mon-Fri", "time": "1:00pm"}, {"days": "Sat", "time": "12:00pm"}, {"days": "Sun", "time": "Closed"}], "id": "0760100169", "name": "USPS COLLECTION BOX - BLUE BOX", "address": {"city": "HACKENSACK", "state": "NJ", "street": "47 ROWLAND AVE", "postcode": "07601"}}},
{"geometry": {"type": "Point", "coordinates": [-74.0602446147, 40.8814544558]}, "type": "Feature", "properties": {"collection_times": [{"days": "Mon-Fri", "time": "1:00pm"}, {"days": "Sat", "time": "12:00pm"}, {"days": "Sun", "time": "Closed"}], "id": "0760100174", "name": "USPS COLLECTION BOX - BLUE BOX", "address": {"city": "HACKENSACK", "state": "NJ", "street": "64 S PROSPECT AVE", "postcode": "07601"}}},
{"geometry": {"type": "Point", "coordinates": [-74.0406115258, 40.8844248533]}, "type": "Feature", "properties": {"collection_times": [{"days": "Mon-Fri", "time": "1:00pm"}, {"days": "Sat", "time": "12:00pm"}, {"days": "Sun", "time": "Closed"}], "id": "0760100175", "name": "USPS COLLECTION BOX - BLUE BOX", "address": {"city": "HACKENSACK", "state": "NJ", "street": "210 RIVER ST", "postcode": "07601"}}},
{"geometry": {"type": "Point", "coordinates": [-74.0466027319, 40.8801070655]}, "type": "Feature", "properties": {"collection_times": [{"days": "Mon-Fri", "time": "1:00pm"}, {"days": "Sat", "time": "12:00pm"}, {"days": "Sun", "time": "Closed"}], "id": "0760100184", "name": "USPS COLLECTION BOX - BLUE BOX", "address": {"city": "HACKENSACK", "state": "NJ", "street": "55 STATE ST", "postcode": "07601"}}},
{"geometry": {"type": "Point", "coordinates": [-74.0441588231, 40.8801488233]}, "type": "Feature", "properties": {"collection_times": [{"days": "Mon-Fri", "time": "1:00pm"}, {"days": "Sat", "time": "12:00pm"}, {"days": "Sun", "time": "Closed"}], "id": "0760100203", "name": "USPS COLLECTION BOX - BLUE BOX", "address": {"city": "HACKENSACK", "state": "NJ", "street": "1 BERGEN COUNTY PLZ", "postcode": "07601"}}},
{"geometry": {"type": "Point", "coordinates": [-74.0484300709, 40.878332734]}, "type": "Feature", "properties": {"collection_times": [{"days": "Mon-Fri", "time": "1:00pm"}, {"days": "Sat", "time": "12:00pm"}, {"days": "Sun", "time": "Closed"}], "id": "0760100207", "name": "USPS COLLECTION BOX - BLUE BOX", "address": {"city": "HACKENSACK", "state": "NJ", "street": "75 ESSEX ST", "postcode": "07601"}}},
{"geometry": {"type": "Point", "coordinates": [-74.0417786252, 40.8840557825]}, "type": "Feature", "properties": {"collection_times": [{"days": "Mon-Fri", "time": "1:00pm"}, {"days": "Sat", "time": "12:00pm"}, {"days": "Sun", "time": "Closed"}], "id": "0760100209", "name": "USPS COLLECTION BOX - BLUE BOX", "address": {"city": "HACKENSACK", "state": "NJ", "street": "190 MOORE ST", "postcode": "07601"}}},
{"geometry": {"type": "Point", "coordinates": [-74.0444481571, 40.8791445378]}, "type": "Feature", "properties": {"collection_times": [{"days": "Mon-Fri", "time": "1:00pm"}, {"days": "Sat-Sun", "time": "Closed"}], "id": "0760100210", "name": "USPS COLLECTION BOX - BLUE BOX", "address": {"city": "HACKENSACK", "state": "NJ", "street": "25 MAIN ST", "postcode": "07601"}}},
{"geometry": {"type": "Point", "coordinates": [-74.0444481571, 40.8791445378]}, "type": "Feature", "properties": {"collection_times": [{"days": "Mon-Fri", "time": "1:00pm"}, {"days": "Sat-Sun", "time": "Closed"}], "id": "0760100211", "name": "USPS COLLECTION BOX - BLUE BOX", "address": {"city": "HACKENSACK", "state": "NJ", "street": "25 MAIN ST", "postcode": "07601"}}},
{"geometry": {"type": "Point", "coordinates": [-74.044520344, 40.8788728607]}, "type": "Feature", "properties": {"collection_times": [{"days": "Mon-Fri", "time": "1:00pm"}, {"days": "Sat-Sun", "time": "Closed"}], "id": "0760100212", "name": "USPS COLLECTION BOX - BLUE BOX", "address": {"city": "HACKENSACK", "state": "NJ", "street": "21 MAIN ST", "postcode": "07601"}}},
{"geometry": {"type": "Point", "coordinates": [-74.0437461173, 40.8855909999]}, "type": "Feature", "properties": {"collection_times": [{"days": "Mon-Fri", "time": "5:00pm"}, {"days": "Sat", "time": "3:00pm"}, {"days": "Sun", "time": "Closed"}], "id": "0760100213", "name": "USPS COLLECTION BOX - PO LOBBY", "address": {"city": "HACKENSACK", "state": "NJ", "street": "226 STATE ST", "postcode": "07601"}}},
{"geometry": {"type": "Point", "coordinates": [-74.03257617, 40.8700729955]}, "type": "Feature", "properties": {"collection_times": [{"days": "Mon-Fri", "time": "1:00pm"}, {"days": "Sat", "time": "12:00pm"}, {"days": "Sun", "time": "Closed"}], "id": "0760300004", "name": "USPS COLLECTION BOX - BLUE BOX", "address": {"city": "BOGOTA", "state": "NJ", "street": "24 RIVER RD", "postcode": "07603"}}},
{"geometry": {"type": "Point", "coordinates": [-74.0302719834, 40.8793866435]}, "type": "Feature", "properties": {"collection_times": [{"days": "Mon-Fri", "time": "1:00pm"}, {"days": "Sat", "time": "12:00pm"}, {"days": "Sun", "time": "Closed"}], "id": "0760300005", "name": "USPS COLLECTION BOX - BLUE BOX", "address": {"city": "BOGOTA", "state": "NJ", "street": "375 LARCH AVE", "postcode": "07603"}}},
{"geometry": {"type": "Point", "coordinates": [-74.0258524487, 40.8771993524]}, "type": "Feature", "properties": {"collection_times": [{"days": "Mon-Fri", "time": "5:00pm"}, {"days": "Sat", "time": "3:30pm"}, {"days": "Sun", "time": "Closed"}], "id": "0760300009", "name": "USPS COLLECTION BOX - BLUE BOX", "address": {"city": "BOGOTA", "state": "NJ", "street": "71 W MAIN ST", "postcode": "07603"}}},
{"geometry": {"type": "Point", "coordinates": [-74.0258323384, 40.8749966828]}, "type": "Feature", "properties": {"collection_times": [{"days": "Mon-Fri", "time": "1:00pm"}, {"days": "Sat", "time": "12:00pm"}, {"days": "Sun", "time": "Closed"}], "id": "0760300019", "name": "USPS COLLECTION BOX - BLUE BOX", "address": {"city": "BOGOTA", "state": "NJ", "street": "262 PALISADE AVE", "postcode": "07603"}}},
{"geometry": {"type": "Point", "coordinates": [-74.0258524487, 40.8771993524]}, "type": "Feature", "properties": {"collection_times": [{"days": "Mon-Fri", "time": "5:00pm"}, {"days": "Sat", "time": "2:00pm"}, {"days": "Sun", "time": "Closed"}], "id": "0760300020", "name": "USPS COLLECTION BOX - PO LOBBY", "address": {"city": "BOGOTA", "state": "NJ", "street": "71 W MAIN ST", "postcode": "07603"}}},
{"geometry": {"type": "Point", "coordinates": [-74.0652456055, 40.8626196515]}, "type": "Feature", "properties": {"collection_times": [{"days": "Mon-Fri", "time": "1:00pm"}, {"days": "Sat", "time": "12:00pm"}, {"days": "Sun", "time": "Closed"}], "id": "0760400006", "name": "USPS COLLECTION BOX - BLUE BOX", "address": {"city": "HASBROUCK HTS", "state": "NJ", "street": "411 ROUTE 17 SOUTH   (1)", "postcode": "07604"}}},
{"geometry": {"type": "Point", "coordinates": [-74.0749427107, 40.8645015202]}, "type": "Feature", "properties": {"collection_times": [{"days": "Mon-Fri", "time": "1:00pm"}, {"days": "Sat", "time": "12:00pm"}, {"days": "Sun", "time": "Closed"}], "id": "0760400014", "name": "USPS COLLECTION BOX - BLUE BOX", "address": {"city": "HASBROUCK HTS", "state": "NJ", "street": "213 CENTRAL AVE", "postcode": "07604"}}},
{"geometry": {"type": "Point", "coordinates": [-74.0774585492, 40.8605376437]}, "type": "Feature", "properties": {"collection_times": [{"days": "Mon-Fri", "time": "1:00pm"}, {"days": "Sat", "time": "12:00pm"}, {"days": "Sun", "time": "Closed"}], "id": "0760400019", "name": "USPS COLLECTION BOX - BLUE BOX", "address": {"city": "HASBROUCK HTS", "state": "NJ", "street": "248 HAMILTON AVE", "postcode": "07604"}}},
{"geometry": {"type": "Point", "coordinates": [-74.0793224265, 40.8609099142]}, "type": "Feature", "properties": {"collection_times": [{"days": "Mon-Fri", "time": "5:00pm"}, {"days": "Sat", "time": "3:00pm"}, {"days": "Sun", "time": "Closed"}], "id": "0760400030", "name": "USPS COLLECTION BOX - BLUE BOX", "address": {"city": "HASBROUCK HTS", "state": "NJ", "street": "185 BOULEVARD # 1", "postcode": "07604"}}},
{"geometry": {"type": "Point", "coordinates": [-74.0793224265, 40.8609099142]}, "type": "Feature", "properties": {"collection_times": [{"days": "Mon-Fri", "time": "5:00pm"}, {"days": "Sat", "time": "3:00pm"}, {"days": "Sun", "time": "Closed"}], "id": "0760400031", "name": "USPS COLLECTION BOX - BLUE BOX", "address": {"city": "HASBROUCK HTS", "state": "NJ", "street": "185 BOULEVARD # 2", "postcode": "07604"}}},
{"geometry": {"type": "Point", "coordinates": [-74.0804305724, 40.8596282567]}, "type": "Feature", "properties": {"collection_times": [{"days": "Mon-Fri", "time": "1:00pm"}, {"days": "Sat", "time": "12:00pm"}, {"days": "Sun", "time": "Closed"}], "id": "0760400034", "name": "USPS COLLECTION BOX - BLUE BOX", "address": {"city": "HASBROUCK HTS", "state": "NJ", "street": "152 BOULEVARD", "postcode": "07604"}}},
{"geometry": {"type": "Point", "coordinates": [-74.0793224265, 40.8609099142]}, "type": "Feature", "properties": {"collection_times": [{"days": "Mon-Fri", "time": "5:00pm"}, {"days": "Sat", "time": "3:00pm"}, {"days": "Sun", "time": "Closed"}], "id": "0760400050", "name": "USPS COLLECTION BOX - PO LOBBY", "address": {"city": "HASBROUCK HTS", "state": "NJ", "street": "185 BOULEVARD", "postcode": "07604"}}},
{"geometry": {"type": "Point", "coordinates": [-73.9927532568, 40.864380809]}, "type": "Feature", "properties": {"collection_times": [{"days": "Mon-Fri", "time": "1:00pm"}, {"days": "Sat", "time": "12:00pm"}, {"days": "Sun", "time": "Closed"}], "id": "0760500003", "name": "USPS COLLECTION BOX - BLUE BOX", "address": {"city": "LEONIA", "state": "NJ", "street": "135 FORT LEE RD", "postcode": "07605"}}},
{"geometry": {"type": "Point", "coordinates": [-73.9873518662, 40.8625318442]}, "type": "Feature", "properties": {"collection_times": [{"days": "Mon-Fri", "time": "1:00pm"}, {"days": "Sat", "time": "12:00pm"}, {"days": "Sun", "time": "Closed"}], "id": "0760500007", "name": "USPS COLLECTION BOX - BLUE BOX", "address": {"city": "LEONIA", "state": "NJ", "street": "353 BROAD AVE", "postcode": "07605"}}},
{"geometry": {"type": "Point", "coordinates": [-73.986680501, 40.8633401918]}, "type": "Feature", "properties": {"collection_times": [{"days": "Mon-Fri", "time": "1:00pm"}, {"days": "Sat", "time": "12:00pm"}, {"days": "Sun", "time": "Closed"}], "id": "0760500008", "name": "USPS COLLECTION BOX - BLUE BOX", "address": {"city": "LEONIA", "state": "NJ", "street": "371 BROAD AVE", "postcode": "07605"}}},
{"geometry": {"type": "Point", "coordinates": [-73.9879953959, 40.8616245146]}, "type": "Feature", "properties": {"collection_times": [{"days": "Mon-Fri", "time": "1:00pm"}, {"days": "Sat", "time": "12:00pm"}, {"days": "Sun", "time": "Closed"}], "id": "0760500012", "name": "USPS COLLECTION BOX - BLUE BOX", "address": {"city": "LEONIA", "state": "NJ", "street": "318 BROAD AVE", "postcode": "07605"}}},
{"geometry": {"type": "Point", "coordinates": [-73.9860652611, 40.864429587]}, "type": "Feature", "properties": {"collection_times": [{"days": "Mon-Fri", "time": "5:00pm"}, {"days": "Sat", "time": "3:30pm"}, {"days": "Sun", "time": "Closed"}], "id": "0760500022", "name": "USPS COLLECTION BOX - BLUE BOX", "address": {"city": "LEONIA", "state": "NJ", "street": "398 BROAD AVE", "postcode": "07605"}}},
{"geometry": {"type": "Point", "coordinates": [-73.9860652611, 40.864429587]}, "type": "Feature", "properties": {"collection_times": [{"days": "Mon-Fri", "time": "5:00pm"}, {"days": "Sat", "time": "3:30pm"}, {"days": "Sun", "time": "Closed"}], "id": "0760500023", "name": "USPS COLLECTION BOX - BLUE BOX", "address": {"city": "LEONIA", "state": "NJ", "street": "398 BROAD AVE", "postcode": "07605"}}},
{"geometry": {"type": "Point", "coordinates": [-73.9860652611, 40.864429587]}, "type": "Feature", "properties": {"collection_times": [{"days": "Mon-Fri", "time": "5:00pm"}, {"days": "Sat", "time": "2:00pm"}, {"days": "Sun", "time": "Closed"}], "id": "0760500024", "name": "USPS COLLECTION BOX - PO LOBBY", "address": {"city": "LEONIA", "state": "NJ", "street": "398 BROAD AVE", "postcode": "07605"}}},
{"geometry": {"type": "Point", "coordinates": [-74.0455700087, 40.8600239712]}, "type": "Feature", "properties": {"collection_times": [{"days": "Mon-Fri", "time": "1:00pm"}, {"days": "Sat-Sun", "time": "Closed"}], "id": "0760600002", "name": "USPS COLLECTION BOX - BLUE BOX", "address": {"city": "S HACKENSACK", "state": "NJ", "street": "227 PHILLIPS AVE", "postcode": "07606"}}},
{"geometry": {"type": "Point", "coordinates": [-74.0498629668, 40.8604427386]}, "type": "Feature", "properties": {"collection_times": [{"days": "Mon-Sat", "time": "5:00pm"}, {"days": "Sun", "time": "Closed"}], "id": "0760600008", "name": "USPS COLLECTION BOX - BLUE BOX", "address": {"city": "S HACKENSACK", "state": "NJ", "street": "560 HUYLER ST # 1", "postcode": "07606"}}},
{"geometry": {"type": "Point", "coordinates": [-74.0498629668, 40.8604427386]}, "type": "Feature", "properties": {"collection_times": [{"days": "Mon-Sat", "time": "5:00pm"}, {"days": "Sun", "time": "Closed"}], "id": "0760600009", "name": "USPS COLLECTION BOX - BLUE BOX", "address": {"city": "S HACKENSACK", "state": "NJ", "street": "560 HUYLER ST # 2", "postcode": "07606"}}},
{"geometry": {"type": "Point", "coordinates": [-74.0488189198, 40.8644806004]}, "type": "Feature", "properties": {"collection_times": [{"days": "Mon-Sat", "time": "5:00pm"}, {"days": "Sun", "time": "Closed"}], "id": "0760600010", "name": "USPS COLLECTION BOX - EXPRESS", "address": {"city": "S HACKENSACK", "state": "NJ", "street": "560 HUYLER ST", "postcode": "07606"}}},
{"geometry": {"type": "Point", "coordinates": [-74.0498629668, 40.8604427386]}, "type": "Feature", "properties": {"collection_times": [{"days": "Mon-Sat", "time": "5:00pm"}, {"days": "Sun", "time": "Closed"}], "id": "0760600012", "name": "USPS COLLECTION BOX - BLUE BOX", "address": {"city": "S HACKENSACK", "state": "NJ", "street": "560 HUYLER ST", "postcode": "07606"}}},
{"geometry": {"type": "Point", "coordinates": [-74.0498629668, 40.8604427386]}, "type": "Feature", "properties": {"collection_times": [{"days": "Mon-Fri", "time": "5:00pm"}, {"days": "Sat-Sun", "time": "Closed"}], "id": "0760600014", "name": "USPS COLLECTION BOX - PO LOBBY", "address": {"city": "S HACKENSACK", "state": "NJ", "street": "560 HUYLER ST", "postcode": "07606"}}},
{"geometry": {"type": "Point", "coordinates": [-73.9295914809, 40.9484865723]}, "type": "Feature", "properties": {"collection_times": [{"days": "Mon-Fri", "time": "4:30pm"}, {"days": "Sat", "time": "12:15pm"}, {"days": "Sun", "time": "Closed"}], "id": "0762000001", "name": "USPS COLLECTION BOX - BLUE BOX", "address": {"city": "ALPINE", "state": "NJ", "street": "100 CHURCH ST", "postcode": "07620"}}},
{"geometry": {"type": "Point", "coordinates": [-73.9295914809, 40.9484865723]}, "type": "Feature", "properties": {"collection_times": [{"days": "Mon-Fri", "time": "4:30pm"}, {"days": "Sat", "time": "12:15pm"}, {"days": "Sun", "time": "Closed"}], "id": "0762000002", "name": "USPS COLLECTION BOX - BLUE BOX", "address": {"city": "ALPINE", "state": "NJ", "street": "100 CHURCH ST", "postcode": "07620"}}},
{"geometry": {"type": "Point", "coordinates": [-73.9295914809, 40.9484865723]}, "type": "Feature", "properties": {"collection_times": [{"days": "Mon-Fri", "time": "4:30pm"}, {"days": "Sat", "time": "2:00pm"}, {"days": "Sun", "time": "Closed"}], "id": "0762000003", "name": "USPS COLLECTION BOX - PO LOBBY", "address": {"city": "ALPINE", "state": "NJ", "street": "100 CHURCH ST", "postcode": "07620"}}},
{"geometry": {"type": "Point", "coordinates": [-73.9956822632, 40.9318650691]}, "type": "Feature", "properties": {"collection_times": [{"days": "Mon-Sat", "time": "10:30am"}, {"days": "Sun", "time": "Closed"}], "id": "0762100001", "name": "USPS COLLECTION BOX - BLUE BOX", "address": {"city": "BERGENFIELD", "state": "NJ", "street": "130 S WASHINGTON AVE", "postcode": "07621"}}},
{"geometry": {"type": "Point", "coordinates": [-73.9955415914, 40.9322655173]}, "type": "Feature", "properties": {"collection_times": [{"days": "Mon-Sat", "time": "10:30am"}, {"days": "Sun", "time": "Closed"}], "id": "0762100002", "name": "USPS COLLECTION BOX - BLUE BOX", "address": {"city": "BERGENFIELD", "state": "NJ", "street": "135 N WASHINGTON AVE", "postcode": "07621"}}},
{"geometry": {"type": "Point", "coordinates": [-73.9952149944, 40.9344545663]}, "type": "Feature", "properties": {"collection_times": [{"days": "Mon-Sat", "time": "10:30am"}, {"days": "Sun", "time": "Closed"}], "id": "0762100004", "name": "USPS COLLECTION BOX - BLUE BOX", "address": {"city": "BERGENFIELD", "state": "NJ", "street": "198 N WASHINGTON AVE", "postcode": "07621"}}},
{"geometry": {"type": "Point", "coordinates": [-73.99672366, 40.9203531802]}, "type": "Feature", "properties": {"collection_times": [{"days": "Mon-Sat", "time": "10:30am"}, {"days": "Sun", "time": "Closed"}], "id": "0762100006", "name": "USPS COLLECTION BOX - BLUE BOX", "address": {"city": "BERGENFIELD", "state": "NJ", "street": "223 S WASHINGTON AVE", "postcode": "07621"}}},
{"geometry": {"type": "Point", "coordinates": [-73.998011995, 40.9281782463]}, "type": "Feature", "properties": {"collection_times": [{"days": "Mon-Fri", "time": "5:00pm"}, {"days": "Sat", "time": "3:00pm"}, {"days": "Sun", "time": "Closed"}], "id": "0762100007", "name": "USPS COLLECTION BOX - BLUE BOX", "address": {"city": "BERGENFIELD", "state": "NJ", "street": "25 VETERANS PLZ UNIT 1", "postcode": "07621"}}},
{"geometry": {"type": "Point", "coordinates": [-73.998011995, 40.9281782463]}, "type": "Feature", "properties": {"collection_times": [{"days": "Mon-Fri", "time": "5:00pm"}, {"days": "Sat", "time": "3:00pm"}, {"days": "Sun", "time": "Closed"}], "id": "0762100008", "name": "USPS COLLECTION BOX - BLUE BOX", "address": {"city": "BERGENFIELD", "state": "NJ", "street": "25 VETERANS PLZ UNIT 2", "postcode": "07621"}}},
{"geometry": {"type": "Point", "coordinates": [-73.9974938105, 40.9133101898]}, "type": "Feature", "properties": {"collection_times": [{"days": "Mon-Sat", "time": "10:30am"}, {"days": "Sun", "time": "Closed"}], "id": "0762100011", "name": "USPS COLLECTION BOX - BLUE BOX", "address": {"city": "BERGENFIELD", "state": "NJ", "street": "465 S WASHINGTON AVE", "postcode": "07621"}}},
{"geometry": {"type": "Point", "coordinates": [-74.0014988725, 40.9140792811]}, "type": "Feature", "properties": {"collection_times": [{"days": "Mon-Sat", "time": "10:30am"}, {"days": "Sun", "time": "Closed"}], "id": "0762100015", "name": "USPS COLLECTION BOX - BLUE BOX", "address": {"city": "BERGENFIELD", "state": "NJ", "street": "91 NEW BRIDGE RD", "postcode": "07621"}}},
{"geometry": {"type": "Point", "coordinates": [-73.9980943165, 40.9281174551]}, "type": "Feature", "properties": {"collection_times": [{"days": "Mon-Sat", "time": "10:30am"}, {"days": "Sun", "time": "Closed"}], "id": "0762100016", "name": "USPS COLLECTION BOX - BLUE BOX", "address": {"city": "BERGENFIELD", "state": "NJ", "street": "8 VETERANS PLZ", "postcode": "07621"}}},
{"geometry": {"type": "Point", "coordinates": [-73.990988282, 40.9322684581]}, "type": "Feature", "properties": {"collection_times": [{"days": "Mon-Sat", "time": "10:30am"}, {"days": "Sun", "time": "Closed"}], "id": "0762100028", "name": "USPS COLLECTION BOX - BLUE BOX", "address": {"city": "BERGENFIELD", "state": "NJ", "street": "101 HICKORY AVE", "postcode": "07621"}}},
{"geometry": {"type": "Point", "coordinates": [-73.9911314201, 40.9347455742]}, "type": "Feature", "properties": {"collection_times": [{"days": "Mon-Sat", "time": "10:30am"}, {"days": "Sun", "time": "Closed"}], "id": "0762100032", "name": "USPS COLLECTION BOX - BLUE BOX", "address": {"city": "BERGENFIELD", "state": "NJ", "street": "95 MERRITT AVE", "postcode": "07621"}}},
{"geometry": {"type": "Point", "coordinates": [-73.998011995, 40.9281782463]}, "type": "Feature", "properties": {"collection_times": [{"days": "Mon-Fri", "time": "5:00pm"}, {"days": "Sat", "time": "1:00pm"}, {"days": "Sun", "time": "Closed"}], "id": "0762100049", "name": "USPS COLLECTION BOX - PO LOBBY", "address": {"city": "BERGENFIELD", "state": "NJ", "street": "25 VETERANS PLZ", "postcode": "07621"}}},
{"geometry": {"type": "Point", "coordinates": [-73.9617424962, 40.9730357795]}, "type": "Feature", "properties": {"collection_times": [{"days": "Mon-Fri", "time": "1:00pm"}, {"days": "Sat", "time": "11:00am"}, {"days": "Sun", "time": "Closed"}], "id": "0762400002", "name": "USPS COLLECTION BOX - BLUE BOX", "address": {"city": "CLOSTER", "state": "NJ", "street": "224 CLOSTER DOCK RD", "postcode": "07624"}}},
{"geometry": {"type": "Point", "coordinates": [-73.9674107269, 40.9745994617]}, "type": "Feature", "properties": {"collection_times": [{"days": "Mon-Fri", "time": "12:00pm"}, {"days": "Sat", "time": "11:00am"}, {"days": "Sun", "time": "Closed"}], "id": "0762400005", "name": "USPS COLLECTION BOX - BLUE BOX", "address": {"city": "CLOSTER", "state": "NJ", "street": "280 HIGH ST", "postcode": "07624"}}},
{"geometry": {"type": "Point", "coordinates": [-73.9534680162, 40.9696998596]}, "type": "Feature", "properties": {"collection_times": [{"days": "Mon-Fri", "time": "5:00pm"}, {"days": "Sat", "time": "3:00pm"}, {"days": "Sun", "time": "Closed"}], "id": "0762400026", "name": "USPS COLLECTION BOX - BLUE BOX", "address": {"city": "CLOSTER", "state": "NJ", "street": "185 HOMANS AVE", "postcode": "07624"}}},
{"geometry": {"type": "Point", "coordinates": [-73.9534680162, 40.9696998596]}, "type": "Feature", "properties": {"collection_times": [{"days": "Mon-Fri", "time": "5:00pm"}, {"days": "Sat", "time": "1:00pm"}, {"days": "Sun", "time": "Closed"}], "id": "0762400027", "name": "USPS COLLECTION BOX - PO LOBBY", "address": {"city": "CLOSTER", "state": "NJ", "street": "185 HOMANS AVE", "postcode": "07624"}}},
{"geometry": {"type": "Point", "coordinates": [-73.9599344263, 40.940891046]}, "type": "Feature", "properties": {"collection_times": [{"days": "Mon-Fri", "time": "5:00pm"}, {"days": "Sat", "time": "3:00pm"}, {"days": "Sun", "time": "Closed"}], "id": "0762600004", "name": "USPS COLLECTION BOX - BLUE BOX", "address": {"city": "CRESSKILL", "state": "NJ", "street": "20 WASHINGTON ST # 1", "postcode": "07626"}}},
{"geometry": {"type": "Point", "coordinates": [-73.9599344263, 40.940891046]}, "type": "Feature", "properties": {"collection_times": [{"days": "Mon-Fri", "time": "5:00pm"}, {"days": "Sat", "time": "3:00pm"}, {"days": "Sun", "time": "Closed"}], "id": "0762600005", "name": "USPS COLLECTION BOX - BLUE BOX", "address": {"city": "CRESSKILL", "state": "NJ", "street": "20 WASHINGTON ST # 2", "postcode": "07626"}}},
{"geometry": {"type": "Point", "coordinates": [-73.9599344263, 40.940891046]}, "type": "Feature", "properties": {"collection_times": [{"days": "Mon-Fri", "time": "5:00pm"}, {"days": "Sat", "time": "3:00pm"}, {"days": "Sun", "time": "Closed"}], "id": "0762600006", "name": "USPS COLLECTION BOX - BLUE BOX", "address": {"city": "CRESSKILL", "state": "NJ", "street": "20 WASHINGTON ST", "postcode": "07626"}}},
{"geometry": {"type": "Point", "coordinates": [-73.9599344263, 40.940891046]}, "type": "Feature", "properties": {"collection_times": [{"days": "Mon-Fri", "time": "5:00pm"}, {"days": "Sat", "time": "3:00pm"}, {"days": "Sun", "time": "Closed"}], "id": "0762600008", "name": "USPS COLLECTION BOX - PO LOBBY", "address": {"city": "CRESSKILL", "state": "NJ", "street": "20 WASHINGTON ST STE 2", "postcode": "07626"}}},
{"geometry": {"type": "Point", "coordinates": [-73.9639162661, 40.9571590977]}, "type": "Feature", "properties": {"collection_times": [{"days": "Mon-Fri", "time": "5:00pm"}, {"days": "Sat", "time": "1:00pm"}, {"days": "Sun", "time": "Closed"}], "id": "0762700011", "name": "USPS COLLECTION BOX - BLUE BOX", "address": {"city": "DEMAREST", "state": "NJ", "street": "126 HARDENBURGH AVE", "postcode": "07627"}}},
{"geometry": {"type": "Point", "coordinates": [-73.974423962, 40.9633449088]}, "type": "Feature", "properties": {"collection_times": [{"days": "Mon-Sat", "time": "12:00pm"}, {"days": "Sun", "time": "Closed"}], "id": "0762700014", "name": "USPS COLLECTION BOX - BLUE BOX", "address": {"city": "DEMAREST", "state": "NJ", "street": "150 KNICKERBOCKER RD", "postcode": "07627"}}},
{"geometry": {"type": "Point", "coordinates": [-73.9639162661, 40.9571590977]}, "type": "Feature", "properties": {"collection_times": [{"days": "Mon-Fri", "time": "5:00pm"}, {"days": "Sat", "time": "12:00pm"}, {"days": "Sun", "time": "Closed"}], "id": "0762700015", "name": "USPS COLLECTION BOX - PO LOBBY", "address": {"city": "DEMAREST", "state": "NJ", "street": "126 HARDENBURGH AVE", "postcode": "07627"}}},
{"geometry": {"type": "Point", "coordinates": [-73.9768132167, 40.9417843728]}, "type": "Feature", "properties": {"collection_times": [{"days": "Mon-Sat", "time": "11:00am"}, {"days": "Sun", "time": "Closed"}], "id": "0762800001", "name": "USPS COLLECTION BOX - BLUE BOX", "address": {"city": "DUMONT", "state": "NJ", "street": "10 KNICKERBOCKER RD", "postcode": "07628"}}},
{"geometry": {"type": "Point", "coordinates": [-73.9941728076, 40.9404533512]}, "type": "Feature", "properties": {"collection_times": [{"days": "Mon-Sat", "time": "11:00am"}, {"days": "Sun", "time": "Closed"}], "id": "0762800004", "name": "USPS COLLECTION BOX - BLUE BOX", "address": {"city": "DUMONT", "state": "NJ", "street": "10 W MADISON AVE", "postcode": "07628"}}},
{"geometry": {"type": "Point", "coordinates": [-73.9944342415, 40.9377668514]}, "type": "Feature", "properties": {"collection_times": [{"days": "Mon-Sat", "time": "10:00am"}, {"days": "Sun", "time": "Closed"}], "id": "0762800008", "name": "USPS COLLECTION BOX - BLUE BOX", "address": {"city": "DUMONT", "state": "NJ", "street": "50 WASHINGTON AVE", "postcode": "07628"}}},
{"geometry": {"type": "Point", "coordinates": [-73.9969416399, 40.9444428331]}, "type": "Feature", "properties": {"collection_times": [{"days": "Mon-Sat", "time": "11:00am"}, {"days": "Sun", "time": "Closed"}], "id": "0762800013", "name": "USPS COLLECTION BOX - BLUE BOX", "address": {"city": "DUMONT", "state": "NJ", "street": "101 NEW MILFORD AVE", "postcode": "07628"}}},
{"geometry": {"type": "Point", "coordinates": [-73.9968758688, 40.9408094218]}, "type": "Feature", "properties": {"collection_times": [{"days": "Mon-Fri", "time": "5:00pm"}, {"days": "Sat", "time": "3:00pm"}, {"days": "Sun", "time": "Closed"}], "id": "0762800024", "name": "USPS COLLECTION BOX - BLUE BOX", "address": {"city": "DUMONT", "state": "NJ", "street": "138 VETERANS PLZ", "postcode": "07628"}}},
{"geometry": {"type": "Point", "coordinates": [-73.9968758688, 40.9408094218]}, "type": "Feature", "properties": {"collection_times": [{"days": "Mon-Fri", "time": "5:00pm"}, {"days": "Sat", "time": "3:00pm"}, {"days": "Sun", "time": "Closed"}], "id": "0762800025", "name": "USPS COLLECTION BOX - BLUE BOX", "address": {"city": "DUMONT", "state": "NJ", "street": "138 VETERANS PLZ", "postcode": "07628"}}},
{"geometry": {"type": "Point", "coordinates": [-73.9980387175, 40.9471335205]}, "type": "Feature", "properties": {"collection_times": [{"days": "Mon-Sat", "time": "10:00am"}, {"days": "Sun", "time": "Closed"}], "id": "0762800033", "name": "USPS COLLECTION BOX - BLUE BOX", "address": {"city": "DUMONT", "state": "NJ", "street": "74 HOLT ST", "postcode": "07628"}}},
{"geometry": {"type": "Point", "coordinates": [-73.9968758688, 40.9408094218]}, "type": "Feature", "properties": {"collection_times": [{"days": "Mon-Fri", "time": "5:00pm"}, {"days": "Sat", "time": "1:00pm"}, {"days": "Sun", "time": "Closed"}], "id": "0762800041", "name": "USPS COLLECTION BOX - PO LOBBY", "address": {"city": "DUMONT", "state": "NJ", "street": "138 VETERANS PLZ", "postcode": "07628"}}},
{"geometry": {"type": "Point", "coordinates": [-74.0246160894, 40.9748239309]}, "type": "Feature", "properties": {"collection_times": [{"days": "Mon-Sat", "time": "11:00am"}, {"days": "Sun", "time": "Closed"}], "id": "0763000001", "name": "USPS COLLECTION BOX - BLUE BOX", "address": {"city": "EMERSON", "state": "NJ", "street": "1 MUNICIPAL PL", "postcode": "07630"}}},
{"geometry": {"type": "Point", "coordinates": [-74.0064288437, 40.9818811141]}, "type": "Feature", "properties": {"collection_times": [{"days": "Mon-Sat", "time": "9:30am"}, {"days": "Sun", "time": "Closed"}], "id": "0763000002", "name": "USPS COLLECTION BOX - BLUE BOX", "address": {"city": "EMERSON", "state": "NJ", "street": "425 OLD HOOK RD", "postcode": "07630"}}},
{"geometry": {"type": "Point", "coordinates": [-74.0271809116, 40.9747556123]}, "type": "Feature", "properties": {"collection_times": [{"days": "Mon-Sat", "time": "11:00am"}, {"days": "Sun", "time": "Closed"}], "id": "0763000004", "name": "USPS COLLECTION BOX - BLUE BOX", "address": {"city": "EMERSON", "state": "NJ", "street": "55 EMERSON PLZ E", "postcode": "07630"}}},
{"geometry": {"type": "Point", "coordinates": [-74.0431473087, 40.9669398024]}, "type": "Feature", "properties": {"collection_times": [{"days": "Mon-Sat", "time": "11:00am"}, {"days": "Sun", "time": "Closed"}], "id": "0763000006", "name": "USPS COLLECTION BOX - BLUE BOX", "address": {"city": "EMERSON", "state": "NJ", "street": "108 COLONIAL RD", "postcode": "07630"}}},
{"geometry": {"type": "Point", "coordinates": [-74.0294604735, 40.9817279724]}, "type": "Feature", "properties": {"collection_times": [{"days": "Mon-Sat", "time": "10:00am"}, {"days": "Sun", "time": "Closed"}], "id": "0763000013", "name": "USPS COLLECTION BOX - BLUE BOX", "address": {"city": "EMERSON", "state": "NJ", "street": "117 PASCACK AVE", "postcode": "07630"}}},
{"geometry": {"type": "Point", "coordinates": [-74.0321032101, 40.9752528601]}, "type": "Feature", "properties": {"collection_times": [{"days": "Mon-Sat", "time": "11:00am"}, {"days": "Sun", "time": "Closed"}], "id": "0763000015", "name": "USPS COLLECTION BOX - BLUE BOX", "address": {"city": "EMERSON", "state": "NJ", "street": "4 SUNSET PL", "postcode": "07630"}}},
{"geometry": {"type": "Point", "coordinates": [-74.0242551578, 40.9819958444]}, "type": "Feature", "properties": {"collection_times": [{"days": "Mon-Fri", "time": "5:00pm"}, {"days": "Sat", "time": "1:00pm"}, {"days": "Sun", "time": "Closed"}], "id": "0763000019", "name": "USPS COLLECTION BOX - BLUE BOX", "address": {"city": "EMERSON", "state": "NJ", "street": "381 KINDERKAMACK RD", "postcode": "07630"}}},
{"geometry": {"type": "Point", "coordinates": [-74.0242551578, 40.9819958444]}, "type": "Feature", "properties": {"collection_times": [{"days": "Mon-Fri", "time": "5:00pm"}, {"days": "Sat", "time": "1:00pm"}, {"days": "Sun", "time": "Closed"}], "id": "0763000020", "name": "USPS COLLECTION BOX - BLUE BOX", "address": {"city": "EMERSON", "state": "NJ", "street": "381 KINDERKAMACK RD", "postcode": "07630"}}},
{"geometry": {"type": "Point", "coordinates": [-74.0242551578, 40.9819958444]}, "type": "Feature", "properties": {"collection_times": [{"days": "Mon-Fri", "time": "5:00pm"}, {"days": "Sat", "time": "12:30pm"}, {"days": "Sun", "time": "Closed"}], "id": "0763000021", "name": "USPS COLLECTION BOX - PO LOBBY", "address": {"city": "EMERSON", "state": "NJ", "street": "381 KINDERKAMACK RD STE A", "postcode": "07630"}}},
{"geometry": {"type": "Point", "coordinates": [-73.9735585647, 40.8984523931]}, "type": "Feature", "properties": {"collection_times": [{"days": "Mon-Sat", "time": "11:00am"}, {"days": "Sun", "time": "Closed"}], "id": "0763100003", "name": "USPS COLLECTION BOX - BLUE BOX", "address": {"city": "ENGLEWOOD", "state": "NJ", "street": "111 WEST ST", "postcode": "07631"}}},
{"geometry": {"type": "Point", "coordinates": [-73.9725958666, 40.8934545966]}, "type": "Feature", "properties": {"collection_times": [{"days": "Mon-Sat", "time": "11:00am"}, {"days": "Sun", "time": "Closed"}], "id": "0763100007", "name": "USPS COLLECTION BOX - BLUE BOX", "address": {"city": "ENGLEWOOD", "state": "NJ", "street": "15 ENGLE ST", "postcode": "07631"}}},
{"geometry": {"type": "Point", "coordinates": [-73.9714493488, 40.898801366]}, "type": "Feature", "properties": {"collection_times": [{"days": "Mon-Sat", "time": "11:00am"}, {"days": "Sun", "time": "Closed"}], "id": "0763100008", "name": "USPS COLLECTION BOX - BLUE BOX", "address": {"city": "ENGLEWOOD", "state": "NJ", "street": "155 N DEAN ST", "postcode": "07631"}}},
{"geometry": {"type": "Point", "coordinates": [-73.9711488772, 40.8994224195]}, "type": "Feature", "properties": {"collection_times": [{"days": "Mon-Sat", "time": "11:00am"}, {"days": "Sun", "time": "Closed"}], "id": "0763100009", "name": "USPS COLLECTION BOX - BLUE BOX", "address": {"city": "ENGLEWOOD", "state": "NJ", "street": "180 N DEAN ST", "postcode": "07631"}}},
{"geometry": {"type": "Point", "coordinates": [-73.9754281183, 40.8942662114]}, "type": "Feature", "properties": {"collection_times": [{"days": "Mon-Sat", "time": "11:00am"}, {"days": "Sun", "time": "Closed"}], "id": "0763100010", "name": "USPS COLLECTION BOX - BLUE BOX", "address": {"city": "ENGLEWOOD", "state": "NJ", "street": "2 N VAN BRUNT ST", "postcode": "07631"}}},
{"geometry": {"type": "Point", "coordinates": [-73.9674627771, 40.903903468]}, "type": "Feature", "properties": {"collection_times": [{"days": "Mon-Sat", "time": "11:00am"}, {"days": "Sun", "time": "Closed"}], "id": "0763100015", "name": "USPS COLLECTION BOX - BLUE BOX", "address": {"city": "ENGLEWOOD", "state": "NJ", "street": "350 ENGLE ST # 2", "postcode": "07631"}}},
{"geometry": {"type": "Point", "coordinates": [-73.9751389978, 40.8964756687]}, "type": "Feature", "properties": {"collection_times": [{"days": "Mon-Sat", "time": "11:00am"}, {"days": "Sun", "time": "Closed"}], "id": "0763100018", "name": "USPS COLLECTION BOX - BLUE BOX", "address": {"city": "ENGLEWOOD", "state": "NJ", "street": "40 NATHANIEL PL", "postcode": "07631"}}},
{"geometry": {"type": "Point", "coordinates": [-73.9746058969, 40.890764066]}, "type": "Feature", "properties": {"collection_times": [{"days": "Mon-Sat", "time": "11:00am"}, {"days": "Sun", "time": "Closed"}], "id": "0763100030", "name": "USPS COLLECTION BOX - BLUE BOX", "address": {"city": "ENGLEWOOD", "state": "NJ", "street": "66 GRAND AVE", "postcode": "07631"}}},
{"geometry": {"type": "Point", "coordinates": [-73.9789623212, 40.8872509547]}, "type": "Feature", "properties": {"collection_times": [{"days": "Mon-Sat", "time": "11:00am"}, {"days": "Sun", "time": "Closed"}], "id": "0763100059", "name": "USPS COLLECTION BOX - BLUE BOX", "address": {"city": "ENGLEWOOD", "state": "NJ", "street": "201 S DEAN ST", "postcode": "07631"}}},
{"geometry": {"type": "Point", "coordinates": [-73.9716518589, 40.8953830904]}, "type": "Feature", "properties": {"collection_times": [{"days": "Mon-Fri", "time": "5:00pm"}, {"days": "Sat", "time": "2:00pm"}, {"days": "Sun", "time": "Closed"}], "id": "0763100061", "name": "USPS COLLECTION BOX - BLUE BOX", "address": {"city": "ENGLEWOOD", "state": "NJ", "street": "77 ENGLE ST UNIT 1", "postcode": "07631"}}},
{"geometry": {"type": "Point", "coordinates": [-73.9716518589, 40.8953830904]}, "type": "Feature", "properties": {"collection_times": [{"days": "Mon-Fri", "time": "5:00pm"}, {"days": "Sat", "time": "2:00pm"}, {"days": "Sun", "time": "Closed"}], "id": "0763100062", "name": "USPS COLLECTION BOX - BLUE BOX", "address": {"city": "ENGLEWOOD", "state": "NJ", "street": "77 ENGLE ST UNIT 2", "postcode": "07631"}}},
{"geometry": {"type": "Point", "coordinates": [-73.9716518589, 40.8953830904]}, "type": "Feature", "properties": {"collection_times": [{"days": "Mon-Fri", "time": "5:00pm"}, {"days": "Sat", "time": "2:00pm"}, {"days": "Sun", "time": "Closed"}], "id": "0763100063", "name": "USPS COLLECTION BOX - BLUE BOX", "address": {"city": "ENGLEWOOD", "state": "NJ", "street": "77 ENGLE ST UNIT 3", "postcode": "07631"}}},
{"geometry": {"type": "Point", "coordinates": [-73.9766092734, 40.8927709312]}, "type": "Feature", "properties": {"collection_times": [{"days": "Mon-Fri", "time": "5:00pm"}, {"days": "Sat", "time": "2:00pm"}, {"days": "Sun", "time": "Closed"}], "id": "0763100064", "name": "USPS COLLECTION BOX - EXPRESS", "address": {"city": "ENGLEWOOD", "state": "NJ", "street": "77 ENGLE ST", "postcode": "07631"}}},
{"geometry": {"type": "Point", "coordinates": [-73.9709763837, 40.8916183342]}, "type": "Feature", "properties": {"collection_times": [{"days": "Mon-Sat", "time": "11:00am"}, {"days": "Sun", "time": "Closed"}], "id": "0763100068", "name": "USPS COLLECTION BOX - BLUE BOX", "address": {"city": "ENGLEWOOD", "state": "NJ", "street": "114 W PALISADE AVE", "postcode": "07631"}}},
{"geometry": {"type": "Point", "coordinates": [-73.9766092734, 40.8927709312]}, "type": "Feature", "properties": {"collection_times": [{"days": "Mon-Sat", "time": "11:00am"}, {"days": "Sun", "time": "Closed"}], "id": "0763100075", "name": "USPS COLLECTION BOX - BLUE BOX", "address": {"city": "ENGLEWOOD", "state": "NJ", "street": "18 E PALISADE AVE", "postcode": "07631"}}},
{"geometry": {"type": "Point", "coordinates": [-73.9829648624, 40.8852123147]}, "type": "Feature", "properties": {"collection_times": [{"days": "Mon-Fri", "time": "5:00pm"}, {"days": "Sat", "time": "2:00pm"}, {"days": "Sun", "time": "Closed"}], "id": "0763100078", "name": "USPS COLLECTION BOX - BLUE BOX", "address": {"city": "ENGLEWOOD", "state": "NJ", "street": "55 SMITH ST # 1", "postcode": "07631"}}},
{"geometry": {"type": "Point", "coordinates": [-73.9829648624, 40.8852123147]}, "type": "Feature", "properties": {"collection_times": [{"days": "Mon-Fri", "time": "5:00pm"}, {"days": "Sat", "time": "2:00pm"}, {"days": "Sun", "time": "Closed"}], "id": "0763100079", "name": "USPS COLLECTION BOX - BLUE BOX", "address": {"city": "ENGLEWOOD", "state": "NJ", "street": "55 SMITH ST # 2", "postcode": "07631"}}},
{"geometry": {"type": "Point", "coordinates": [-73.9829648624, 40.8852123147]}, "type": "Feature", "properties": {"collection_times": [{"days": "Mon-Fri", "time": "5:00pm"}, {"days": "Sat", "time": "2:00pm"}, {"days": "Sun", "time": "Closed"}], "id": "0763100080", "name": "USPS COLLECTION BOX - BLUE BOX", "address": {"city": "ENGLEWOOD", "state": "NJ", "street": "55 SMITH ST # 3", "postcode": "07631"}}},
{"geometry": {"type": "Point", "coordinates": [-73.9766092734, 40.8927709312]}, "type": "Feature", "properties": {"collection_times": [{"days": "Mon-Fri", "time": "5:00pm"}, {"days": "Sat", "time": "2:00pm"}, {"days": "Sun", "time": "Closed"}], "id": "0763100081", "name": "USPS COLLECTION BOX - EXPRESS", "address": {"city": "ENGLEWOOD", "state": "NJ", "street": "55 SMITH ST", "postcode": "07631"}}},
{"geometry": {"type": "Point", "coordinates": [-73.9837059867, 40.8798941329]}, "type": "Feature", "properties": {"collection_times": [{"days": "Mon-Sat", "time": "10:30am"}, {"days": "Sun", "time": "Closed"}], "id": "0763100086", "name": "USPS COLLECTION BOX - BLUE BOX", "address": {"city": "ENGLEWOOD", "state": "NJ", "street": "454 S DEAN ST # 2", "postcode": "07631"}}},
{"geometry": {"type": "Point", "coordinates": [-73.9741516931, 40.9070980265]}, "type": "Feature", "properties": {"collection_times": [{"days": "Mon-Sat", "time": "12:30pm"}, {"days": "Sun", "time": "Closed"}], "id": "0763100096", "name": "USPS COLLECTION BOX - BLUE BOX", "address": {"city": "ENGLEWOOD", "state": "NJ", "street": "325 TENAFLY RD", "postcode": "07631"}}},
{"geometry": {"type": "Point", "coordinates": [-73.9687085158, 40.9103013345]}, "type": "Feature", "properties": {"collection_times": [{"days": "Mon-Sat", "time": "11:00am"}, {"days": "Sun", "time": "Closed"}], "id": "0763100097", "name": "USPS COLLECTION BOX - BLUE BOX", "address": {"city": "ENGLEWOOD", "state": "NJ", "street": "13 W HUDSON AVE", "postcode": "07631"}}},
{"geometry": {"type": "Point", "coordinates": [-73.9716518589, 40.8953830904]}, "type": "Feature", "properties": {"collection_times": [{"days": "Mon-Fri", "time": "5:00pm"}, {"days": "Sat", "time": "4:00pm"}, {"days": "Sun", "time": "Closed"}], "id": "0763100098", "name": "USPS COLLECTION BOX - PO LOBBY", "address": {"city": "ENGLEWOOD", "state": "NJ", "street": "77 ENGLE ST", "postcode": "07631"}}},
{"geometry": {"type": "Point", "coordinates": [-73.9829648624, 40.8852123147]}, "type": "Feature", "properties": {"collection_times": [{"days": "Mon-Fri", "time": "5:00pm"}, {"days": "Sat", "time": "2:00pm"}, {"days": "Sun", "time": "Closed"}], "id": "0763100099", "name": "USPS COLLECTION BOX - PO LOBBY", "address": {"city": "ENGLEWOOD", "state": "NJ", "street": "55 SMITH ST", "postcode": "07631"}}},
{"geometry": {"type": "Point", "coordinates": [-73.9537371645, 40.8796403245]}, "type": "Feature", "properties": {"collection_times": [{"days": "Mon-Fri", "time": "5:00pm"}, {"days": "Sat", "time": "2:00pm"}, {"days": "Sun", "time": "Closed"}], "id": "0763200001", "name": "USPS COLLECTION BOX - EXPRESS", "address": {"city": "ENGLEWD CLFS", "state": "NJ", "street": "650 E PALISADE AVE", "postcode": "07632"}}},
{"geometry": {"type": "Point", "coordinates": [-73.9618107694, 40.8740397706]}, "type": "Feature", "properties": {"collection_times": [{"days": "Mon-Sat", "time": "11:00am"}, {"days": "Sun", "time": "Closed"}], "id": "0763200005", "name": "USPS COLLECTION BOX - BLUE BOX", "address": {"city": "ENGLEWD CLFS", "state": "NJ", "street": "191 JENKINS DR", "postcode": "07632"}}},
{"geometry": {"type": "Point", "coordinates": [-73.9552747509, 40.8710964671]}, "type": "Feature", "properties": {"collection_times": [{"days": "Mon-Sat", "time": "11:00am"}, {"days": "Sun", "time": "Closed"}], "id": "0763200008", "name": "USPS COLLECTION BOX - BLUE BOX", "address": {"city": "ENGLEWD CLFS", "state": "NJ", "street": "210 SYLVAN AVE STE 1", "postcode": "07632"}}},
{"geometry": {"type": "Point", "coordinates": [-73.9570219813, 40.8694178483]}, "type": "Feature", "properties": {"collection_times": [{"days": "Mon-Sat", "time": "11:00am"}, {"days": "Sun", "time": "Closed"}], "id": "0763200010", "name": "USPS COLLECTION BOX - BLUE BOX", "address": {"city": "ENGLEWD CLFS", "state": "NJ", "street": "140 SYLVAN AVE", "postcode": "07632"}}},
{"geometry": {"type": "Point", "coordinates": [-73.9537843314, 40.8818734415]}, "type": "Feature", "properties": {"collection_times": [{"days": "Mon-Fri", "time": "5:00pm"}, {"days": "Sat", "time": "2:00pm"}, {"days": "Sun", "time": "Closed"}], "id": "0763200016", "name": "USPS COLLECTION BOX - BLUE BOX", "address": {"city": "ENGLEWD CLFS", "state": "NJ", "street": "650 E PALISADE AVE STE 1", "postcode": "07632"}}},
{"geometry": {"type": "Point", "coordinates": [-73.9507286396, 40.8792021019]}, "type": "Feature", "properties": {"collection_times": [{"days": "Mon-Sat", "time": "11:00am"}, {"days": "Sun", "time": "Closed"}], "id": "0763200018", "name": "USPS COLLECTION BOX - BLUE BOX", "address": {"city": "ENGLEWD CLFS", "state": "NJ", "street": "10 KAHN TER", "postcode": "07632"}}},
{"geometry": {"type": "Point", "coordinates": [-73.9537843314, 40.8818734415]}, "type": "Feature", "properties": {"collection_times": [{"days": "Mon-Fri", "time": "5:00pm"}, {"days": "Sat", "time": "2:00pm"}, {"days": "Sun", "time": "Closed"}], "id": "0763200027", "name": "USPS COLLECTION BOX - BLUE BOX", "address": {"city": "ENGLEWD CLFS", "state": "NJ", "street": "650 E PALISADE AVE STE 3", "postcode": "07632"}}},
{"geometry": {"type": "Point", "coordinates": [-73.948318314, 40.8840183242]}, "type": "Feature", "properties": {"collection_times": [{"days": "Mon-Sat", "time": "11:00am"}, {"days": "Sun", "time": "Closed"}], "id": "0763200030", "name": "USPS COLLECTION BOX - BLUE BOX", "address": {"city": "ENGLEWD CLFS", "state": "NJ", "street": "560 SYLVAN AVE STE 2", "postcode": "07632"}}},
{"geometry": {"type": "Point", "coordinates": [-73.948318314, 40.8840183242]}, "type": "Feature", "properties": {"collection_times": [{"days": "Mon-Sat", "time": "11:00am"}, {"days": "Sun", "time": "Closed"}], "id": "0763200031", "name": "USPS COLLECTION BOX - BLUE BOX", "address": {"city": "ENGLEWD CLFS", "state": "NJ", "street": "560 SYLVAN AVE # 3", "postcode": "07632"}}},
{"geometry": {"type": "Point", "coordinates": [-73.948318314, 40.8840183242]}, "type": "Feature", "properties": {"collection_times": [{"days": "Mon-Sat", "time": "11:00am"}, {"days": "Sun", "time": "Closed"}], "id": "0763200032", "name": "USPS COLLECTION BOX - BLUE BOX", "address": {"city": "ENGLEWD CLFS", "state": "NJ", "street": "560 SYLVAN AVE # 4", "postcode": "07632"}}},
{"geometry": {"type": "Point", "coordinates": [-73.9537843314, 40.8818734415]}, "type": "Feature", "properties": {"collection_times": [{"days": "Mon-Fri", "time": "5:00pm"}, {"days": "Sat", "time": "1:00pm"}, {"days": "Sun", "time": "Closed"}], "id": "0763200034", "name": "USPS COLLECTION BOX - PO LOBBY", "address": {"city": "ENGLEWD CLFS", "state": "NJ", "street": "650 E PALISADE AVE STE A", "postcode": "07632"}}},
{"geometry": {"type": "Point", "coordinates": [-73.9780728377, 40.9843525063]}, "type": "Feature", "properties": {"collection_times": [{"days": "Mon-Fri", "time": "10:30am"}, {"days": "Sat", "time": "10:00am"}, {"days": "Sun", "time": "Closed"}], "id": "0764000001", "name": "USPS COLLECTION BOX - BLUE BOX", "address": {"city": "HARRINGTON PARK", "state": "NJ", "street": "49 LAROCHE AVE", "postcode": "07640"}}},
{"geometry": {"type": "Point", "coordinates": [-73.9788881291, 40.9867328565]}, "type": "Feature", "properties": {"collection_times": [{"days": "Mon-Fri", "time": "12:30pm"}, {"days": "Sat", "time": "1:00pm"}, {"days": "Sun", "time": "Closed"}], "id": "0764000003", "name": "USPS COLLECTION BOX - BLUE BOX", "address": {"city": "HARRINGTON PARK", "state": "NJ", "street": "85 HARRIOT AVE", "postcode": "07640"}}},
{"geometry": {"type": "Point", "coordinates": [-73.9797397705, 40.9831696949]}, "type": "Feature", "properties": {"collection_times": [{"days": "Mon-Fri", "time": "5:00pm"}, {"days": "Sat", "time": "3:00pm"}, {"days": "Sun", "time": "Closed"}], "id": "0764000008", "name": "USPS COLLECTION BOX - BLUE BOX", "address": {"city": "HARRINGTON PARK", "state": "NJ", "street": "7 LYNN ST", "postcode": "07640"}}},
{"geometry": {"type": "Point", "coordinates": [-73.9797397705, 40.9831696949]}, "type": "Feature", "properties": {"collection_times": [{"days": "Mon-Fri", "time": "5:00pm"}, {"days": "Sat", "time": "3:00pm"}, {"days": "Sun", "time": "Closed"}], "id": "0764000009", "name": "USPS COLLECTION BOX - BLUE BOX", "address": {"city": "HARRINGTON PARK", "state": "NJ", "street": "7 LYNN ST", "postcode": "07640"}}},
{"geometry": {"type": "Point", "coordinates": [-73.9797397705, 40.9831696949]}, "type": "Feature", "properties": {"collection_times": [{"days": "Mon-Fri", "time": "5:00pm"}, {"days": "Sat", "time": "12:00pm"}, {"days": "Sun", "time": "Closed"}], "id": "0764000010", "name": "USPS COLLECTION BOX - PO LOBBY", "address": {"city": "HARRINGTON PARK", "state": "NJ", "street": "7 LYNN ST", "postcode": "07640"}}},
{"geometry": {"type": "Point", "coordinates": [-73.9882355365, 40.9606914132]}, "type": "Feature", "properties": {"collection_times": [{"days": "Mon-Fri", "time": "3:00pm"}, {"days": "Sat", "time": "1:00pm"}, {"days": "Sun", "time": "Closed"}], "id": "0764100002", "name": "USPS COLLECTION BOX - BLUE BOX", "address": {"city": "HAWORTH", "state": "NJ", "street": "300 HAWORTH AVE", "postcode": "07641"}}},
{"geometry": {"type": "Point", "coordinates": [-73.9889555756, 40.9593620124]}, "type": "Feature", "properties": {"collection_times": [{"days": "Mon-Fri", "time": "3:00pm"}, {"days": "Sat", "time": "1:00pm"}, {"days": "Sun", "time": "Closed"}], "id": "0764100006", "name": "USPS COLLECTION BOX - BLUE BOX", "address": {"city": "HAWORTH", "state": "NJ", "street": "309 SAINT NICHOLAS AVE", "postcode": "07641"}}},
{"geometry": {"type": "Point", "coordinates": [-73.9894125807, 40.960004114]}, "type": "Feature", "properties": {"collection_times": [{"days": "Mon-Sat", "time": "1:00pm"}, {"days": "Sun", "time": "Closed"}], "id": "0764100010", "name": "USPS COLLECTION BOX - BLUE BOX", "address": {"city": "HAWORTH", "state": "NJ", "street": "165 TERRACE ST", "postcode": "07641"}}},
{"geometry": {"type": "Point", "coordinates": [-73.9888944447, 40.9593026193]}, "type": "Feature", "properties": {"collection_times": [{"days": "Mon-Fri", "time": "5:00pm"}, {"days": "Sat", "time": "1:00pm"}, {"days": "Sun", "time": "Closed"}], "id": "0764100011", "name": "USPS COLLECTION BOX - PO LOBBY", "address": {"city": "HAWORTH", "state": "NJ", "street": "300 SAINT NICHOLAS AVE", "postcode": "07641"}}},
{"geometry": {"type": "Point", "coordinates": [-74.0212341769, 41.0087562189]}, "type": "Feature", "properties": {"collection_times": [{"days": "Mon-Sat", "time": "9:30am"}, {"days": "Sun", "time": "Closed"}], "id": "0764200002", "name": "USPS COLLECTION BOX - BLUE BOX", "address": {"city": "HILLSDALE", "state": "NJ", "street": "32 PIERMONT AVE", "postcode": "07642"}}},
{"geometry": {"type": "Point", "coordinates": [-74.0419597572, 41.0015859171]}, "type": "Feature", "properties": {"collection_times": [{"days": "Mon-Sat", "time": "9:30am"}, {"days": "Sun", "time": "Closed"}], "id": "0764200004", "name": "USPS COLLECTION BOX - BLUE BOX", "address": {"city": "HILLSDALE", "state": "NJ", "street": "385 WASHINGTON AVE", "postcode": "07642"}}},
{"geometry": {"type": "Point", "coordinates": [-74.0387195297, 41.0027625524]}, "type": "Feature", "properties": {"collection_times": [{"days": "Mon-Sat", "time": "12:00pm"}, {"days": "Sun", "time": "Closed"}], "id": "0764200008", "name": "USPS COLLECTION BOX - BLUE BOX", "address": {"city": "HILLSDALE", "state": "NJ", "street": "370 HILLSDALE AVE", "postcode": "07642"}}},
{"geometry": {"type": "Point", "coordinates": [-74.0405518708, 41.0025312932]}, "type": "Feature", "properties": {"collection_times": [{"days": "Mon-Sat", "time": "9:30am"}, {"days": "Sun", "time": "Closed"}], "id": "0764200014", "name": "USPS COLLECTION BOX - BLUE BOX", "address": {"city": "HILLSDALE", "state": "NJ", "street": "99 BROADWAY", "postcode": "07642"}}},
{"geometry": {"type": "Point", "coordinates": [-74.042073182, 41.0126469709]}, "type": "Feature", "properties": {"collection_times": [{"days": "Mon-Sat", "time": "10:00am"}, {"days": "Sun", "time": "Closed"}], "id": "0764200016", "name": "USPS COLLECTION BOX - BLUE BOX", "address": {"city": "HILLSDALE", "state": "NJ", "street": "372 BROADWAY", "postcode": "07642"}}},
{"geometry": {"type": "Point", "coordinates": [-74.0431851634, 41.0026012834]}, "type": "Feature", "properties": {"collection_times": [{"days": "Mon-Fri", "time": "5:00pm"}, {"days": "Sat", "time": "1:00pm"}, {"days": "Sun", "time": "Closed"}], "id": "0764200017", "name": "USPS COLLECTION BOX - BLUE BOX", "address": {"city": "HILLSDALE", "state": "NJ", "street": "445 HILLSDALE AVE", "postcode": "07642"}}},
{"geometry": {"type": "Point", "coordinates": [-74.0431851634, 41.0026012834]}, "type": "Feature", "properties": {"collection_times": [{"days": "Mon-Fri", "time": "5:00pm"}, {"days": "Sat", "time": "1:00pm"}, {"days": "Sun", "time": "Closed"}], "id": "0764200018", "name": "USPS COLLECTION BOX - BLUE BOX", "address": {"city": "HILLSDALE", "state": "NJ", "street": "445 HILLSDALE AVE", "postcode": "07642"}}},
{"geometry": {"type": "Point", "coordinates": [-74.0431851634, 41.0026012834]}, "type": "Feature", "properties": {"collection_times": [{"days": "Mon-Fri", "time": "5:00pm"}, {"days": "Sat", "time": "1:00pm"}, {"days": "Sun", "time": "Closed"}], "id": "0764200020", "name": "USPS COLLECTION BOX - PO LOBBY", "address": {"city": "HILLSDALE", "state": "NJ", "street": "445 HILLSDALE AVE", "postcode": "07642"}}},
{"geometry": {"type": "Point", "coordinates": [-74.0388055181, 40.8462441853]}, "type": "Feature", "properties": {"collection_times": [{"days": "Mon-Sat", "time": "9:00am"}, {"days": "Sun", "time": "Closed"}], "id": "0764300002", "name": "USPS COLLECTION BOX - BLUE BOX", "address": {"city": "LITTLE FERRY", "state": "NJ", "street": "82 ECKLE RD", "postcode": "07643"}}},
{"geometry": {"type": "Point", "coordinates": [-74.0387313229, 40.8546710818]}, "type": "Feature", "properties": {"collection_times": [{"days": "Mon-Sat", "time": "9:00am"}, {"days": "Sun", "time": "Closed"}], "id": "0764300003", "name": "USPS COLLECTION BOX - BLUE BOX", "address": {"city": "LITTLE FERRY", "state": "NJ", "street": "100 WOODLAND AVE", "postcode": "07643"}}},
{"geometry": {"type": "Point", "coordinates": [-74.0431591383, 40.8484948531]}, "type": "Feature", "properties": {"collection_times": [{"days": "Mon-Sat", "time": "9:00am"}, {"days": "Sun", "time": "Closed"}], "id": "0764300007", "name": "USPS COLLECTION BOX - BLUE BOX", "address": {"city": "LITTLE FERRY", "state": "NJ", "street": "159 LIBERTY ST", "postcode": "07643"}}},
{"geometry": {"type": "Point", "coordinates": [-74.0398160684, 40.8513934438]}, "type": "Feature", "properties": {"collection_times": [{"days": "Mon-Sat", "time": "9:00am"}, {"days": "Sun", "time": "Closed"}], "id": "0764300008", "name": "USPS COLLECTION BOX - BLUE BOX", "address": {"city": "LITTLE FERRY", "state": "NJ", "street": "213 WASHINGTON AVE", "postcode": "07643"}}},
{"geometry": {"type": "Point", "coordinates": [-74.0386205534, 40.8568119057]}, "type": "Feature", "properties": {"collection_times": [{"days": "Mon-Sat", "time": "9:00am"}, {"days": "Sun", "time": "Closed"}], "id": "0764300009", "name": "USPS COLLECTION BOX - BLUE BOX", "address": {"city": "LITTLE FERRY", "state": "NJ", "street": "2 E GATE ST", "postcode": "07643"}}},
{"geometry": {"type": "Point", "coordinates": [-74.0415701421, 40.852096713]}, "type": "Feature", "properties": {"collection_times": [{"days": "Mon-Sat", "time": "9:00am"}, {"days": "Sun", "time": "Closed"}], "id": "0764300010", "name": "USPS COLLECTION BOX - BLUE BOX", "address": {"city": "LITTLE FERRY", "state": "NJ", "street": "208 MAIN ST", "postcode": "07643"}}},
{"geometry": {"type": "Point", "coordinates": [-74.0368788092, 40.8421175213]}, "type": "Feature", "properties": {"collection_times": [{"days": "Mon-Sat", "time": "9:00am"}, {"days": "Sun", "time": "Closed"}], "id": "0764300014", "name": "USPS COLLECTION BOX - BLUE BOX", "address": {"city": "LITTLE FERRY", "state": "NJ", "street": "113 MEHRHOF RD", "postcode": "07643"}}},
{"geometry": {"type": "Point", "coordinates": [-74.0350375906, 40.8586451537]}, "type": "Feature", "properties": {"collection_times": [{"days": "Mon-Sat", "time": "9:00am"}, {"days": "Sun", "time": "Closed"}], "id": "0764300016", "name": "USPS COLLECTION BOX - BLUE BOX", "address": {"city": "LITTLE FERRY", "state": "NJ", "street": "14 RIVER STREET EXT", "postcode": "07643"}}},
{"geometry": {"type": "Point", "coordinates": [-74.0363163773, 40.8474940614]}, "type": "Feature", "properties": {"collection_times": [{"days": "Mon-Sat", "time": "9:00am"}, {"days": "Sun", "time": "Closed"}], "id": "0764300019", "name": "USPS COLLECTION BOX - BLUE BOX", "address": {"city": "LITTLE FERRY", "state": "NJ", "street": "85 WASHINGTON AVE", "postcode": "07643"}}},
{"geometry": {"type": "Point", "coordinates": [-74.0465506817, 40.8509648714]}, "type": "Feature", "properties": {"collection_times": [{"days": "Mon-Sat", "time": "9:00am"}, {"days": "Sun", "time": "Closed"}], "id": "0764300021", "name": "USPS COLLECTION BOX - BLUE BOX", "address": {"city": "LITTLE FERRY", "state": "NJ", "street": "64 REDNECK AVE", "postcode": "07643"}}},
{"geometry": {"type": "Point", "coordinates": [-74.033533154, 40.849828154]}, "type": "Feature", "properties": {"collection_times": [{"days": "Mon-Fri", "time": "5:00pm"}, {"days": "Sat", "time": "3:00pm"}, {"days": "Sun", "time": "Closed"}], "id": "0764300023", "name": "USPS COLLECTION BOX - BLUE BOX", "address": {"city": "LITTLE FERRY", "state": "NJ", "street": "20 MAIN ST", "postcode": "07643"}}},
{"geometry": {"type": "Point", "coordinates": [-74.0388055181, 40.8462441853]}, "type": "Feature", "properties": {"collection_times": [{"days": "Mon-Fri", "time": "5:00pm"}, {"days": "Sat", "time": "3:00pm"}, {"days": "Sun", "time": "Closed"}], "id": "0764300024", "name": "USPS COLLECTION BOX - BLUE BOX", "address": {"city": "LITTLE FERRY", "state": "NJ", "street": "20 MAIN ST     LITTLE FERRY O", "postcode": "07643"}}},
{"geometry": {"type": "Point", "coordinates": [-74.0398160684, 40.8513934438]}, "type": "Feature", "properties": {"collection_times": [{"days": "Mon-Fri", "time": "5:00pm"}, {"days": "Sat", "time": "3:00pm"}, {"days": "Sun", "time": "Closed"}], "id": "0764300027", "name": "USPS COLLECTION BOX - EXPRESS", "address": {"city": "LITTLE FERRY", "state": "NJ", "street": "20 MAIN ST", "postcode": "07643"}}},
{"geometry": {"type": "Point", "coordinates": [-74.033533154, 40.849828154]}, "type": "Feature", "properties": {"collection_times": [{"days": "Mon-Fri", "time": "5:00pm"}, {"days": "Sat", "time": "3:30pm"}, {"days": "Sun", "time": "Closed"}], "id": "0764300030", "name": "USPS COLLECTION BOX - PO LOBBY", "address": {"city": "LITTLE FERRY", "state": "NJ", "street": "20 MAIN ST", "postcode": "07643"}}},
{"geometry": {"type": "Point", "coordinates": [-74.0738687531, 40.8841728955]}, "type": "Feature", "properties": {"collection_times": [{"days": "Mon-Sat", "time": "1:00pm"}, {"days": "Sun", "time": "Closed"}], "id": "0764400007", "name": "USPS COLLECTION BOX - BLUE BOX", "address": {"city": "LODI", "state": "NJ", "street": "40 INDUSTRIAL RD", "postcode": "07644"}}},
{"geometry": {"type": "Point", "coordinates": [-74.0851025591, 40.8756800479]}, "type": "Feature", "properties": {"collection_times": [{"days": "Mon-Fri", "time": "5:00pm"}, {"days": "Sat", "time": "4:00pm"}, {"days": "Sun", "time": "Closed"}], "id": "0764400020", "name": "USPS COLLECTION BOX - BLUE BOX", "address": {"city": "LODI", "state": "NJ", "street": "25 WASHINGTON ST", "postcode": "07644"}}},
{"geometry": {"type": "Point", "coordinates": [-74.0851025591, 40.8756800479]}, "type": "Feature", "properties": {"collection_times": [{"days": "Mon-Fri", "time": "5:00pm"}, {"days": "Sat", "time": "4:00pm"}, {"days": "Sun", "time": "Closed"}], "id": "0764400021", "name": "USPS COLLECTION BOX - BLUE BOX", "address": {"city": "LODI", "state": "NJ", "street": "25 WASHINGTON ST", "postcode": "07644"}}},
{"geometry": {"type": "Point", "coordinates": [-74.0889029785, 40.8697502598]}, "type": "Feature", "properties": {"collection_times": [{"days": "Mon-Sat", "time": "9:00am"}, {"days": "Sun", "time": "Closed"}], "id": "0764400024", "name": "USPS COLLECTION BOX - BLUE BOX", "address": {"city": "LODI", "state": "NJ", "street": "107 S MAIN ST", "postcode": "07644"}}},
{"geometry": {"type": "Point", "coordinates": [-74.0851025591, 40.8756800479]}, "type": "Feature", "properties": {"collection_times": [{"days": "Mon-Fri", "time": "5:00pm"}, {"days": "Sat", "time": "4:00pm"}, {"days": "Sun", "time": "Closed"}], "id": "0764400032", "name": "USPS COLLECTION BOX - PO LOBBY", "address": {"city": "LODI", "state": "NJ", "street": "25 WASHINGTON ST STE 1", "postcode": "07644"}}},
{"geometry": {"type": "Point", "coordinates": [-74.0582394992, 41.0574065893]}, "type": "Feature", "properties": {"collection_times": [{"days": "Mon-Fri", "time": "2:15pm"}, {"days": "Sat-Sun", "time": "Closed"}], "id": "0764500002", "name": "USPS COLLECTION BOX - BLUE BOX", "address": {"city": "MONTVALE", "state": "NJ", "street": "1 PARAGON DR", "postcode": "07645"}}},
{"geometry": {"type": "Point", "coordinates": [-74.0606976879, 41.0588202252]}, "type": "Feature", "properties": {"collection_times": [{"days": "Mon-Fri", "time": "2:30pm"}, {"days": "Sat-Sun", "time": "Closed"}], "id": "0764500007", "name": "USPS COLLECTION BOX - BLUE BOX", "address": {"city": "MONTVALE", "state": "NJ", "street": "136 SUMMIT AVE", "postcode": "07645"}}},
{"geometry": {"type": "Point", "coordinates": [-74.0711072047, 41.0466463115]}, "type": "Feature", "properties": {"collection_times": [{"days": "Mon-Fri", "time": "2:00pm"}, {"days": "Sat", "time": "9:30am"}, {"days": "Sun", "time": "Closed"}], "id": "0764500010", "name": "USPS COLLECTION BOX - BLUE BOX", "address": {"city": "MONTVALE", "state": "NJ", "street": "2 CHESTNUT RIDGE RD", "postcode": "07645"}}},
{"geometry": {"type": "Point", "coordinates": [-74.0693533987, 41.0516432132]}, "type": "Feature", "properties": {"collection_times": [{"days": "Mon-Fri", "time": "2:00pm"}, {"days": "Sat", "time": "9:30am"}, {"days": "Sun", "time": "Closed"}], "id": "0764500019", "name": "USPS COLLECTION BOX - BLUE BOX", "address": {"city": "MONTVALE", "state": "NJ", "street": "50 CHESTNUT RIDGE RD", "postcode": "07645"}}},
{"geometry": {"type": "Point", "coordinates": [-74.0317636946, 41.0399934333]}, "type": "Feature", "properties": {"collection_times": [{"days": "Mon-Fri", "time": "5:00pm"}, {"days": "Sat", "time": "3:00pm"}, {"days": "Sun", "time": "Closed"}], "id": "0764500025", "name": "USPS COLLECTION BOX - BLUE BOX", "address": {"city": "MONTVALE", "state": "NJ", "street": "22 W GRAND AVE", "postcode": "07645"}}},
{"geometry": {"type": "Point", "coordinates": [-74.0688104205, 41.0534495915]}, "type": "Feature", "properties": {"collection_times": [{"days": "Mon-Fri", "time": "2:00pm"}, {"days": "Sat", "time": "10:00am"}, {"days": "Sun", "time": "Closed"}], "id": "0764500028", "name": "USPS COLLECTION BOX - BLUE BOX", "address": {"city": "MONTVALE", "state": "NJ", "street": "80 CHESTNUT RIDGE RD", "postcode": "07645"}}},
{"geometry": {"type": "Point", "coordinates": [-74.0700915651, 41.0565572247]}, "type": "Feature", "properties": {"collection_times": [{"days": "Mon-Fri", "time": "2:30pm"}, {"days": "Sat-Sun", "time": "Closed"}], "id": "0764500031", "name": "USPS COLLECTION BOX - BLUE BOX", "address": {"city": "MONTVALE", "state": "NJ", "street": "210 SUMMIT AVE", "postcode": "07645"}}},
{"geometry": {"type": "Point", "coordinates": [-74.0317636946, 41.0399934333]}, "type": "Feature", "properties": {"collection_times": [{"days": "Mon-Fri", "time": "5:00pm"}, {"days": "Sat", "time": "12:00pm"}, {"days": "Sun", "time": "Closed"}], "id": "0764500032", "name": "USPS COLLECTION BOX - PO LOBBY", "address": {"city": "MONTVALE", "state": "NJ", "street": "22 W GRAND AVE", "postcode": "07645"}}},
{"geometry": {"type": "Point", "coordinates": [-74.0561608704, 41.0506800381]}, "type": "Feature", "properties": {"collection_times": [{"days": "Mon-Fri", "time": "2:00pm"}, {"days": "Sat-Sun", "time": "Closed"}], "id": "0764500034", "name": "USPS COLLECTION BOX - BLUE BOX", "address": {"city": "MONTVALE", "state": "NJ", "street": "100 PARAGON DR", "postcode": "07645"}}},
{"geometry": {"type": "Point", "coordinates": [-74.0264983443, 40.9191506261]}, "type": "Feature", "properties": {"collection_times": [{"days": "Mon-Fri", "time": "5:00pm"}, {"days": "Sat", "time": "3:00pm"}, {"days": "Sun", "time": "Closed"}], "id": "0764600013", "name": "USPS COLLECTION BOX - BLUE BOX", "address": {"city": "NEW MILFORD", "state": "NJ", "street": "1055 RIVER RD", "postcode": "07646"}}},
{"geometry": {"type": "Point", "coordinates": [-74.0264983443, 40.9191506261]}, "type": "Feature", "properties": {"collection_times": [{"days": "Mon-Fri", "time": "5:00pm"}, {"days": "Sat", "time": "3:00pm"}, {"days": "Sun", "time": "Closed"}], "id": "0764600014", "name": "USPS COLLECTION BOX - BLUE BOX", "address": {"city": "NEW MILFORD", "state": "NJ", "street": "1055 RIVER RD", "postcode": "07646"}}},
{"geometry": {"type": "Point", "coordinates": [-74.0259786264, 40.9281852046]}, "type": "Feature", "properties": {"collection_times": [{"days": "Mon-Sat", "time": "10:30am"}, {"days": "Sun", "time": "Closed"}], "id": "0764600021", "name": "USPS COLLECTION BOX - BLUE BOX", "address": {"city": "NEW MILFORD", "state": "NJ", "street": "814 RIVER RD", "postcode": "07646"}}},
{"geometry": {"type": "Point", "coordinates": [-74.0271880093, 40.923681359]}, "type": "Feature", "properties": {"collection_times": [{"days": "Mon-Sat", "time": "11:00am"}, {"days": "Sun", "time": "Closed"}], "id": "0764600024", "name": "USPS COLLECTION BOX - BLUE BOX", "address": {"city": "NEW MILFORD", "state": "NJ", "street": "930 RIVER RD", "postcode": "07646"}}},
{"geometry": {"type": "Point", "coordinates": [-74.0164621204, 40.9501098452]}, "type": "Feature", "properties": {"collection_times": [{"days": "Mon-Sat", "time": "11:00am"}, {"days": "Sun", "time": "Closed"}], "id": "0764600025", "name": "USPS COLLECTION BOX - BLUE BOX", "address": {"city": "NEW MILFORD", "state": "NJ", "street": "270 GRAND ST", "postcode": "07646"}}},
{"geometry": {"type": "Point", "coordinates": [-74.0264983443, 40.9191506261]}, "type": "Feature", "properties": {"collection_times": [{"days": "Mon-Fri", "time": "5:00pm"}, {"days": "Sat", "time": "3:00pm"}, {"days": "Sun", "time": "Closed"}], "id": "0764600026", "name": "USPS COLLECTION BOX - BLUE BOX", "address": {"city": "NEW MILFORD", "state": "NJ", "street": "1055 RIVER RD", "postcode": "07646"}}},
{"geometry": {"type": "Point", "coordinates": [-74.0264983443, 40.9191506261]}, "type": "Feature", "properties": {"collection_times": [{"days": "Mon-Fri", "time": "5:00pm"}, {"days": "Sat", "time": "3:00pm"}, {"days": "Sun", "time": "Closed"}], "id": "0764600027", "name": "USPS COLLECTION BOX - PO LOBBY", "address": {"city": "NEW MILFORD", "state": "NJ", "street": "1055 RIVER RD", "postcode": "07646"}}},
{"geometry": {"type": "Point", "coordinates": [-73.9511033933, 41.007406198]}, "type": "Feature", "properties": {"collection_times": [{"days": "Mon-Fri", "time": "5:00pm"}, {"days": "Sat", "time": "3:00pm"}, {"days": "Sun", "time": "Closed"}], "id": "0764700004", "name": "USPS COLLECTION BOX - BLUE BOX", "address": {"city": "NORTHVALE", "state": "NJ", "street": "124 PARIS AVE", "postcode": "07647"}}},
{"geometry": {"type": "Point", "coordinates": [-73.9511033933, 41.007406198]}, "type": "Feature", "properties": {"collection_times": [{"days": "Mon-Fri", "time": "5:00pm"}, {"days": "Sat", "time": "3:00pm"}, {"days": "Sun", "time": "Closed"}], "id": "0764700005", "name": "USPS COLLECTION BOX - BLUE BOX", "address": {"city": "NORTHVALE", "state": "NJ", "street": "124 PARIS AVE", "postcode": "07647"}}},
{"geometry": {"type": "Point", "coordinates": [-73.9473382792, 41.0098859447]}, "type": "Feature", "properties": {"collection_times": [{"days": "Mon-Sat", "time": "9:00am"}, {"days": "Sun", "time": "Closed"}], "id": "0764700009", "name": "USPS COLLECTION BOX - BLUE BOX", "address": {"city": "NORTHVALE", "state": "NJ", "street": "230 LIVINGSTON ST", "postcode": "07647"}}},
{"geometry": {"type": "Point", "coordinates": [-73.9511033933, 41.007406198]}, "type": "Feature", "properties": {"collection_times": [{"days": "Mon-Fri", "time": "5:00pm"}, {"days": "Sat", "time": "12:00pm"}, {"days": "Sun", "time": "Closed"}], "id": "0764700010", "name": "USPS COLLECTION BOX - PO LOBBY", "address": {"city": "NORTHVALE", "state": "NJ", "street": "124 PARIS AVE", "postcode": "07647"}}},
{"geometry": {"type": "Point", "coordinates": [-73.9673449901, 40.9993999219]}, "type": "Feature", "properties": {"collection_times": [{"days": "Mon-Sat", "time": "10:00am"}, {"days": "Sun", "time": "Closed"}], "id": "0764800003", "name": "USPS COLLECTION BOX - BLUE BOX", "address": {"city": "NORWOOD", "state": "NJ", "street": "11 BROAD ST", "postcode": "07648"}}},
{"geometry": {"type": "Point", "coordinates": [-73.955537149, 40.9943863227]}, "type": "Feature", "properties": {"collection_times": [{"days": "Mon-Fri", "time": "5:00pm"}, {"days": "Sat", "time": "3:00pm"}, {"days": "Sun", "time": "Closed"}], "id": "0764800004", "name": "USPS COLLECTION BOX - BLUE BOX", "address": {"city": "NORWOOD", "state": "NJ", "street": "239 RAILROAD AVE", "postcode": "07648"}}},
{"geometry": {"type": "Point", "coordinates": [-73.9691887354, 40.9982483517]}, "type": "Feature", "properties": {"collection_times": [{"days": "Mon-Sat", "time": "9:30am"}, {"days": "Sun", "time": "Closed"}], "id": "0764800009", "name": "USPS COLLECTION BOX - BLUE BOX", "address": {"city": "NORWOOD", "state": "NJ", "street": "300 SUTTON PL", "postcode": "07648"}}},
{"geometry": {"type": "Point", "coordinates": [-73.955537149, 40.9943863227]}, "type": "Feature", "properties": {"collection_times": [{"days": "Mon-Fri", "time": "5:00pm"}, {"days": "Sat", "time": "12:00pm"}, {"days": "Sun", "time": "Closed"}], "id": "0764800010", "name": "USPS COLLECTION BOX - PO LOBBY", "address": {"city": "NORWOOD", "state": "NJ", "street": "239 RAILROAD AVE", "postcode": "07648"}}},
{"geometry": {"type": "Point", "coordinates": [-74.0322498907, 40.9543921567]}, "type": "Feature", "properties": {"collection_times": [{"days": "Mon-Sat", "time": "9:30am"}, {"days": "Sun", "time": "Closed"}], "id": "0764900001", "name": "USPS COLLECTION BOX - BLUE BOX", "address": {"city": "ORADELL", "state": "NJ", "street": "639 ORADELL AVE", "postcode": "07649"}}},
{"geometry": {"type": "Point", "coordinates": [-74.0245500108, 40.9521327051]}, "type": "Feature", "properties": {"collection_times": [{"days": "Mon-Sat", "time": "10:30am"}, {"days": "Sun", "time": "Closed"}], "id": "0764900003", "name": "USPS COLLECTION BOX - BLUE BOX", "address": {"city": "ORADELL", "state": "NJ", "street": "348 ELM ST", "postcode": "07649"}}},
{"geometry": {"type": "Point", "coordinates": [-74.0320011934, 40.9526176189]}, "type": "Feature", "properties": {"collection_times": [{"days": "Mon-Sat", "time": "11:30am"}, {"days": "Sun", "time": "Closed"}], "id": "0764900006", "name": "USPS COLLECTION BOX - BLUE BOX", "address": {"city": "ORADELL", "state": "NJ", "street": "355 KINDERKAMACK RD", "postcode": "07649"}}},
{"geometry": {"type": "Point", "coordinates": [-74.0314312747, 40.9477552201]}, "type": "Feature", "properties": {"collection_times": [{"days": "Mon-Sat", "time": "11:30am"}, {"days": "Sun", "time": "Closed"}], "id": "0764900007", "name": "USPS COLLECTION BOX - BLUE BOX", "address": {"city": "ORADELL", "state": "NJ", "street": "223 KINDERKAMACK RD", "postcode": "07649"}}},
{"geometry": {"type": "Point", "coordinates": [-74.0307747409, 40.9545222822]}, "type": "Feature", "properties": {"collection_times": [{"days": "Mon-Fri", "time": "5:00pm"}, {"days": "Sat", "time": "3:00pm"}, {"days": "Sun", "time": "Closed"}], "id": "0764900009", "name": "USPS COLLECTION BOX - BLUE BOX", "address": {"city": "ORADELL", "state": "NJ", "street": "618 VELDRAN AVE # 1", "postcode": "07649"}}},
{"geometry": {"type": "Point", "coordinates": [-74.0307747409, 40.9545222822]}, "type": "Feature", "properties": {"collection_times": [{"days": "Mon-Fri", "time": "5:00pm"}, {"days": "Sat", "time": "3:00pm"}, {"days": "Sun", "time": "Closed"}], "id": "0764900010", "name": "USPS COLLECTION BOX - BLUE BOX", "address": {"city": "ORADELL", "state": "NJ", "street": "618 VELDRAN AVE # 2", "postcode": "07649"}}},
{"geometry": {"type": "Point", "coordinates": [-74.0307747409, 40.9545222822]}, "type": "Feature", "properties": {"collection_times": [{"days": "Mon-Fri", "time": "5:00pm"}, {"days": "Sat", "time": "3:00pm"}, {"days": "Sun", "time": "Closed"}], "id": "0764900011", "name": "USPS COLLECTION BOX - BLUE BOX", "address": {"city": "ORADELL", "state": "NJ", "street": "618 VELDRAN AVE", "postcode": "07649"}}},
{"geometry": {"type": "Point", "coordinates": [-74.0307747409, 40.9545222822]}, "type": "Feature", "properties": {"collection_times": [{"days": "Mon-Fri", "time": "5:00pm"}, {"days": "Sat", "time": "3:00pm"}, {"days": "Sun", "time": "Closed"}], "id": "0764900012", "name": "USPS COLLECTION BOX - BLUE BOX", "address": {"city": "ORADELL", "state": "NJ", "street": "618 VELDRAN AVE", "postcode": "07649"}}},
{"geometry": {"type": "Point", "coordinates": [-74.0344005101, 40.9578783367]}, "type": "Feature", "properties": {"collection_times": [{"days": "Mon-Sat", "time": "11:30am"}, {"days": "Sun", "time": "Closed"}], "id": "0764900013", "name": "USPS COLLECTION BOX - BLUE BOX", "address": {"city": "ORADELL", "state": "NJ", "street": "477 PROSPECT AVE", "postcode": "07649"}}},
{"geometry": {"type": "Point", "coordinates": [-74.0383612685, 40.9472250345]}, "type": "Feature", "properties": {"collection_times": [{"days": "Mon-Sat", "time": "10:00am"}, {"days": "Sun", "time": "Closed"}], "id": "0764900014", "name": "USPS COLLECTION BOX - BLUE BOX", "address": {"city": "ORADELL", "state": "NJ", "street": "144 PROSPECT AVE", "postcode": "07649"}}},
{"geometry": {"type": "Point", "coordinates": [-74.0377773021, 40.962234833]}, "type": "Feature", "properties": {"collection_times": [{"days": "Mon-Sat", "time": "11:30am"}, {"days": "Sun", "time": "Closed"}], "id": "0764900015", "name": "USPS COLLECTION BOX - BLUE BOX", "address": {"city": "ORADELL", "state": "NJ", "street": "782 SOLDIER HILL RD", "postcode": "07649"}}},
{"geometry": {"type": "Point", "coordinates": [-74.0401958261, 40.9584047535]}, "type": "Feature", "properties": {"collection_times": [{"days": "Mon-Sat", "time": "11:30am"}, {"days": "Sun", "time": "Closed"}], "id": "0764900016", "name": "USPS COLLECTION BOX - BLUE BOX", "address": {"city": "ORADELL", "state": "NJ", "street": "845 WOODLAND AVE", "postcode": "07649"}}},
{"geometry": {"type": "Point", "coordinates": [-74.0307747409, 40.9545222822]}, "type": "Feature", "properties": {"collection_times": [{"days": "Mon-Fri", "time": "5:00pm"}, {"days": "Sat", "time": "4:00pm"}, {"days": "Sun", "time": "Closed"}], "id": "0764900017", "name": "USPS COLLECTION BOX - PO LOBBY", "address": {"city": "ORADELL", "state": "NJ", "street": "618 VELDRAN AVE", "postcode": "07649"}}},
{"geometry": {"type": "Point", "coordinates": [-73.9857111021, 40.8457858771]}, "type": "Feature", "properties": {"collection_times": [{"days": "Mon-Fri", "time": "12:00pm"}, {"days": "Sat", "time": "10:00am"}, {"days": "Sun", "time": "Closed"}], "id": "0765000003", "name": "USPS COLLECTION BOX - BLUE BOX", "address": {"city": "PALISADES PARK", "state": "NJ", "street": "460 BERGEN BLVD", "postcode": "07650"}}},
{"geometry": {"type": "Point", "coordinates": [-74.0037089082, 40.8464316311]}, "type": "Feature", "properties": {"collection_times": [{"days": "Mon-Fri", "time": "12:00pm"}, {"days": "Sat", "time": "10:00am"}, {"days": "Sun", "time": "Closed"}], "id": "0765000007", "name": "USPS COLLECTION BOX - BLUE BOX", "address": {"city": "PALISADES PARK", "state": "NJ", "street": "111 GRAND AVE", "postcode": "07650"}}},
{"geometry": {"type": "Point", "coordinates": [-73.9964400765, 40.8499843127]}, "type": "Feature", "properties": {"collection_times": [{"days": "Mon-Fri", "time": "12:00pm"}, {"days": "Sat", "time": "10:00am"}, {"days": "Sun", "time": "Closed"}], "id": "0765000013", "name": "USPS COLLECTION BOX - BLUE BOX", "address": {"city": "PALISADES PARK", "state": "NJ", "street": "405 BROAD AVE", "postcode": "07650"}}},
{"geometry": {"type": "Point", "coordinates": [-73.9988999116, 40.8494293907]}, "type": "Feature", "properties": {"collection_times": [{"days": "Mon-Fri", "time": "12:00pm"}, {"days": "Sat", "time": "10:00am"}, {"days": "Sun", "time": "Closed"}], "id": "0765000016", "name": "USPS COLLECTION BOX - BLUE BOX", "address": {"city": "PALISADES PARK", "state": "NJ", "street": "300 HIGHLAND AVE", "postcode": "07650"}}},
{"geometry": {"type": "Point", "coordinates": [-73.9948061564, 40.8465835227]}, "type": "Feature", "properties": {"collection_times": [{"days": "Mon-Fri", "time": "5:00pm"}, {"days": "Sat", "time": "1:00pm"}, {"days": "Sun", "time": "Closed"}], "id": "0765000019", "name": "USPS COLLECTION BOX - BLUE BOX", "address": {"city": "PALISADES PARK", "state": "NJ", "street": "275 BROAD AVE", "postcode": "07650"}}},
{"geometry": {"type": "Point", "coordinates": [-73.9945428396, 40.8524224917]}, "type": "Feature", "properties": {"collection_times": [{"days": "Mon-Fri", "time": "12:00pm"}, {"days": "Sat", "time": "10:00am"}, {"days": "Sun", "time": "Closed"}], "id": "0765000020", "name": "USPS COLLECTION BOX - BLUE BOX", "address": {"city": "PALISADES PARK", "state": "NJ", "street": "500 BROAD AVE", "postcode": "07650"}}},
{"geometry": {"type": "Point", "coordinates": [-74.0049542956, 40.8513883707]}, "type": "Feature", "properties": {"collection_times": [{"days": "Mon-Fri", "time": "12:00pm"}, {"days": "Sat", "time": "10:00am"}, {"days": "Sun", "time": "Closed"}], "id": "0765000021", "name": "USPS COLLECTION BOX - BLUE BOX", "address": {"city": "PALISADES PARK", "state": "NJ", "street": "201 ROOSEVELT PL", "postcode": "07650"}}},
{"geometry": {"type": "Point", "coordinates": [-74.0021814398, 40.8509234678]}, "type": "Feature", "properties": {"collection_times": [{"days": "Mon-Fri", "time": "5:00pm"}, {"days": "Sat", "time": "1:00pm"}, {"days": "Sun", "time": "Closed"}], "id": "0765000024", "name": "USPS COLLECTION BOX - BLUE BOX", "address": {"city": "PALISADES PARK", "state": "NJ", "street": "117 W CENTRAL BLVD", "postcode": "07650"}}},
{"geometry": {"type": "Point", "coordinates": [-74.0711680577, 40.9552013006]}, "type": "Feature", "properties": {"collection_times": [{"days": "Mon-Fri", "time": "1:00pm"}, {"days": "Sat-Sun", "time": "Closed"}], "id": "0765200001", "name": "USPS COLLECTION BOX - BLUE BOX", "address": {"city": "PARAMUS", "state": "NJ", "street": "1 KALISA WAY STE 1", "postcode": "07652"}}},
{"geometry": {"type": "Point", "coordinates": [-74.0711680577, 40.9552013006]}, "type": "Feature", "properties": {"collection_times": [{"days": "Mon-Fri", "time": "1:00pm"}, {"days": "Sat-Sun", "time": "Closed"}], "id": "0765200002", "name": "USPS COLLECTION BOX - BLUE BOX", "address": {"city": "PARAMUS", "state": "NJ", "street": "1 KALISA WAY # 2", "postcode": "07652"}}},
{"geometry": {"type": "Point", "coordinates": [-74.0665081306, 40.9605217537]}, "type": "Feature", "properties": {"collection_times": [{"days": "Mon-Fri", "time": "1:00pm"}, {"days": "Sat-Sun", "time": "Closed"}], "id": "0765200004", "name": "USPS COLLECTION BOX - BLUE BOX", "address": {"city": "PARAMUS", "state": "NJ", "street": "650 FROM RD", "postcode": "07652"}}},
{"geometry": {"type": "Point", "coordinates": [-74.0810682413, 40.969374332]}, "type": "Feature", "properties": {"collection_times": [{"days": "Mon-Fri", "time": "1:00pm"}, {"days": "Sat-Sun", "time": "Closed"}], "id": "0765200005", "name": "USPS COLLECTION BOX - BLUE BOX", "address": {"city": "PARAMUS", "state": "NJ", "street": "1 W RIDGEWOOD AVE", "postcode": "07652"}}},
{"geometry": {"type": "Point", "coordinates": [-74.0804670166, 40.9345934011]}, "type": "Feature", "properties": {"collection_times": [{"days": "Mon-Fri", "time": "1:00pm"}, {"days": "Sat-Sun", "time": "Closed"}], "id": "0765200006", "name": "USPS COLLECTION BOX - BLUE BOX", "address": {"city": "PARAMUS", "state": "NJ", "street": "115 W CENTURY RD STE 1", "postcode": "07652"}}},
{"geometry": {"type": "Point", "coordinates": [-74.0608278134, 40.9268173832]}, "type": "Feature", "properties": {"collection_times": [{"days": "Mon-Fri", "time": "1:00pm"}, {"days": "Sat-Sun", "time": "Closed"}], "id": "0765200008", "name": "USPS COLLECTION BOX - BLUE BOX", "address": {"city": "PARAMUS", "state": "NJ", "street": "116 E CENTURY RD", "postcode": "07652"}}},
{"geometry": {"type": "Point", "coordinates": [-74.0725143705, 40.9165940697]}, "type": "Feature", "properties": {"collection_times": [{"days": "Mon-Fri", "time": "1:00pm"}, {"days": "Sat-Sun", "time": "Closed"}], "id": "0765200009", "name": "USPS COLLECTION BOX - BLUE BOX", "address": {"city": "PARAMUS", "state": "NJ", "street": "12 ROUTE 17", "postcode": "07652"}}},
{"geometry": {"type": "Point", "coordinates": [-74.0691067516, 40.9657586541]}, "type": "Feature", "properties": {"collection_times": [{"days": "Mon-Fri", "time": "1:00pm"}, {"days": "Sat-Sun", "time": "Closed"}], "id": "0765200011", "name": "USPS COLLECTION BOX - BLUE BOX", "address": {"city": "PARAMUS", "state": "NJ", "street": "140 E RIDGEWOOD AVE", "postcode": "07652"}}},
{"geometry": {"type": "Point", "coordinates": [-74.0724859761, 40.9162677545]}, "type": "Feature", "properties": {"collection_times": [{"days": "Mon-Fri", "time": "1:00pm"}, {"days": "Sat-Sun", "time": "Closed"}], "id": "0765200013", "name": "USPS COLLECTION BOX - BLUE BOX", "address": {"city": "PARAMUS", "state": "NJ", "street": "140 N ROUTE 17", "postcode": "07652"}}},
{"geometry": {"type": "Point", "coordinates": [-74.0777748836, 40.9309530077]}, "type": "Feature", "properties": {"collection_times": [{"days": "Mon-Fri", "time": "1:00pm"}, {"days": "Sat-Sun", "time": "Closed"}], "id": "0765200014", "name": "USPS COLLECTION BOX - BLUE BOX", "address": {"city": "PARAMUS", "state": "NJ", "street": "15 ESSEX RD # 1", "postcode": "07652"}}},
{"geometry": {"type": "Point", "coordinates": [-74.0837154081, 40.9234133121]}, "type": "Feature", "properties": {"collection_times": [{"days": "Mon-Fri", "time": "1:00pm"}, {"days": "Sat-Sun", "time": "Closed"}], "id": "0765200016", "name": "USPS COLLECTION BOX - BLUE BOX", "address": {"city": "PARAMUS", "state": "NJ", "street": "16 ARCADIAN WAY", "postcode": "07652"}}},
{"geometry": {"type": "Point", "coordinates": [-74.0745442226, 40.9326209799]}, "type": "Feature", "properties": {"collection_times": [{"days": "Mon-Fri", "time": "1:00pm"}, {"days": "Sat-Sun", "time": "Closed"}], "id": "0765200022", "name": "USPS COLLECTION BOX - BLUE BOX", "address": {"city": "PARAMUS", "state": "NJ", "street": "205 ROBIN RD", "postcode": "07652"}}},
{"geometry": {"type": "Point", "coordinates": [-74.0701956655, 40.9223197732]}, "type": "Feature", "properties": {"collection_times": [{"days": "Mon-Fri", "time": "1:00pm"}, {"days": "Sat-Sun", "time": "Closed"}], "id": "0765200027", "name": "USPS COLLECTION BOX - BLUE BOX", "address": {"city": "PARAMUS", "state": "NJ", "street": "30 MADISON AVE", "postcode": "07652"}}},
{"geometry": {"type": "Point", "coordinates": [-74.0715994556, 40.9409855857]}, "type": "Feature", "properties": {"collection_times": [{"days": "Mon-Fri", "time": "1:00pm"}, {"days": "Sat-Sun", "time": "Closed"}], "id": "0765200029", "name": "USPS COLLECTION BOX - BLUE BOX", "address": {"city": "PARAMUS", "state": "NJ", "street": "305 ROUTE 17     #1", "postcode": "07652"}}},
{"geometry": {"type": "Point", "coordinates": [-74.0715994556, 40.9409855857]}, "type": "Feature", "properties": {"collection_times": [{"days": "Mon-Fri", "time": "1:00pm"}, {"days": "Sat-Sun", "time": "Closed"}], "id": "0765200030", "name": "USPS COLLECTION BOX - BLUE BOX", "address": {"city": "PARAMUS", "state": "NJ", "street": "305 ROUTE 17    #2", "postcode": "07652"}}},
{"geometry": {"type": "Point", "coordinates": [-74.0760879841, 40.9292353513]}, "type": "Feature", "properties": {"collection_times": [{"days": "Mon-Fri", "time": "1:00pm"}, {"days": "Sat-Sun", "time": "Closed"}], "id": "0765200033", "name": "USPS COLLECTION BOX - BLUE BOX", "address": {"city": "PARAMUS", "state": "NJ", "street": "45 EISENHOWER DR", "postcode": "07652"}}},
{"geometry": {"type": "Point", "coordinates": [-74.0667850266, 40.9511897851]}, "type": "Feature", "properties": {"collection_times": [{"days": "Mon-Fri", "time": "1:00pm"}, {"days": "Sat-Sun", "time": "Closed"}], "id": "0765200034", "name": "USPS COLLECTION BOX - BLUE BOX", "address": {"city": "PARAMUS", "state": "NJ", "street": "461 FROM RD", "postcode": "07652"}}},
{"geometry": {"type": "Point", "coordinates": [-74.0574102663, 40.9505906562]}, "type": "Feature", "properties": {"collection_times": [{"days": "Mon-Fri", "time": "1:00pm"}, {"days": "Sat-Sun", "time": "Closed"}], "id": "0765200036", "name": "USPS COLLECTION BOX - BLUE BOX", "address": {"city": "PARAMUS", "state": "NJ", "street": "475 N FARVIEW AVE", "postcode": "07652"}}},
{"geometry": {"type": "Point", "coordinates": [-74.0531634223, 40.919240531]}, "type": "Feature", "properties": {"collection_times": [{"days": "Mon-Fri", "time": "1:00pm"}, {"days": "Sat-Sun", "time": "Closed"}], "id": "0765200038", "name": "USPS COLLECTION BOX - BLUE BOX", "address": {"city": "PARAMUS", "state": "NJ", "street": "52 FOREST AVE", "postcode": "07652"}}},
{"geometry": {"type": "Point", "coordinates": [-74.0522903986, 40.9168911745]}, "type": "Feature", "properties": {"collection_times": [{"days": "Mon-Fri", "time": "1:00pm"}, {"days": "Sat-Sun", "time": "Closed"}], "id": "0765200040", "name": "USPS COLLECTION BOX - BLUE BOX", "address": {"city": "PARAMUS", "state": "NJ", "street": "6 FOREST AVE STE 1", "postcode": "07652"}}},
{"geometry": {"type": "Point", "coordinates": [-74.0522903986, 40.9168911745]}, "type": "Feature", "properties": {"collection_times": [{"days": "Mon-Fri", "time": "1:00pm"}, {"days": "Sat-Sun", "time": "Closed"}], "id": "0765200041", "name": "USPS COLLECTION BOX - BLUE BOX", "address": {"city": "PARAMUS", "state": "NJ", "street": "6 FOREST AVE STE 2", "postcode": "07652"}}},
{"geometry": {"type": "Point", "coordinates": [-74.073204462, 40.967324511]}, "type": "Feature", "properties": {"collection_times": [{"days": "Mon-Fri", "time": "1:00pm"}, {"days": "Sat-Sun", "time": "Closed"}], "id": "0765200044", "name": "USPS COLLECTION BOX - BLUE BOX", "address": {"city": "PARAMUS", "state": "NJ", "street": "67 E RIDGEWOOD AVE", "postcode": "07652"}}},
{"geometry": {"type": "Point", "coordinates": [-74.081796944, 40.9658987985]}, "type": "Feature", "properties": {"collection_times": [{"days": "Mon-Fri", "time": "1:00pm"}, {"days": "Sat-Sun", "time": "Closed"}], "id": "0765200046", "name": "USPS COLLECTION BOX - BLUE BOX", "address": {"city": "PARAMUS", "state": "NJ", "street": "63 GREENBRIAR RD", "postcode": "07652"}}},
{"geometry": {"type": "Point", "coordinates": [-74.0709929798, 40.9257172314]}, "type": "Feature", "properties": {"collection_times": [{"days": "Mon-Fri", "time": "1:00pm"}, {"days": "Sat-Sun", "time": "Closed"}], "id": "0765200050", "name": "USPS COLLECTION BOX - BLUE BOX", "address": {"city": "PARAMUS", "state": "NJ", "street": "80 ROUTE 17", "postcode": "07652"}}},
{"geometry": {"type": "Point", "coordinates": [-74.0825971268, 40.9771878752]}, "type": "Feature", "properties": {"collection_times": [{"days": "Mon-Fri", "time": "1:00pm"}, {"days": "Sat-Sun", "time": "Closed"}], "id": "0765200053", "name": "USPS COLLECTION BOX - BLUE BOX", "address": {"city": "PARAMUS", "state": "NJ", "street": "875 N ROUTE 17", "postcode": "07652"}}},
{"geometry": {"type": "Point", "coordinates": [-74.070990437, 40.927243947]}, "type": "Feature", "properties": {"collection_times": [{"days": "Mon-Fri", "time": "1:00pm"}, {"days": "Sat-Sun", "time": "Closed"}], "id": "0765200054", "name": "USPS COLLECTION BOX - BLUE BOX", "address": {"city": "PARAMUS", "state": "NJ", "street": "95 N ROUTE 17", "postcode": "07652"}}},
{"geometry": {"type": "Point", "coordinates": [-74.0697879164, 40.9475136555]}, "type": "Feature", "properties": {"collection_times": [{"days": "Mon-Fri", "time": "1:00pm"}, {"days": "Sat-Sun", "time": "Closed"}], "id": "0765200058", "name": "USPS COLLECTION BOX - BLUE BOX", "address": {"city": "PARAMUS", "state": "NJ", "street": "80 ROUTE 4", "postcode": "07652"}}},
{"geometry": {"type": "Point", "coordinates": [-74.0848742617, 40.9244378723]}, "type": "Feature", "properties": {"collection_times": [{"days": "Mon-Fri", "time": "1:00pm"}, {"days": "Sat-Sun", "time": "Closed"}], "id": "0765200061", "name": "USPS COLLECTION BOX - BLUE BOX", "address": {"city": "PARAMUS", "state": "NJ", "street": "180 E ROUTE 4", "postcode": "07652"}}},
{"geometry": {"type": "Point", "coordinates": [-74.0694322465, 40.9485781737]}, "type": "Feature", "properties": {"collection_times": [{"days": "Mon-Fri", "time": "1:00pm"}, {"days": "Sat-Sun", "time": "Closed"}], "id": "0765200072", "name": "USPS COLLECTION BOX - BLUE BOX", "address": {"city": "PARAMUS", "state": "NJ", "street": "15 E MIDLAND AVE", "postcode": "07652"}}},
{"geometry": {"type": "Point", "coordinates": [-74.0857086718, 40.9247337959]}, "type": "Feature", "properties": {"collection_times": [{"days": "Mon-Fri", "time": "1:00pm"}, {"days": "Sat-Sun", "time": "Closed"}], "id": "0765200075", "name": "USPS COLLECTION BOX - BLUE BOX", "address": {"city": "PARAMUS", "state": "NJ", "street": "210 ROUTE 4     #1", "postcode": "07652"}}},
{"geometry": {"type": "Point", "coordinates": [-74.0857086718, 40.9247337959]}, "type": "Feature", "properties": {"collection_times": [{"days": "Mon-Fri", "time": "1:00pm"}, {"days": "Sat-Sun", "time": "Closed"}], "id": "0765200076", "name": "USPS COLLECTION BOX - BLUE BOX", "address": {"city": "PARAMUS", "state": "NJ", "street": "210 ROUTE 4    #2", "postcode": "07652"}}},
{"geometry": {"type": "Point", "coordinates": [-74.0866600883, 40.9712493219]}, "type": "Feature", "properties": {"collection_times": [{"days": "Mon-Fri", "time": "1:00pm"}, {"days": "Sat-Sun", "time": "Closed"}], "id": "0765200079", "name": "USPS COLLECTION BOX - BLUE BOX", "address": {"city": "PARAMUS", "state": "NJ", "street": "701 EVANS ST", "postcode": "07652"}}},
{"geometry": {"type": "Point", "coordinates": [-74.0739184207, 40.9157608358]}, "type": "Feature", "properties": {"collection_times": [{"days": "Mon-Fri", "time": "1:00pm"}, {"days": "Sat-Sun", "time": "Closed"}], "id": "0765200086", "name": "USPS COLLECTION BOX - BLUE BOX", "address": {"city": "PARAMUS", "state": "NJ", "street": "1 GARDEN STATE PLZ", "postcode": "07652"}}},
{"geometry": {"type": "Point", "coordinates": [-74.060263542, 40.9313268228]}, "type": "Feature", "properties": {"collection_times": [{"days": "Mon-Fri", "time": "1:00pm"}, {"days": "Sat-Sun", "time": "Closed"}], "id": "0765200095", "name": "USPS COLLECTION BOX - BLUE BOX", "address": {"city": "PARAMUS", "state": "NJ", "street": "172 LAWRENCE DR", "postcode": "07652"}}},
{"geometry": {"type": "Point", "coordinates": [-74.0685013388, 40.94840755]}, "type": "Feature", "properties": {"collection_times": [{"days": "Mon-Fri", "time": "5:00pm"}, {"days": "Sat", "time": "3:00pm"}, {"days": "Sun", "time": "Closed"}], "id": "0765200097", "name": "USPS COLLECTION BOX - BLUE BOX", "address": {"city": "PARAMUS", "state": "NJ", "street": "33 E MIDLAND AVE", "postcode": "07652"}}},
{"geometry": {"type": "Point", "coordinates": [-74.0685013388, 40.94840755]}, "type": "Feature", "properties": {"collection_times": [{"days": "Mon-Fri", "time": "5:00pm"}, {"days": "Sat", "time": "3:00pm"}, {"days": "Sun", "time": "Closed"}], "id": "0765200098", "name": "USPS COLLECTION BOX - BLUE BOX", "address": {"city": "PARAMUS", "state": "NJ", "street": "33 E MIDLAND AVE # 1", "postcode": "07652"}}},
{"geometry": {"type": "Point", "coordinates": [-74.0685013388, 40.94840755]}, "type": "Feature", "properties": {"collection_times": [{"days": "Mon-Fri", "time": "5:00pm"}, {"days": "Sat", "time": "3:00pm"}, {"days": "Sun", "time": "Closed"}], "id": "0765200099", "name": "USPS COLLECTION BOX - BLUE BOX", "address": {"city": "PARAMUS", "state": "NJ", "street": "33 E MIDLAND AVE # 2", "postcode": "07652"}}},
{"geometry": {"type": "Point", "coordinates": [-74.0668767589, 40.9572746881]}, "type": "Feature", "properties": {"collection_times": [{"days": "Mon-Fri", "time": "1:00pm"}, {"days": "Sat-Sun", "time": "Closed"}], "id": "0765200104", "name": "USPS COLLECTION BOX - BLUE BOX", "address": {"city": "PARAMUS", "state": "NJ", "street": "585 FROM RD", "postcode": "07652"}}},
{"geometry": {"type": "Point", "coordinates": [-74.0747674259, 40.931215704]}, "type": "Feature", "properties": {"collection_times": [{"days": "Mon-Fri", "time": "1:00pm"}, {"days": "Sat-Sun", "time": "Closed"}], "id": "0765200106", "name": "USPS COLLECTION BOX - BLUE BOX", "address": {"city": "PARAMUS", "state": "NJ", "street": "53 W CENTURY RD", "postcode": "07652"}}},
{"geometry": {"type": "Point", "coordinates": [-74.0874870505, 40.9228266815]}, "type": "Feature", "properties": {"collection_times": [{"days": "Mon-Fri", "time": "1:00pm"}, {"days": "Sat-Sun", "time": "Closed"}], "id": "0765200109", "name": "USPS COLLECTION BOX - BLUE BOX", "address": {"city": "PARAMUS", "state": "NJ", "street": "61 S PARAMUS RD", "postcode": "07652"}}},
{"geometry": {"type": "Point", "coordinates": [-74.0724923272, 40.9163172929]}, "type": "Feature", "properties": {"collection_times": [{"days": "Mon-Fri", "time": "1:00pm"}, {"days": "Sat-Sun", "time": "Closed"}], "id": "0765200114", "name": "USPS COLLECTION BOX - BLUE BOX", "address": {"city": "PARAMUS", "state": "NJ", "street": "120 ROUTE 17", "postcode": "07652"}}},
{"geometry": {"type": "Point", "coordinates": [-74.0733683614, 40.9632205794]}, "type": "Feature", "properties": {"collection_times": [{"days": "Mon-Fri", "time": "1:00pm"}, {"days": "Sat-Sun", "time": "Closed"}], "id": "0765200116", "name": "USPS COLLECTION BOX - BLUE BOX", "address": {"city": "PARAMUS", "state": "NJ", "street": "611 VALLEY HEALTH PLZ", "postcode": "07652"}}},
{"geometry": {"type": "Point", "coordinates": [-74.0733683614, 40.9632205794]}, "type": "Feature", "properties": {"collection_times": [{"days": "Mon-Fri", "time": "1:00pm"}, {"days": "Sat-Sun", "time": "Closed"}], "id": "0765200117", "name": "USPS COLLECTION BOX - BLUE BOX", "address": {"city": "PARAMUS", "state": "NJ", "street": "611 VALLEY HEALTH PLZ", "postcode": "07652"}}},
{"geometry": {"type": "Point", "coordinates": [-74.0804670166, 40.9345934011]}, "type": "Feature", "properties": {"collection_times": [{"days": "Mon-Fri", "time": "1:00pm"}, {"days": "Sat-Sun", "time": "Closed"}], "id": "0765200121", "name": "USPS COLLECTION BOX - BLUE BOX", "address": {"city": "PARAMUS", "state": "NJ", "street": "115 W CENTURY RD STE 280", "postcode": "07652"}}},
{"geometry": {"type": "Point", "coordinates": [-74.0522903986, 40.9168911745]}, "type": "Feature", "properties": {"collection_times": [{"days": "Mon-Fri", "time": "1:00pm"}, {"days": "Sat-Sun", "time": "Closed"}], "id": "0765200123", "name": "USPS COLLECTION BOX - BLUE BOX", "address": {"city": "PARAMUS", "state": "NJ", "street": "6 FOREST AVE STE 3", "postcode": "07652"}}},
{"geometry": {"type": "Point", "coordinates": [-74.0777748836, 40.9309530077]}, "type": "Feature", "properties": {"collection_times": [{"days": "Mon-Fri", "time": "1:00pm"}, {"days": "Sat-Sun", "time": "Closed"}], "id": "0765200124", "name": "USPS COLLECTION BOX - BLUE BOX", "address": {"city": "PARAMUS", "state": "NJ", "street": "15 ESSEX RD STE 101", "postcode": "07652"}}},
{"geometry": {"type": "Point", "coordinates": [-74.0709929798, 40.9257172314]}, "type": "Feature", "properties": {"collection_times": [{"days": "Mon-Fri", "time": "1:00pm"}, {"days": "Sat-Sun", "time": "Closed"}], "id": "0765200125", "name": "USPS COLLECTION BOX - BLUE BOX", "address": {"city": "PARAMUS", "state": "NJ", "street": "80 N ROUTE 17", "postcode": "07652"}}},
{"geometry": {"type": "Point", "coordinates": [-74.0513841774, 40.9167413398]}, "type": "Feature", "properties": {"collection_times": [{"days": "Mon-Fri", "time": "1:00pm"}, {"days": "Sat-Sun", "time": "Closed"}], "id": "0765200126", "name": "USPS COLLECTION BOX - BLUE BOX", "address": {"city": "PARAMUS", "state": "NJ", "street": "240 FRISCH CT", "postcode": "07652"}}},
{"geometry": {"type": "Point", "coordinates": [-74.0685013388, 40.94840755]}, "type": "Feature", "properties": {"collection_times": [{"days": "Mon-Fri", "time": "5:00pm"}, {"days": "Sat", "time": "3:00pm"}, {"days": "Sun", "time": "Closed"}], "id": "0765200127", "name": "USPS COLLECTION BOX - PO LOBBY", "address": {"city": "PARAMUS", "state": "NJ", "street": "33 E MIDLAND AVE", "postcode": "07652"}}},
{"geometry": {"type": "Point", "coordinates": [-74.0622733893, 41.0426562739]}, "type": "Feature", "properties": {"collection_times": [{"days": "Mon-Fri", "time": "12:00pm"}, {"days": "Sat-Sun", "time": "Closed"}], "id": "0765600001", "name": "USPS COLLECTION BOX - BLUE BOX", "address": {"city": "PARK RIDGE", "state": "NJ", "street": "1 MAYNARD DR # 1", "postcode": "07656"}}},
{"geometry": {"type": "Point", "coordinates": [-74.0622733893, 41.0426562739]}, "type": "Feature", "properties": {"collection_times": [{"days": "Mon-Fri", "time": "12:00pm"}, {"days": "Sat-Sun", "time": "Closed"}], "id": "0765600002", "name": "USPS COLLECTION BOX - BLUE BOX", "address": {"city": "PARK RIDGE", "state": "NJ", "street": "1 MAYNARD DR STE 2", "postcode": "07656"}}},
{"geometry": {"type": "Point", "coordinates": [-74.0308445671, 41.0370092318]}, "type": "Feature", "properties": {"collection_times": [{"days": "Mon-Sat", "time": "10:00am"}, {"days": "Sun", "time": "Closed"}], "id": "0765600004", "name": "USPS COLLECTION BOX - BLUE BOX", "address": {"city": "PARK RIDGE", "state": "NJ", "street": "191 KINDERKAMACK RD", "postcode": "07656"}}},
{"geometry": {"type": "Point", "coordinates": [-74.0269206606, 41.0265467387]}, "type": "Feature", "properties": {"collection_times": [{"days": "Mon-Sat", "time": "10:00am"}, {"days": "Sun", "time": "Closed"}], "id": "0765600007", "name": "USPS COLLECTION BOX - BLUE BOX", "address": {"city": "PARK RIDGE", "state": "NJ", "street": "271 PARK AVE", "postcode": "07656"}}},
{"geometry": {"type": "Point", "coordinates": [-74.0404724066, 41.0340625948]}, "type": "Feature", "properties": {"collection_times": [{"days": "Mon-Fri", "time": "5:00pm"}, {"days": "Sat", "time": "2:30pm"}, {"days": "Sun", "time": "Closed"}], "id": "0765600008", "name": "USPS COLLECTION BOX - BLUE BOX", "address": {"city": "PARK RIDGE", "state": "NJ", "street": "24 PARK AVE", "postcode": "07656"}}},
{"geometry": {"type": "Point", "coordinates": [-74.0404724066, 41.0340625948]}, "type": "Feature", "properties": {"collection_times": [{"days": "Mon-Fri", "time": "5:00pm"}, {"days": "Sat", "time": "2:00pm"}, {"days": "Sun", "time": "Closed"}], "id": "0765600013", "name": "USPS COLLECTION BOX - PO LOBBY", "address": {"city": "PARK RIDGE", "state": "NJ", "street": "24 PARK AVE", "postcode": "07656"}}},
{"geometry": {"type": "Point", "coordinates": [-74.0094430931, 40.8253067804]}, "type": "Feature", "properties": {"collection_times": [{"days": "Mon-Sat", "time": "9:30am"}, {"days": "Sun", "time": "Closed"}], "id": "0765700006", "name": "USPS COLLECTION BOX - BLUE BOX", "address": {"city": "RIDGEFIELD", "state": "NJ", "street": "321 BROAD AVE", "postcode": "07657"}}},
{"geometry": {"type": "Point", "coordinates": [-74.0037961788, 40.8398840948]}, "type": "Feature", "properties": {"collection_times": [{"days": "Mon-Sat", "time": "9:30am"}, {"days": "Sun", "time": "Closed"}], "id": "0765700007", "name": "USPS COLLECTION BOX - BLUE BOX", "address": {"city": "RIDGEFIELD", "state": "NJ", "street": "604 BROAD AVE", "postcode": "07657"}}},
{"geometry": {"type": "Point", "coordinates": [-74.0021424021, 40.8269567192]}, "type": "Feature", "properties": {"collection_times": [{"days": "Mon-Sat", "time": "9:30am"}, {"days": "Sun", "time": "Closed"}], "id": "0765700010", "name": "USPS COLLECTION BOX - BLUE BOX", "address": {"city": "RIDGEFIELD", "state": "NJ", "street": "405 CHESTNUT ST", "postcode": "07657"}}},
{"geometry": {"type": "Point", "coordinates": [-74.0067606739, 40.8264007285]}, "type": "Feature", "properties": {"collection_times": [{"days": "Mon-Sat", "time": "9:30am"}, {"days": "Sun", "time": "Closed"}], "id": "0765700011", "name": "USPS COLLECTION BOX - BLUE BOX", "address": {"city": "RIDGEFIELD", "state": "NJ", "street": "331 SHALER BLVD", "postcode": "07657"}}},
{"geometry": {"type": "Point", "coordinates": [-74.0026392449, 40.8321286158]}, "type": "Feature", "properties": {"collection_times": [{"days": "Mon-Sat", "time": "9:30am"}, {"days": "Sun", "time": "Closed"}], "id": "0765700012", "name": "USPS COLLECTION BOX - BLUE BOX", "address": {"city": "RIDGEFIELD", "state": "NJ", "street": "520 SHALER BLVD", "postcode": "07657"}}},
{"geometry": {"type": "Point", "coordinates": [-73.9911467985, 40.8331092888]}, "type": "Feature", "properties": {"collection_times": [{"days": "Mon-Sat", "time": "9:30am"}, {"days": "Sun", "time": "Closed"}], "id": "0765700014", "name": "USPS COLLECTION BOX - BLUE BOX", "address": {"city": "RIDGEFIELD", "state": "NJ", "street": "734 BERGEN BLVD", "postcode": "07657"}}},
{"geometry": {"type": "Point", "coordinates": [-73.9924941888, 40.8311254666]}, "type": "Feature", "properties": {"collection_times": [{"days": "Mon-Sat", "time": "9:30am"}, {"days": "Sun", "time": "Closed"}], "id": "0765700015", "name": "USPS COLLECTION BOX - BLUE BOX", "address": {"city": "RIDGEFIELD", "state": "NJ", "street": "684 BERGEN BLVD", "postcode": "07657"}}},
{"geometry": {"type": "Point", "coordinates": [-74.0052994042, 40.8383440112]}, "type": "Feature", "properties": {"collection_times": [{"days": "Mon-Fri", "time": "5:00pm"}, {"days": "Sat", "time": "2:30pm"}, {"days": "Sun", "time": "Closed"}], "id": "0765700016", "name": "USPS COLLECTION BOX - BLUE BOX", "address": {"city": "RIDGEFIELD", "state": "NJ", "street": "757 BROAD AVE # 1", "postcode": "07657"}}},
{"geometry": {"type": "Point", "coordinates": [-74.0052994042, 40.8383440112]}, "type": "Feature", "properties": {"collection_times": [{"days": "Mon-Fri", "time": "5:00pm"}, {"days": "Sat", "time": "2:30pm"}, {"days": "Sun", "time": "Closed"}], "id": "0765700017", "name": "USPS COLLECTION BOX - BLUE BOX", "address": {"city": "RIDGEFIELD", "state": "NJ", "street": "757 BROAD AVE # 2", "postcode": "07657"}}},
{"geometry": {"type": "Point", "coordinates": [-73.997215378, 40.838206659]}, "type": "Feature", "properties": {"collection_times": [{"days": "Mon-Sat", "time": "9:30am"}, {"days": "Sun", "time": "Closed"}], "id": "0765700020", "name": "USPS COLLECTION BOX - BLUE BOX", "address": {"city": "RIDGEFIELD", "state": "NJ", "street": "829 SHALER BLVD", "postcode": "07657"}}},
{"geometry": {"type": "Point", "coordinates": [-73.9947015902, 40.8282248512]}, "type": "Feature", "properties": {"collection_times": [{"days": "Mon-Sat", "time": "9:30am"}, {"days": "Sun", "time": "Closed"}], "id": "0765700022", "name": "USPS COLLECTION BOX - BLUE BOX", "address": {"city": "RIDGEFIELD", "state": "NJ", "street": "607 BERGEN BLVD", "postcode": "07657"}}},
{"geometry": {"type": "Point", "coordinates": [-74.0138536959, 40.8350990258]}, "type": "Feature", "properties": {"collection_times": [{"days": "Mon-Sat", "time": "10:00am"}, {"days": "Sun", "time": "Closed"}], "id": "0765700025", "name": "USPS COLLECTION BOX - BLUE BOX", "address": {"city": "RIDGEFIELD", "state": "NJ", "street": "1067 EDGEWATER AVE", "postcode": "07657"}}},
{"geometry": {"type": "Point", "coordinates": [-74.0010126763, 40.8302642725]}, "type": "Feature", "properties": {"collection_times": [{"days": "Mon-Sat", "time": "9:30am"}, {"days": "Sun", "time": "Closed"}], "id": "0765700028", "name": "USPS COLLECTION BOX - BLUE BOX", "address": {"city": "RIDGEFIELD", "state": "NJ", "street": "493 WALNUT ST", "postcode": "07657"}}},
{"geometry": {"type": "Point", "coordinates": [-74.0052994042, 40.8383440112]}, "type": "Feature", "properties": {"collection_times": [{"days": "Mon-Fri", "time": "5:00pm"}, {"days": "Sat", "time": "1:00pm"}, {"days": "Sun", "time": "Closed"}], "id": "0765700029", "name": "USPS COLLECTION BOX - PO LOBBY", "address": {"city": "RIDGEFIELD", "state": "NJ", "street": "757 BROAD AVE", "postcode": "07657"}}},
{"geometry": {"type": "Point", "coordinates": [-74.0237266714, 40.8559711537]}, "type": "Feature", "properties": {"collection_times": [{"days": "Mon-Sat", "time": "11:00am"}, {"days": "Sun", "time": "Closed"}], "id": "0766000001", "name": "USPS COLLECTION BOX - BLUE BOX", "address": {"city": "RIDGEFIELD PARK", "state": "NJ", "street": "65 BERGEN AVE", "postcode": "07660"}}},
{"geometry": {"type": "Point", "coordinates": [-74.0226545989, 40.8599300891]}, "type": "Feature", "properties": {"collection_times": [{"days": "Mon-Sat", "time": "11:00am"}, {"days": "Sun", "time": "Closed"}], "id": "0766000002", "name": "USPS COLLECTION BOX - BLUE BOX", "address": {"city": "RIDGEFIELD PARK", "state": "NJ", "street": "166 BERGEN AVE", "postcode": "07660"}}},
{"geometry": {"type": "Point", "coordinates": [-74.0269045707, 40.8647258248]}, "type": "Feature", "properties": {"collection_times": [{"days": "Mon-Sat", "time": "11:00am"}, {"days": "Sun", "time": "Closed"}], "id": "0766000003", "name": "USPS COLLECTION BOX - BLUE BOX", "address": {"city": "RIDGEFIELD PARK", "state": "NJ", "street": "98 CENTRAL AVE", "postcode": "07660"}}},
{"geometry": {"type": "Point", "coordinates": [-74.0233221544, 40.8519066953]}, "type": "Feature", "properties": {"collection_times": [{"days": "Mon-Sat", "time": "11:00am"}, {"days": "Sun", "time": "Closed"}], "id": "0766000006", "name": "USPS COLLECTION BOX - BLUE BOX", "address": {"city": "RIDGEFIELD PARK", "state": "NJ", "street": "67 EUCLID AVE", "postcode": "07660"}}},
{"geometry": {"type": "Point", "coordinates": [-74.0221053239, 40.8544980478]}, "type": "Feature", "properties": {"collection_times": [{"days": "Mon-Sat", "time": "11:00am"}, {"days": "Sun", "time": "Closed"}], "id": "0766000007", "name": "USPS COLLECTION BOX - BLUE BOX", "address": {"city": "RIDGEFIELD PARK", "state": "NJ", "street": "107 CEDAR ST", "postcode": "07660"}}},
{"geometry": {"type": "Point", "coordinates": [-74.0255414368, 40.8615105122]}, "type": "Feature", "properties": {"collection_times": [{"days": "Mon-Sat", "time": "11:00am"}, {"days": "Sun", "time": "Closed"}], "id": "0766000008", "name": "USPS COLLECTION BOX - BLUE BOX", "address": {"city": "RIDGEFIELD PARK", "state": "NJ", "street": "713 LINCOLN AVE", "postcode": "07660"}}},
{"geometry": {"type": "Point", "coordinates": [-74.0236438643, 40.8628275839]}, "type": "Feature", "properties": {"collection_times": [{"days": "Mon-Fri", "time": "11:00am"}, {"days": "Sat", "time": "10:00am"}, {"days": "Sun", "time": "Closed"}], "id": "0766000011", "name": "USPS COLLECTION BOX - BLUE BOX", "address": {"city": "RIDGEFIELD PARK", "state": "NJ", "street": "358 MAIN ST", "postcode": "07660"}}},
{"geometry": {"type": "Point", "coordinates": [-74.025180528, 40.8564206782]}, "type": "Feature", "properties": {"collection_times": [{"days": "Mon-Sat", "time": "11:00am"}, {"days": "Sun", "time": "Closed"}], "id": "0766000012", "name": "USPS COLLECTION BOX - BLUE BOX", "address": {"city": "RIDGEFIELD PARK", "state": "NJ", "street": "200 MAIN ST", "postcode": "07660"}}},
{"geometry": {"type": "Point", "coordinates": [-74.0250939651, 40.8578864049]}, "type": "Feature", "properties": {"collection_times": [{"days": "Mon-Sat", "time": "11:00am"}, {"days": "Sun", "time": "Closed"}], "id": "0766000014", "name": "USPS COLLECTION BOX - BLUE BOX", "address": {"city": "RIDGEFIELD PARK", "state": "NJ", "street": "83 PARK ST", "postcode": "07660"}}},
{"geometry": {"type": "Point", "coordinates": [-74.0244564073, 40.859731149]}, "type": "Feature", "properties": {"collection_times": [{"days": "Mon-Fri", "time": "11:00am"}, {"days": "Sat", "time": "10:00am"}, {"days": "Sun", "time": "Closed"}], "id": "0766000015", "name": "USPS COLLECTION BOX - BLUE BOX", "address": {"city": "RIDGEFIELD PARK", "state": "NJ", "street": "278 MAIN ST", "postcode": "07660"}}},
{"geometry": {"type": "Point", "coordinates": [-74.0254455256, 40.8550648246]}, "type": "Feature", "properties": {"collection_times": [{"days": "Mon-Fri", "time": "5:00pm"}, {"days": "Sat", "time": "3:00pm"}, {"days": "Sun", "time": "Closed"}], "id": "0766000016", "name": "USPS COLLECTION BOX - BLUE BOX", "address": {"city": "RIDGEFIELD PARK", "state": "NJ", "street": "155 MAIN ST", "postcode": "07660"}}},
{"geometry": {"type": "Point", "coordinates": [-74.0254455256, 40.8550648246]}, "type": "Feature", "properties": {"collection_times": [{"days": "Mon-Fri", "time": "5:00pm"}, {"days": "Sat", "time": "3:00pm"}, {"days": "Sun", "time": "Closed"}], "id": "0766000017", "name": "USPS COLLECTION BOX - BLUE BOX", "address": {"city": "RIDGEFIELD PARK", "state": "NJ", "street": "155 MAIN ST", "postcode": "07660"}}},
{"geometry": {"type": "Point", "coordinates": [-74.0223473413, 40.8430106553]}, "type": "Feature", "properties": {"collection_times": [{"days": "Mon-Sat", "time": "11:00am"}, {"days": "Sun", "time": "Closed"}], "id": "0766000023", "name": "USPS COLLECTION BOX - BLUE BOX", "address": {"city": "RIDGEFIELD PARK", "state": "NJ", "street": "2 TEANECK RD", "postcode": "07660"}}},
{"geometry": {"type": "Point", "coordinates": [-74.0195248012, 40.853744825]}, "type": "Feature", "properties": {"collection_times": [{"days": "Mon-Sat", "time": "11:00am"}, {"days": "Sun", "time": "Closed"}], "id": "0766000025", "name": "USPS COLLECTION BOX - BLUE BOX", "address": {"city": "RIDGEFIELD PARK", "state": "NJ", "street": "298 TEANECK RD", "postcode": "07660"}}},
{"geometry": {"type": "Point", "coordinates": [-74.0149593406, 40.8601893572]}, "type": "Feature", "properties": {"collection_times": [{"days": "Mon-Sat", "time": "11:00am"}, {"days": "Sun", "time": "Closed"}], "id": "0766000030", "name": "USPS COLLECTION BOX - BLUE BOX", "address": {"city": "RIDGEFIELD PARK", "state": "NJ", "street": "147 GRAND AVE", "postcode": "07660"}}},
{"geometry": {"type": "Point", "coordinates": [-74.0254455256, 40.8550648246]}, "type": "Feature", "properties": {"collection_times": [{"days": "Mon-Fri", "time": "5:00pm"}, {"days": "Sat", "time": "4:00pm"}, {"days": "Sun", "time": "Closed"}], "id": "0766000031", "name": "USPS COLLECTION BOX - PO LOBBY", "address": {"city": "RIDGEFIELD PARK", "state": "NJ", "street": "155 MAIN ST", "postcode": "07660"}}},
{"geometry": {"type": "Point", "coordinates": [-74.0363468442, 40.9120535438]}, "type": "Feature", "properties": {"collection_times": [{"days": "Mon-Fri", "time": "5:00pm"}, {"days": "Sat", "time": "11:00am"}, {"days": "Sun", "time": "Closed"}], "id": "0766100002", "name": "USPS COLLECTION BOX - BLUE BOX", "address": {"city": "RIVER EDGE", "state": "NJ", "street": "121 KINDERKAMACK RD", "postcode": "07661"}}},
{"geometry": {"type": "Point", "coordinates": [-74.0441900057, 40.9282047738]}, "type": "Feature", "properties": {"collection_times": [{"days": "Mon-Sat", "time": "9:45am"}, {"days": "Sun", "time": "Closed"}], "id": "0766100005", "name": "USPS COLLECTION BOX - BLUE BOX", "address": {"city": "RIVER EDGE", "state": "NJ", "street": "276 VOORHIS AVE", "postcode": "07661"}}},
{"geometry": {"type": "Point", "coordinates": [-74.039479314, 40.9130232043]}, "type": "Feature", "properties": {"collection_times": [{"days": "Mon-Sat", "time": "10:30am"}, {"days": "Sun", "time": "Closed"}], "id": "0766100015", "name": "USPS COLLECTION BOX - BLUE BOX", "address": {"city": "RIVER EDGE", "state": "NJ", "street": "120 BOGERT RD", "postcode": "07661"}}},
{"geometry": {"type": "Point", "coordinates": [-74.037573077, 40.9339450773]}, "type": "Feature", "properties": {"collection_times": [{"days": "Mon-Sat", "time": "9:45am"}, {"days": "Sun", "time": "Closed"}], "id": "0766100017", "name": "USPS COLLECTION BOX - BLUE BOX", "address": {"city": "RIVER EDGE", "state": "NJ", "street": "201 CONTINENTAL AVE", "postcode": "07661"}}},
{"geometry": {"type": "Point", "coordinates": [-74.0405104932, 40.9205583473]}, "type": "Feature", "properties": {"collection_times": [{"days": "Mon-Sat", "time": "9:45am"}, {"days": "Sun", "time": "Closed"}], "id": "0766100019", "name": "USPS COLLECTION BOX - BLUE BOX", "address": {"city": "RIVER EDGE", "state": "NJ", "street": "364 LEE AVE", "postcode": "07661"}}},
{"geometry": {"type": "Point", "coordinates": [-74.0307512505, 40.9378090942]}, "type": "Feature", "properties": {"collection_times": [{"days": "Mon-Sat", "time": "11:00am"}, {"days": "Sun", "time": "Closed"}], "id": "0766100022", "name": "USPS COLLECTION BOX - BLUE BOX", "address": {"city": "RIVER EDGE", "state": "NJ", "street": "876 KINDERKAMACK RD", "postcode": "07661"}}},
{"geometry": {"type": "Point", "coordinates": [-74.0335475967, 40.932128869]}, "type": "Feature", "properties": {"collection_times": [{"days": "Mon-Sat", "time": "1:00pm"}, {"days": "Sun", "time": "Closed"}], "id": "0766100024", "name": "USPS COLLECTION BOX - BLUE BOX", "address": {"city": "RIVER EDGE", "state": "NJ", "street": "705 KINDERKAMACK RD", "postcode": "07661"}}},
{"geometry": {"type": "Point", "coordinates": [-74.0344253523, 40.9250322981]}, "type": "Feature", "properties": {"collection_times": [{"days": "Mon-Sat", "time": "10:30am"}, {"days": "Sun", "time": "Closed"}], "id": "0766100026", "name": "USPS COLLECTION BOX - BLUE BOX", "address": {"city": "RIVER EDGE", "state": "NJ", "street": "516 KINDERKAMACK RD", "postcode": "07661"}}},
{"geometry": {"type": "Point", "coordinates": [-74.0342408107, 40.9294258077]}, "type": "Feature", "properties": {"collection_times": [{"days": "Mon-Sat", "time": "9:00am"}, {"days": "Sun", "time": "Closed"}], "id": "0766100027", "name": "USPS COLLECTION BOX - BLUE BOX", "address": {"city": "RIVER EDGE", "state": "NJ", "street": "625 KINDERKAMACK RD", "postcode": "07661"}}},
{"geometry": {"type": "Point", "coordinates": [-74.0341374484, 40.9296802348]}, "type": "Feature", "properties": {"collection_times": [{"days": "Mon-Fri", "time": "5:00pm"}, {"days": "Sat", "time": "1:00pm"}, {"days": "Sun", "time": "Closed"}], "id": "0766100029", "name": "USPS COLLECTION BOX - BLUE BOX", "address": {"city": "RIVER EDGE", "state": "NJ", "street": "650 KINDERKAMACK RD", "postcode": "07661"}}},
{"geometry": {"type": "Point", "coordinates": [-74.0363468442, 40.9120535438]}, "type": "Feature", "properties": {"collection_times": [{"days": "Mon-Fri", "time": "3:30pm"}, {"days": "Sat", "time": "11:00am"}, {"days": "Sun", "time": "Closed"}], "id": "0766100035", "name": "USPS COLLECTION BOX - PO LOBBY", "address": {"city": "RIVER EDGE", "state": "NJ", "street": "121 KINDERKAMACK RD", "postcode": "07661"}}},
{"geometry": {"type": "Point", "coordinates": [-74.0341374484, 40.9296802348]}, "type": "Feature", "properties": {"collection_times": [{"days": "Mon-Fri", "time": "5:00pm"}, {"days": "Sat", "time": "2:30pm"}, {"days": "Sun", "time": "Closed"}], "id": "0766100036", "name": "USPS COLLECTION BOX - PO LOBBY", "address": {"city": "RIVER EDGE", "state": "NJ", "street": "650 KINDERKAMACK RD", "postcode": "07661"}}},
{"geometry": {"type": "Point", "coordinates": [-74.0738368108, 40.9109841865]}, "type": "Feature", "properties": {"collection_times": [{"days": "Mon-Fri", "time": "1:00pm"}, {"days": "Sat", "time": "12:00pm"}, {"days": "Sun", "time": "Closed"}], "id": "0766200001", "name": "USPS COLLECTION BOX - BLUE BOX", "address": {"city": "ROCHELLE PARK", "state": "NJ", "street": "12-18 OVERLOOK AVE    (1)", "postcode": "07662"}}},
{"geometry": {"type": "Point", "coordinates": [-74.0820787281, 40.9149362336]}, "type": "Feature", "properties": {"collection_times": [{"days": "Mon-Sat", "time": "12:00pm"}, {"days": "Sun", "time": "Closed"}], "id": "0766200008", "name": "USPS COLLECTION BOX - BLUE BOX", "address": {"city": "ROCHELLE PARK", "state": "NJ", "street": "250 W PASSAIC ST", "postcode": "07662"}}},
{"geometry": {"type": "Point", "coordinates": [-74.0845000053, 40.9176352557]}, "type": "Feature", "properties": {"collection_times": [{"days": "Mon-Fri", "time": "12:45pm"}, {"days": "Sat", "time": "12:00pm"}, {"days": "Sun", "time": "Closed"}], "id": "0766200011", "name": "USPS COLLECTION BOX - BLUE BOX", "address": {"city": "ROCHELLE PARK", "state": "NJ", "street": "350 W PASSAIC ST STE 2", "postcode": "07662"}}},
{"geometry": {"type": "Point", "coordinates": [-74.0761790719, 40.9065603939]}, "type": "Feature", "properties": {"collection_times": [{"days": "Mon-Fri", "time": "1:00pm"}, {"days": "Sat", "time": "12:00pm"}, {"days": "Sun", "time": "Closed"}], "id": "0766200017", "name": "USPS COLLECTION BOX - BLUE BOX", "address": {"city": "ROCHELLE PARK", "state": "NJ", "street": "318 ROCHELLE AVE", "postcode": "07662"}}},
{"geometry": {"type": "Point", "coordinates": [-74.0745052637, 40.8951576145]}, "type": "Feature", "properties": {"collection_times": [{"days": "Mon-Sat", "time": "12:00pm"}, {"days": "Sun", "time": "Closed"}], "id": "0766200024", "name": "USPS COLLECTION BOX - BLUE BOX", "address": {"city": "ROCHELLE PARK", "state": "NJ", "street": "112 MADISON AVE", "postcode": "07662"}}},
{"geometry": {"type": "Point", "coordinates": [-74.0782520804, 40.9030593426]}, "type": "Feature", "properties": {"collection_times": [{"days": "Mon-Fri", "time": "5:00pm"}, {"days": "Sat", "time": "2:30pm"}, {"days": "Sun", "time": "Closed"}], "id": "0766200025", "name": "USPS COLLECTION BOX - BLUE BOX", "address": {"city": "ROCHELLE PARK", "state": "NJ", "street": "231 ROCHELLE AVE", "postcode": "07662"}}},
{"geometry": {"type": "Point", "coordinates": [-74.0782520804, 40.9030593426]}, "type": "Feature", "properties": {"collection_times": [{"days": "Mon-Fri", "time": "5:00pm"}, {"days": "Sat", "time": "2:30pm"}, {"days": "Sun", "time": "Closed"}], "id": "0766200027", "name": "USPS COLLECTION BOX - BLUE BOX", "address": {"city": "ROCHELLE PARK", "state": "NJ", "street": "231 ROCHELLE AVE", "postcode": "07662"}}},
{"geometry": {"type": "Point", "coordinates": [-74.0782520804, 40.9030593426]}, "type": "Feature", "properties": {"collection_times": [{"days": "Mon-Fri", "time": "3:00pm"}, {"days": "Sat-Sun", "time": "Closed"}], "id": "0766200034", "name": "USPS COLLECTION BOX - PO LOBBY", "address": {"city": "ROCHELLE PARK", "state": "NJ", "street": "231 ROCHELLE AVE", "postcode": "07662"}}},
{"geometry": {"type": "Point", "coordinates": [-74.1065479945, 40.9068277426]}, "type": "Feature", "properties": {"collection_times": [{"days": "Mon-Sat", "time": "12:00pm"}, {"days": "Sun", "time": "Closed"}], "id": "0766300003", "name": "USPS COLLECTION BOX - BLUE BOX", "address": {"city": "SADDLE BROOK", "state": "NJ", "street": "280 N MIDLAND AVE # 2", "postcode": "07663"}}},
{"geometry": {"type": "Point", "coordinates": [-74.1001150636, 40.8973392288]}, "type": "Feature", "properties": {"collection_times": [{"days": "Mon-Sat", "time": "12:00pm"}, {"days": "Sun", "time": "Closed"}], "id": "0766300012", "name": "USPS COLLECTION BOX - BLUE BOX", "address": {"city": "SADDLE BROOK", "state": "NJ", "street": "487 MARKET ST", "postcode": "07663"}}},
{"geometry": {"type": "Point", "coordinates": [-74.0824085338, 40.8954181034]}, "type": "Feature", "properties": {"collection_times": [{"days": "Mon-Fri", "time": "1:30pm"}, {"days": "Sat", "time": "12:00pm"}, {"days": "Sun", "time": "Closed"}], "id": "0766300013", "name": "USPS COLLECTION BOX - BLUE BOX", "address": {"city": "SADDLE BROOK", "state": "NJ", "street": "93 MARKET ST", "postcode": "07663"}}},
{"geometry": {"type": "Point", "coordinates": [-74.0996779665, 40.9164387575]}, "type": "Feature", "properties": {"collection_times": [{"days": "Mon-Sat", "time": "12:00pm"}, {"days": "Sun", "time": "Closed"}], "id": "0766300020", "name": "USPS COLLECTION BOX - BLUE BOX", "address": {"city": "SADDLE BROOK", "state": "NJ", "street": "485 FAIRLAWN PKWY", "postcode": "07663"}}},
{"geometry": {"type": "Point", "coordinates": [-74.0903556521, 40.894477651]}, "type": "Feature", "properties": {"collection_times": [{"days": "Mon-Sat", "time": "12:00pm"}, {"days": "Sun", "time": "Closed"}], "id": "0766300021", "name": "USPS COLLECTION BOX - BLUE BOX", "address": {"city": "SADDLE BROOK", "state": "NJ", "street": "49 FINNIGAN AVE", "postcode": "07663"}}},
{"geometry": {"type": "Point", "coordinates": [-74.0929108435, 40.9162914143]}, "type": "Feature", "properties": {"collection_times": [{"days": "Mon-Sat", "time": "12:00pm"}, {"days": "Sun", "time": "Closed"}], "id": "0766300022", "name": "USPS COLLECTION BOX - BLUE BOX", "address": {"city": "SADDLE BROOK", "state": "NJ", "street": "741 SADDLE RIVER RD", "postcode": "07663"}}},
{"geometry": {"type": "Point", "coordinates": [-74.095067649, 40.8967315365]}, "type": "Feature", "properties": {"collection_times": [{"days": "Mon-Fri", "time": "5:00pm"}, {"days": "Sat", "time": "2:45pm"}, {"days": "Sun", "time": "Closed"}], "id": "0766300024", "name": "USPS COLLECTION BOX - BLUE BOX", "address": {"city": "SADDLE BROOK", "state": "NJ", "street": "360 MARKET ST # 2", "postcode": "07663"}}},
{"geometry": {"type": "Point", "coordinates": [-74.095067649, 40.8967315365]}, "type": "Feature", "properties": {"collection_times": [{"days": "Mon-Fri", "time": "5:00pm"}, {"days": "Sat", "time": "2:45pm"}, {"days": "Sun", "time": "Closed"}], "id": "0766300025", "name": "USPS COLLECTION BOX - BLUE BOX", "address": {"city": "SADDLE BROOK", "state": "NJ", "street": "360 MARKET ST # 3", "postcode": "07663"}}},
{"geometry": {"type": "Point", "coordinates": [-74.0964879752, 40.904524171]}, "type": "Feature", "properties": {"collection_times": [{"days": "Mon-Fri", "time": "5:00pm"}, {"days": "Sat", "time": "2:45pm"}, {"days": "Sun", "time": "Closed"}], "id": "0766300026", "name": "USPS COLLECTION BOX - EXPRESS", "address": {"city": "SADDLE BROOK", "state": "NJ", "street": "360 MARKET ST", "postcode": "07663"}}},
{"geometry": {"type": "Point", "coordinates": [-74.095067649, 40.8967315365]}, "type": "Feature", "properties": {"collection_times": [{"days": "Mon-Fri", "time": "5:00pm"}, {"days": "Sat", "time": "2:45pm"}, {"days": "Sun", "time": "Closed"}], "id": "0766300027", "name": "USPS COLLECTION BOX - BLUE BOX", "address": {"city": "SADDLE BROOK", "state": "NJ", "street": "360 MARKET ST", "postcode": "07663"}}},
{"geometry": {"type": "Point", "coordinates": [-74.108781421, 40.9185011817]}, "type": "Feature", "properties": {"collection_times": [{"days": "Mon-Sat", "time": "12:00pm"}, {"days": "Sun", "time": "Closed"}], "id": "0766300030", "name": "USPS COLLECTION BOX - BLUE BOX", "address": {"city": "SADDLE BROOK", "state": "NJ", "street": "285 WILSON ST", "postcode": "07663"}}},
{"geometry": {"type": "Point", "coordinates": [-74.0979802337, 40.8870047031]}, "type": "Feature", "properties": {"collection_times": [{"days": "Mon-Sat", "time": "12:00pm"}, {"days": "Sun", "time": "Closed"}], "id": "0766300038", "name": "USPS COLLECTION BOX - BLUE BOX", "address": {"city": "SADDLE BROOK", "state": "NJ", "street": "338 PRESIDENT ST", "postcode": "07663"}}},
{"geometry": {"type": "Point", "coordinates": [-74.095067649, 40.8967315365]}, "type": "Feature", "properties": {"collection_times": [{"days": "Mon-Fri", "time": "5:00pm"}, {"days": "Sat", "time": "12:00pm"}, {"days": "Sun", "time": "Closed"}], "id": "0766300043", "name": "USPS COLLECTION BOX - PO LOBBY", "address": {"city": "SADDLE BROOK", "state": "NJ", "street": "360 MARKET ST", "postcode": "07663"}}},
{"geometry": {"type": "Point", "coordinates": [-74.0110477868, 40.8906028196]}, "type": "Feature", "properties": {"collection_times": [{"days": "Mon-Sat", "time": "11:00am"}, {"days": "Sun", "time": "Closed"}], "id": "0766600001", "name": "USPS COLLECTION BOX - BLUE BOX", "address": {"city": "TEANECK", "state": "NJ", "street": "1086 TEANECK RD # 1", "postcode": "07666"}}},
{"geometry": {"type": "Point", "coordinates": [-74.0110477868, 40.8906028196]}, "type": "Feature", "properties": {"collection_times": [{"days": "Mon-Sat", "time": "11:00am"}, {"days": "Sun", "time": "Closed"}], "id": "0766600002", "name": "USPS COLLECTION BOX - BLUE BOX", "address": {"city": "TEANECK", "state": "NJ", "street": "1086 TEANECK RD # 2", "postcode": "07666"}}},
{"geometry": {"type": "Point", "coordinates": [-74.0106577074, 40.8852873453]}, "type": "Feature", "properties": {"collection_times": [{"days": "Mon-Sat", "time": "11:00am"}, {"days": "Sun", "time": "Closed"}], "id": "0766600004", "name": "USPS COLLECTION BOX - BLUE BOX", "address": {"city": "TEANECK", "state": "NJ", "street": "118 CEDAR LN", "postcode": "07666"}}},
{"geometry": {"type": "Point", "coordinates": [-74.0049188027, 40.9018993174]}, "type": "Feature", "properties": {"collection_times": [{"days": "Mon-Sat", "time": "11:00am"}, {"days": "Sun", "time": "Closed"}], "id": "0766600005", "name": "USPS COLLECTION BOX - BLUE BOX", "address": {"city": "TEANECK", "state": "NJ", "street": "1420 QUEEN ANNE RD", "postcode": "07666"}}},
{"geometry": {"type": "Point", "coordinates": [-74.0067703912, 40.8841774465]}, "type": "Feature", "properties": {"collection_times": [{"days": "Mon-Sat", "time": "11:00am"}, {"days": "Sun", "time": "Closed"}], "id": "0766600007", "name": "USPS COLLECTION BOX - BLUE BOX", "address": {"city": "TEANECK", "state": "NJ", "street": "1 E CEDAR LN", "postcode": "07666"}}},
{"geometry": {"type": "Point", "coordinates": [-74.0110477868, 40.8906028196]}, "type": "Feature", "properties": {"collection_times": [{"days": "Mon-Fri", "time": "5:00pm"}, {"days": "Sat", "time": "11:00am"}, {"days": "Sun", "time": "Closed"}], "id": "0766600008", "name": "USPS COLLECTION BOX - BLUE BOX", "address": {"city": "TEANECK", "state": "NJ", "street": "1393 PALISADE AVE", "postcode": "07666"}}},
{"geometry": {"type": "Point", "coordinates": [-74.0277298045, 40.8910234108]}, "type": "Feature", "properties": {"collection_times": [{"days": "Mon-Sat", "time": "11:00am"}, {"days": "Sun", "time": "Closed"}], "id": "0766600010", "name": "USPS COLLECTION BOX - BLUE BOX", "address": {"city": "TEANECK", "state": "NJ", "street": "628 CEDAR LN", "postcode": "07666"}}},
{"geometry": {"type": "Point", "coordinates": [-74.0085540397, 40.882513204]}, "type": "Feature", "properties": {"collection_times": [{"days": "Mon-Sat", "time": "11:00am"}, {"days": "Sun", "time": "Closed"}], "id": "0766600011", "name": "USPS COLLECTION BOX - BLUE BOX", "address": {"city": "TEANECK", "state": "NJ", "street": "741 TEANECK RD", "postcode": "07666"}}},
{"geometry": {"type": "Point", "coordinates": [-74.0170441362, 40.8894843812]}, "type": "Feature", "properties": {"collection_times": [{"days": "Mon-Sat", "time": "11:00am"}, {"days": "Sun", "time": "Closed"}], "id": "0766600012", "name": "USPS COLLECTION BOX - BLUE BOX", "address": {"city": "TEANECK", "state": "NJ", "street": "870 PALISADE AVE", "postcode": "07666"}}},
{"geometry": {"type": "Point", "coordinates": [-74.0222952911, 40.8891850926]}, "type": "Feature", "properties": {"collection_times": [{"days": "Mon-Sat", "time": "11:00am"}, {"days": "Sun", "time": "Closed"}], "id": "0766600022", "name": "USPS COLLECTION BOX - BLUE BOX", "address": {"city": "TEANECK", "state": "NJ", "street": "467 CEDAR LN # 2", "postcode": "07666"}}},
{"geometry": {"type": "Point", "coordinates": [-74.0249912545, 40.8900936051]}, "type": "Feature", "properties": {"collection_times": [{"days": "Mon-Sat", "time": "11:00am"}, {"days": "Sun", "time": "Closed"}], "id": "0766600023", "name": "USPS COLLECTION BOX - BLUE BOX", "address": {"city": "TEANECK", "state": "NJ", "street": "543 CEDAR LN # 1", "postcode": "07666"}}},
{"geometry": {"type": "Point", "coordinates": [-74.0190612885, 40.8881569055]}, "type": "Feature", "properties": {"collection_times": [{"days": "Mon-Sat", "time": "11:00am"}, {"days": "Sun", "time": "Closed"}], "id": "0766600024", "name": "USPS COLLECTION BOX - BLUE BOX", "address": {"city": "TEANECK", "state": "NJ", "street": "375 CEDAR LN", "postcode": "07666"}}},
{"geometry": {"type": "Point", "coordinates": [-74.0249912545, 40.8900936051]}, "type": "Feature", "properties": {"collection_times": [{"days": "Mon-Sat", "time": "11:00am"}, {"days": "Sun", "time": "Closed"}], "id": "0766600026", "name": "USPS COLLECTION BOX - BLUE BOX", "address": {"city": "TEANECK", "state": "NJ", "street": "543 CEDAR LN # 2", "postcode": "07666"}}},
{"geometry": {"type": "Point", "coordinates": [-74.0145256166, 40.8865541919]}, "type": "Feature", "properties": {"collection_times": [{"days": "Mon-Sat", "time": "11:00am"}, {"days": "Sun", "time": "Closed"}], "id": "0766600030", "name": "USPS COLLECTION BOX - BLUE BOX", "address": {"city": "TEANECK", "state": "NJ", "street": "222 CEDAR LN", "postcode": "07666"}}},
{"geometry": {"type": "Point", "coordinates": [-74.0165141706, 40.8994697378]}, "type": "Feature", "properties": {"collection_times": [{"days": "Mon-Sat", "time": "11:00am"}, {"days": "Sun", "time": "Closed"}], "id": "0766600037", "name": "USPS COLLECTION BOX - BLUE BOX", "address": {"city": "TEANECK", "state": "NJ", "street": "1201 SUSSEX RD", "postcode": "07666"}}},
{"geometry": {"type": "Point", "coordinates": [-74.0060544067, 40.8747391149]}, "type": "Feature", "properties": {"collection_times": [{"days": "Mon-Sat", "time": "11:00am"}, {"days": "Sun", "time": "Closed"}], "id": "0766600042", "name": "USPS COLLECTION BOX - BLUE BOX", "address": {"city": "TEANECK", "state": "NJ", "street": "500 FRANK W BURR BLVD", "postcode": "07666"}}},
{"geometry": {"type": "Point", "coordinates": [-74.0048289019, 40.8730164095]}, "type": "Feature", "properties": {"collection_times": [{"days": "Mon-Sat", "time": "11:00am"}, {"days": "Sun", "time": "Closed"}], "id": "0766600043", "name": "USPS COLLECTION BOX - BLUE BOX", "address": {"city": "TEANECK", "state": "NJ", "street": "400 FRANK W BURR BLVD", "postcode": "07666"}}},
{"geometry": {"type": "Point", "coordinates": [-74.0277453823, 40.8857034879]}, "type": "Feature", "properties": {"collection_times": [{"days": "Mon-Sat", "time": "11:00am"}, {"days": "Sun", "time": "Closed"}], "id": "0766600048", "name": "USPS COLLECTION BOX - BLUE BOX", "address": {"city": "TEANECK", "state": "NJ", "street": "194 LARCH AVE", "postcode": "07666"}}},
{"geometry": {"type": "Point", "coordinates": [-74.011056477, 40.8906114634]}, "type": "Feature", "properties": {"collection_times": [{"days": "Mon-Fri", "time": "4:00pm"}, {"days": "Sat", "time": "11:00am"}, {"days": "Sun", "time": "Closed"}], "id": "0766600050", "name": "USPS COLLECTION BOX - EXPRESS", "address": {"city": "TEANECK", "state": "NJ", "street": "339 BARR AVE", "postcode": "07666"}}},
{"geometry": {"type": "Point", "coordinates": [-74.0179023738, 40.8869109463]}, "type": "Feature", "properties": {"collection_times": [{"days": "Mon-Fri", "time": "5:00pm"}, {"days": "Sat", "time": "11:00am"}, {"days": "Sun", "time": "Closed"}], "id": "0766600051", "name": "USPS COLLECTION BOX - BLUE BOX", "address": {"city": "TEANECK", "state": "NJ", "street": "339 BARR AVE", "postcode": "07666"}}},
{"geometry": {"type": "Point", "coordinates": [-74.0110477868, 40.8906028196]}, "type": "Feature", "properties": {"collection_times": [{"days": "Mon-Fri", "time": "5:00pm"}, {"days": "Sat", "time": "11:00am"}, {"days": "Sun", "time": "Closed"}], "id": "0766600052", "name": "USPS COLLECTION BOX - BLUE BOX", "address": {"city": "TEANECK", "state": "NJ", "street": "339 BARR AVE", "postcode": "07666"}}},
{"geometry": {"type": "Point", "coordinates": [-74.0110477868, 40.8906028196]}, "type": "Feature", "properties": {"collection_times": [{"days": "Mon-Fri", "time": "5:00pm"}, {"days": "Sat", "time": "11:00am"}, {"days": "Sun", "time": "Closed"}], "id": "0766600053", "name": "USPS COLLECTION BOX - BLUE BOX", "address": {"city": "TEANECK", "state": "NJ", "street": "339 BARR AVE", "postcode": "07666"}}},
{"geometry": {"type": "Point", "coordinates": [-74.0194856921, 40.8868726556]}, "type": "Feature", "properties": {"collection_times": [{"days": "Mon-Sat", "time": "11:00am"}, {"days": "Sun", "time": "Closed"}], "id": "0766600057", "name": "USPS COLLECTION BOX - BLUE BOX", "address": {"city": "TEANECK", "state": "NJ", "street": "1 E CEDAR LN # 2", "postcode": "07666"}}},
{"geometry": {"type": "Point", "coordinates": [-74.0021005541, 40.8935743371]}, "type": "Feature", "properties": {"collection_times": [{"days": "Mon-Sat", "time": "11:00am"}, {"days": "Sun", "time": "Closed"}], "id": "0766600071", "name": "USPS COLLECTION BOX - BLUE BOX", "address": {"city": "TEANECK", "state": "NJ", "street": "1182 TEANECK RD", "postcode": "07666"}}},
{"geometry": {"type": "Point", "coordinates": [-74.0052807923, 40.8880352565]}, "type": "Feature", "properties": {"collection_times": [{"days": "Mon-Sat", "time": "11:00am"}, {"days": "Sun", "time": "Closed"}], "id": "0766600072", "name": "USPS COLLECTION BOX - BLUE BOX", "address": {"city": "TEANECK", "state": "NJ", "street": "960 TEANECK RD", "postcode": "07666"}}},
{"geometry": {"type": "Point", "coordinates": [-73.9990259379, 40.9028376458]}, "type": "Feature", "properties": {"collection_times": [{"days": "Mon-Sat", "time": "11:00am"}, {"days": "Sun", "time": "Closed"}], "id": "0766600074", "name": "USPS COLLECTION BOX - BLUE BOX", "address": {"city": "TEANECK", "state": "NJ", "street": "1518 TEANECK RD", "postcode": "07666"}}},
{"geometry": {"type": "Point", "coordinates": [-74.0303079139, 40.8940461933]}, "type": "Feature", "properties": {"collection_times": [{"days": "Mon-Sat", "time": "11:00am"}, {"days": "Sun", "time": "Closed"}], "id": "0766600075", "name": "USPS COLLECTION BOX - BLUE BOX", "address": {"city": "TEANECK", "state": "NJ", "street": "694 TILDEN AVE", "postcode": "07666"}}},
{"geometry": {"type": "Point", "coordinates": [-74.0067121726, 40.9020225633]}, "type": "Feature", "properties": {"collection_times": [{"days": "Mon-Fri", "time": "5:00pm"}, {"days": "Sat", "time": "11:00am"}, {"days": "Sun", "time": "Closed"}], "id": "0766600085", "name": "USPS COLLECTION BOX - BLUE BOX", "address": {"city": "TEANECK", "state": "NJ", "street": "1393 PALISADE AVE", "postcode": "07666"}}},
{"geometry": {"type": "Point", "coordinates": [-74.0203741263, 40.8760151471]}, "type": "Feature", "properties": {"collection_times": [{"days": "Mon-Sat", "time": "11:00am"}, {"days": "Sun", "time": "Closed"}], "id": "0766600087", "name": "USPS COLLECTION BOX - BLUE BOX", "address": {"city": "TEANECK", "state": "NJ", "street": "375 QUEEN ANNE RD", "postcode": "07666"}}},
{"geometry": {"type": "Point", "coordinates": [-74.0020217403, 40.8826374147]}, "type": "Feature", "properties": {"collection_times": [{"days": "Mon-Sat", "time": "11:00am"}, {"days": "Sun", "time": "Closed"}], "id": "0766600093", "name": "USPS COLLECTION BOX - BLUE BOX", "address": {"city": "TEANECK", "state": "NJ", "street": "147 CEDAR LN", "postcode": "07666"}}},
{"geometry": {"type": "Point", "coordinates": [-74.0061266079, 40.9055217559]}, "type": "Feature", "properties": {"collection_times": [{"days": "Mon-Sat", "time": "11:00am"}, {"days": "Sun", "time": "Closed"}], "id": "0766600096", "name": "USPS COLLECTION BOX - BLUE BOX", "address": {"city": "TEANECK", "state": "NJ", "street": "257 EDGEWOOD AVE", "postcode": "07666"}}},
{"geometry": {"type": "Point", "coordinates": [-73.9990652583, 40.8813082843]}, "type": "Feature", "properties": {"collection_times": [{"days": "Mon-Sat", "time": "11:00am"}, {"days": "Sun", "time": "Closed"}], "id": "0766600099", "name": "USPS COLLECTION BOX - BLUE BOX", "address": {"city": "TEANECK", "state": "NJ", "street": "20 TULIP CIR", "postcode": "07666"}}},
{"geometry": {"type": "Point", "coordinates": [-74.0085847967, 40.882457605]}, "type": "Feature", "properties": {"collection_times": [{"days": "Mon-Sat", "time": "11:00am"}, {"days": "Sun", "time": "Closed"}], "id": "0766600100", "name": "USPS COLLECTION BOX - BLUE BOX", "address": {"city": "TEANECK", "state": "NJ", "street": "718 TEANECK RD", "postcode": "07666"}}},
{"geometry": {"type": "Point", "coordinates": [-74.0194526407, 40.8869031648]}, "type": "Feature", "properties": {"collection_times": [{"days": "Mon-Fri", "time": "5:00pm"}, {"days": "Sat", "time": "4:00pm"}, {"days": "Sun", "time": "Closed"}], "id": "0766600101", "name": "USPS COLLECTION BOX - PO LOBBY", "address": {"city": "TEANECK", "state": "NJ", "street": "751 PALISADE AVE", "postcode": "07666"}}},
{"geometry": {"type": "Point", "coordinates": [-74.0067121726, 40.9020225633]}, "type": "Feature", "properties": {"collection_times": [{"days": "Mon-Fri", "time": "4:00pm"}, {"days": "Sat-Sun", "time": "Closed"}], "id": "0766600102", "name": "USPS COLLECTION BOX - PO LOBBY", "address": {"city": "TEANECK", "state": "NJ", "street": "1393 PALISADE AVE", "postcode": "07666"}}},
{"geometry": {"type": "Point", "coordinates": [-73.9651749345, 40.9203288533]}, "type": "Feature", "properties": {"collection_times": [{"days": "Mon-Fri", "time": "3:00pm"}, {"days": "Sat", "time": "2:00pm"}, {"days": "Sun", "time": "Closed"}], "id": "0767000001", "name": "USPS COLLECTION BOX - BLUE BOX", "address": {"city": "TENAFLY", "state": "NJ", "street": "111 DEAN DR", "postcode": "07670"}}},
{"geometry": {"type": "Point", "coordinates": [-73.9673608305, 40.926182447]}, "type": "Feature", "properties": {"collection_times": [{"days": "Mon-Fri", "time": "3:00pm"}, {"days": "Sat", "time": "2:00pm"}, {"days": "Sun", "time": "Closed"}], "id": "0767000003", "name": "USPS COLLECTION BOX - BLUE BOX", "address": {"city": "TENAFLY", "state": "NJ", "street": "401 TENAFLY RD", "postcode": "07670"}}},
{"geometry": {"type": "Point", "coordinates": [-73.9673608305, 40.926182447]}, "type": "Feature", "properties": {"collection_times": [{"days": "Mon-Fri", "time": "3:00pm"}, {"days": "Sat", "time": "2:00pm"}, {"days": "Sun", "time": "Closed"}], "id": "0767000005", "name": "USPS COLLECTION BOX - BLUE BOX", "address": {"city": "TENAFLY", "state": "NJ", "street": "401 TENAFLY RD", "postcode": "07670"}}},
{"geometry": {"type": "Point", "coordinates": [-73.9617419876, 40.9285657966]}, "type": "Feature", "properties": {"collection_times": [{"days": "Mon-Fri", "time": "3:00pm"}, {"days": "Sat", "time": "2:00pm"}, {"days": "Sun", "time": "Closed"}], "id": "0767000015", "name": "USPS COLLECTION BOX - BLUE BOX", "address": {"city": "TENAFLY", "state": "NJ", "street": "121 COUNTY RD", "postcode": "07670"}}},
{"geometry": {"type": "Point", "coordinates": [-73.9638088737, 40.9256239163]}, "type": "Feature", "properties": {"collection_times": [{"days": "Mon-Fri", "time": "3:00pm"}, {"days": "Sat", "time": "2:00pm"}, {"days": "Sun", "time": "Closed"}], "id": "0767000024", "name": "USPS COLLECTION BOX - BLUE BOX", "address": {"city": "TENAFLY", "state": "NJ", "street": "16 HIGHWOOD AVE", "postcode": "07670"}}},
{"geometry": {"type": "Point", "coordinates": [-73.9673608305, 40.926182447]}, "type": "Feature", "properties": {"collection_times": [{"days": "Mon-Fri", "time": "3:00pm"}, {"days": "Sat", "time": "2:00pm"}, {"days": "Sun", "time": "Closed"}], "id": "0767000028", "name": "USPS COLLECTION BOX - BLUE BOX", "address": {"city": "TENAFLY", "state": "NJ", "street": "401 TENAFLY RD", "postcode": "07670"}}},
{"geometry": {"type": "Point", "coordinates": [-73.9671753181, 40.9263690418]}, "type": "Feature", "properties": {"collection_times": [{"days": "Mon-Fri", "time": "5:00pm"}, {"days": "Sat", "time": "2:00pm"}, {"days": "Sun", "time": "Closed"}], "id": "0767000030", "name": "USPS COLLECTION BOX - BLUE BOX", "address": {"city": "TENAFLY", "state": "NJ", "street": "400 TENAFLY RD", "postcode": "07670"}}},
{"geometry": {"type": "Point", "coordinates": [-73.9665909364, 40.920105274]}, "type": "Feature", "properties": {"collection_times": [{"days": "Mon-Fri", "time": "3:00pm"}, {"days": "Sat", "time": "2:00pm"}, {"days": "Sun", "time": "Closed"}], "id": "0767000038", "name": "USPS COLLECTION BOX - BLUE BOX", "address": {"city": "TENAFLY", "state": "NJ", "street": "60 WESTERVELT AVE", "postcode": "07670"}}},
{"geometry": {"type": "Point", "coordinates": [-73.9646140614, 40.9261964238]}, "type": "Feature", "properties": {"collection_times": [{"days": "Mon-Fri", "time": "3:00pm"}, {"days": "Sat", "time": "2:00pm"}, {"days": "Sun", "time": "Closed"}], "id": "0767000039", "name": "USPS COLLECTION BOX - BLUE BOX", "address": {"city": "TENAFLY", "state": "NJ", "street": "24 W RAILROAD AVE", "postcode": "07670"}}},
{"geometry": {"type": "Point", "coordinates": [-73.9677182962, 40.9115087112]}, "type": "Feature", "properties": {"collection_times": [{"days": "Mon-Fri", "time": "3:00pm"}, {"days": "Sat", "time": "2:00pm"}, {"days": "Sun", "time": "Closed"}], "id": "0767000043", "name": "USPS COLLECTION BOX - BLUE BOX", "address": {"city": "TENAFLY", "state": "NJ", "street": "2 DEAN DR", "postcode": "07670"}}},
{"geometry": {"type": "Point", "coordinates": [-73.9671753181, 40.9263690418]}, "type": "Feature", "properties": {"collection_times": [{"days": "Mon-Fri", "time": "5:00pm"}, {"days": "Sat", "time": "2:00pm"}, {"days": "Sun", "time": "Closed"}], "id": "0767000044", "name": "USPS COLLECTION BOX - BLUE BOX", "address": {"city": "TENAFLY", "state": "NJ", "street": "400 TENAFLY RD", "postcode": "07670"}}},
{"geometry": {"type": "Point", "coordinates": [-73.9671753181, 40.9263690418]}, "type": "Feature", "properties": {"collection_times": [{"days": "Mon-Fri", "time": "5:00pm"}, {"days": "Sat", "time": "2:00pm"}, {"days": "Sun", "time": "Closed"}], "id": "0767000045", "name": "USPS COLLECTION BOX - PO LOBBY", "address": {"city": "TENAFLY", "state": "NJ", "street": "400 TENAFLY RD", "postcode": "07670"}}},
{"geometry": {"type": "Point", "coordinates": [-74.0086510424, 40.9946387866]}, "type": "Feature", "properties": {"collection_times": [{"days": "Mon-Sat", "time": "11:00am"}, {"days": "Sun", "time": "Closed"}], "id": "0767500002", "name": "USPS COLLECTION BOX - BLUE BOX", "address": {"city": "RIVERVALE", "state": "NJ", "street": "650 WESTWOOD AVE", "postcode": "07675"}}},
{"geometry": {"type": "Point", "coordinates": [-74.0087740701, 41.029709971]}, "type": "Feature", "properties": {"collection_times": [{"days": "Mon-Sat", "time": "11:00am"}, {"days": "Sun", "time": "Closed"}], "id": "0767500004", "name": "USPS COLLECTION BOX - BLUE BOX", "address": {"city": "RIVERVALE", "state": "NJ", "street": "729 RIVERVALE RD", "postcode": "07675"}}},
{"geometry": {"type": "Point", "coordinates": [-74.0047163786, 40.9949287956]}, "type": "Feature", "properties": {"collection_times": [{"days": "Mon-Fri", "time": "5:00pm"}, {"days": "Sat", "time": "11:00am"}, {"days": "Sun", "time": "Closed"}], "id": "0767500005", "name": "USPS COLLECTION BOX - BLUE BOX", "address": {"city": "RIVERVALE", "state": "NJ", "street": "679 WESTWOOD AVE", "postcode": "07675"}}},
{"geometry": {"type": "Point", "coordinates": [-73.9817170435, 41.0150817437]}, "type": "Feature", "properties": {"collection_times": [{"days": "Mon-Sat", "time": "11:00am"}, {"days": "Sun", "time": "Closed"}], "id": "0767500014", "name": "USPS COLLECTION BOX - BLUE BOX", "address": {"city": "RIVERVALE", "state": "NJ", "street": "48 BI STATE PLZ", "postcode": "07675"}}},
{"geometry": {"type": "Point", "coordinates": [-74.0043941051, 41.0092380627]}, "type": "Feature", "properties": {"collection_times": [{"days": "Mon-Sat", "time": "11:00am"}, {"days": "Sun", "time": "Closed"}], "id": "0767500017", "name": "USPS COLLECTION BOX - BLUE BOX", "address": {"city": "RIVERVALE", "state": "NJ", "street": "180 0LD TAPPAN RD", "postcode": "07675"}}},
{"geometry": {"type": "Point", "coordinates": [-74.0353776342, 40.9893296667]}, "type": "Feature", "properties": {"collection_times": [{"days": "Mon-Sat", "time": "11:00am"}, {"days": "Sun", "time": "Closed"}], "id": "0767500019", "name": "USPS COLLECTION BOX - BLUE BOX", "address": {"city": "RIVERVALE", "state": "NJ", "street": "192 3RD AVE", "postcode": "07675"}}},
{"geometry": {"type": "Point", "coordinates": [-74.0325136906, 40.990849769]}, "type": "Feature", "properties": {"collection_times": [{"days": "Mon-Sat", "time": "11:00am"}, {"days": "Sun", "time": "Closed"}], "id": "0767500024", "name": "USPS COLLECTION BOX - BLUE BOX", "address": {"city": "RIVERVALE", "state": "NJ", "street": "381 BROADWAY", "postcode": "07675"}}},
{"geometry": {"type": "Point", "coordinates": [-74.0303620557, 40.989610927]}, "type": "Feature", "properties": {"collection_times": [{"days": "Mon-Sat", "time": "11:00am"}, {"days": "Sun", "time": "Closed"}], "id": "0767500025", "name": "USPS COLLECTION BOX - BLUE BOX", "address": {"city": "RIVERVALE", "state": "NJ", "street": "51 JEFFERSON AVE", "postcode": "07675"}}},
{"geometry": {"type": "Point", "coordinates": [-74.0366610641, 40.9965371512]}, "type": "Feature", "properties": {"collection_times": [{"days": "Mon-Sat", "time": "11:00am"}, {"days": "Sun", "time": "Closed"}], "id": "0767500026", "name": "USPS COLLECTION BOX - BLUE BOX", "address": {"city": "RIVERVALE", "state": "NJ", "street": "700 BROADWAY", "postcode": "07675"}}},
{"geometry": {"type": "Point", "coordinates": [-74.0251260086, 40.9852077804]}, "type": "Feature", "properties": {"collection_times": [{"days": "Mon-Sat", "time": "11:00am"}, {"days": "Sun", "time": "Closed"}], "id": "0767500027", "name": "USPS COLLECTION BOX - BLUE BOX", "address": {"city": "RIVERVALE", "state": "NJ", "street": "99 KINDERKAMACK RD # 1", "postcode": "07675"}}},
{"geometry": {"type": "Point", "coordinates": [-74.0142948832, 40.9827750733]}, "type": "Feature", "properties": {"collection_times": [{"days": "Mon-Sat", "time": "11:00am"}, {"days": "Sun", "time": "Closed"}], "id": "0767500031", "name": "USPS COLLECTION BOX - BLUE BOX", "address": {"city": "RIVERVALE", "state": "NJ", "street": "51 BERGENLINE AVE # 1", "postcode": "07675"}}},
{"geometry": {"type": "Point", "coordinates": [-74.0303938281, 40.9926809895]}, "type": "Feature", "properties": {"collection_times": [{"days": "Mon-Fri", "time": "5:00pm"}, {"days": "Sat", "time": "11:00am"}, {"days": "Sun", "time": "Closed"}], "id": "0767500039", "name": "USPS COLLECTION BOX - BLUE BOX", "address": {"city": "RIVERVALE", "state": "NJ", "street": "216 WESTWOOD AVE UNIT 1", "postcode": "07675"}}},
{"geometry": {"type": "Point", "coordinates": [-74.0303938281, 40.9926809895]}, "type": "Feature", "properties": {"collection_times": [{"days": "Mon-Fri", "time": "5:00pm"}, {"days": "Sat", "time": "11:00am"}, {"days": "Sun", "time": "Closed"}], "id": "0767500041", "name": "USPS COLLECTION BOX - BLUE BOX", "address": {"city": "RIVERVALE", "state": "NJ", "street": "216 WESTWOOD AVE UNIT 2", "postcode": "07675"}}},
{"geometry": {"type": "Point", "coordinates": [-74.0365048833, 40.9921418685]}, "type": "Feature", "properties": {"collection_times": [{"days": "Mon-Sat", "time": "11:00am"}, {"days": "Sun", "time": "Closed"}], "id": "0767500054", "name": "USPS COLLECTION BOX - BLUE BOX", "address": {"city": "RIVERVALE", "state": "NJ", "street": "101 WASHINGTON AVE", "postcode": "07675"}}},
{"geometry": {"type": "Point", "coordinates": [-74.0052609254, 40.9948845193]}, "type": "Feature", "properties": {"collection_times": [{"days": "Mon-Sat", "time": "4:00pm"}, {"days": "Sun", "time": "Closed"}], "id": "0767500055", "name": "USPS COLLECTION BOX - PO LOBBY", "address": {"city": "RIVERVALE", "state": "NJ", "street": "673 WESTWOOD AVE", "postcode": "07675"}}},
{"geometry": {"type": "Point", "coordinates": [-74.0303938281, 40.9926809895]}, "type": "Feature", "properties": {"collection_times": [{"days": "Mon-Fri", "time": "5:00pm"}, {"days": "Sat", "time": "12:00pm"}, {"days": "Sun", "time": "Closed"}], "id": "0767500056", "name": "USPS COLLECTION BOX - PO LOBBY", "address": {"city": "RIVERVALE", "state": "NJ", "street": "216 WESTWOOD AVE", "postcode": "07675"}}},
{"geometry": {"type": "Point", "coordinates": [-74.0349376206, 40.9926207557]}, "type": "Feature", "properties": {"collection_times": [{"days": "Mon-Sat", "time": "11:00am"}, {"days": "Sun", "time": "Closed"}], "id": "0767500057", "name": "USPS COLLECTION BOX - BLUE BOX", "address": {"city": "RIVERVALE", "state": "NJ", "street": "100 MADISON AVE", "postcode": "07675"}}},
{"geometry": {"type": "Point", "coordinates": [-74.0642334014, 40.9846479387]}, "type": "Feature", "properties": {"collection_times": [{"days": "Mon-Fri", "time": "11:00am"}, {"days": "Sat", "time": "11:30am"}, {"days": "Sun", "time": "Closed"}], "id": "0767600002", "name": "USPS COLLECTION BOX - BLUE BOX", "address": {"city": "TWP WASHINTON", "state": "NJ", "street": "275 PASCACK RD", "postcode": "07676"}}},
{"geometry": {"type": "Point", "coordinates": [-74.0669031785, 40.9771700465]}, "type": "Feature", "properties": {"collection_times": [{"days": "Mon-Sat", "time": "10:00am"}, {"days": "Sun", "time": "Closed"}], "id": "0767600003", "name": "USPS COLLECTION BOX - BLUE BOX", "address": {"city": "TWP WASHINTON", "state": "NJ", "street": "300 POND CT", "postcode": "07676"}}},
{"geometry": {"type": "Point", "coordinates": [-74.0544149929, 40.9821526547]}, "type": "Feature", "properties": {"collection_times": [{"days": "Mon-Sat", "time": "10:00am"}, {"days": "Sun", "time": "Closed"}], "id": "0767600005", "name": "USPS COLLECTION BOX - BLUE BOX", "address": {"city": "TWP WASHINTON", "state": "NJ", "street": "242 WALNUT ST", "postcode": "07676"}}},
{"geometry": {"type": "Point", "coordinates": [-74.0645540562, 40.9841183188]}, "type": "Feature", "properties": {"collection_times": [{"days": "Mon-Fri", "time": "5:00pm"}, {"days": "Sat", "time": "3:30pm"}, {"days": "Sun", "time": "Closed"}], "id": "0767600006", "name": "USPS COLLECTION BOX - BLUE BOX", "address": {"city": "TWP WASHINTON", "state": "NJ", "street": "261 PASCACK RD", "postcode": "07676"}}},
{"geometry": {"type": "Point", "coordinates": [-74.0645182916, 40.984166005]}, "type": "Feature", "properties": {"collection_times": [{"days": "Mon-Fri", "time": "4:00pm"}, {"days": "Sat", "time": "1:00pm"}, {"days": "Sun", "time": "Closed"}], "id": "0767600008", "name": "USPS COLLECTION BOX - PO LOBBY", "address": {"city": "TWP WASHINTON", "state": "NJ", "street": "261R PASCACK RD", "postcode": "07676"}}},
{"geometry": {"type": "Point", "coordinates": [-74.0411860265, 41.0163298549]}, "type": "Feature", "properties": {"collection_times": [{"days": "Mon-Fri", "time": "5:00pm"}, {"days": "Sat", "time": "11:00am"}, {"days": "Sun", "time": "Closed"}], "id": "0767700001", "name": "USPS COLLECTION BOX - BLUE BOX", "address": {"city": "WOODCLIFF LAKE", "state": "NJ", "street": "86 BROADWAY      (1)", "postcode": "07677"}}},
{"geometry": {"type": "Point", "coordinates": [-74.0411860265, 41.0163298549]}, "type": "Feature", "properties": {"collection_times": [{"days": "Mon-Fri", "time": "5:00pm"}, {"days": "Sat", "time": "11:00am"}, {"days": "Sun", "time": "Closed"}], "id": "0767700002", "name": "USPS COLLECTION BOX - BLUE BOX", "address": {"city": "WOODCLIFF LAKE", "state": "NJ", "street": "86 BROADWAY      (2)", "postcode": "07677"}}},
{"geometry": {"type": "Point", "coordinates": [-74.0723202541, 41.0435848947]}, "type": "Feature", "properties": {"collection_times": [{"days": "Mon-Sat", "time": "11:00am"}, {"days": "Sun", "time": "Closed"}], "id": "0767700003", "name": "USPS COLLECTION BOX - BLUE BOX", "address": {"city": "WOODCLIFF LAKE", "state": "NJ", "street": "524 CHESTNUT RIDGE RD", "postcode": "07677"}}},
{"geometry": {"type": "Point", "coordinates": [-74.0489024041, 41.0221212893]}, "type": "Feature", "properties": {"collection_times": [{"days": "Mon-Sat", "time": "11:00am"}, {"days": "Sun", "time": "Closed"}], "id": "0767700004", "name": "USPS COLLECTION BOX - BLUE BOX", "address": {"city": "WOODCLIFF LAKE", "state": "NJ", "street": "188 PASCACK RD", "postcode": "07677"}}},
{"geometry": {"type": "Point", "coordinates": [-74.0613195007, 41.026631907]}, "type": "Feature", "properties": {"collection_times": [{"days": "Mon-Sat", "time": "11:00am"}, {"days": "Sun", "time": "Closed"}], "id": "0767700008", "name": "USPS COLLECTION BOX - BLUE BOX", "address": {"city": "WOODCLIFF LAKE", "state": "NJ", "street": "50 TICE BLVD", "postcode": "07677"}}},
{"geometry": {"type": "Point", "coordinates": [-74.0747902781, 41.0428147904]}, "type": "Feature", "properties": {"collection_times": [{"days": "Mon-Sat", "time": "11:00am"}, {"days": "Sun", "time": "Closed"}], "id": "0767700009", "name": "USPS COLLECTION BOX - BLUE BOX", "address": {"city": "WOODCLIFF LAKE", "state": "NJ", "street": "50 TICE BLVD STE 160", "postcode": "07677"}}},
{"geometry": {"type": "Point", "coordinates": [-74.0667161211, 41.0232750215]}, "type": "Feature", "properties": {"collection_times": [{"days": "Mon-Sat", "time": "11:00am"}, {"days": "Sun", "time": "Closed"}], "id": "0767700011", "name": "USPS COLLECTION BOX - BLUE BOX", "address": {"city": "WOODCLIFF LAKE", "state": "NJ", "street": "165 WERIMUS RD", "postcode": "07677"}}},
{"geometry": {"type": "Point", "coordinates": [-74.0411860265, 41.0163298549]}, "type": "Feature", "properties": {"collection_times": [{"days": "Mon-Fri", "time": "5:00pm"}, {"days": "Sat", "time": "12:00pm"}, {"days": "Sun", "time": "Closed"}], "id": "0767700012", "name": "USPS COLLECTION BOX - PO LOBBY", "address": {"city": "WOODCLIFF LAKE", "state": "NJ", "street": "86 BROADWAY", "postcode": "07677"}}}
]}
