{"type": "FeatureCollection", "features": [
{"geometry": {"type": "Point", "coordinates": [-74.0634384908, 40.3538044684]}, "type": "Feature", "properties": {"collection_times": [{"days": "Mon-Sat", "time": "10:15am"}, {"days": "Sun", "time": "Closed"}], "id": "0770100005", "name": "USPS COLLECTION BOX - BLUE BOX", "address": {"city": "RED BANK", "state": "NJ", "street": "1 RIVERVIEW PLZ", "postcode": "07701"}}},
{"geometry": {"type": "Point", "coordinates": [-74.0751179577, 40.3536217145]}, "type": "Feature", "properties": {"collection_times": [{"days": "Mon-Sat", "time": "10:45am"}, {"days": "Sun", "time": "Closed"}], "id": "0770100010", "name": "USPS COLLECTION BOX - BLUE BOX", "address": {"city": "RED BANK", "state": "NJ", "street": "176 RIVERSIDE AVE", "postcode": "07701"}}},
{"geometry": {"type": "Point", "coordinates": [-74.0932243276, 40.3363990149]}, "type": "Feature", "properties": {"collection_times": [{"days": "Mon-Sat", "time": "2:30pm"}, {"days": "Sun", "time": "Closed"}], "id": "0770100014", "name": "USPS COLLECTION BOX - BLUE BOX", "address": {"city": "RED BANK", "state": "NJ", "street": "328 NEWMAN SPRINGS RD", "postcode": "07701"}}},
{"geometry": {"type": "Point", "coordinates": [-74.0699815499, 40.3492412174]}, "type": "Feature", "properties": {"collection_times": [{"days": "Mon-Sat", "time": "2:00pm"}, {"days": "Sun", "time": "Closed"}], "id": "0770100015", "name": "USPS COLLECTION BOX - BLUE BOX", "address": {"city": "RED BANK", "state": "NJ", "street": "90 MONMOUTH ST", "postcode": "07701"}}},
{"geometry": {"type": "Point", "coordinates": [-74.0685821094, 40.3464387876]}, "type": "Feature", "properties": {"collection_times": [{"days": "Mon-Sat", "time": "11:00am"}, {"days": "Sun", "time": "Closed"}], "id": "0770100018", "name": "USPS COLLECTION BOX - BLUE BOX", "address": {"city": "RED BANK", "state": "NJ", "street": "127 MAPLE AVE", "postcode": "07701"}}},
{"geometry": {"type": "Point", "coordinates": [-74.0687136543, 40.3466775783]}, "type": "Feature", "properties": {"collection_times": [{"days": "Mon-Sat", "time": "2:15pm"}, {"days": "Sun", "time": "Closed"}], "id": "0770100019", "name": "USPS COLLECTION BOX - BLUE BOX", "address": {"city": "RED BANK", "state": "NJ", "street": "130 MAPLE AVE", "postcode": "07701"}}},
{"geometry": {"type": "Point", "coordinates": [-74.0821660272, 40.3644658993]}, "type": "Feature", "properties": {"collection_times": [{"days": "Mon-Sat", "time": "11:00am"}, {"days": "Sun", "time": "Closed"}], "id": "0770100021", "name": "USPS COLLECTION BOX - BLUE BOX", "address": {"city": "RED BANK", "state": "NJ", "street": "225 STATE ROUTE 35", "postcode": "07701"}}},
{"geometry": {"type": "Point", "coordinates": [-74.081048131, 40.3627423281]}, "type": "Feature", "properties": {"collection_times": [{"days": "Mon-Sat", "time": "11:00am"}, {"days": "Sun", "time": "Closed"}], "id": "0770100022", "name": "USPS COLLECTION BOX - BLUE BOX", "address": {"city": "RED BANK", "state": "NJ", "street": "170 STATE ROUTE 35", "postcode": "07701"}}},
{"geometry": {"type": "Point", "coordinates": [-74.0961421842, 40.339539061]}, "type": "Feature", "properties": {"collection_times": [{"days": "Mon-Sat", "time": "2:30pm"}, {"days": "Sun", "time": "Closed"}], "id": "0770100025", "name": "USPS COLLECTION BOX - BLUE BOX", "address": {"city": "RED BANK", "state": "NJ", "street": "125 HALF MILE RD", "postcode": "07701"}}},
{"geometry": {"type": "Point", "coordinates": [-74.0964407931, 40.3383508972]}, "type": "Feature", "properties": {"collection_times": [{"days": "Mon-Sat", "time": "2:45pm"}, {"days": "Sun", "time": "Closed"}], "id": "0770100026", "name": "USPS COLLECTION BOX - BLUE BOX", "address": {"city": "RED BANK", "state": "NJ", "street": "240 HALF MILE RD", "postcode": "07701"}}},
{"geometry": {"type": "Point", "coordinates": [-74.0686679019, 40.3419601842]}, "type": "Feature", "properties": {"collection_times": [{"days": "Mon-Fri", "time": "1:45pm"}, {"days": "Sat", "time": "11:45am"}, {"days": "Sun", "time": "Closed"}], "id": "0770100031", "name": "USPS COLLECTION BOX - BLUE BOX", "address": {"city": "RED BANK", "state": "NJ", "street": "10 W BERGEN PL", "postcode": "07701"}}},
{"geometry": {"type": "Point", "coordinates": [-74.0751144088, 40.3554008847]}, "type": "Feature", "properties": {"collection_times": [{"days": "Mon-Sat", "time": "10:45am"}, {"days": "Sun", "time": "Closed"}], "id": "0770100032", "name": "USPS COLLECTION BOX - BLUE BOX", "address": {"city": "RED BANK", "state": "NJ", "street": "151 BODMAN PL", "postcode": "07701"}}},
{"geometry": {"type": "Point", "coordinates": [-74.0752610958, 40.3504419208]}, "type": "Feature", "properties": {"collection_times": [{"days": "Mon-Sat", "time": "10:30am"}, {"days": "Sun", "time": "Closed"}], "id": "0770100033", "name": "USPS COLLECTION BOX - BLUE BOX", "address": {"city": "RED BANK", "state": "NJ", "street": "2 BRIDGE AVE", "postcode": "07701"}}},
{"geometry": {"type": "Point", "coordinates": [-74.0653947843, 40.3497738283]}, "type": "Feature", "properties": {"collection_times": [{"days": "Mon-Sat", "time": "10:15am"}, {"days": "Sun", "time": "Closed"}], "id": "0770100035", "name": "USPS COLLECTION BOX - BLUE BOX", "address": {"city": "RED BANK", "state": "NJ", "street": "72 BROAD ST", "postcode": "07701"}}},
{"geometry": {"type": "Point", "coordinates": [-74.0641175302, 40.3419706103]}, "type": "Feature", "properties": {"collection_times": [{"days": "Mon-Sat", "time": "11:30am"}, {"days": "Sun", "time": "Closed"}], "id": "0770100038", "name": "USPS COLLECTION BOX - BLUE BOX", "address": {"city": "RED BANK", "state": "NJ", "street": "303 BROAD ST", "postcode": "07701"}}},
{"geometry": {"type": "Point", "coordinates": [-74.0653605111, 40.3513631628]}, "type": "Feature", "properties": {"collection_times": [{"days": "Mon-Sat", "time": "10:00am"}, {"days": "Sun", "time": "Closed"}], "id": "0770100039", "name": "USPS COLLECTION BOX - BLUE BOX", "address": {"city": "RED BANK", "state": "NJ", "street": "23 BROAD ST", "postcode": "07701"}}},
{"geometry": {"type": "Point", "coordinates": [-74.063831667, 40.3404610603]}, "type": "Feature", "properties": {"collection_times": [{"days": "Mon-Sat", "time": "11:30am"}, {"days": "Sun", "time": "Closed"}], "id": "0770100040", "name": "USPS COLLECTION BOX - BLUE BOX", "address": {"city": "RED BANK", "state": "NJ", "street": "345 BROAD ST", "postcode": "07701"}}},
{"geometry": {"type": "Point", "coordinates": [-74.0650278533, 40.3479813681]}, "type": "Feature", "properties": {"collection_times": [{"days": "Mon-Sat", "time": "10:00am"}, {"days": "Sun", "time": "Closed"}], "id": "0770100043", "name": "USPS COLLECTION BOX - BLUE BOX", "address": {"city": "RED BANK", "state": "NJ", "street": "121 BROAD ST", "postcode": "07701"}}},
{"geometry": {"type": "Point", "coordinates": [-74.0648688012, 40.3464494343]}, "type": "Feature", "properties": {"collection_times": [{"days": "Mon-Fri", "time": "5:00pm"}, {"days": "Sat", "time": "1:00pm"}, {"days": "Sun", "time": "Closed"}], "id": "0770100044", "name": "USPS COLLECTION BOX - BLUE BOX", "address": {"city": "RED BANK", "state": "NJ", "street": "171 BROAD ST", "postcode": "07701"}}},
{"geometry": {"type": "Point", "coordinates": [-74.0648688012, 40.3464494343]}, "type": "Feature", "properties": {"collection_times": [{"days": "Mon-Fri", "time": "5:00pm"}, {"days": "Sat", "time": "1:00pm"}, {"days": "Sun", "time": "Closed"}], "id": "0770100045", "name": "USPS COLLECTION BOX - BLUE BOX", "address": {"city": "RED BANK", "state": "NJ", "street": "171 BROAD ST", "postcode": "07701"}}},
{"geometry": {"type": "Point", "coordinates": [-74.0648688012, 40.3464494343]}, "type": "Feature", "properties": {"collection_times": [{"days": "Mon-Fri", "time": "5:00pm"}, {"days": "Sat", "time": "1:00pm"}, {"days": "Sun", "time": "Closed"}], "id": "0770100046", "name": "USPS COLLECTION BOX - BLUE BOX", "address": {"city": "RED BANK", "state": "NJ", "street": "171 BROAD ST", "postcode": "07701"}}},
{"geometry": {"type": "Point", "coordinates": [-74.0648688012, 40.3464494343]}, "type": "Feature", "properties": {"collection_times": [{"days": "Mon-Fri", "time": "5:00pm"}, {"days": "Sat", "time": "1:00pm"}, {"days": "Sun", "time": "Closed"}], "id": "0770100047", "name": "USPS COLLECTION BOX - BLUE BOX", "address": {"city": "RED BANK", "state": "NJ", "street": "171 BROAD ST", "postcode": "07701"}}},
{"geometry": {"type": "Point", "coordinates": [-74.07659654, 40.3523912871]}, "type": "Feature", "properties": {"collection_times": [{"days": "Mon-Fri", "time": "5:00pm"}, {"days": "Sat", "time": "1:00pm"}, {"days": "Sun", "time": "Closed"}], "id": "0770100057", "name": "USPS COLLECTION BOX - EXPRESS", "address": {"city": "RED BANK", "state": "NJ", "street": "171 BROAD ST", "postcode": "07701"}}},
{"geometry": {"type": "Point", "coordinates": [-74.0764535184, 40.349023553]}, "type": "Feature", "properties": {"collection_times": [{"days": "Mon-Sat", "time": "10:45am"}, {"days": "Sun", "time": "Closed"}], "id": "0770100064", "name": "USPS COLLECTION BOX - BLUE BOX", "address": {"city": "RED BANK", "state": "NJ", "street": "54 SHREWSBURY AVE", "postcode": "07701"}}},
{"geometry": {"type": "Point", "coordinates": [-74.0764209777, 40.3473142619]}, "type": "Feature", "properties": {"collection_times": [{"days": "Mon-Fri", "time": "4:00pm"}, {"days": "Sat", "time": "1:00pm"}, {"days": "Sun", "time": "Closed"}], "id": "0770100077", "name": "USPS COLLECTION BOX - BLUE BOX", "address": {"city": "RED BANK", "state": "NJ", "street": "104 SHREWSBURY AVE", "postcode": "07701"}}},
{"geometry": {"type": "Point", "coordinates": [-74.0752610958, 40.3504419208]}, "type": "Feature", "properties": {"collection_times": [{"days": "Mon-Sat", "time": "10:30am"}, {"days": "Sun", "time": "Closed"}], "id": "0770100080", "name": "USPS COLLECTION BOX - BLUE BOX", "address": {"city": "RED BANK", "state": "NJ", "street": "2 BRIDGE AVE", "postcode": "07701"}}},
{"geometry": {"type": "Point", "coordinates": [-74.0712772434, 40.3500019883]}, "type": "Feature", "properties": {"collection_times": [{"days": "Mon-Sat", "time": "10:30am"}, {"days": "Sun", "time": "Closed"}], "id": "0770100088", "name": "USPS COLLECTION BOX - BLUE BOX", "address": {"city": "RED BANK", "state": "NJ", "street": "9 WALL ST", "postcode": "07701"}}},
{"geometry": {"type": "Point", "coordinates": [-74.0729247518, 40.3489170867]}, "type": "Feature", "properties": {"collection_times": [{"days": "Mon-Sat", "time": "10:30am"}, {"days": "Sun", "time": "Closed"}], "id": "0770100095", "name": "USPS COLLECTION BOX - BLUE BOX", "address": {"city": "RED BANK", "state": "NJ", "street": "156 MONMOUTH ST", "postcode": "07701"}}},
{"geometry": {"type": "Point", "coordinates": [-74.0576917892, 40.3488863297]}, "type": "Feature", "properties": {"collection_times": [{"days": "Mon-Sat", "time": "10:00am"}, {"days": "Sun", "time": "Closed"}], "id": "0770100099", "name": "USPS COLLECTION BOX - BLUE BOX", "address": {"city": "RED BANK", "state": "NJ", "street": "62 MANOR DR", "postcode": "07701"}}},
{"geometry": {"type": "Point", "coordinates": [-74.1109982053, 40.3456916491]}, "type": "Feature", "properties": {"collection_times": [{"days": "Mon-Sat", "time": "3:00pm"}, {"days": "Sun", "time": "Closed"}], "id": "0770100114", "name": "USPS COLLECTION BOX - BLUE BOX", "address": {"city": "RED BANK", "state": "NJ", "street": "1 SHADY OAKS WAY", "postcode": "07701"}}},
{"geometry": {"type": "Point", "coordinates": [-74.0936880476, 40.3571492981]}, "type": "Feature", "properties": {"collection_times": [{"days": "Mon-Sat", "time": "3:00pm"}, {"days": "Sun", "time": "Closed"}], "id": "0770100116", "name": "USPS COLLECTION BOX - BLUE BOX", "address": {"city": "RED BANK", "state": "NJ", "street": "122 MANCHESTER CT", "postcode": "07701"}}},
{"geometry": {"type": "Point", "coordinates": [-74.0648688012, 40.3464494343]}, "type": "Feature", "properties": {"collection_times": [{"days": "Mon-Fri", "time": "5:00pm"}, {"days": "Sat", "time": "1:00pm"}, {"days": "Sun", "time": "Closed"}], "id": "0770100119", "name": "USPS COLLECTION BOX - BLUE BOX", "address": {"city": "RED BANK", "state": "NJ", "street": "171 BROAD ST", "postcode": "07701"}}},
{"geometry": {"type": "Point", "coordinates": [-74.0648688012, 40.3464494343]}, "type": "Feature", "properties": {"collection_times": [{"days": "Mon-Fri", "time": "5:00pm"}, {"days": "Sat", "time": "1:00pm"}, {"days": "Sun", "time": "Closed"}], "id": "0770100125", "name": "USPS COLLECTION BOX - PO LOBBY", "address": {"city": "RED BANK", "state": "NJ", "street": "171 BROAD ST", "postcode": "07701"}}},
{"geometry": {"type": "Point", "coordinates": [-74.0764209777, 40.3473142619]}, "type": "Feature", "properties": {"collection_times": [{"days": "Mon-Fri", "time": "4:00pm"}, {"days": "Sat", "time": "1:00pm"}, {"days": "Sun", "time": "Closed"}], "id": "0770100126", "name": "USPS COLLECTION BOX - PO LOBBY", "address": {"city": "RED BANK", "state": "NJ", "street": "104 SHREWSBURY AVE", "postcode": "07701"}}},
{"geometry": {"type": "Point", "coordinates": [-74.0629204678, 40.3156002304]}, "type": "Feature", "properties": {"collection_times": [{"days": "Mon-Sat", "time": "11:15am"}, {"days": "Sun", "time": "Closed"}], "id": "0770200001", "name": "USPS COLLECTION BOX - BLUE BOX", "address": {"city": "TINTON FALLS", "state": "NJ", "street": "1129 BROAD ST", "postcode": "07702"}}},
{"geometry": {"type": "Point", "coordinates": [-74.0601613376, 40.3252082223]}, "type": "Feature", "properties": {"collection_times": [{"days": "Mon-Sat", "time": "3:15pm"}, {"days": "Sun", "time": "Closed"}], "id": "0770200002", "name": "USPS COLLECTION BOX - BLUE BOX", "address": {"city": "TINTON FALLS", "state": "NJ", "street": "1 REVMONT DR", "postcode": "07702"}}},
{"geometry": {"type": "Point", "coordinates": [-74.0736052235, 40.3281637538]}, "type": "Feature", "properties": {"collection_times": [{"days": "Mon-Sat", "time": "3:00pm"}, {"days": "Sun", "time": "Closed"}], "id": "0770200003", "name": "USPS COLLECTION BOX - BLUE BOX", "address": {"city": "TINTON FALLS", "state": "NJ", "street": "1 EXECUTIVE DR", "postcode": "07702"}}},
{"geometry": {"type": "Point", "coordinates": [-74.0609843819, 40.3177660032]}, "type": "Feature", "properties": {"collection_times": [{"days": "Mon-Sat", "time": "11:15am"}, {"days": "Sun", "time": "Closed"}], "id": "0770200004", "name": "USPS COLLECTION BOX - BLUE BOX", "address": {"city": "TINTON FALLS", "state": "NJ", "street": "20 AVENUE AT THE CMN", "postcode": "07702"}}},
{"geometry": {"type": "Point", "coordinates": [-74.0625552761, 40.3169854149]}, "type": "Feature", "properties": {"collection_times": [{"days": "Mon-Sat", "time": "3:15pm"}, {"days": "Sun", "time": "Closed"}], "id": "0770200005", "name": "USPS COLLECTION BOX - BLUE BOX", "address": {"city": "TINTON FALLS", "state": "NJ", "street": "1040 BROAD ST", "postcode": "07702"}}},
{"geometry": {"type": "Point", "coordinates": [-74.0630365501, 40.3332069254]}, "type": "Feature", "properties": {"collection_times": [{"days": "Mon-Fri", "time": "5:00pm"}, {"days": "Sat", "time": "1:00pm"}, {"days": "Sun", "time": "Closed"}], "id": "0770200006", "name": "USPS COLLECTION BOX - BLUE BOX", "address": {"city": "TINTON FALLS", "state": "NJ", "street": "562 BROAD ST", "postcode": "07702"}}},
{"geometry": {"type": "Point", "coordinates": [-74.0630365501, 40.3332069254]}, "type": "Feature", "properties": {"collection_times": [{"days": "Mon-Fri", "time": "5:00pm"}, {"days": "Sat", "time": "1:00pm"}, {"days": "Sun", "time": "Closed"}], "id": "0770200007", "name": "USPS COLLECTION BOX - BLUE BOX", "address": {"city": "TINTON FALLS", "state": "NJ", "street": "562 BROAD ST", "postcode": "07702"}}},
{"geometry": {"type": "Point", "coordinates": [-74.0736877603, 40.3290682182]}, "type": "Feature", "properties": {"collection_times": [{"days": "Mon-Sat", "time": "3:15pm"}, {"days": "Sun", "time": "Closed"}], "id": "0770200008", "name": "USPS COLLECTION BOX - BLUE BOX", "address": {"city": "TINTON FALLS", "state": "NJ", "street": "621 SHREWSBURY AVE", "postcode": "07702"}}},
{"geometry": {"type": "Point", "coordinates": [-74.0630365501, 40.3332069254]}, "type": "Feature", "properties": {"collection_times": [{"days": "Mon-Fri", "time": "5:00pm"}, {"days": "Sat", "time": "1:00pm"}, {"days": "Sun", "time": "Closed"}], "id": "0770200009", "name": "USPS COLLECTION BOX - PO LOBBY", "address": {"city": "TINTON FALLS", "state": "NJ", "street": "562 BROAD ST", "postcode": "07702"}}},
{"geometry": {"type": "Point", "coordinates": [-74.0416888806, 40.361473594]}, "type": "Feature", "properties": {"collection_times": [{"days": "Mon-Fri", "time": "4:00pm"}, {"days": "Sat", "time": "1:00pm"}, {"days": "Sun", "time": "Closed"}], "id": "0770400001", "name": "USPS COLLECTION BOX - BLUE BOX", "address": {"city": "FAIR HAVEN", "state": "NJ", "street": "592 RIVER RD", "postcode": "07704"}}},
{"geometry": {"type": "Point", "coordinates": [-74.0358485322, 40.3642303762]}, "type": "Feature", "properties": {"collection_times": [{"days": "Mon-Sat", "time": "3:00pm"}, {"days": "Sun", "time": "Closed"}], "id": "0770400002", "name": "USPS COLLECTION BOX - BLUE BOX", "address": {"city": "FAIR HAVEN", "state": "NJ", "street": "748 RIVER RD", "postcode": "07704"}}},
{"geometry": {"type": "Point", "coordinates": [-74.0416888806, 40.361473594]}, "type": "Feature", "properties": {"collection_times": [{"days": "Mon-Fri", "time": "4:00pm"}, {"days": "Sat", "time": "1:00pm"}, {"days": "Sun", "time": "Closed"}], "id": "0770400003", "name": "USPS COLLECTION BOX - BLUE BOX", "address": {"city": "FAIR HAVEN", "state": "NJ", "street": "592 RIVER RD", "postcode": "07704"}}},
{"geometry": {"type": "Point", "coordinates": [-74.0416888806, 40.361473594]}, "type": "Feature", "properties": {"collection_times": [{"days": "Mon-Fri", "time": "4:00pm"}, {"days": "Sat", "time": "11:00am"}, {"days": "Sun", "time": "Closed"}], "id": "0770400004", "name": "USPS COLLECTION BOX - PO LOBBY", "address": {"city": "FAIR HAVEN", "state": "NJ", "street": "592 RIVER RD", "postcode": "07704"}}},
{"geometry": {"type": "Point", "coordinates": [-74.2564854106, 40.2180455128]}, "type": "Feature", "properties": {"collection_times": [{"days": "Mon-Fri", "time": "4:30pm"}, {"days": "Sat", "time": "12:00pm"}, {"days": "Sun", "time": "Closed"}], "id": "0771000001", "name": "USPS COLLECTION BOX - BLUE BOX", "address": {"city": "ADELPHIA", "state": "NJ", "street": "16 WYKOFF MILLS RD", "postcode": "07710"}}},
{"geometry": {"type": "Point", "coordinates": [-74.2564854106, 40.2180455128]}, "type": "Feature", "properties": {"collection_times": [{"days": "Mon-Fri", "time": "4:30pm"}, {"days": "Sat", "time": "12:00pm"}, {"days": "Sun", "time": "Closed"}], "id": "0771000002", "name": "USPS COLLECTION BOX - PO LOBBY", "address": {"city": "ADELPHIA", "state": "NJ", "street": "16 WYCKOFF MILLS RD", "postcode": "07710"}}},
{"geometry": {"type": "Point", "coordinates": [-74.0053671483, 40.2392283996]}, "type": "Feature", "properties": {"collection_times": [{"days": "Mon-Fri", "time": "5:00pm"}, {"days": "Sat", "time": "12:00pm"}, {"days": "Sun", "time": "Closed"}], "id": "0771100001", "name": "USPS COLLECTION BOX - BLUE BOX", "address": {"city": "ALLENHURST", "state": "NJ", "street": "4 MAIN ST", "postcode": "07711"}}},
{"geometry": {"type": "Point", "coordinates": [-74.0060718535, 40.2374968917]}, "type": "Feature", "properties": {"collection_times": [{"days": "Mon-Sat", "time": "11:00am"}, {"days": "Sun", "time": "Closed"}], "id": "0771100003", "name": "USPS COLLECTION BOX - BLUE BOX", "address": {"city": "ALLENHURST", "state": "NJ", "street": "301 MAIN ST", "postcode": "07711"}}},
{"geometry": {"type": "Point", "coordinates": [-74.0060106779, 40.2374646078]}, "type": "Feature", "properties": {"collection_times": [{"days": "Mon-Sat", "time": "11:00am"}, {"days": "Sun", "time": "Closed"}], "id": "0771100004", "name": "USPS COLLECTION BOX - BLUE BOX", "address": {"city": "ALLENHURST", "state": "NJ", "street": "201 MAIN ST", "postcode": "07711"}}},
{"geometry": {"type": "Point", "coordinates": [-74.0053671483, 40.2392283996]}, "type": "Feature", "properties": {"collection_times": [{"days": "Mon-Fri", "time": "5:00pm"}, {"days": "Sat", "time": "12:00pm"}, {"days": "Sun", "time": "Closed"}], "id": "0771100012", "name": "USPS COLLECTION BOX - PO LOBBY", "address": {"city": "ALLENHURST", "state": "NJ", "street": "4 MAIN ST", "postcode": "07711"}}},
{"geometry": {"type": "Point", "coordinates": [-74.0134242818, 40.2175459447]}, "type": "Feature", "properties": {"collection_times": [{"days": "Mon-Fri", "time": "5:00pm"}, {"days": "Sat", "time": "3:00pm"}, {"days": "Sun", "time": "Closed"}], "id": "0771200002", "name": "USPS COLLECTION BOX - BLUE BOX", "address": {"city": "OCEAN", "state": "NJ", "street": "801 BANGS AVE", "postcode": "07712"}}},
{"geometry": {"type": "Point", "coordinates": [-74.036480152, 40.2359693476]}, "type": "Feature", "properties": {"collection_times": [{"days": "Mon-Fri", "time": "5:00pm"}, {"days": "Sat", "time": "3:00pm"}, {"days": "Sun", "time": "Closed"}], "id": "0771200003", "name": "USPS COLLECTION BOX - BLUE BOX", "address": {"city": "OCEAN", "state": "NJ", "street": "3305 FAIRMONT AVE", "postcode": "07712"}}},
{"geometry": {"type": "Point", "coordinates": [-74.0100471394, 40.2160165746]}, "type": "Feature", "properties": {"collection_times": [{"days": "Mon-Sat", "time": "11:00am"}, {"days": "Sun", "time": "Closed"}], "id": "0771200021", "name": "USPS COLLECTION BOX - BLUE BOX", "address": {"city": "OCEAN", "state": "NJ", "street": "576 COOKMAN AVE", "postcode": "07712"}}},
{"geometry": {"type": "Point", "coordinates": [-74.0160752928, 40.2224043572]}, "type": "Feature", "properties": {"collection_times": [{"days": "Mon-Sat", "time": "11:00am"}, {"days": "Sun", "time": "Closed"}], "id": "0771200031", "name": "USPS COLLECTION BOX - BLUE BOX", "address": {"city": "OCEAN", "state": "NJ", "street": "1018 1ST AVE", "postcode": "07712"}}},
{"geometry": {"type": "Point", "coordinates": [-74.0131995502, 40.2167299677]}, "type": "Feature", "properties": {"collection_times": [{"days": "Mon-Sat", "time": "11:00am"}, {"days": "Sun", "time": "Closed"}], "id": "0771200032", "name": "USPS COLLECTION BOX - BLUE BOX", "address": {"city": "OCEAN", "state": "NJ", "street": "301 MAIN ST", "postcode": "07712"}}},
{"geometry": {"type": "Point", "coordinates": [-74.0102965383, 40.2324760698]}, "type": "Feature", "properties": {"collection_times": [{"days": "Mon-Sat", "time": "11:00am"}, {"days": "Sun", "time": "Closed"}], "id": "0771200035", "name": "USPS COLLECTION BOX - BLUE BOX", "address": {"city": "OCEAN", "state": "NJ", "street": "101 GRASSMERE AVE", "postcode": "07712"}}},
{"geometry": {"type": "Point", "coordinates": [-74.0471634846, 40.269467111]}, "type": "Feature", "properties": {"collection_times": [{"days": "Mon-Sat", "time": "11:00am"}, {"days": "Sun", "time": "Closed"}], "id": "0771200037", "name": "USPS COLLECTION BOX - BLUE BOX", "address": {"city": "OCEAN", "state": "NJ", "street": "2137 ALDRIN RD", "postcode": "07712"}}},
{"geometry": {"type": "Point", "coordinates": [-74.0416611745, 40.2449975865]}, "type": "Feature", "properties": {"collection_times": [{"days": "Mon-Sat", "time": "11:00am"}, {"days": "Sun", "time": "Closed"}], "id": "0771200052", "name": "USPS COLLECTION BOX - BLUE BOX", "address": {"city": "OCEAN", "state": "NJ", "street": "1451 RUSTIC DR", "postcode": "07712"}}},
{"geometry": {"type": "Point", "coordinates": [-74.0175215188, 40.2167536675]}, "type": "Feature", "properties": {"collection_times": [{"days": "Mon-Sat", "time": "11:00am"}, {"days": "Sun", "time": "Closed"}], "id": "0771200056", "name": "USPS COLLECTION BOX - BLUE BOX", "address": {"city": "OCEAN", "state": "NJ", "street": "1100 ATLANTIC AVE", "postcode": "07712"}}},
{"geometry": {"type": "Point", "coordinates": [-74.0441102373, 40.2378467035]}, "type": "Feature", "properties": {"collection_times": [{"days": "Mon-Fri", "time": "4:30pm"}, {"days": "Sat", "time": "3:00pm"}, {"days": "Sun", "time": "Closed"}], "id": "0771200067", "name": "USPS COLLECTION BOX - BLUE BOX", "address": {"city": "OCEAN", "state": "NJ", "street": "3430 SUNSET AVE", "postcode": "07712"}}},
{"geometry": {"type": "Point", "coordinates": [-74.0141506186, 40.2242793471]}, "type": "Feature", "properties": {"collection_times": [{"days": "Mon-Sat", "time": "11:00am"}, {"days": "Sun", "time": "Closed"}], "id": "0771200069", "name": "USPS COLLECTION BOX - BLUE BOX", "address": {"city": "OCEAN", "state": "NJ", "street": "1000 3RD AVE", "postcode": "07712"}}},
{"geometry": {"type": "Point", "coordinates": [-74.0514107917, 40.2558754263]}, "type": "Feature", "properties": {"collection_times": [{"days": "Mon-Sat", "time": "11:00am"}, {"days": "Sun", "time": "Closed"}], "id": "0771200077", "name": "USPS COLLECTION BOX - BLUE BOX", "address": {"city": "OCEAN", "state": "NJ", "street": "1 WILLOW DR", "postcode": "07712"}}},
{"geometry": {"type": "Point", "coordinates": [-74.0102302926, 40.2168728411]}, "type": "Feature", "properties": {"collection_times": [{"days": "Mon-Sat", "time": "11:00am"}, {"days": "Sun", "time": "Closed"}], "id": "0771200080", "name": "USPS COLLECTION BOX - BLUE BOX", "address": {"city": "OCEAN", "state": "NJ", "street": "601 BANGS AVE", "postcode": "07712"}}},
{"geometry": {"type": "Point", "coordinates": [-74.0078300688, 40.218142156]}, "type": "Feature", "properties": {"collection_times": [{"days": "Mon-Sat", "time": "11:00am"}, {"days": "Sun", "time": "Closed"}], "id": "0771200081", "name": "USPS COLLECTION BOX - BLUE BOX", "address": {"city": "OCEAN", "state": "NJ", "street": "601 GRAND AVE", "postcode": "07712"}}},
{"geometry": {"type": "Point", "coordinates": [-74.0134242818, 40.2175459447]}, "type": "Feature", "properties": {"collection_times": [{"days": "Mon-Fri", "time": "5:00pm"}, {"days": "Sat", "time": "3:00pm"}, {"days": "Sun", "time": "Closed"}], "id": "0771200082", "name": "USPS COLLECTION BOX - PO LOBBY", "address": {"city": "OCEAN", "state": "NJ", "street": "801 BANGS AVE", "postcode": "07712"}}},
{"geometry": {"type": "Point", "coordinates": [-74.036480152, 40.2359693476]}, "type": "Feature", "properties": {"collection_times": [{"days": "Mon-Fri", "time": "5:00pm"}, {"days": "Sat", "time": "3:00pm"}, {"days": "Sun", "time": "Closed"}], "id": "0771200083", "name": "USPS COLLECTION BOX - PO LOBBY", "address": {"city": "OCEAN", "state": "NJ", "street": "3305 FAIRMONT AVE", "postcode": "07712"}}},
{"geometry": {"type": "Point", "coordinates": [-74.0385420495, 40.4134226561]}, "type": "Feature", "properties": {"collection_times": [{"days": "Mon-Fri", "time": "5:00pm"}, {"days": "Sat", "time": "3:00pm"}, {"days": "Sun", "time": "Closed"}], "id": "0771600002", "name": "USPS COLLECTION BOX - BLUE BOX", "address": {"city": "ATLANTIC HLDS", "state": "NJ", "street": "25 RAILROAD AVE", "postcode": "07716"}}},
{"geometry": {"type": "Point", "coordinates": [-74.0385420495, 40.4134226561]}, "type": "Feature", "properties": {"collection_times": [{"days": "Mon-Fri", "time": "5:00pm"}, {"days": "Sat", "time": "3:00pm"}, {"days": "Sun", "time": "Closed"}], "id": "0771600003", "name": "USPS COLLECTION BOX - BLUE BOX", "address": {"city": "ATLANTIC HLDS", "state": "NJ", "street": "25 RAILROAD AVE", "postcode": "07716"}}},
{"geometry": {"type": "Point", "coordinates": [-74.0393586704, 40.4090687683]}, "type": "Feature", "properties": {"collection_times": [{"days": "Mon-Sat", "time": "11:00am"}, {"days": "Sun", "time": "Closed"}], "id": "0771600010", "name": "USPS COLLECTION BOX - BLUE BOX", "address": {"city": "ATLANTIC HLDS", "state": "NJ", "street": "3 STATE ROUTE 36", "postcode": "07716"}}},
{"geometry": {"type": "Point", "coordinates": [-74.0215739539, 40.3982025564]}, "type": "Feature", "properties": {"collection_times": [{"days": "Mon-Sat", "time": "11:00am"}, {"days": "Sun", "time": "Closed"}], "id": "0771600014", "name": "USPS COLLECTION BOX - BLUE BOX", "address": {"city": "ATLANTIC HLDS", "state": "NJ", "street": "1 VALLEY DR", "postcode": "07716"}}},
{"geometry": {"type": "Point", "coordinates": [-74.0385420495, 40.4134226561]}, "type": "Feature", "properties": {"collection_times": [{"days": "Mon-Fri", "time": "5:00pm"}, {"days": "Sat", "time": "3:00pm"}, {"days": "Sun", "time": "Closed"}], "id": "0771600015", "name": "USPS COLLECTION BOX - PO LOBBY", "address": {"city": "ATLANTIC HLDS", "state": "NJ", "street": "25 RAILROAD AVE", "postcode": "07716"}}},
{"geometry": {"type": "Point", "coordinates": [-74.0222488035, 40.1912008941]}, "type": "Feature", "properties": {"collection_times": [{"days": "Mon-Fri", "time": "4:30pm"}, {"days": "Sat", "time": "12:30pm"}, {"days": "Sun", "time": "Closed"}], "id": "0771700010", "name": "USPS COLLECTION BOX - BLUE BOX", "address": {"city": "AVON BY THE SEA", "state": "NJ", "street": "321 MAIN ST", "postcode": "07717"}}},
{"geometry": {"type": "Point", "coordinates": [-74.0222488035, 40.1912008941]}, "type": "Feature", "properties": {"collection_times": [{"days": "Mon-Fri", "time": "4:30pm"}, {"days": "Sat", "time": "12:30pm"}, {"days": "Sun", "time": "Closed"}], "id": "0771700016", "name": "USPS COLLECTION BOX - BLUE BOX", "address": {"city": "AVON BY THE SEA", "state": "NJ", "street": "321 MAIN ST", "postcode": "07717"}}},
{"geometry": {"type": "Point", "coordinates": [-74.0222488035, 40.1912008941]}, "type": "Feature", "properties": {"collection_times": [{"days": "Mon-Fri", "time": "4:30pm"}, {"days": "Sat", "time": "12:30pm"}, {"days": "Sun", "time": "Closed"}], "id": "0771700017", "name": "USPS COLLECTION BOX - PO LOBBY", "address": {"city": "AVON BY THE SEA", "state": "NJ", "street": "321 MAIN ST", "postcode": "07717"}}},
{"geometry": {"type": "Point", "coordinates": [-74.0831670365, 40.4188037984]}, "type": "Feature", "properties": {"collection_times": [{"days": "Mon-Fri", "time": "4:30pm"}, {"days": "Sat", "time": "3:00pm"}, {"days": "Sun", "time": "Closed"}], "id": "0771800012", "name": "USPS COLLECTION BOX - BLUE BOX", "address": {"city": "BELFORD", "state": "NJ", "street": "669 STATE ROUTE 36", "postcode": "07718"}}},
{"geometry": {"type": "Point", "coordinates": [-74.0831670365, 40.4188037984]}, "type": "Feature", "properties": {"collection_times": [{"days": "Mon-Fri", "time": "4:30pm"}, {"days": "Sat", "time": "3:00pm"}, {"days": "Sun", "time": "Closed"}], "id": "0771800015", "name": "USPS COLLECTION BOX - PO LOBBY", "address": {"city": "BELFORD", "state": "NJ", "street": "669 HIGHWAY 36", "postcode": "07718"}}},
{"geometry": {"type": "Point", "coordinates": [-74.0273315547, 40.1715624849]}, "type": "Feature", "properties": {"collection_times": [{"days": "Mon-Sat", "time": "11:00am"}, {"days": "Sun", "time": "Closed"}], "id": "0771900010", "name": "USPS COLLECTION BOX - BLUE BOX", "address": {"city": "WALL TOWNSHIP", "state": "NJ", "street": "1732 MAIN ST", "postcode": "07719"}}},
{"geometry": {"type": "Point", "coordinates": [-74.0259218926, 40.180722799]}, "type": "Feature", "properties": {"collection_times": [{"days": "Mon-Sat", "time": "11:00am"}, {"days": "Sun", "time": "Closed"}], "id": "0771900012", "name": "USPS COLLECTION BOX - BLUE BOX", "address": {"city": "WALL TOWNSHIP", "state": "NJ", "street": "831 BELMAR PLZ", "postcode": "07719"}}},
{"geometry": {"type": "Point", "coordinates": [-74.0480332166, 40.1669671118]}, "type": "Feature", "properties": {"collection_times": [{"days": "Mon-Sat", "time": "11:00am"}, {"days": "Sun", "time": "Closed"}], "id": "0771900016", "name": "USPS COLLECTION BOX - BLUE BOX", "address": {"city": "WALL TOWNSHIP", "state": "NJ", "street": "1800 STATE ROUTE 35", "postcode": "07719"}}},
{"geometry": {"type": "Point", "coordinates": [-74.0243051383, 40.1829928963]}, "type": "Feature", "properties": {"collection_times": [{"days": "Mon-Fri", "time": "4:00pm"}, {"days": "Sat", "time": "3:00pm"}, {"days": "Sun", "time": "Closed"}], "id": "0771900019", "name": "USPS COLLECTION BOX - BLUE BOX", "address": {"city": "WALL TOWNSHIP", "state": "NJ", "street": "601 MAIN ST", "postcode": "07719"}}},
{"geometry": {"type": "Point", "coordinates": [-74.0677518866, 40.1527314878]}, "type": "Feature", "properties": {"collection_times": [{"days": "Mon-Sat", "time": "3:00pm"}, {"days": "Sun", "time": "Closed"}], "id": "0771900020", "name": "USPS COLLECTION BOX - BLUE BOX", "address": {"city": "WALL TOWNSHIP", "state": "NJ", "street": "2700 ALLAIRE RD", "postcode": "07719"}}},
{"geometry": {"type": "Point", "coordinates": [-74.0530948157, 40.1581102381]}, "type": "Feature", "properties": {"collection_times": [{"days": "Mon-Sat", "time": "11:00am"}, {"days": "Sun", "time": "Closed"}], "id": "0771900021", "name": "USPS COLLECTION BOX - BLUE BOX", "address": {"city": "WALL TOWNSHIP", "state": "NJ", "street": "1933 STATE ROUTE 35", "postcode": "07719"}}},
{"geometry": {"type": "Point", "coordinates": [-74.0565691, 40.1723087403]}, "type": "Feature", "properties": {"collection_times": [{"days": "Mon-Fri", "time": "4:00pm"}, {"days": "Sat", "time": "3:00pm"}, {"days": "Sun", "time": "Closed"}], "id": "0771900022", "name": "USPS COLLECTION BOX - BLUE BOX", "address": {"city": "WALL TOWNSHIP", "state": "NJ", "street": "1540 STATE ROUTE 138", "postcode": "07719"}}},
{"geometry": {"type": "Point", "coordinates": [-74.0253106535, 40.1801928324]}, "type": "Feature", "properties": {"collection_times": [{"days": "Mon-Fri", "time": "4:00pm"}, {"days": "Sat", "time": "3:00pm"}, {"days": "Sun", "time": "Closed"}], "id": "0771900023", "name": "USPS COLLECTION BOX - BLUE BOX", "address": {"city": "WALL TOWNSHIP", "state": "NJ", "street": "900 MAIN ST", "postcode": "07719"}}},
{"geometry": {"type": "Point", "coordinates": [-74.0266176775, 40.1763642125]}, "type": "Feature", "properties": {"collection_times": [{"days": "Mon-Fri", "time": "5:00pm"}, {"days": "Sat", "time": "3:00pm"}, {"days": "Sun", "time": "Closed"}], "id": "0771900025", "name": "USPS COLLECTION BOX - BLUE BOX", "address": {"city": "WALL TOWNSHIP", "state": "NJ", "street": "1300 MAIN ST", "postcode": "07719"}}},
{"geometry": {"type": "Point", "coordinates": [-74.0630647888, 40.1762204562]}, "type": "Feature", "properties": {"collection_times": [{"days": "Mon-Fri", "time": "5:00pm"}, {"days": "Sat", "time": "3:00pm"}, {"days": "Sun", "time": "Closed"}], "id": "0771900026", "name": "USPS COLLECTION BOX - BLUE BOX", "address": {"city": "WALL TOWNSHIP", "state": "NJ", "street": "2510 BELMAR BLVD", "postcode": "07719"}}},
{"geometry": {"type": "Point", "coordinates": [-74.0266176775, 40.1763642125]}, "type": "Feature", "properties": {"collection_times": [{"days": "Mon-Fri", "time": "5:00pm"}, {"days": "Sat", "time": "3:00pm"}, {"days": "Sun", "time": "Closed"}], "id": "0771900027", "name": "USPS COLLECTION BOX - PO LOBBY", "address": {"city": "WALL TOWNSHIP", "state": "NJ", "street": "1300 MAIN ST", "postcode": "07719"}}},
{"geometry": {"type": "Point", "coordinates": [-74.0630647888, 40.1762204562]}, "type": "Feature", "properties": {"collection_times": [{"days": "Mon-Fri", "time": "4:30pm"}, {"days": "Sat", "time": "3:00pm"}, {"days": "Sun", "time": "Closed"}], "id": "0771900028", "name": "USPS COLLECTION BOX - PO LOBBY", "address": {"city": "WALL TOWNSHIP", "state": "NJ", "street": "2510 BELMAR BLVD", "postcode": "07719"}}},
{"geometry": {"type": "Point", "coordinates": [-74.0180851401, 40.202779068]}, "type": "Feature", "properties": {"collection_times": [{"days": "Mon-Fri", "time": "4:30pm"}, {"days": "Sat", "time": "12:30pm"}, {"days": "Sun", "time": "Closed"}], "id": "0772000002", "name": "USPS COLLECTION BOX - BLUE BOX", "address": {"city": "BRADLEY BEACH", "state": "NJ", "street": "515 MAIN ST", "postcode": "07720"}}},
{"geometry": {"type": "Point", "coordinates": [-74.0192039761, 40.1994810753]}, "type": "Feature", "properties": {"collection_times": [{"days": "Mon-Sat", "time": "9:30am"}, {"days": "Sun", "time": "Closed"}], "id": "0772000012", "name": "USPS COLLECTION BOX - BLUE BOX", "address": {"city": "BRADLEY BEACH", "state": "NJ", "street": "128 MAIN ST", "postcode": "07720"}}},
{"geometry": {"type": "Point", "coordinates": [-74.0171103819, 40.2029565118]}, "type": "Feature", "properties": {"collection_times": [{"days": "Mon-Sat", "time": "10:00am"}, {"days": "Sun", "time": "Closed"}], "id": "0772000023", "name": "USPS COLLECTION BOX - BLUE BOX", "address": {"city": "BRADLEY BEACH", "state": "NJ", "street": "621 BRINLEY AVE", "postcode": "07720"}}},
{"geometry": {"type": "Point", "coordinates": [-74.0180851401, 40.202779068]}, "type": "Feature", "properties": {"collection_times": [{"days": "Mon-Fri", "time": "4:30pm"}, {"days": "Sat", "time": "12:30pm"}, {"days": "Sun", "time": "Closed"}], "id": "0772000024", "name": "USPS COLLECTION BOX - PO LOBBY", "address": {"city": "BRADLEY BEACH", "state": "NJ", "street": "515 MAIN ST", "postcode": "07720"}}},
{"geometry": {"type": "Point", "coordinates": [-74.2239945264, 40.4382340374]}, "type": "Feature", "properties": {"collection_times": [{"days": "Mon-Fri", "time": "4:30pm"}, {"days": "Sat", "time": "12:00pm"}, {"days": "Sun", "time": "Closed"}], "id": "0772100004", "name": "USPS COLLECTION BOX - BLUE BOX", "address": {"city": "CLIFFWOOD", "state": "NJ", "street": "349 STATE ROUTE 35", "postcode": "07721"}}},
{"geometry": {"type": "Point", "coordinates": [-74.2239945264, 40.4382340374]}, "type": "Feature", "properties": {"collection_times": [{"days": "Mon-Fri", "time": "4:30pm"}, {"days": "Sat", "time": "12:00pm"}, {"days": "Sun", "time": "Closed"}], "id": "0772100005", "name": "USPS COLLECTION BOX - PO LOBBY", "address": {"city": "CLIFFWOOD", "state": "NJ", "street": "349 STATE ROUTE 35", "postcode": "07721"}}},
{"geometry": {"type": "Point", "coordinates": [-74.1947515679, 40.3390898198]}, "type": "Feature", "properties": {"collection_times": [{"days": "Mon-Fri", "time": "5:00pm"}, {"days": "Sat", "time": "2:00pm"}, {"days": "Sun", "time": "Closed"}], "id": "0772200001", "name": "USPS COLLECTION BOX - BLUE BOX", "address": {"city": "COLTS NECK", "state": "NJ", "street": "420 STATE ROUTE 34 STE 307", "postcode": "07722"}}},
{"geometry": {"type": "Point", "coordinates": [-74.1947515679, 40.3390898198]}, "type": "Feature", "properties": {"collection_times": [{"days": "Mon-Fri", "time": "5:00pm"}, {"days": "Sat", "time": "2:00pm"}, {"days": "Sun", "time": "Closed"}], "id": "0772200003", "name": "USPS COLLECTION BOX - BLUE BOX", "address": {"city": "COLTS NECK", "state": "NJ", "street": "420 STATE ROUTE 34 STE 307", "postcode": "07722"}}},
{"geometry": {"type": "Point", "coordinates": [-74.1815675278, 40.2979005732]}, "type": "Feature", "properties": {"collection_times": [{"days": "Mon-Fri", "time": "5:00pm"}, {"days": "Sat", "time": "2:00pm"}, {"days": "Sun", "time": "Closed"}], "id": "0772200004", "name": "USPS COLLECTION BOX - EXPRESS", "address": {"city": "COLTS NECK", "state": "NJ", "street": "420 STATE ROUTE 34 STE 307", "postcode": "07722"}}},
{"geometry": {"type": "Point", "coordinates": [-74.1947515679, 40.3390898198]}, "type": "Feature", "properties": {"collection_times": [{"days": "Mon-Fri", "time": "5:00pm"}, {"days": "Sat", "time": "2:00pm"}, {"days": "Sun", "time": "Closed"}], "id": "0772200007", "name": "USPS COLLECTION BOX - PO LOBBY", "address": {"city": "COLTS NECK", "state": "NJ", "street": "420 ROUTE 34 STE 307", "postcode": "07722"}}},
{"geometry": {"type": "Point", "coordinates": [-74.0004117332, 40.2552894335]}, "type": "Feature", "properties": {"collection_times": [{"days": "Mon-Fri", "time": "4:45pm"}, {"days": "Sat", "time": "12:30pm"}, {"days": "Sun", "time": "Closed"}], "id": "0772300005", "name": "USPS COLLECTION BOX - BLUE BOX", "address": {"city": "DEAL", "state": "NJ", "street": "92 NORWOOD AVE", "postcode": "07723"}}},
{"geometry": {"type": "Point", "coordinates": [-74.0004117332, 40.2552894335]}, "type": "Feature", "properties": {"collection_times": [{"days": "Mon-Fri", "time": "4:45pm"}, {"days": "Sat", "time": "12:30pm"}, {"days": "Sun", "time": "Closed"}], "id": "0772300006", "name": "USPS COLLECTION BOX - PO LOBBY", "address": {"city": "DEAL", "state": "NJ", "street": "92 NORWOOD AVE", "postcode": "07723"}}},
{"geometry": {"type": "Point", "coordinates": [-74.0558714317, 40.2937714292]}, "type": "Feature", "properties": {"collection_times": [{"days": "Mon-Fri", "time": "5:00pm"}, {"days": "Sat", "time": "3:00pm"}, {"days": "Sun", "time": "Closed"}], "id": "0772400001", "name": "USPS COLLECTION BOX - BLUE BOX", "address": {"city": "EATONTOWN", "state": "NJ", "street": "409 SOUTH ST", "postcode": "07724"}}},
{"geometry": {"type": "Point", "coordinates": [-74.0522245889, 40.2917545044]}, "type": "Feature", "properties": {"collection_times": [{"days": "Mon-Sat", "time": "10:00am"}, {"days": "Sun", "time": "Closed"}], "id": "0772400005", "name": "USPS COLLECTION BOX - BLUE BOX", "address": {"city": "EATONTOWN", "state": "NJ", "street": "180 STATE ROUTE 35", "postcode": "07724"}}},
{"geometry": {"type": "Point", "coordinates": [-74.0814479711, 40.3303032273]}, "type": "Feature", "properties": {"collection_times": [{"days": "Mon-Sat", "time": "10:00am"}, {"days": "Sun", "time": "Closed"}], "id": "0772400010", "name": "USPS COLLECTION BOX - BLUE BOX", "address": {"city": "EATONTOWN", "state": "NJ", "street": "106 APPLE ST", "postcode": "07724"}}},
{"geometry": {"type": "Point", "coordinates": [-74.0869037779, 40.3170020367]}, "type": "Feature", "properties": {"collection_times": [{"days": "Mon-Sat", "time": "11:00am"}, {"days": "Sun", "time": "Closed"}], "id": "0772400011", "name": "USPS COLLECTION BOX - BLUE BOX", "address": {"city": "EATONTOWN", "state": "NJ", "street": "892 SYCAMORE AVE", "postcode": "07724"}}},
{"geometry": {"type": "Point", "coordinates": [-74.0784219606, 40.2913493036]}, "type": "Feature", "properties": {"collection_times": [{"days": "Mon-Sat", "time": "11:00am"}, {"days": "Sun", "time": "Closed"}], "id": "0772400016", "name": "USPS COLLECTION BOX - BLUE BOX", "address": {"city": "EATONTOWN", "state": "NJ", "street": "615 HOPE RD", "postcode": "07724"}}},
{"geometry": {"type": "Point", "coordinates": [-74.078401397, 40.2914269134]}, "type": "Feature", "properties": {"collection_times": [{"days": "Mon-Sat", "time": "11:00am"}, {"days": "Sun", "time": "Closed"}], "id": "0772400017", "name": "USPS COLLECTION BOX - BLUE BOX", "address": {"city": "EATONTOWN", "state": "NJ", "street": "613 HOPE RD", "postcode": "07724"}}},
{"geometry": {"type": "Point", "coordinates": [-74.0701559083, 40.3100273473]}, "type": "Feature", "properties": {"collection_times": [{"days": "Mon-Sat", "time": "11:00am"}, {"days": "Sun", "time": "Closed"}], "id": "0772400018", "name": "USPS COLLECTION BOX - BLUE BOX", "address": {"city": "EATONTOWN", "state": "NJ", "street": "1 CHURCHHILL DOWNS DR", "postcode": "07724"}}},
{"geometry": {"type": "Point", "coordinates": [-74.0586265733, 40.3052224659]}, "type": "Feature", "properties": {"collection_times": [{"days": "Mon-Sat", "time": "11:00am"}, {"days": "Sun", "time": "Closed"}], "id": "0772400023", "name": "USPS COLLECTION BOX - BLUE BOX", "address": {"city": "EATONTOWN", "state": "NJ", "street": "33 BROAD ST", "postcode": "07724"}}},
{"geometry": {"type": "Point", "coordinates": [-74.0461461987, 40.2762807227]}, "type": "Feature", "properties": {"collection_times": [{"days": "Mon-Sat", "time": "11:00am"}, {"days": "Sun", "time": "Closed"}], "id": "0772400028", "name": "USPS COLLECTION BOX - BLUE BOX", "address": {"city": "EATONTOWN", "state": "NJ", "street": "2 INDUSTRIAL WAY W", "postcode": "07724"}}},
{"geometry": {"type": "Point", "coordinates": [-74.0460929491, 40.2761788813]}, "type": "Feature", "properties": {"collection_times": [{"days": "Mon-Sat", "time": "11:00am"}, {"days": "Sun", "time": "Closed"}], "id": "0772400029", "name": "USPS COLLECTION BOX - BLUE BOX", "address": {"city": "EATONTOWN", "state": "NJ", "street": "1 INDUSTRIAL WAY W", "postcode": "07724"}}},
{"geometry": {"type": "Point", "coordinates": [-74.053545518, 40.2939473495]}, "type": "Feature", "properties": {"collection_times": [{"days": "Mon-Sat", "time": "10:00am"}, {"days": "Sun", "time": "Closed"}], "id": "0772400031", "name": "USPS COLLECTION BOX - BLUE BOX", "address": {"city": "EATONTOWN", "state": "NJ", "street": "125 WYCKOFF RD", "postcode": "07724"}}},
{"geometry": {"type": "Point", "coordinates": [-74.0712726117, 40.3168546983]}, "type": "Feature", "properties": {"collection_times": [{"days": "Mon-Sat", "time": "11:00am"}, {"days": "Sun", "time": "Closed"}], "id": "0772400036", "name": "USPS COLLECTION BOX - BLUE BOX", "address": {"city": "EATONTOWN", "state": "NJ", "street": "17 BARKER AVE", "postcode": "07724"}}},
{"geometry": {"type": "Point", "coordinates": [-74.0558714317, 40.2937714292]}, "type": "Feature", "properties": {"collection_times": [{"days": "Mon-Fri", "time": "6:15pm"}, {"days": "Sat", "time": "4:30pm"}, {"days": "Sun", "time": "Closed"}], "id": "0772400039", "name": "USPS COLLECTION BOX - PO LOBBY", "address": {"city": "EATONTOWN", "state": "NJ", "street": "409 SOUTH ST", "postcode": "07724"}}},
{"geometry": {"type": "Point", "coordinates": [-74.3297061454, 40.3020109484]}, "type": "Feature", "properties": {"collection_times": [{"days": "Mon-Fri", "time": "5:00pm"}, {"days": "Sat", "time": "3:00pm"}, {"days": "Sun", "time": "Closed"}], "id": "0772600002", "name": "USPS COLLECTION BOX - EXPRESS", "address": {"city": "MANALAPAN", "state": "NJ", "street": "9 TAYLORS MILLS RD", "postcode": "07726"}}},
{"geometry": {"type": "Point", "coordinates": [-74.3430822571, 40.2822422628]}, "type": "Feature", "properties": {"collection_times": [{"days": "Mon-Fri", "time": "5:00pm"}, {"days": "Sat", "time": "3:00pm"}, {"days": "Sun", "time": "Closed"}], "id": "0772600004", "name": "USPS COLLECTION BOX - BLUE BOX", "address": {"city": "MANALAPAN", "state": "NJ", "street": "9 TAYLORS MILLS RD", "postcode": "07726"}}},
{"geometry": {"type": "Point", "coordinates": [-74.3430822571, 40.2822422628]}, "type": "Feature", "properties": {"collection_times": [{"days": "Mon-Fri", "time": "5:00pm"}, {"days": "Sat", "time": "3:00pm"}, {"days": "Sun", "time": "Closed"}], "id": "0772600005", "name": "USPS COLLECTION BOX - BLUE BOX", "address": {"city": "MANALAPAN", "state": "NJ", "street": "9 TAYLORS MILLS RD", "postcode": "07726"}}},
{"geometry": {"type": "Point", "coordinates": [-74.3051679876, 40.2843559182]}, "type": "Feature", "properties": {"collection_times": [{"days": "Mon-Sat", "time": "11:00am"}, {"days": "Sun", "time": "Closed"}], "id": "0772600009", "name": "USPS COLLECTION BOX - BLUE BOX", "address": {"city": "MANALAPAN", "state": "NJ", "street": "1 MADISON CT", "postcode": "07726"}}},
{"geometry": {"type": "Point", "coordinates": [-74.3165957896, 40.332330426]}, "type": "Feature", "properties": {"collection_times": [{"days": "Mon-Sat", "time": "11:00am"}, {"days": "Sun", "time": "Closed"}], "id": "0772600010", "name": "USPS COLLECTION BOX - BLUE BOX", "address": {"city": "MANALAPAN", "state": "NJ", "street": "1 AMBERLY DR", "postcode": "07726"}}},
{"geometry": {"type": "Point", "coordinates": [-74.3227303084, 40.3346235749]}, "type": "Feature", "properties": {"collection_times": [{"days": "Mon-Sat", "time": "11:00am"}, {"days": "Sun", "time": "Closed"}], "id": "0772600011", "name": "USPS COLLECTION BOX - BLUE BOX", "address": {"city": "MANALAPAN", "state": "NJ", "street": "322 UNION HILL RD", "postcode": "07726"}}},
{"geometry": {"type": "Point", "coordinates": [-74.3019056332, 40.2981879818]}, "type": "Feature", "properties": {"collection_times": [{"days": "Mon-Sat", "time": "11:00am"}, {"days": "Sun", "time": "Closed"}], "id": "0772600013", "name": "USPS COLLECTION BOX - BLUE BOX", "address": {"city": "MANALAPAN", "state": "NJ", "street": "120 US HIGHWAY 9", "postcode": "07726"}}},
{"geometry": {"type": "Point", "coordinates": [-74.3558518645, 40.2459547043]}, "type": "Feature", "properties": {"collection_times": [{"days": "Mon-Sat", "time": "11:00am"}, {"days": "Sun", "time": "Closed"}], "id": "0772600014", "name": "USPS COLLECTION BOX - BLUE BOX", "address": {"city": "MANALAPAN", "state": "NJ", "street": "1 IVY LN", "postcode": "07726"}}},
{"geometry": {"type": "Point", "coordinates": [-74.3107920018, 40.3264216759]}, "type": "Feature", "properties": {"collection_times": [{"days": "Mon-Sat", "time": "11:00am"}, {"days": "Sun", "time": "Closed"}], "id": "0772600015", "name": "USPS COLLECTION BOX - BLUE BOX", "address": {"city": "MANALAPAN", "state": "NJ", "street": "1 COVERED BRIDGE BLVD", "postcode": "07726"}}},
{"geometry": {"type": "Point", "coordinates": [-74.3115465024, 40.3272074237]}, "type": "Feature", "properties": {"collection_times": [{"days": "Mon-Sat", "time": "11:00am"}, {"days": "Sun", "time": "Closed"}], "id": "0772600016", "name": "USPS COLLECTION BOX - BLUE BOX", "address": {"city": "MANALAPAN", "state": "NJ", "street": "185 CROSS SLOPE CT", "postcode": "07726"}}},
{"geometry": {"type": "Point", "coordinates": [-74.3169975773, 40.3275268227]}, "type": "Feature", "properties": {"collection_times": [{"days": "Mon-Sat", "time": "11:00am"}, {"days": "Sun", "time": "Closed"}], "id": "0772600017", "name": "USPS COLLECTION BOX - BLUE BOX", "address": {"city": "MANALAPAN", "state": "NJ", "street": "120 AMBERLY DR", "postcode": "07726"}}},
{"geometry": {"type": "Point", "coordinates": [-74.3177783302, 40.3351758353]}, "type": "Feature", "properties": {"collection_times": [{"days": "Mon-Sat", "time": "11:00am"}, {"days": "Sun", "time": "Closed"}], "id": "0772600018", "name": "USPS COLLECTION BOX - BLUE BOX", "address": {"city": "MANALAPAN", "state": "NJ", "street": "1 WILD TURKEY WAY", "postcode": "07726"}}},
{"geometry": {"type": "Point", "coordinates": [-74.3200283182, 40.3372105247]}, "type": "Feature", "properties": {"collection_times": [{"days": "Mon-Sat", "time": "11:00am"}, {"days": "Sun", "time": "Closed"}], "id": "0772600019", "name": "USPS COLLECTION BOX - BLUE BOX", "address": {"city": "MANALAPAN", "state": "NJ", "street": "4 BRIDGE PLAZA DR", "postcode": "07726"}}},
{"geometry": {"type": "Point", "coordinates": [-74.3191056102, 40.3107631112]}, "type": "Feature", "properties": {"collection_times": [{"days": "Mon-Sat", "time": "11:00am"}, {"days": "Sun", "time": "Closed"}], "id": "0772600020", "name": "USPS COLLECTION BOX - BLUE BOX", "address": {"city": "MANALAPAN", "state": "NJ", "street": "300 GORDONS CORNER RD", "postcode": "07726"}}},
{"geometry": {"type": "Point", "coordinates": [-74.3078308283, 40.3148360389]}, "type": "Feature", "properties": {"collection_times": [{"days": "Mon-Sat", "time": "11:00am"}, {"days": "Sun", "time": "Closed"}], "id": "0772600021", "name": "USPS COLLECTION BOX - BLUE BOX", "address": {"city": "MANALAPAN", "state": "NJ", "street": "700 TENNENT RD", "postcode": "07726"}}},
{"geometry": {"type": "Point", "coordinates": [-74.32374126, 40.3081528644]}, "type": "Feature", "properties": {"collection_times": [{"days": "Mon-Sat", "time": "11:00am"}, {"days": "Sun", "time": "Closed"}], "id": "0772600022", "name": "USPS COLLECTION BOX - BLUE BOX", "address": {"city": "MANALAPAN", "state": "NJ", "street": "225 GORDONS CORNER RD", "postcode": "07726"}}},
{"geometry": {"type": "Point", "coordinates": [-74.3583573716, 40.2956519933]}, "type": "Feature", "properties": {"collection_times": [{"days": "Mon-Sat", "time": "11:00am"}, {"days": "Sun", "time": "Closed"}], "id": "0772600023", "name": "USPS COLLECTION BOX - BLUE BOX", "address": {"city": "MANALAPAN", "state": "NJ", "street": "15 MAIN ST", "postcode": "07726"}}},
{"geometry": {"type": "Point", "coordinates": [-74.3040666528, 40.3114433126]}, "type": "Feature", "properties": {"collection_times": [{"days": "Mon-Sat", "time": "11:00am"}, {"days": "Sun", "time": "Closed"}], "id": "0772600024", "name": "USPS COLLECTION BOX - BLUE BOX", "address": {"city": "MANALAPAN", "state": "NJ", "street": "356 US HIGHWAY 9", "postcode": "07726"}}},
{"geometry": {"type": "Point", "coordinates": [-74.3053194064, 40.3225974326]}, "type": "Feature", "properties": {"collection_times": [{"days": "Mon-Sat", "time": "11:00am"}, {"days": "Sun", "time": "Closed"}], "id": "0772600025", "name": "USPS COLLECTION BOX - BLUE BOX", "address": {"city": "MANALAPAN", "state": "NJ", "street": "520 US HIGHWAY 9", "postcode": "07726"}}},
{"geometry": {"type": "Point", "coordinates": [-74.3032161054, 40.3006523609]}, "type": "Feature", "properties": {"collection_times": [{"days": "Mon-Sat", "time": "11:00am"}, {"days": "Sun", "time": "Closed"}], "id": "0772600026", "name": "USPS COLLECTION BOX - BLUE BOX", "address": {"city": "MANALAPAN", "state": "NJ", "street": "198 US HIGHWAY 9", "postcode": "07726"}}},
{"geometry": {"type": "Point", "coordinates": [-74.3030631779, 40.2850389667]}, "type": "Feature", "properties": {"collection_times": [{"days": "Mon-Sat", "time": "11:00am"}, {"days": "Sun", "time": "Closed"}], "id": "0772600027", "name": "USPS COLLECTION BOX - BLUE BOX", "address": {"city": "MANALAPAN", "state": "NJ", "street": "200 CRAIG RD", "postcode": "07726"}}},
{"geometry": {"type": "Point", "coordinates": [-74.303052857, 40.2997888008]}, "type": "Feature", "properties": {"collection_times": [{"days": "Mon-Sat", "time": "11:00am"}, {"days": "Sun", "time": "Closed"}], "id": "0772600029", "name": "USPS COLLECTION BOX - BLUE BOX", "address": {"city": "MANALAPAN", "state": "NJ", "street": "193 US HIGHWAY 9", "postcode": "07726"}}},
{"geometry": {"type": "Point", "coordinates": [-74.3430822571, 40.2822422628]}, "type": "Feature", "properties": {"collection_times": [{"days": "Mon-Sat", "time": "11:00am"}, {"days": "Sun", "time": "Closed"}], "id": "0772600030", "name": "USPS COLLECTION BOX - BLUE BOX", "address": {"city": "MANALAPAN", "state": "NJ", "street": "224 TAYLORS MILLS RD", "postcode": "07726"}}},
{"geometry": {"type": "Point", "coordinates": [-74.3044014302, 40.3133857312]}, "type": "Feature", "properties": {"collection_times": [{"days": "Mon-Sat", "time": "11:00am"}, {"days": "Sun", "time": "Closed"}], "id": "0772600031", "name": "USPS COLLECTION BOX - BLUE BOX", "address": {"city": "MANALAPAN", "state": "NJ", "street": "357 US HIGHWAY 9", "postcode": "07726"}}},
{"geometry": {"type": "Point", "coordinates": [-74.3047648895, 40.2922690875]}, "type": "Feature", "properties": {"collection_times": [{"days": "Mon-Sat", "time": "11:00am"}, {"days": "Sun", "time": "Closed"}], "id": "0772600032", "name": "USPS COLLECTION BOX - BLUE BOX", "address": {"city": "MANALAPAN", "state": "NJ", "street": "125 SYMMES RD", "postcode": "07726"}}},
{"geometry": {"type": "Point", "coordinates": [-74.3242173993, 40.3079381349]}, "type": "Feature", "properties": {"collection_times": [{"days": "Mon-Sat", "time": "11:00am"}, {"days": "Sun", "time": "Closed"}], "id": "0772600037", "name": "USPS COLLECTION BOX - BLUE BOX", "address": {"city": "MANALAPAN", "state": "NJ", "street": "215 GORDONS CORNER RD", "postcode": "07726"}}},
{"geometry": {"type": "Point", "coordinates": [-74.3063267342, 40.2848584027]}, "type": "Feature", "properties": {"collection_times": [{"days": "Mon-Sat", "time": "11:00am"}, {"days": "Sun", "time": "Closed"}], "id": "0772600038", "name": "USPS COLLECTION BOX - BLUE BOX", "address": {"city": "MANALAPAN", "state": "NJ", "street": "500 CRAIG RD", "postcode": "07726"}}},
{"geometry": {"type": "Point", "coordinates": [-74.3039676359, 40.3040521344]}, "type": "Feature", "properties": {"collection_times": [{"days": "Mon-Sat", "time": "11:00am"}, {"days": "Sun", "time": "Closed"}], "id": "0772600039", "name": "USPS COLLECTION BOX - BLUE BOX", "address": {"city": "MANALAPAN", "state": "NJ", "street": "55 STATE ROUTE 9 S", "postcode": "07726"}}},
{"geometry": {"type": "Point", "coordinates": [-74.3200283182, 40.3372105247]}, "type": "Feature", "properties": {"collection_times": [{"days": "Mon-Sat", "time": "11:00am"}, {"days": "Sun", "time": "Closed"}], "id": "0772600040", "name": "USPS COLLECTION BOX - BLUE BOX", "address": {"city": "MANALAPAN", "state": "NJ", "street": "4 BRIDGE PLAZA DR", "postcode": "07726"}}},
{"geometry": {"type": "Point", "coordinates": [-74.3430822571, 40.2822422628]}, "type": "Feature", "properties": {"collection_times": [{"days": "Mon-Fri", "time": "5:00pm"}, {"days": "Sat", "time": "3:00pm"}, {"days": "Sun", "time": "Closed"}], "id": "0772600041", "name": "USPS COLLECTION BOX - APC", "address": {"city": "MANALAPAN", "state": "NJ", "street": "9 TAYLORS MILLS RD", "postcode": "07726"}}},
{"geometry": {"type": "Point", "coordinates": [-74.3430822571, 40.2822422628]}, "type": "Feature", "properties": {"collection_times": [{"days": "Mon-Fri", "time": "5:00pm"}, {"days": "Sat", "time": "3:00pm"}, {"days": "Sun", "time": "Closed"}], "id": "0772600042", "name": "USPS COLLECTION BOX - PO LOBBY", "address": {"city": "MANALAPAN", "state": "NJ", "street": "9 TAYLORS MILLS RD", "postcode": "07726"}}},
{"geometry": {"type": "Point", "coordinates": [-74.1670713028, 40.194906514]}, "type": "Feature", "properties": {"collection_times": [{"days": "Mon-Fri", "time": "5:00pm"}, {"days": "Sat", "time": "4:00pm"}, {"days": "Sun", "time": "Closed"}], "id": "0772700002", "name": "USPS COLLECTION BOX - BLUE BOX", "address": {"city": "WALL TOWNSHIP", "state": "NJ", "street": "66 MAIN ST", "postcode": "07727"}}},
{"geometry": {"type": "Point", "coordinates": [-74.1670906513, 40.1948260348]}, "type": "Feature", "properties": {"collection_times": [{"days": "Mon-Fri", "time": "5:00pm"}, {"days": "Sat", "time": "3:00pm"}, {"days": "Sun", "time": "Closed"}], "id": "0772700003", "name": "USPS COLLECTION BOX - BLUE BOX", "address": {"city": "WALL TOWNSHIP", "state": "NJ", "street": "64 MAIN ST", "postcode": "07727"}}},
{"geometry": {"type": "Point", "coordinates": [-74.1703982046, 40.1987404461]}, "type": "Feature", "properties": {"collection_times": [{"days": "Mon-Sat", "time": "11:00am"}, {"days": "Sun", "time": "Closed"}], "id": "0772700004", "name": "USPS COLLECTION BOX - BLUE BOX", "address": {"city": "WALL TOWNSHIP", "state": "NJ", "street": "4 MAIN ST", "postcode": "07727"}}},
{"geometry": {"type": "Point", "coordinates": [-74.1740097655, 40.1993998216]}, "type": "Feature", "properties": {"collection_times": [{"days": "Mon-Sat", "time": "11:00am"}, {"days": "Sun", "time": "Closed"}], "id": "0772700006", "name": "USPS COLLECTION BOX - BLUE BOX", "address": {"city": "WALL TOWNSHIP", "state": "NJ", "street": "35 W MAIN ST", "postcode": "07727"}}},
{"geometry": {"type": "Point", "coordinates": [-74.1656935768, 40.1922140614]}, "type": "Feature", "properties": {"collection_times": [{"days": "Mon-Sat", "time": "11:00am"}, {"days": "Sun", "time": "Closed"}], "id": "0772700008", "name": "USPS COLLECTION BOX - BLUE BOX", "address": {"city": "WALL TOWNSHIP", "state": "NJ", "street": "6 BOUD AVE", "postcode": "07727"}}},
{"geometry": {"type": "Point", "coordinates": [-74.1160530652, 40.1887820076]}, "type": "Feature", "properties": {"collection_times": [{"days": "Mon-Sat", "time": "11:00am"}, {"days": "Sun", "time": "Closed"}], "id": "0772700009", "name": "USPS COLLECTION BOX - BLUE BOX", "address": {"city": "WALL TOWNSHIP", "state": "NJ", "street": "1725 STATE ROUTE 34", "postcode": "07727"}}},
{"geometry": {"type": "Point", "coordinates": [-74.1160530652, 40.1887820076]}, "type": "Feature", "properties": {"collection_times": [{"days": "Mon-Sat", "time": "11:00am"}, {"days": "Sun", "time": "Closed"}], "id": "0772700010", "name": "USPS COLLECTION BOX - BLUE BOX", "address": {"city": "WALL TOWNSHIP", "state": "NJ", "street": "1725 STATE ROUTE 34", "postcode": "07727"}}},
{"geometry": {"type": "Point", "coordinates": [-74.165869023, 40.1995035786]}, "type": "Feature", "properties": {"collection_times": [{"days": "Mon-Fri", "time": "5:00pm"}, {"days": "Sat", "time": "3:00pm"}, {"days": "Sun", "time": "Closed"}], "id": "0772700012", "name": "USPS COLLECTION BOX - EXPRESS", "address": {"city": "WALL TOWNSHIP", "state": "NJ", "street": "66 MAIN ST", "postcode": "07727"}}},
{"geometry": {"type": "Point", "coordinates": [-74.1670713028, 40.194906514]}, "type": "Feature", "properties": {"collection_times": [{"days": "Mon-Fri", "time": "5:00pm"}, {"days": "Sat", "time": "4:00pm"}, {"days": "Sun", "time": "Closed"}], "id": "0772700013", "name": "USPS COLLECTION BOX - PO LOBBY", "address": {"city": "WALL TOWNSHIP", "state": "NJ", "street": "66 MAIN ST", "postcode": "07727"}}},
{"geometry": {"type": "Point", "coordinates": [-74.2802859823, 40.2436555778]}, "type": "Feature", "properties": {"collection_times": [{"days": "Mon-Sat", "time": "11:00am"}, {"days": "Sun", "time": "Closed"}], "id": "0772800001", "name": "USPS COLLECTION BOX - BLUE BOX", "address": {"city": "FREEHOLD", "state": "NJ", "street": "3585 US HIGHWAY 9", "postcode": "07728"}}},
{"geometry": {"type": "Point", "coordinates": [-74.3080777675, 40.2403839734]}, "type": "Feature", "properties": {"collection_times": [{"days": "Mon-Fri", "time": "5:00pm"}, {"days": "Sat", "time": "3:00pm"}, {"days": "Sun", "time": "Closed"}], "id": "0772800002", "name": "USPS COLLECTION BOX - BLUE BOX", "address": {"city": "FREEHOLD", "state": "NJ", "street": "200 VILLAGE CENTER DR", "postcode": "07728"}}},
{"geometry": {"type": "Point", "coordinates": [-74.3080777675, 40.2403839734]}, "type": "Feature", "properties": {"collection_times": [{"days": "Mon-Fri", "time": "5:00pm"}, {"days": "Sat", "time": "3:00pm"}, {"days": "Sun", "time": "Closed"}], "id": "0772800003", "name": "USPS COLLECTION BOX - BLUE BOX", "address": {"city": "FREEHOLD", "state": "NJ", "street": "200 VILLAGE CENTER DR", "postcode": "07728"}}},
{"geometry": {"type": "Point", "coordinates": [-74.3105297559, 40.2340994653]}, "type": "Feature", "properties": {"collection_times": [{"days": "Mon-Sat", "time": "11:00am"}, {"days": "Sun", "time": "Closed"}], "id": "0772800006", "name": "USPS COLLECTION BOX - BLUE BOX", "address": {"city": "FREEHOLD", "state": "NJ", "street": "501 IRON BRIDGE RD", "postcode": "07728"}}},
{"geometry": {"type": "Point", "coordinates": [-74.2995714774, 40.2387937342]}, "type": "Feature", "properties": {"collection_times": [{"days": "Mon-Sat", "time": "11:00am"}, {"days": "Sun", "time": "Closed"}], "id": "0772800007", "name": "USPS COLLECTION BOX - BLUE BOX", "address": {"city": "FREEHOLD", "state": "NJ", "street": "509 STILLWELLS CORNER RD", "postcode": "07728"}}},
{"geometry": {"type": "Point", "coordinates": [-74.2777115101, 40.257695572]}, "type": "Feature", "properties": {"collection_times": [{"days": "Mon-Fri", "time": "5:00pm"}, {"days": "Sat", "time": "11:00am"}, {"days": "Sun", "time": "Closed"}], "id": "0772800008", "name": "USPS COLLECTION BOX - BLUE BOX", "address": {"city": "FREEHOLD", "state": "NJ", "street": "72 W MAIN ST", "postcode": "07728"}}},
{"geometry": {"type": "Point", "coordinates": [-74.2761381746, 40.2613071457]}, "type": "Feature", "properties": {"collection_times": [{"days": "Mon-Sat", "time": "11:00am"}, {"days": "Sun", "time": "Closed"}], "id": "0772800014", "name": "USPS COLLECTION BOX - BLUE BOX", "address": {"city": "FREEHOLD", "state": "NJ", "street": "1 BROAD ST", "postcode": "07728"}}},
{"geometry": {"type": "Point", "coordinates": [-74.2741011193, 40.2601371993]}, "type": "Feature", "properties": {"collection_times": [{"days": "Mon-Fri", "time": "5:00pm"}, {"days": "Sat", "time": "11:00am"}, {"days": "Sun", "time": "Closed"}], "id": "0772800015", "name": "USPS COLLECTION BOX - BLUE BOX", "address": {"city": "FREEHOLD", "state": "NJ", "street": "1 E MAIN ST", "postcode": "07728"}}},
{"geometry": {"type": "Point", "coordinates": [-74.2699998088, 40.2497878135]}, "type": "Feature", "properties": {"collection_times": [{"days": "Mon-Sat", "time": "11:00am"}, {"days": "Sun", "time": "Closed"}], "id": "0772800016", "name": "USPS COLLECTION BOX - BLUE BOX", "address": {"city": "FREEHOLD", "state": "NJ", "street": "600 PARK AVE", "postcode": "07728"}}},
{"geometry": {"type": "Point", "coordinates": [-74.2458592431, 40.2552226576]}, "type": "Feature", "properties": {"collection_times": [{"days": "Mon-Sat", "time": "11:00am"}, {"days": "Sun", "time": "Closed"}], "id": "0772800019", "name": "USPS COLLECTION BOX - BLUE BOX", "address": {"city": "FREEHOLD", "state": "NJ", "street": "30 THOREAU DR", "postcode": "07728"}}},
{"geometry": {"type": "Point", "coordinates": [-74.2954291278, 40.225888246]}, "type": "Feature", "properties": {"collection_times": [{"days": "Mon-Sat", "time": "11:00am"}, {"days": "Sun", "time": "Closed"}], "id": "0772800020", "name": "USPS COLLECTION BOX - BLUE BOX", "address": {"city": "FREEHOLD", "state": "NJ", "street": "100 DAG HAMMARSKJOLD BLVD", "postcode": "07728"}}},
{"geometry": {"type": "Point", "coordinates": [-74.2737237554, 40.2544459837]}, "type": "Feature", "properties": {"collection_times": [{"days": "Mon-Sat", "time": "11:00am"}, {"days": "Sun", "time": "Closed"}], "id": "0772800024", "name": "USPS COLLECTION BOX - BLUE BOX", "address": {"city": "FREEHOLD", "state": "NJ", "street": "95 SOUTH ST", "postcode": "07728"}}},
{"geometry": {"type": "Point", "coordinates": [-74.2945994323, 40.2846445602]}, "type": "Feature", "properties": {"collection_times": [{"days": "Mon-Sat", "time": "11:00am"}, {"days": "Sun", "time": "Closed"}], "id": "0772800031", "name": "USPS COLLECTION BOX - BLUE BOX", "address": {"city": "FREEHOLD", "state": "NJ", "street": "4400 US HIGHWAY 9", "postcode": "07728"}}},
{"geometry": {"type": "Point", "coordinates": [-74.2940987598, 40.2782149723]}, "type": "Feature", "properties": {"collection_times": [{"days": "Mon-Sat", "time": "11:00am"}, {"days": "Sun", "time": "Closed"}], "id": "0772800032", "name": "USPS COLLECTION BOX - BLUE BOX", "address": {"city": "FREEHOLD", "state": "NJ", "street": "4253 US HIGHWAY 9", "postcode": "07728"}}},
{"geometry": {"type": "Point", "coordinates": [-74.2795025099, 40.2584573976]}, "type": "Feature", "properties": {"collection_times": [{"days": "Mon-Sat", "time": "11:00am"}, {"days": "Sun", "time": "Closed"}], "id": "0772800040", "name": "USPS COLLECTION BOX - BLUE BOX", "address": {"city": "FREEHOLD", "state": "NJ", "street": "59 BROAD ST", "postcode": "07728"}}},
{"geometry": {"type": "Point", "coordinates": [-74.2758976874, 40.2590031743]}, "type": "Feature", "properties": {"collection_times": [{"days": "Mon-Fri", "time": "5:00pm"}, {"days": "Sat", "time": "11:00am"}, {"days": "Sun", "time": "Closed"}], "id": "0772800041", "name": "USPS COLLECTION BOX - BLUE BOX", "address": {"city": "FREEHOLD", "state": "NJ", "street": "51 W MAIN ST", "postcode": "07728"}}},
{"geometry": {"type": "Point", "coordinates": [-74.275261602, 40.2593706419]}, "type": "Feature", "properties": {"collection_times": [{"days": "Mon-Fri", "time": "5:00pm"}, {"days": "Sat", "time": "11:00am"}, {"days": "Sun", "time": "Closed"}], "id": "0772800044", "name": "USPS COLLECTION BOX - BLUE BOX", "address": {"city": "FREEHOLD", "state": "NJ", "street": "31 E MAIN ST", "postcode": "07728"}}},
{"geometry": {"type": "Point", "coordinates": [-74.3116541516, 40.2359042849]}, "type": "Feature", "properties": {"collection_times": [{"days": "Mon-Sat", "time": "11:00am"}, {"days": "Sun", "time": "Closed"}], "id": "0772800046", "name": "USPS COLLECTION BOX - BLUE BOX", "address": {"city": "FREEHOLD", "state": "NJ", "street": "901 W MAIN ST", "postcode": "07728"}}},
{"geometry": {"type": "Point", "coordinates": [-74.2730021504, 40.2333088729]}, "type": "Feature", "properties": {"collection_times": [{"days": "Mon-Sat", "time": "11:00am"}, {"days": "Sun", "time": "Closed"}], "id": "0772800047", "name": "USPS COLLECTION BOX - BLUE BOX", "address": {"city": "FREEHOLD", "state": "NJ", "street": "3499 US HIGHWAY 9", "postcode": "07728"}}},
{"geometry": {"type": "Point", "coordinates": [-74.3080777675, 40.2403839734]}, "type": "Feature", "properties": {"collection_times": [{"days": "Mon-Fri", "time": "5:00pm"}, {"days": "Sat", "time": "3:00pm"}, {"days": "Sun", "time": "Closed"}], "id": "0772800048", "name": "USPS COLLECTION BOX - APC", "address": {"city": "FREEHOLD", "state": "NJ", "street": "200 VILLAGE CENTER DR", "postcode": "07728"}}},
{"geometry": {"type": "Point", "coordinates": [-74.3080777675, 40.2403839734]}, "type": "Feature", "properties": {"collection_times": [{"days": "Mon-Fri", "time": "5:00pm"}, {"days": "Sat", "time": "3:00pm"}, {"days": "Sun", "time": "Closed"}], "id": "0772800049", "name": "USPS COLLECTION BOX - PO LOBBY", "address": {"city": "FREEHOLD", "state": "NJ", "street": "200 VILLAGE CENTER DR", "postcode": "07728"}}},
{"geometry": {"type": "Point", "coordinates": [-74.2845355558, 40.2480566773]}, "type": "Feature", "properties": {"collection_times": [{"days": "Mon-Sat", "time": "11:00am"}, {"days": "Sun", "time": "Closed"}], "id": "0772800051", "name": "USPS COLLECTION BOX - BLUE BOX", "address": {"city": "FREEHOLD", "state": "NJ", "street": "3710 US HIGHWAY 9", "postcode": "07728"}}},
{"geometry": {"type": "Point", "coordinates": [-74.2003637381, 40.4215578649]}, "type": "Feature", "properties": {"collection_times": [{"days": "Mon-Sat", "time": "11:00am"}, {"days": "Sun", "time": "Closed"}], "id": "0773000001", "name": "USPS COLLECTION BOX - BLUE BOX", "address": {"city": "HAZLET", "state": "NJ", "street": "98 VILLAGE CT", "postcode": "07730"}}},
{"geometry": {"type": "Point", "coordinates": [-74.1878316428, 40.4295876038]}, "type": "Feature", "properties": {"collection_times": [{"days": "Mon-Sat", "time": "9:00am"}, {"days": "Sun", "time": "Closed"}], "id": "0773000004", "name": "USPS COLLECTION BOX - BLUE BOX", "address": {"city": "HAZLET", "state": "NJ", "street": "1340 STATE ROUTE 36", "postcode": "07730"}}},
{"geometry": {"type": "Point", "coordinates": [-74.1507752813, 40.423688374]}, "type": "Feature", "properties": {"collection_times": [{"days": "Mon-Sat", "time": "11:00am"}, {"days": "Sun", "time": "Closed"}], "id": "0773000008", "name": "USPS COLLECTION BOX - BLUE BOX", "address": {"city": "HAZLET", "state": "NJ", "street": "427 MIDDLE RD", "postcode": "07730"}}},
{"geometry": {"type": "Point", "coordinates": [-74.1439105704, 40.4215365716]}, "type": "Feature", "properties": {"collection_times": [{"days": "Mon-Sat", "time": "10:00am"}, {"days": "Sun", "time": "Closed"}], "id": "0773000011", "name": "USPS COLLECTION BOX - BLUE BOX", "address": {"city": "HAZLET", "state": "NJ", "street": "651 LAUREL AVE", "postcode": "07730"}}},
{"geometry": {"type": "Point", "coordinates": [-74.1878888193, 40.4116743465]}, "type": "Feature", "properties": {"collection_times": [{"days": "Mon-Sat", "time": "10:00am"}, {"days": "Sun", "time": "Closed"}], "id": "0773000020", "name": "USPS COLLECTION BOX - BLUE BOX", "address": {"city": "HAZLET", "state": "NJ", "street": "80 BETHANY RD", "postcode": "07730"}}},
{"geometry": {"type": "Point", "coordinates": [-74.180009073, 40.4192118723]}, "type": "Feature", "properties": {"collection_times": [{"days": "Mon-Sat", "time": "10:00am"}, {"days": "Sun", "time": "Closed"}], "id": "0773000024", "name": "USPS COLLECTION BOX - BLUE BOX", "address": {"city": "HAZLET", "state": "NJ", "street": "3025 STATE ROUTE 35", "postcode": "07730"}}},
{"geometry": {"type": "Point", "coordinates": [-74.2094441312, 40.4143276197]}, "type": "Feature", "properties": {"collection_times": [{"days": "Mon-Sat", "time": "11:00am"}, {"days": "Sun", "time": "Closed"}], "id": "0773000033", "name": "USPS COLLECTION BOX - BLUE BOX", "address": {"city": "HAZLET", "state": "NJ", "street": "2 CRESCI BLVD", "postcode": "07730"}}},
{"geometry": {"type": "Point", "coordinates": [-74.1783701651, 40.4164770561]}, "type": "Feature", "properties": {"collection_times": [{"days": "Mon-Sat", "time": "10:00am"}, {"days": "Sun", "time": "Closed"}], "id": "0773000035", "name": "USPS COLLECTION BOX - BLUE BOX", "address": {"city": "HAZLET", "state": "NJ", "street": "1 BETHANY RD", "postcode": "07730"}}},
{"geometry": {"type": "Point", "coordinates": [-74.1668098731, 40.4261150421]}, "type": "Feature", "properties": {"collection_times": [{"days": "Mon-Sat", "time": "11:00am"}, {"days": "Sun", "time": "Closed"}], "id": "0773000036", "name": "USPS COLLECTION BOX - BLUE BOX", "address": {"city": "HAZLET", "state": "NJ", "street": "319 MIDDLE RD", "postcode": "07730"}}},
{"geometry": {"type": "Point", "coordinates": [-74.1847971811, 40.421725845]}, "type": "Feature", "properties": {"collection_times": [{"days": "Mon-Fri", "time": "5:15pm"}, {"days": "Sat", "time": "4:00pm"}, {"days": "Sun", "time": "Closed"}], "id": "0773000037", "name": "USPS COLLECTION BOX - PO LOBBY", "address": {"city": "HAZLET", "state": "NJ", "street": "65 HAZLET AVE", "postcode": "07730"}}},
{"geometry": {"type": "Point", "coordinates": [-74.2259653361, 40.1473787337]}, "type": "Feature", "properties": {"collection_times": [{"days": "Mon-Fri", "time": "3:00pm"}, {"days": "Sat", "time": "11:00am"}, {"days": "Sun", "time": "Closed"}], "id": "0773100001", "name": "USPS COLLECTION BOX - BLUE BOX", "address": {"city": "HOWELL", "state": "NJ", "street": "4261 US HIGHWAY 9", "postcode": "07731"}}},
{"geometry": {"type": "Point", "coordinates": [-74.2367469529, 40.1670555467]}, "type": "Feature", "properties": {"collection_times": [{"days": "Mon-Fri", "time": "3:00pm"}, {"days": "Sat", "time": "11:00am"}, {"days": "Sun", "time": "Closed"}], "id": "0773100002", "name": "USPS COLLECTION BOX - BLUE BOX", "address": {"city": "HOWELL", "state": "NJ", "street": "3001 US HIGHWAY 9", "postcode": "07731"}}},
{"geometry": {"type": "Point", "coordinates": [-74.2623968179, 40.198727745]}, "type": "Feature", "properties": {"collection_times": [{"days": "Mon-Sat", "time": "11:00am"}, {"days": "Sun", "time": "Closed"}], "id": "0773100012", "name": "USPS COLLECTION BOX - BLUE BOX", "address": {"city": "HOWELL", "state": "NJ", "street": "99 WILLOW POND DR", "postcode": "07731"}}},
{"geometry": {"type": "Point", "coordinates": [-74.144534518, 40.1208590777]}, "type": "Feature", "properties": {"collection_times": [{"days": "Mon-Sat", "time": "11:00am"}, {"days": "Sun", "time": "Closed"}], "id": "0773100015", "name": "USPS COLLECTION BOX - BLUE BOX", "address": {"city": "HOWELL", "state": "NJ", "street": "20 RAMTOWN GREENVILLE RD", "postcode": "07731"}}},
{"geometry": {"type": "Point", "coordinates": [-74.1433265444, 40.1190481625]}, "type": "Feature", "properties": {"collection_times": [{"days": "Mon-Sat", "time": "11:00am"}, {"days": "Sun", "time": "Closed"}], "id": "0773100016", "name": "USPS COLLECTION BOX - BLUE BOX", "address": {"city": "HOWELL", "state": "NJ", "street": "125 NEWTONS CORNER RD", "postcode": "07731"}}},
{"geometry": {"type": "Point", "coordinates": [-74.2277686861, 40.1516840555]}, "type": "Feature", "properties": {"collection_times": [{"days": "Mon-Fri", "time": "5:00pm"}, {"days": "Sat", "time": "3:00pm"}, {"days": "Sun", "time": "Closed"}], "id": "0773100017", "name": "USPS COLLECTION BOX - BLUE BOX", "address": {"city": "HOWELL", "state": "NJ", "street": "4170 US HIGHWAY 9", "postcode": "07731"}}},
{"geometry": {"type": "Point", "coordinates": [-74.2236626047, 40.132586941]}, "type": "Feature", "properties": {"collection_times": [{"days": "Mon-Fri", "time": "3:00pm"}, {"days": "Sat", "time": "11:00am"}, {"days": "Sun", "time": "Closed"}], "id": "0773100023", "name": "USPS COLLECTION BOX - BLUE BOX", "address": {"city": "HOWELL", "state": "NJ", "street": "4689 US HIGHWAY 9", "postcode": "07731"}}},
{"geometry": {"type": "Point", "coordinates": [-74.2241922204, 40.1473922889]}, "type": "Feature", "properties": {"collection_times": [{"days": "Mon-Sat", "time": "11:00am"}, {"days": "Sun", "time": "Closed"}], "id": "0773100024", "name": "USPS COLLECTION BOX - BLUE BOX", "address": {"city": "HOWELL", "state": "NJ", "street": "305 CANDLEWOOD COMMONS", "postcode": "07731"}}},
{"geometry": {"type": "Point", "coordinates": [-74.2453632857, 40.1808031886]}, "type": "Feature", "properties": {"collection_times": [{"days": "Mon-Sat", "time": "11:00am"}, {"days": "Sun", "time": "Closed"}], "id": "0773100026", "name": "USPS COLLECTION BOX - BLUE BOX", "address": {"city": "HOWELL", "state": "NJ", "street": "2228 US HIGHWAY 9", "postcode": "07731"}}},
{"geometry": {"type": "Point", "coordinates": [-74.2288499146, 40.1540580472]}, "type": "Feature", "properties": {"collection_times": [{"days": "Mon-Fri", "time": "3:00pm"}, {"days": "Sat", "time": "11:00am"}, {"days": "Sun", "time": "Closed"}], "id": "0773100036", "name": "USPS COLLECTION BOX - BLUE BOX", "address": {"city": "HOWELL", "state": "NJ", "street": "4059 US HIGHWAY 9", "postcode": "07731"}}},
{"geometry": {"type": "Point", "coordinates": [-74.2277686861, 40.1516840555]}, "type": "Feature", "properties": {"collection_times": [{"days": "Mon-Fri", "time": "5:00pm"}, {"days": "Sat", "time": "3:00pm"}, {"days": "Sun", "time": "Closed"}], "id": "0773100037", "name": "USPS COLLECTION BOX - BLUE BOX", "address": {"city": "HOWELL", "state": "NJ", "street": "4170 US HIGHWAY 9", "postcode": "07731"}}},
{"geometry": {"type": "Point", "coordinates": [-74.2277686861, 40.1516840555]}, "type": "Feature", "properties": {"collection_times": [{"days": "Mon-Fri", "time": "5:00pm"}, {"days": "Sat", "time": "3:00pm"}, {"days": "Sun", "time": "Closed"}], "id": "0773100038", "name": "USPS COLLECTION BOX - APC", "address": {"city": "HOWELL", "state": "NJ", "street": "4170 US HIGHWAY 9", "postcode": "07731"}}},
{"geometry": {"type": "Point", "coordinates": [-74.2277686861, 40.1516840555]}, "type": "Feature", "properties": {"collection_times": [{"days": "Mon-Fri", "time": "5:00pm"}, {"days": "Sat", "time": "3:00pm"}, {"days": "Sun", "time": "Closed"}], "id": "0773100039", "name": "USPS COLLECTION BOX - PO LOBBY", "address": {"city": "HOWELL", "state": "NJ", "street": "4170 US HIGHWAY 9", "postcode": "07731"}}},
{"geometry": {"type": "Point", "coordinates": [-73.9872170089, 40.401778791]}, "type": "Feature", "properties": {"collection_times": [{"days": "Mon-Fri", "time": "5:00pm"}, {"days": "Sat", "time": "12:30pm"}, {"days": "Sun", "time": "Closed"}], "id": "0773200001", "name": "USPS COLLECTION BOX - BLUE BOX", "address": {"city": "HIGHLANDS", "state": "NJ", "street": "170 BAY AVE", "postcode": "07732"}}},
{"geometry": {"type": "Point", "coordinates": [-73.9872170089, 40.401778791]}, "type": "Feature", "properties": {"collection_times": [{"days": "Mon-Fri", "time": "5:00pm"}, {"days": "Sat", "time": "12:30pm"}, {"days": "Sun", "time": "Closed"}], "id": "0773200016", "name": "USPS COLLECTION BOX - PO LOBBY", "address": {"city": "HIGHLANDS", "state": "NJ", "street": "170 BAY AVE", "postcode": "07732"}}},
{"geometry": {"type": "Point", "coordinates": [-74.1820897396, 40.3821163734]}, "type": "Feature", "properties": {"collection_times": [{"days": "Mon-Fri", "time": "5:00pm"}, {"days": "Sat", "time": "3:45pm"}, {"days": "Sun", "time": "Closed"}], "id": "0773300003", "name": "USPS COLLECTION BOX - BLUE BOX", "address": {"city": "HOLMDEL", "state": "NJ", "street": "10 CRAWFORDS CORNER RD", "postcode": "07733"}}},
{"geometry": {"type": "Point", "coordinates": [-74.1829517651, 40.3824279482]}, "type": "Feature", "properties": {"collection_times": [{"days": "Mon-Fri", "time": "3:00pm"}, {"days": "Sat-Sun", "time": "Closed"}], "id": "0773300005", "name": "USPS COLLECTION BOX - BLUE BOX", "address": {"city": "HOLMDEL", "state": "NJ", "street": "4 CRAWFORDS CORNER RD", "postcode": "07733"}}},
{"geometry": {"type": "Point", "coordinates": [-74.1859955186, 40.3539056246]}, "type": "Feature", "properties": {"collection_times": [{"days": "Mon-Fri", "time": "10:00am"}, {"days": "Sat", "time": "9:15am"}, {"days": "Sun", "time": "Closed"}], "id": "0773300009", "name": "USPS COLLECTION BOX - BLUE BOX", "address": {"city": "HOLMDEL", "state": "NJ", "street": "960 HOLMDEL RD", "postcode": "07733"}}},
{"geometry": {"type": "Point", "coordinates": [-74.1559805139, 40.4148900935]}, "type": "Feature", "properties": {"collection_times": [{"days": "Mon-Sat", "time": "1:00pm"}, {"days": "Sun", "time": "Closed"}], "id": "0773300011", "name": "USPS COLLECTION BOX - BLUE BOX", "address": {"city": "HOLMDEL", "state": "NJ", "street": "2139 STATE ROUTE 35", "postcode": "07733"}}},
{"geometry": {"type": "Point", "coordinates": [-74.1942596699, 40.4057310569]}, "type": "Feature", "properties": {"collection_times": [{"days": "Mon-Fri", "time": "11:30am"}, {"days": "Sat-Sun", "time": "Closed"}], "id": "0773300015", "name": "USPS COLLECTION BOX - BLUE BOX", "address": {"city": "HOLMDEL", "state": "NJ", "street": "727 N BEERS ST", "postcode": "07733"}}},
{"geometry": {"type": "Point", "coordinates": [-74.143814626, 40.4125500754]}, "type": "Feature", "properties": {"collection_times": [{"days": "Mon-Sat", "time": "12:30pm"}, {"days": "Sun", "time": "Closed"}], "id": "0773300016", "name": "USPS COLLECTION BOX - BLUE BOX", "address": {"city": "HOLMDEL", "state": "NJ", "street": "2101 HIGHWAY 35", "postcode": "07733"}}},
{"geometry": {"type": "Point", "coordinates": [-74.1423384179, 40.416824846]}, "type": "Feature", "properties": {"collection_times": [{"days": "Mon-Sat", "time": "1:30pm"}, {"days": "Sun", "time": "Closed"}], "id": "0773300017", "name": "USPS COLLECTION BOX - BLUE BOX", "address": {"city": "HOLMDEL", "state": "NJ", "street": "33 STAGECOACH DR", "postcode": "07733"}}},
{"geometry": {"type": "Point", "coordinates": [-74.1820897396, 40.3821163734]}, "type": "Feature", "properties": {"collection_times": [{"days": "Mon-Fri", "time": "5:00pm"}, {"days": "Sat", "time": "4:00pm"}, {"days": "Sun", "time": "Closed"}], "id": "0773300018", "name": "USPS COLLECTION BOX - PO LOBBY", "address": {"city": "HOLMDEL", "state": "NJ", "street": "10 CRAWFORDS CORNER RD", "postcode": "07733"}}},
{"geometry": {"type": "Point", "coordinates": [-74.1294927768, 40.4437780796]}, "type": "Feature", "properties": {"collection_times": [{"days": "Mon-Fri", "time": "5:00pm"}, {"days": "Sat", "time": "3:00pm"}, {"days": "Sun", "time": "Closed"}], "id": "0773400001", "name": "USPS COLLECTION BOX - BLUE BOX", "address": {"city": "KEANSBURG", "state": "NJ", "street": "230 MAIN ST", "postcode": "07734"}}},
{"geometry": {"type": "Point", "coordinates": [-74.1247738432, 40.4418243179]}, "type": "Feature", "properties": {"collection_times": [{"days": "Mon-Sat", "time": "11:00am"}, {"days": "Sun", "time": "Closed"}], "id": "0773400005", "name": "USPS COLLECTION BOX - BLUE BOX", "address": {"city": "KEANSBURG", "state": "NJ", "street": "140 PORT MONMOUTH RD", "postcode": "07734"}}},
{"geometry": {"type": "Point", "coordinates": [-74.1308542523, 40.4373456352]}, "type": "Feature", "properties": {"collection_times": [{"days": "Mon-Sat", "time": "11:00am"}, {"days": "Sun", "time": "Closed"}], "id": "0773400007", "name": "USPS COLLECTION BOX - BLUE BOX", "address": {"city": "KEANSBURG", "state": "NJ", "street": "390 MAIN ST", "postcode": "07734"}}},
{"geometry": {"type": "Point", "coordinates": [-74.1328952369, 40.428078993]}, "type": "Feature", "properties": {"collection_times": [{"days": "Mon-Sat", "time": "11:00am"}, {"days": "Sun", "time": "Closed"}], "id": "0773400009", "name": "USPS COLLECTION BOX - BLUE BOX", "address": {"city": "KEANSBURG", "state": "NJ", "street": "1 MARY ANN CT", "postcode": "07734"}}},
{"geometry": {"type": "Point", "coordinates": [-74.141673595, 40.4425506547]}, "type": "Feature", "properties": {"collection_times": [{"days": "Mon-Sat", "time": "11:00am"}, {"days": "Sun", "time": "Closed"}], "id": "0773400011", "name": "USPS COLLECTION BOX - BLUE BOX", "address": {"city": "KEANSBURG", "state": "NJ", "street": "198 LAUREL AVE", "postcode": "07734"}}},
{"geometry": {"type": "Point", "coordinates": [-74.1347437934, 40.4523321433]}, "type": "Feature", "properties": {"collection_times": [{"days": "Mon-Sat", "time": "11:00am"}, {"days": "Sun", "time": "Closed"}], "id": "0773400013", "name": "USPS COLLECTION BOX - BLUE BOX", "address": {"city": "KEANSBURG", "state": "NJ", "street": "78 CARR AVE", "postcode": "07734"}}},
{"geometry": {"type": "Point", "coordinates": [-74.1425829752, 40.4496643927]}, "type": "Feature", "properties": {"collection_times": [{"days": "Mon-Sat", "time": "11:00am"}, {"days": "Sun", "time": "Closed"}], "id": "0773400014", "name": "USPS COLLECTION BOX - BLUE BOX", "address": {"city": "KEANSBURG", "state": "NJ", "street": "20 LAUREL AVE", "postcode": "07734"}}},
{"geometry": {"type": "Point", "coordinates": [-74.1333621253, 40.44775804]}, "type": "Feature", "properties": {"collection_times": [{"days": "Mon-Sat", "time": "11:00am"}, {"days": "Sun", "time": "Closed"}], "id": "0773400018", "name": "USPS COLLECTION BOX - BLUE BOX", "address": {"city": "KEANSBURG", "state": "NJ", "street": "209 CARR AVE", "postcode": "07734"}}},
{"geometry": {"type": "Point", "coordinates": [-74.1332509272, 40.4415995557]}, "type": "Feature", "properties": {"collection_times": [{"days": "Mon-Sat", "time": "11:00am"}, {"days": "Sun", "time": "Closed"}], "id": "0773400020", "name": "USPS COLLECTION BOX - BLUE BOX", "address": {"city": "KEANSBURG", "state": "NJ", "street": "29 CHURCH ST", "postcode": "07734"}}},
{"geometry": {"type": "Point", "coordinates": [-74.1301929783, 40.4418751851]}, "type": "Feature", "properties": {"collection_times": [{"days": "Mon-Sat", "time": "11:00am"}, {"days": "Sun", "time": "Closed"}], "id": "0773400021", "name": "USPS COLLECTION BOX - BLUE BOX", "address": {"city": "KEANSBURG", "state": "NJ", "street": "1 CHURCH ST", "postcode": "07734"}}},
{"geometry": {"type": "Point", "coordinates": [-74.1294927768, 40.4437780796]}, "type": "Feature", "properties": {"collection_times": [{"days": "Mon-Fri", "time": "5:00pm"}, {"days": "Sat", "time": "3:00pm"}, {"days": "Sun", "time": "Closed"}], "id": "0773400022", "name": "USPS COLLECTION BOX - PO LOBBY", "address": {"city": "KEANSBURG", "state": "NJ", "street": "230 MAIN ST", "postcode": "07734"}}},
{"geometry": {"type": "Point", "coordinates": [-74.2054388813, 40.4362291158]}, "type": "Feature", "properties": {"collection_times": [{"days": "Mon-Sat", "time": "11:00am"}, {"days": "Sun", "time": "Closed"}], "id": "0773500001", "name": "USPS COLLECTION BOX - BLUE BOX", "address": {"city": "KEYPORT", "state": "NJ", "street": "105 W FRONT ST", "postcode": "07735"}}},
{"geometry": {"type": "Point", "coordinates": [-74.1999894866, 40.4336781244]}, "type": "Feature", "properties": {"collection_times": [{"days": "Mon-Sat", "time": "12:30pm"}, {"days": "Sun", "time": "Closed"}], "id": "0773500003", "name": "USPS COLLECTION BOX - BLUE BOX", "address": {"city": "KEYPORT", "state": "NJ", "street": "187 BROAD ST", "postcode": "07735"}}},
{"geometry": {"type": "Point", "coordinates": [-74.2033022082, 40.437180021]}, "type": "Feature", "properties": {"collection_times": [{"days": "Mon-Sat", "time": "11:30am"}, {"days": "Sun", "time": "Closed"}], "id": "0773500005", "name": "USPS COLLECTION BOX - BLUE BOX", "address": {"city": "KEYPORT", "state": "NJ", "street": "36 W FRONT ST", "postcode": "07735"}}},
{"geometry": {"type": "Point", "coordinates": [-74.2176384879, 40.4443073487]}, "type": "Feature", "properties": {"collection_times": [{"days": "Mon-Sat", "time": "3:30pm"}, {"days": "Sun", "time": "Closed"}], "id": "0773500006", "name": "USPS COLLECTION BOX - BLUE BOX", "address": {"city": "KEYPORT", "state": "NJ", "street": "825 S CONCOURSE", "postcode": "07735"}}},
{"geometry": {"type": "Point", "coordinates": [-74.2130177218, 40.4267851046]}, "type": "Feature", "properties": {"collection_times": [{"days": "Mon-Sat", "time": "10:30am"}, {"days": "Sun", "time": "Closed"}], "id": "0773500008", "name": "USPS COLLECTION BOX - BLUE BOX", "address": {"city": "KEYPORT", "state": "NJ", "street": "361 MAPLE PL", "postcode": "07735"}}},
{"geometry": {"type": "Point", "coordinates": [-74.1823251914, 40.4450522663]}, "type": "Feature", "properties": {"collection_times": [{"days": "Mon-Sat", "time": "1:00pm"}, {"days": "Sun", "time": "Closed"}], "id": "0773500009", "name": "USPS COLLECTION BOX - BLUE BOX", "address": {"city": "KEYPORT", "state": "NJ", "street": "117 STATE ROUTE 35", "postcode": "07735"}}},
{"geometry": {"type": "Point", "coordinates": [-74.2042686857, 40.4318425101]}, "type": "Feature", "properties": {"collection_times": [{"days": "Mon-Sat", "time": "11:00am"}, {"days": "Sun", "time": "Closed"}], "id": "0773500012", "name": "USPS COLLECTION BOX - BLUE BOX", "address": {"city": "KEYPORT", "state": "NJ", "street": "116 MAPLE PL", "postcode": "07735"}}},
{"geometry": {"type": "Point", "coordinates": [-74.2050861103, 40.4363342053]}, "type": "Feature", "properties": {"collection_times": [{"days": "Mon-Fri", "time": "5:00pm"}, {"days": "Sat", "time": "3:00pm"}, {"days": "Sun", "time": "Closed"}], "id": "0773500013", "name": "USPS COLLECTION BOX - BLUE BOX", "address": {"city": "KEYPORT", "state": "NJ", "street": "95 W FRONT ST", "postcode": "07735"}}},
{"geometry": {"type": "Point", "coordinates": [-74.1795933446, 40.4394311919]}, "type": "Feature", "properties": {"collection_times": [{"days": "Mon-Sat", "time": "9:00am"}, {"days": "Sun", "time": "Closed"}], "id": "0773500017", "name": "USPS COLLECTION BOX - BLUE BOX", "address": {"city": "KEYPORT", "state": "NJ", "street": "650 POOLE AVE", "postcode": "07735"}}},
{"geometry": {"type": "Point", "coordinates": [-74.1826885731, 40.4444545465]}, "type": "Feature", "properties": {"collection_times": [{"days": "Mon-Sat", "time": "9:00am"}, {"days": "Sun", "time": "Closed"}], "id": "0773500018", "name": "USPS COLLECTION BOX - BLUE BOX", "address": {"city": "KEYPORT", "state": "NJ", "street": "196 STATE ROUTE 35", "postcode": "07735"}}},
{"geometry": {"type": "Point", "coordinates": [-74.2054388813, 40.4362291158]}, "type": "Feature", "properties": {"collection_times": [{"days": "Mon-Sat", "time": "11:00am"}, {"days": "Sun", "time": "Closed"}], "id": "0773500020", "name": "USPS COLLECTION BOX - BLUE BOX", "address": {"city": "KEYPORT", "state": "NJ", "street": "105 W FRONT ST", "postcode": "07735"}}},
{"geometry": {"type": "Point", "coordinates": [-74.2050861103, 40.4363342053]}, "type": "Feature", "properties": {"collection_times": [{"days": "Mon-Fri", "time": "5:00pm"}, {"days": "Sat", "time": "3:00pm"}, {"days": "Sun", "time": "Closed"}], "id": "0773500023", "name": "USPS COLLECTION BOX - PO LOBBY", "address": {"city": "KEYPORT", "state": "NJ", "street": "95 W FRONT ST", "postcode": "07735"}}},
{"geometry": {"type": "Point", "coordinates": [-74.1964187566, 40.4389003466]}, "type": "Feature", "properties": {"collection_times": [{"days": "Mon-Sat", "time": "9:00am"}, {"days": "Sun", "time": "Closed"}], "id": "0773500025", "name": "USPS COLLECTION BOX - BLUE BOX", "address": {"city": "KEYPORT", "state": "NJ", "street": "50 BEERS ST", "postcode": "07735"}}},
{"geometry": {"type": "Point", "coordinates": [-74.059141015, 40.4155547016]}, "type": "Feature", "properties": {"collection_times": [{"days": "Mon-Fri", "time": "4:00pm"}, {"days": "Sat", "time": "12:45pm"}, {"days": "Sun", "time": "Closed"}], "id": "0773700005", "name": "USPS COLLECTION BOX - BLUE BOX", "address": {"city": "LEONARDO", "state": "NJ", "street": "60 THOMPSON AVE", "postcode": "07737"}}},
{"geometry": {"type": "Point", "coordinates": [-74.059141015, 40.4155547016]}, "type": "Feature", "properties": {"collection_times": [{"days": "Mon-Fri", "time": "4:00pm"}, {"days": "Sat", "time": "12:45pm"}, {"days": "Sun", "time": "Closed"}], "id": "0773700006", "name": "USPS COLLECTION BOX - BLUE BOX", "address": {"city": "LEONARDO", "state": "NJ", "street": "60 THOMPSON AVE", "postcode": "07737"}}},
{"geometry": {"type": "Point", "coordinates": [-74.059141015, 40.4155547016]}, "type": "Feature", "properties": {"collection_times": [{"days": "Mon-Fri", "time": "4:00pm"}, {"days": "Sat", "time": "12:45pm"}, {"days": "Sun", "time": "Closed"}], "id": "0773700008", "name": "USPS COLLECTION BOX - PO LOBBY", "address": {"city": "LEONARDO", "state": "NJ", "street": "60 THOMPSON AVE", "postcode": "07737"}}},
{"geometry": {"type": "Point", "coordinates": [-74.1196646435, 40.3310603211]}, "type": "Feature", "properties": {"collection_times": [{"days": "Mon-Sat", "time": "11:00am"}, {"days": "Sun", "time": "Closed"}], "id": "0773800004", "name": "USPS COLLECTION BOX - BLUE BOX", "address": {"city": "LINCROFT", "state": "NJ", "street": "642 NEWMAN SPRINGS RD", "postcode": "07738"}}},
{"geometry": {"type": "Point", "coordinates": [-74.1199122816, 40.3309585031]}, "type": "Feature", "properties": {"collection_times": [{"days": "Mon-Sat", "time": "10:00am"}, {"days": "Sun", "time": "Closed"}], "id": "0773800005", "name": "USPS COLLECTION BOX - BLUE BOX", "address": {"city": "LINCROFT", "state": "NJ", "street": "645 NEWMAN SPRINGS RD", "postcode": "07738"}}},
{"geometry": {"type": "Point", "coordinates": [-74.130026181, 40.3317204122]}, "type": "Feature", "properties": {"collection_times": [{"days": "Mon-Fri", "time": "5:00pm"}, {"days": "Sat", "time": "3:00pm"}, {"days": "Sun", "time": "Closed"}], "id": "0773800008", "name": "USPS COLLECTION BOX - BLUE BOX", "address": {"city": "LINCROFT", "state": "NJ", "street": "774 NEWMAN SPRINGS RD", "postcode": "07738"}}},
{"geometry": {"type": "Point", "coordinates": [-74.1299374823, 40.331748139]}, "type": "Feature", "properties": {"collection_times": [{"days": "Mon-Fri", "time": "5:00pm"}, {"days": "Sat", "time": "3:00pm"}, {"days": "Sun", "time": "Closed"}], "id": "0773800009", "name": "USPS COLLECTION BOX - BLUE BOX", "address": {"city": "LINCROFT", "state": "NJ", "street": "774 NEWMAN SPRINGS RD", "postcode": "07738"}}},
{"geometry": {"type": "Point", "coordinates": [-74.1299372422, 40.3317479654]}, "type": "Feature", "properties": {"collection_times": [{"days": "Mon-Fri", "time": "5:00pm"}, {"days": "Sat", "time": "3:00pm"}, {"days": "Sun", "time": "Closed"}], "id": "0773800010", "name": "USPS COLLECTION BOX - PO LOBBY", "address": {"city": "LINCROFT", "state": "NJ", "street": "774 NEWMAN SPRINGS RD", "postcode": "07738"}}},
{"geometry": {"type": "Point", "coordinates": [-74.0425768028, 40.3261337378]}, "type": "Feature", "properties": {"collection_times": [{"days": "Mon-Fri", "time": "11:00am"}, {"days": "Sat", "time": "10:00am"}, {"days": "Sun", "time": "Closed"}], "id": "0773900009", "name": "USPS COLLECTION BOX - BLUE BOX", "address": {"city": "LITTLE SILVER", "state": "NJ", "street": "34 SYCAMORE AVE", "postcode": "07739"}}},
{"geometry": {"type": "Point", "coordinates": [-74.0415341338, 40.3397098277]}, "type": "Feature", "properties": {"collection_times": [{"days": "Mon-Fri", "time": "4:45pm"}, {"days": "Sat", "time": "12:00pm"}, {"days": "Sun", "time": "Closed"}], "id": "0773900010", "name": "USPS COLLECTION BOX - BLUE BOX", "address": {"city": "LITTLE SILVER", "state": "NJ", "street": "20 CHURCH ST", "postcode": "07739"}}},
{"geometry": {"type": "Point", "coordinates": [-74.0415341338, 40.3397098277]}, "type": "Feature", "properties": {"collection_times": [{"days": "Mon-Fri", "time": "4:45pm"}, {"days": "Sat", "time": "12:00pm"}, {"days": "Sun", "time": "Closed"}], "id": "0773900014", "name": "USPS COLLECTION BOX - PO LOBBY", "address": {"city": "LITTLE SILVER", "state": "NJ", "street": "20 CHURCH ST", "postcode": "07739"}}},
{"geometry": {"type": "Point", "coordinates": [-73.9957296061, 40.3134297297]}, "type": "Feature", "properties": {"collection_times": [{"days": "Mon-Sat", "time": "9:00am"}, {"days": "Sun", "time": "Closed"}], "id": "0774000010", "name": "USPS COLLECTION BOX - BLUE BOX", "address": {"city": "LONG BRANCH", "state": "NJ", "street": "243 ATLANTIC AVE", "postcode": "07740"}}},
{"geometry": {"type": "Point", "coordinates": [-73.9893359781, 40.2974905803]}, "type": "Feature", "properties": {"collection_times": [{"days": "Mon-Sat", "time": "9:00am"}, {"days": "Sun", "time": "Closed"}], "id": "0774000012", "name": "USPS COLLECTION BOX - BLUE BOX", "address": {"city": "LONG BRANCH", "state": "NJ", "street": "212 WESTWOOD AVE", "postcode": "07740"}}},
{"geometry": {"type": "Point", "coordinates": [-73.9874241033, 40.2975974541]}, "type": "Feature", "properties": {"collection_times": [{"days": "Mon-Sat", "time": "9:00am"}, {"days": "Sun", "time": "Closed"}], "id": "0774000014", "name": "USPS COLLECTION BOX - BLUE BOX", "address": {"city": "LONG BRANCH", "state": "NJ", "street": "184 MORRIS AVE", "postcode": "07740"}}},
{"geometry": {"type": "Point", "coordinates": [-73.9835983374, 40.2954485244]}, "type": "Feature", "properties": {"collection_times": [{"days": "Mon-Sat", "time": "9:00am"}, {"days": "Sun", "time": "Closed"}], "id": "0774000016", "name": "USPS COLLECTION BOX - BLUE BOX", "address": {"city": "LONG BRANCH", "state": "NJ", "street": "300 2ND AVE", "postcode": "07740"}}},
{"geometry": {"type": "Point", "coordinates": [-73.9874252096, 40.3025249849]}, "type": "Feature", "properties": {"collection_times": [{"days": "Mon-Fri", "time": "5:00pm"}, {"days": "Sat", "time": "3:00pm"}, {"days": "Sun", "time": "Closed"}], "id": "0774000038", "name": "USPS COLLECTION BOX - BLUE BOX", "address": {"city": "LONG BRANCH", "state": "NJ", "street": "60 3RD AVE", "postcode": "07740"}}},
{"geometry": {"type": "Point", "coordinates": [-73.9874252096, 40.3025249849]}, "type": "Feature", "properties": {"collection_times": [{"days": "Mon-Fri", "time": "5:00pm"}, {"days": "Sat", "time": "3:00pm"}, {"days": "Sun", "time": "Closed"}], "id": "0774000039", "name": "USPS COLLECTION BOX - BLUE BOX", "address": {"city": "LONG BRANCH", "state": "NJ", "street": "60 3RD AVE", "postcode": "07740"}}},
{"geometry": {"type": "Point", "coordinates": [-74.0015757997, 40.2998786403]}, "type": "Feature", "properties": {"collection_times": [{"days": "Mon-Fri", "time": "4:30pm"}, {"days": "Sat", "time": "9:00am"}, {"days": "Sun", "time": "Closed"}], "id": "0774000041", "name": "USPS COLLECTION BOX - BLUE BOX", "address": {"city": "LONG BRANCH", "state": "NJ", "street": "567 BROADWAY", "postcode": "07740"}}},
{"geometry": {"type": "Point", "coordinates": [-74.0015757997, 40.2998786403]}, "type": "Feature", "properties": {"collection_times": [{"days": "Mon-Fri", "time": "4:30pm"}, {"days": "Sat", "time": "9:00am"}, {"days": "Sun", "time": "Closed"}], "id": "0774000042", "name": "USPS COLLECTION BOX - BLUE BOX", "address": {"city": "LONG BRANCH", "state": "NJ", "street": "567 BROADWAY", "postcode": "07740"}}},
{"geometry": {"type": "Point", "coordinates": [-73.9879173206, 40.2845842293]}, "type": "Feature", "properties": {"collection_times": [{"days": "Mon-Fri", "time": "5:00pm"}, {"days": "Sat", "time": "9:00am"}, {"days": "Sun", "time": "Closed"}], "id": "0774000043", "name": "USPS COLLECTION BOX - BLUE BOX", "address": {"city": "LONG BRANCH", "state": "NJ", "street": "131 BRIGHTON AVE", "postcode": "07740"}}},
{"geometry": {"type": "Point", "coordinates": [-73.9879173206, 40.2845842293]}, "type": "Feature", "properties": {"collection_times": [{"days": "Mon-Fri", "time": "5:00pm"}, {"days": "Sat", "time": "9:00am"}, {"days": "Sun", "time": "Closed"}], "id": "0774000044", "name": "USPS COLLECTION BOX - BLUE BOX", "address": {"city": "LONG BRANCH", "state": "NJ", "street": "131 BRIGHTON AVE", "postcode": "07740"}}},
{"geometry": {"type": "Point", "coordinates": [-73.9967244501, 40.2666115337]}, "type": "Feature", "properties": {"collection_times": [{"days": "Mon-Fri", "time": "3:00pm"}, {"days": "Sat", "time": "9:00am"}, {"days": "Sun", "time": "Closed"}], "id": "0774000045", "name": "USPS COLLECTION BOX - BLUE BOX", "address": {"city": "LONG BRANCH", "state": "NJ", "street": "1175 LINCOLN PL", "postcode": "07740"}}},
{"geometry": {"type": "Point", "coordinates": [-73.9967244501, 40.2666115337]}, "type": "Feature", "properties": {"collection_times": [{"days": "Mon-Fri", "time": "3:00pm"}, {"days": "Sat", "time": "9:00am"}, {"days": "Sun", "time": "Closed"}], "id": "0774000046", "name": "USPS COLLECTION BOX - BLUE BOX", "address": {"city": "LONG BRANCH", "state": "NJ", "street": "1175 LINCOLN PL", "postcode": "07740"}}},