{"type": "FeatureCollection", "features": [
{"geometry": {"type": "Point", "coordinates": [-74.5368588626, 40.9512160444]}, "type": "Feature", "properties": {"collection_times": [{"days": "Mon-Sat", "time": "9:30am"}, {"days": "Sun", "time": "Closed"}], "id": "0780100005", "name": "USPS COLLECTION BOX - BLUE BOX", "address": {"city": "DOVER", "state": "NJ", "street": "715 STATE ROUTE 10", "postcode": "07801"}}},
{"geometry": {"type": "Point", "coordinates": [-74.5592403653, 40.8840794417]}, "type": "Feature", "properties": {"collection_times": [{"days": "Mon-Sat", "time": "10:00am"}, {"days": "Sun", "time": "Closed"}], "id": "0780100006", "name": "USPS COLLECTION BOX - BLUE BOX", "address": {"city": "DOVER", "state": "NJ", "street": "16 W BLACKWELL ST", "postcode": "07801"}}},
{"geometry": {"type": "Point", "coordinates": [-74.5368588626, 40.9512160444]}, "type": "Feature", "properties": {"collection_times": [{"days": "Mon-Sat", "time": "10:00am"}, {"days": "Sun", "time": "Closed"}], "id": "0780100008", "name": "USPS COLLECTION BOX - BLUE BOX", "address": {"city": "DOVER", "state": "NJ", "street": "148 CENTER GROVE RD", "postcode": "07801"}}},
{"geometry": {"type": "Point", "coordinates": [-74.5368588626, 40.9512160444]}, "type": "Feature", "properties": {"collection_times": [{"days": "Mon-Sat", "time": "10:00am"}, {"days": "Sun", "time": "Closed"}], "id": "0780100010", "name": "USPS COLLECTION BOX - BLUE BOX", "address": {"city": "DOVER", "state": "NJ", "street": "140 STATE ROUTE 10", "postcode": "07801"}}},
{"geometry": {"type": "Point", "coordinates": [-74.5368588626, 40.9512160444]}, "type": "Feature", "properties": {"collection_times": [{"days": "Mon-Sat", "time": "10:00am"}, {"days": "Sun", "time": "Closed"}], "id": "0780100014", "name": "USPS COLLECTION BOX - BLUE BOX", "address": {"city": "DOVER", "state": "NJ", "street": "80 DOVER CHESTER RD", "postcode": "07801"}}},
{"geometry": {"type": "Point", "coordinates": [-74.5585577979, 40.8849323551]}, "type": "Feature", "properties": {"collection_times": [{"days": "Mon-Fri", "time": "5:00pm"}, {"days": "Sat", "time": "3:00pm"}, {"days": "Sun", "time": "Closed"}], "id": "0780100018", "name": "USPS COLLECTION BOX - BLUE BOX", "address": {"city": "DOVER", "state": "NJ", "street": "22 N SUSSEX ST", "postcode": "07801"}}},
{"geometry": {"type": "Point", "coordinates": [-74.5677999757, 40.9353423935]}, "type": "Feature", "properties": {"collection_times": [{"days": "Mon-Sat", "time": "10:00am"}, {"days": "Sun", "time": "Closed"}], "id": "0780100021", "name": "USPS COLLECTION BOX - BLUE BOX", "address": {"city": "DOVER", "state": "NJ", "street": "1136 PARKER RD", "postcode": "07801"}}},
{"geometry": {"type": "Point", "coordinates": [-74.5406276889, 40.8952584039]}, "type": "Feature", "properties": {"collection_times": [{"days": "Mon-Sat", "time": "10:00am"}, {"days": "Sun", "time": "Closed"}], "id": "0780100032", "name": "USPS COLLECTION BOX - BLUE BOX", "address": {"city": "DOVER", "state": "NJ", "street": "209 PERRY ST", "postcode": "07801"}}},
{"geometry": {"type": "Point", "coordinates": [-74.577211703, 40.8860950657]}, "type": "Feature", "properties": {"collection_times": [{"days": "Mon-Sat", "time": "10:00am"}, {"days": "Sun", "time": "Closed"}], "id": "0780100039", "name": "USPS COLLECTION BOX - BLUE BOX", "address": {"city": "DOVER", "state": "NJ", "street": "423 STATE ROUTE 46", "postcode": "07801"}}},
{"geometry": {"type": "Point", "coordinates": [-74.5624211583, 40.8951511857]}, "type": "Feature", "properties": {"collection_times": [{"days": "Mon-Sat", "time": "10:00am"}, {"days": "Sun", "time": "Closed"}], "id": "0780100051", "name": "USPS COLLECTION BOX - BLUE BOX", "address": {"city": "DOVER", "state": "NJ", "street": "44 CENTER GROVE RD", "postcode": "07801"}}},
{"geometry": {"type": "Point", "coordinates": [-74.5575006536, 40.8843099561]}, "type": "Feature", "properties": {"collection_times": [{"days": "Mon-Sat", "time": "10:00am"}, {"days": "Sun", "time": "Closed"}], "id": "0780100053", "name": "USPS COLLECTION BOX - BLUE BOX", "address": {"city": "DOVER", "state": "NJ", "street": "15 E BLACKWELL ST", "postcode": "07801"}}},
{"geometry": {"type": "Point", "coordinates": [-74.5771693006, 40.8852994613]}, "type": "Feature", "properties": {"collection_times": [{"days": "Mon-Sat", "time": "10:00am"}, {"days": "Sun", "time": "Closed"}], "id": "0780100057", "name": "USPS COLLECTION BOX - BLUE BOX", "address": {"city": "DOVER", "state": "NJ", "street": "24 JARDINE ST", "postcode": "07801"}}},
{"geometry": {"type": "Point", "coordinates": [-74.5368588626, 40.9512160444]}, "type": "Feature", "properties": {"collection_times": [{"days": "Mon-Sat", "time": "10:00am"}, {"days": "Sun", "time": "Closed"}], "id": "0780100063", "name": "USPS COLLECTION BOX - BLUE BOX", "address": {"city": "DOVER", "state": "NJ", "street": "855 STATE ROUTE 10", "postcode": "07801"}}},
{"geometry": {"type": "Point", "coordinates": [-74.5585577979, 40.8849323551]}, "type": "Feature", "properties": {"collection_times": [{"days": "Mon-Fri", "time": "5:00pm"}, {"days": "Sat", "time": "4:00pm"}, {"days": "Sun", "time": "Closed"}], "id": "0780100083", "name": "USPS COLLECTION BOX - PO LOBBY", "address": {"city": "DOVER", "state": "NJ", "street": "22 N SUSSEX ST", "postcode": "07801"}}},
{"geometry": {"type": "Point", "coordinates": [-74.5617538238, 40.8879409802]}, "type": "Feature", "properties": {"collection_times": [{"days": "Mon-Sat", "time": "10:00am"}, {"days": "Sun", "time": "Closed"}], "id": "0780100085", "name": "USPS COLLECTION BOX - BLUE BOX", "address": {"city": "DOVER", "state": "NJ", "street": "10 BAKER ST", "postcode": "07801"}}},
{"geometry": {"type": "Point", "coordinates": [-74.8085513182, 40.9223812125]}, "type": "Feature", "properties": {"collection_times": [{"days": "Mon-Fri", "time": "4:15pm"}, {"days": "Sat", "time": "12:15pm"}, {"days": "Sun", "time": "Closed"}], "id": "0782000001", "name": "USPS COLLECTION BOX - BLUE BOX", "address": {"city": "ALLAMUCHY", "state": "NJ", "street": "1 STATE ROUTE 517", "postcode": "07820"}}},
{"geometry": {"type": "Point", "coordinates": [-74.8085513182, 40.9223812125]}, "type": "Feature", "properties": {"collection_times": [{"days": "Mon-Fri", "time": "4:15pm"}, {"days": "Sat", "time": "12:15pm"}, {"days": "Sun", "time": "Closed"}], "id": "0782000002", "name": "USPS COLLECTION BOX - BLUE BOX", "address": {"city": "ALLAMUCHY", "state": "NJ", "street": "1 STATE ROUTE 517", "postcode": "07820"}}},
{"geometry": {"type": "Point", "coordinates": [-74.8085513182, 40.9223812125]}, "type": "Feature", "properties": {"collection_times": [{"days": "Mon-Fri", "time": "4:15pm"}, {"days": "Sat", "time": "12:15pm"}, {"days": "Sun", "time": "Closed"}], "id": "0782000003", "name": "USPS COLLECTION BOX - BLUE BOX", "address": {"city": "ALLAMUCHY", "state": "NJ", "street": "1 STATE ROUTE 517", "postcode": "07820"}}},
{"geometry": {"type": "Point", "coordinates": [-74.8085513182, 40.9223812125]}, "type": "Feature", "properties": {"collection_times": [{"days": "Mon-Fri", "time": "4:15pm"}, {"days": "Sat", "time": "12:15pm"}, {"days": "Sun", "time": "Closed"}], "id": "0782000004", "name": "USPS COLLECTION BOX - PO LOBBY", "address": {"city": "ALLAMUCHY", "state": "NJ", "street": "1 COUNTY ROAD 517", "postcode": "07820"}}},
{"geometry": {"type": "Point", "coordinates": [-74.7391074816, 40.9883343033]}, "type": "Feature", "properties": {"collection_times": [{"days": "Mon-Fri", "time": "5:00pm"}, {"days": "Sat", "time": "2:00pm"}, {"days": "Sun", "time": "Closed"}], "id": "0782100001", "name": "USPS COLLECTION BOX - BLUE BOX", "address": {"city": "ANDOVER", "state": "NJ", "street": "5 LENAPE RD", "postcode": "07821"}}},
{"geometry": {"type": "Point", "coordinates": [-74.7391074816, 40.9883343033]}, "type": "Feature", "properties": {"collection_times": [{"days": "Mon-Fri", "time": "5:00pm"}, {"days": "Sat", "time": "2:00pm"}, {"days": "Sun", "time": "Closed"}], "id": "0782100005", "name": "USPS COLLECTION BOX - PO LOBBY", "address": {"city": "ANDOVER", "state": "NJ", "street": "5 LENAPE RD", "postcode": "07821"}}},
{"geometry": {"type": "Point", "coordinates": [-74.7223844951, 41.1121487588]}, "type": "Feature", "properties": {"collection_times": [{"days": "Mon-Fri", "time": "4:30pm"}, {"days": "Sat", "time": "12:00pm"}, {"days": "Sun", "time": "Closed"}], "id": "0782200001", "name": "USPS COLLECTION BOX - BLUE BOX", "address": {"city": "AUGUSTA", "state": "NJ", "street": "33 US HIGHWAY 206", "postcode": "07822"}}},
{"geometry": {"type": "Point", "coordinates": [-74.7223844951, 41.1121487588]}, "type": "Feature", "properties": {"collection_times": [{"days": "Mon-Fri", "time": "4:30pm"}, {"days": "Sat", "time": "12:00pm"}, {"days": "Sun", "time": "Closed"}], "id": "0782200003", "name": "USPS COLLECTION BOX - PO LOBBY", "address": {"city": "AUGUSTA", "state": "NJ", "street": "33 US HIGHWAY 206 STE 101", "postcode": "07822"}}},
{"geometry": {"type": "Point", "coordinates": [-75.003631616, 40.8323914216]}, "type": "Feature", "properties": {"collection_times": [{"days": "Mon-Sat", "time": "10:00am"}, {"days": "Sun", "time": "Closed"}], "id": "0782300003", "name": "USPS COLLECTION BOX - BLUE BOX", "address": {"city": "BELVIDERE", "state": "NJ", "street": "525 US HIGHWAY 46", "postcode": "07823"}}},
{"geometry": {"type": "Point", "coordinates": [-75.0788916578, 40.8253369257]}, "type": "Feature", "properties": {"collection_times": [{"days": "Mon-Sat", "time": "11:00am"}, {"days": "Sun", "time": "Closed"}], "id": "0782300008", "name": "USPS COLLECTION BOX - BLUE BOX", "address": {"city": "BELVIDERE", "state": "NJ", "street": "336 GREENWICH ST", "postcode": "07823"}}},
{"geometry": {"type": "Point", "coordinates": [-75.0774372995, 40.8283546187]}, "type": "Feature", "properties": {"collection_times": [{"days": "Mon-Fri", "time": "5:00pm"}, {"days": "Sat", "time": "3:00pm"}, {"days": "Sun", "time": "Closed"}], "id": "0782300009", "name": "USPS COLLECTION BOX - BLUE BOX", "address": {"city": "BELVIDERE", "state": "NJ", "street": "111 MANSFIELD ST", "postcode": "07823"}}},
{"geometry": {"type": "Point", "coordinates": [-75.0774372995, 40.8283546187]}, "type": "Feature", "properties": {"collection_times": [{"days": "Mon-Fri", "time": "5:00pm"}, {"days": "Sat", "time": "3:00pm"}, {"days": "Sun", "time": "Closed"}], "id": "0782300010", "name": "USPS COLLECTION BOX - BLUE BOX", "address": {"city": "BELVIDERE", "state": "NJ", "street": "111 MANSFIELD ST", "postcode": "07823"}}},
{"geometry": {"type": "Point", "coordinates": [-75.0780904365, 40.82869142]}, "type": "Feature", "properties": {"collection_times": [{"days": "Mon-Fri", "time": "3:00pm"}, {"days": "Sat", "time": "2:00pm"}, {"days": "Sun", "time": "Closed"}], "id": "0782300014", "name": "USPS COLLECTION BOX - BLUE BOX", "address": {"city": "BELVIDERE", "state": "NJ", "street": "314 MILL ST", "postcode": "07823"}}},
{"geometry": {"type": "Point", "coordinates": [-75.0774372995, 40.8283546187]}, "type": "Feature", "properties": {"collection_times": [{"days": "Mon-Fri", "time": "5:00pm"}, {"days": "Sat", "time": "12:00pm"}, {"days": "Sun", "time": "Closed"}], "id": "0782300015", "name": "USPS COLLECTION BOX - PO LOBBY", "address": {"city": "BELVIDERE", "state": "NJ", "street": "111 MANSFIELD ST", "postcode": "07823"}}},
{"geometry": {"type": "Point", "coordinates": [-74.9592188232, 40.9832635245]}, "type": "Feature", "properties": {"collection_times": [{"days": "Mon-Fri", "time": "5:00pm"}, {"days": "Sat", "time": "2:00pm"}, {"days": "Sun", "time": "Closed"}], "id": "0782500001", "name": "USPS COLLECTION BOX - BLUE BOX", "address": {"city": "BLAIRSTOWN", "state": "NJ", "street": "39 MAIN ST", "postcode": "07825"}}},
{"geometry": {"type": "Point", "coordinates": [-74.9592188232, 40.9832635245]}, "type": "Feature", "properties": {"collection_times": [{"days": "Mon-Fri", "time": "5:00pm"}, {"days": "Sat", "time": "2:00pm"}, {"days": "Sun", "time": "Closed"}], "id": "0782500002", "name": "USPS COLLECTION BOX - BLUE BOX", "address": {"city": "BLAIRSTOWN", "state": "NJ", "street": "39 MAIN ST", "postcode": "07825"}}},
{"geometry": {"type": "Point", "coordinates": [-74.9592188232, 40.9832635245]}, "type": "Feature", "properties": {"collection_times": [{"days": "Mon-Fri", "time": "5:00pm"}, {"days": "Sat", "time": "2:00pm"}, {"days": "Sun", "time": "Closed"}], "id": "0782500003", "name": "USPS COLLECTION BOX - PO LOBBY", "address": {"city": "BLAIRSTOWN", "state": "NJ", "street": "39 MAIN ST", "postcode": "07825"}}},
{"geometry": {"type": "Point", "coordinates": [-74.7519643062, 41.1466550725]}, "type": "Feature", "properties": {"collection_times": [{"days": "Mon-Fri", "time": "5:00pm"}, {"days": "Sat", "time": "12:00pm"}, {"days": "Sun", "time": "Closed"}], "id": "0782600002", "name": "USPS COLLECTION BOX - BLUE BOX", "address": {"city": "BRANCHVILLE", "state": "NJ", "street": "1 BROAD ST", "postcode": "07826"}}},
{"geometry": {"type": "Point", "coordinates": [-74.7600016736, 41.1891719598]}, "type": "Feature", "properties": {"collection_times": [{"days": "Mon-Fri", "time": "4:00pm"}, {"days": "Sat", "time": "12:00pm"}, {"days": "Sun", "time": "Closed"}], "id": "0782600004", "name": "USPS COLLECTION BOX - BLUE BOX", "address": {"city": "BRANCHVILLE", "state": "NJ", "street": "264 CLOVE RD", "postcode": "07826"}}},
{"geometry": {"type": "Point", "coordinates": [-74.7519643062, 41.1466550725]}, "type": "Feature", "properties": {"collection_times": [{"days": "Mon-Fri", "time": "5:00pm"}, {"days": "Sat", "time": "12:00pm"}, {"days": "Sun", "time": "Closed"}], "id": "0782600005", "name": "USPS COLLECTION BOX - PO LOBBY", "address": {"city": "BRANCHVILLE", "state": "NJ", "street": "1 BROAD ST", "postcode": "07826"}}},
{"geometry": {"type": "Point", "coordinates": [-74.7246768793, 40.9015763434]}, "type": "Feature", "properties": {"collection_times": [{"days": "Mon-Fri", "time": "3:00pm"}, {"days": "Sat-Sun", "time": "Closed"}], "id": "0782800001", "name": "USPS COLLECTION BOX - BLUE BOX", "address": {"city": "BUDD LAKE", "state": "NJ", "street": "500 INTERNATIONAL DR", "postcode": "07828"}}},
{"geometry": {"type": "Point", "coordinates": [-74.7282987467, 40.8847928275]}, "type": "Feature", "properties": {"collection_times": [{"days": "Mon-Sat", "time": "3:00pm"}, {"days": "Sun", "time": "Closed"}], "id": "0782800003", "name": "USPS COLLECTION BOX - BLUE BOX", "address": {"city": "BUDD LAKE", "state": "NJ", "street": "100 US HIGHWAY 46", "postcode": "07828"}}},
{"geometry": {"type": "Point", "coordinates": [-74.7339835147, 40.8712384221]}, "type": "Feature", "properties": {"collection_times": [{"days": "Mon-Fri", "time": "5:00pm"}, {"days": "Sat", "time": "3:00pm"}, {"days": "Sun", "time": "Closed"}], "id": "0782800006", "name": "USPS COLLECTION BOX - BLUE BOX", "address": {"city": "BUDD LAKE", "state": "NJ", "street": "1 MOUNT OLIVE RD", "postcode": "07828"}}},
{"geometry": {"type": "Point", "coordinates": [-74.7339835147, 40.8712384221]}, "type": "Feature", "properties": {"collection_times": [{"days": "Mon-Fri", "time": "5:00pm"}, {"days": "Sat", "time": "11:00am"}, {"days": "Sun", "time": "Closed"}], "id": "0782800008", "name": "USPS COLLECTION BOX - BLUE BOX", "address": {"city": "BUDD LAKE", "state": "NJ", "street": "1 MOUNT OLIVE RD", "postcode": "07828"}}},
{"geometry": {"type": "Point", "coordinates": [-74.7339835147, 40.8712384221]}, "type": "Feature", "properties": {"collection_times": [{"days": "Mon-Fri", "time": "5:00pm"}, {"days": "Sat", "time": "3:00pm"}, {"days": "Sun", "time": "Closed"}], "id": "0782800012", "name": "USPS COLLECTION BOX - BLUE BOX", "address": {"city": "BUDD LAKE", "state": "NJ", "street": "1 MOUNT OLIVE RD", "postcode": "07828"}}},
{"geometry": {"type": "Point", "coordinates": [-74.7282987467, 40.8847928275]}, "type": "Feature", "properties": {"collection_times": [{"days": "Mon-Sat", "time": "3:00pm"}, {"days": "Sun", "time": "Closed"}], "id": "0782800013", "name": "USPS COLLECTION BOX - BLUE BOX", "address": {"city": "BUDD LAKE", "state": "NJ", "street": "100 US HIGHWAY 46", "postcode": "07828"}}},
{"geometry": {"type": "Point", "coordinates": [-74.7339835147, 40.8712384221]}, "type": "Feature", "properties": {"collection_times": [{"days": "Mon-Fri", "time": "5:00pm"}, {"days": "Sat", "time": "12:00pm"}, {"days": "Sun", "time": "Closed"}], "id": "0782800014", "name": "USPS COLLECTION BOX - PO LOBBY", "address": {"city": "BUDD LAKE", "state": "NJ", "street": "1 MOUNT OLIVE RD STE 102", "postcode": "07828"}}},
{"geometry": {"type": "Point", "coordinates": [-74.8369719222, 40.7199214091]}, "type": "Feature", "properties": {"collection_times": [{"days": "Mon-Fri", "time": "4:45pm"}, {"days": "Sat", "time": "3:00pm"}, {"days": "Sun", "time": "Closed"}], "id": "0783000001", "name": "USPS COLLECTION BOX - BLUE BOX", "address": {"city": "CALIFON", "state": "NJ", "street": "53 MAIN ST", "postcode": "07830"}}},
{"geometry": {"type": "Point", "coordinates": [-74.8369719222, 40.7199214091]}, "type": "Feature", "properties": {"collection_times": [{"days": "Mon-Fri", "time": "4:45pm"}, {"days": "Sat", "time": "3:00pm"}, {"days": "Sun", "time": "Closed"}], "id": "0783000002", "name": "USPS COLLECTION BOX - BLUE BOX", "address": {"city": "CALIFON", "state": "NJ", "street": "53 MAIN ST", "postcode": "07830"}}},
{"geometry": {"type": "Point", "coordinates": [-74.8369719222, 40.7199214091]}, "type": "Feature", "properties": {"collection_times": [{"days": "Mon-Fri", "time": "4:45pm"}, {"days": "Sat", "time": "3:00pm"}, {"days": "Sun", "time": "Closed"}], "id": "0783000003", "name": "USPS COLLECTION BOX - PO LOBBY", "address": {"city": "CALIFON", "state": "NJ", "street": "53 MAIN ST", "postcode": "07830"}}},
{"geometry": {"type": "Point", "coordinates": [-74.9428822788, 40.7359173875]}, "type": "Feature", "properties": {"collection_times": [{"days": "Mon-Fri", "time": "4:00pm"}, {"days": "Sat", "time": "12:00pm"}, {"days": "Sun", "time": "Closed"}], "id": "0783100001", "name": "USPS COLLECTION BOX - BLUE BOX", "address": {"city": "CHANGEWATER", "state": "NJ", "street": "11 MAIN ST", "postcode": "07831"}}},
{"geometry": {"type": "Point", "coordinates": [-75.0949924764, 40.9275202954]}, "type": "Feature", "properties": {"collection_times": [{"days": "Mon-Fri", "time": "4:00pm"}, {"days": "Sat", "time": "12:00pm"}, {"days": "Sun", "time": "Closed"}], "id": "0783200001", "name": "USPS COLLECTION BOX - BLUE BOX", "address": {"city": "COLUMBIA", "state": "NJ", "street": "27 DECATUR ST", "postcode": "07832"}}},
{"geometry": {"type": "Point", "coordinates": [-75.0973475207, 40.9310229619]}, "type": "Feature", "properties": {"collection_times": [{"days": "Mon-Sat", "time": "11:00am"}, {"days": "Sun", "time": "Closed"}], "id": "0783200002", "name": "USPS COLLECTION BOX - BLUE BOX", "address": {"city": "COLUMBIA", "state": "NJ", "street": "2 SIMPSON RD", "postcode": "07832"}}},
{"geometry": {"type": "Point", "coordinates": [-75.0949924764, 40.9275202954]}, "type": "Feature", "properties": {"collection_times": [{"days": "Mon-Fri", "time": "4:00pm"}, {"days": "Sat", "time": "12:00pm"}, {"days": "Sun", "time": "Closed"}], "id": "0783200004", "name": "USPS COLLECTION BOX - PO LOBBY", "address": {"city": "COLUMBIA", "state": "NJ", "street": "27 DECATUR ST", "postcode": "07832"}}},
{"geometry": {"type": "Point", "coordinates": [-75.0648353603, 40.8928146764]}, "type": "Feature", "properties": {"collection_times": [{"days": "Mon-Fri", "time": "4:00pm"}, {"days": "Sat", "time": "11:00am"}, {"days": "Sun", "time": "Closed"}], "id": "0783300001", "name": "USPS COLLECTION BOX - BLUE BOX", "address": {"city": "DELAWARE", "state": "NJ", "street": "9 CLINTON ST", "postcode": "07833"}}},
{"geometry": {"type": "Point", "coordinates": [-75.0648353603, 40.8928146764]}, "type": "Feature", "properties": {"collection_times": [{"days": "Mon-Fri", "time": "12:00pm"}, {"days": "Sat", "time": "11:00am"}, {"days": "Sun", "time": "Closed"}], "id": "0783300002", "name": "USPS COLLECTION BOX - PO LOBBY", "address": {"city": "DELAWARE", "state": "NJ", "street": "9 CLINTON ST", "postcode": "07833"}}},
{"geometry": {"type": "Point", "coordinates": [-74.478355546, 40.8943558062]}, "type": "Feature", "properties": {"collection_times": [{"days": "Mon-Fri", "time": "5:00pm"}, {"days": "Sat", "time": "3:00pm"}, {"days": "Sun", "time": "Closed"}], "id": "0783400001", "name": "USPS COLLECTION BOX - BLUE BOX", "address": {"city": "DENVILLE", "state": "NJ", "street": "18 CHURCH ST", "postcode": "07834"}}},
{"geometry": {"type": "Point", "coordinates": [-74.478355546, 40.8943558062]}, "type": "Feature", "properties": {"collection_times": [{"days": "Mon-Fri", "time": "5:00pm"}, {"days": "Sat", "time": "3:00pm"}, {"days": "Sun", "time": "Closed"}], "id": "0783400002", "name": "USPS COLLECTION BOX - BLUE BOX", "address": {"city": "DENVILLE", "state": "NJ", "street": "18 CHURCH ST", "postcode": "07834"}}},
{"geometry": {"type": "Point", "coordinates": [-74.478355546, 40.8943558062]}, "type": "Feature", "properties": {"collection_times": [{"days": "Mon-Fri", "time": "5:00pm"}, {"days": "Sat", "time": "3:00pm"}, {"days": "Sun", "time": "Closed"}], "id": "0783400003", "name": "USPS COLLECTION BOX - BLUE BOX", "address": {"city": "DENVILLE", "state": "NJ", "street": "18 CHURCH ST", "postcode": "07834"}}},
{"geometry": {"type": "Point", "coordinates": [-74.485048782, 40.8883911656]}, "type": "Feature", "properties": {"collection_times": [{"days": "Mon-Fri", "time": "5:00pm"}, {"days": "Sat", "time": "3:00pm"}, {"days": "Sun", "time": "Closed"}], "id": "0783400004", "name": "USPS COLLECTION BOX - EXPRESS", "address": {"city": "DENVILLE", "state": "NJ", "street": "18 CHURCH ST", "postcode": "07834"}}},
{"geometry": {"type": "Point", "coordinates": [-74.4746365322, 40.891511215]}, "type": "Feature", "properties": {"collection_times": [{"days": "Mon-Sat", "time": "11:00am"}, {"days": "Sun", "time": "Closed"}], "id": "0783400005", "name": "USPS COLLECTION BOX - BLUE BOX", "address": {"city": "DENVILLE", "state": "NJ", "street": "84 BROADWAY", "postcode": "07834"}}},
{"geometry": {"type": "Point", "coordinates": [-74.4814087631, 40.8735132522]}, "type": "Feature", "properties": {"collection_times": [{"days": "Mon-Sat", "time": "11:00am"}, {"days": "Sun", "time": "Closed"}], "id": "0783400007", "name": "USPS COLLECTION BOX - BLUE BOX", "address": {"city": "DENVILLE", "state": "NJ", "street": "559 E MAIN ST", "postcode": "07834"}}},
{"geometry": {"type": "Point", "coordinates": [-74.4655240405, 40.9032434802]}, "type": "Feature", "properties": {"collection_times": [{"days": "Mon-Sat", "time": "11:00am"}, {"days": "Sun", "time": "Closed"}], "id": "0783400011", "name": "USPS COLLECTION BOX - BLUE BOX", "address": {"city": "DENVILLE", "state": "NJ", "street": "295 DIAMOND SPRING RD", "postcode": "07834"}}},
{"geometry": {"type": "Point", "coordinates": [-74.4712779255, 40.8942835601]}, "type": "Feature", "properties": {"collection_times": [{"days": "Mon-Sat", "time": "11:00am"}, {"days": "Sun", "time": "Closed"}], "id": "0783400012", "name": "USPS COLLECTION BOX - BLUE BOX", "address": {"city": "DENVILLE", "state": "NJ", "street": "16 POCONO RD", "postcode": "07834"}}},
{"geometry": {"type": "Point", "coordinates": [-74.4772719556, 40.8921649662]}, "type": "Feature", "properties": {"collection_times": [{"days": "Mon-Sat", "time": "11:00am"}, {"days": "Sun", "time": "Closed"}], "id": "0783400013", "name": "USPS COLLECTION BOX - BLUE BOX", "address": {"city": "DENVILLE", "state": "NJ", "street": "30 BROADWAY", "postcode": "07834"}}},
{"geometry": {"type": "Point", "coordinates": [-74.4669981169, 40.8944136299]}, "type": "Feature", "properties": {"collection_times": [{"days": "Mon-Sat", "time": "11:00am"}, {"days": "Sun", "time": "Closed"}], "id": "0783400016", "name": "USPS COLLECTION BOX - BLUE BOX", "address": {"city": "DENVILLE", "state": "NJ", "street": "25 POCONO RD", "postcode": "07834"}}},
{"geometry": {"type": "Point", "coordinates": [-74.4712779255, 40.8942835601]}, "type": "Feature", "properties": {"collection_times": [{"days": "Mon-Sat", "time": "11:00am"}, {"days": "Sun", "time": "Closed"}], "id": "0783400017", "name": "USPS COLLECTION BOX - BLUE BOX", "address": {"city": "DENVILLE", "state": "NJ", "street": "16 POCONO RD", "postcode": "07834"}}},
{"geometry": {"type": "Point", "coordinates": [-74.478355546, 40.8943558062]}, "type": "Feature", "properties": {"collection_times": [{"days": "Mon-Fri", "time": "5:00pm"}, {"days": "Sat", "time": "3:00pm"}, {"days": "Sun", "time": "Closed"}], "id": "0783400018", "name": "USPS COLLECTION BOX - BLUE BOX", "address": {"city": "DENVILLE", "state": "NJ", "street": "18 CHURCH ST", "postcode": "07834"}}},
{"geometry": {"type": "Point", "coordinates": [-74.478355546, 40.8943558062]}, "type": "Feature", "properties": {"collection_times": [{"days": "Mon-Fri", "time": "5:00pm"}, {"days": "Sat", "time": "3:00pm"}, {"days": "Sun", "time": "Closed"}], "id": "0783400019", "name": "USPS COLLECTION BOX - BLUE BOX", "address": {"city": "DENVILLE", "state": "NJ", "street": "18 CHURCH ST", "postcode": "07834"}}},
{"geometry": {"type": "Point", "coordinates": [-74.478355546, 40.8943558062]}, "type": "Feature", "properties": {"collection_times": [{"days": "Mon-Fri", "time": "5:00pm"}, {"days": "Sat", "time": "3:00pm"}, {"days": "Sun", "time": "Closed"}], "id": "0783400020", "name": "USPS COLLECTION BOX - PO LOBBY", "address": {"city": "DENVILLE", "state": "NJ", "street": "18 CHURCH ST", "postcode": "07834"}}},
{"geometry": {"type": "Point", "coordinates": [-74.7092561342, 40.8317613598]}, "type": "Feature", "properties": {"collection_times": [{"days": "Mon-Fri", "time": "5:00pm"}, {"days": "Sat", "time": "2:00pm"}, {"days": "Sun", "time": "Closed"}], "id": "0783600001", "name": "USPS COLLECTION BOX - BLUE BOX", "address": {"city": "FLANDERS", "state": "NJ", "street": "240 US HIGHWAY 206", "postcode": "07836"}}},
{"geometry": {"type": "Point", "coordinates": [-74.7092561342, 40.8317613598]}, "type": "Feature", "properties": {"collection_times": [{"days": "Mon-Fri", "time": "5:00pm"}, {"days": "Sat", "time": "2:00pm"}, {"days": "Sun", "time": "Closed"}], "id": "0783600002", "name": "USPS COLLECTION BOX - BLUE BOX", "address": {"city": "FLANDERS", "state": "NJ", "street": "240 US HIGHWAY 206", "postcode": "07836"}}},
{"geometry": {"type": "Point", "coordinates": [-74.7068898882, 40.851354749]}, "type": "Feature", "properties": {"collection_times": [{"days": "Mon-Sat", "time": "11:00am"}, {"days": "Sun", "time": "Closed"}], "id": "0783600006", "name": "USPS COLLECTION BOX - BLUE BOX", "address": {"city": "FLANDERS", "state": "NJ", "street": "293 US HGY 206", "postcode": "07836"}}},
{"geometry": {"type": "Point", "coordinates": [-74.7092561342, 40.8317613598]}, "type": "Feature", "properties": {"collection_times": [{"days": "Mon-Fri", "time": "5:00pm"}, {"days": "Sat", "time": "2:00pm"}, {"days": "Sun", "time": "Closed"}], "id": "0783600007", "name": "USPS COLLECTION BOX - PO LOBBY", "address": {"city": "FLANDERS", "state": "NJ", "street": "240 US HIGHWAY 206", "postcode": "07836"}}},
{"geometry": {"type": "Point", "coordinates": [-74.6353661499, 40.9718401596]}, "type": "Feature", "properties": {"collection_times": [{"days": "Mon-Fri", "time": "4:30pm"}, {"days": "Sat", "time": "11:45am"}, {"days": "Sun", "time": "Closed"}], "id": "0783700001", "name": "USPS COLLECTION BOX - BLUE BOX", "address": {"city": "GLASSER", "state": "NJ", "street": "226 LAKESIDE AVE", "postcode": "07837"}}},
{"geometry": {"type": "Point", "coordinates": [-74.6353661499, 40.9718401596]}, "type": "Feature", "properties": {"collection_times": [{"days": "Mon-Fri", "time": "12:00pm"}, {"days": "Sat", "time": "12:30pm"}, {"days": "Sun", "time": "Closed"}], "id": "0783700003", "name": "USPS COLLECTION BOX - PO LOBBY", "address": {"city": "GLASSER", "state": "NJ", "street": "3 HOPATCONG ST", "postcode": "07837"}}},
{"geometry": {"type": "Point", "coordinates": [-74.9015346286, 40.8726283089]}, "type": "Feature", "properties": {"collection_times": [{"days": "Mon-Fri", "time": "4:30pm"}, {"days": "Sat", "time": "11:00am"}, {"days": "Sun", "time": "Closed"}], "id": "0783800001", "name": "USPS COLLECTION BOX - BLUE BOX", "address": {"city": "GREAT MEADOWS", "state": "NJ", "street": "4 REGINA LN", "postcode": "07838"}}},
{"geometry": {"type": "Point", "coordinates": [-74.9015346286, 40.8726283089]}, "type": "Feature", "properties": {"collection_times": [{"days": "Mon-Fri", "time": "4:30pm"}, {"days": "Sat", "time": "12:00pm"}, {"days": "Sun", "time": "Closed"}], "id": "0783800002", "name": "USPS COLLECTION BOX - PO LOBBY", "address": {"city": "GREAT MEADOWS", "state": "NJ", "street": "4 REGINA LN", "postcode": "07838"}}},
{"geometry": {"type": "Point", "coordinates": [-74.8198465591, 40.9748863227]}, "type": "Feature", "properties": {"collection_times": [{"days": "Mon-Fri", "time": "4:30pm"}, {"days": "Sat", "time": "11:00am"}, {"days": "Sun", "time": "Closed"}], "id": "0783900001", "name": "USPS COLLECTION BOX - BLUE BOX", "address": {"city": "GREENDELL", "state": "NJ", "street": "243 KENNEDY RD", "postcode": "07839"}}},
{"geometry": {"type": "Point", "coordinates": [-74.8198465591, 40.9748863227]}, "type": "Feature", "properties": {"collection_times": [{"days": "Mon-Fri", "time": "12:00pm"}, {"days": "Sat", "time": "11:00am"}, {"days": "Sun", "time": "Closed"}], "id": "0783900002", "name": "USPS COLLECTION BOX - PO LOBBY", "address": {"city": "GREENDELL", "state": "NJ", "street": "243 KENNEDY RD", "postcode": "07839"}}},
{"geometry": {"type": "Point", "coordinates": [-74.8326195714, 40.8553661606]}, "type": "Feature", "properties": {"collection_times": [{"days": "Mon-Sat", "time": "11:00am"}, {"days": "Sun", "time": "Closed"}], "id": "0784000007", "name": "USPS COLLECTION BOX - BLUE BOX", "address": {"city": "HACKETTSTOWN", "state": "NJ", "street": "176 MAIN ST", "postcode": "07840"}}},
{"geometry": {"type": "Point", "coordinates": [-74.8302622733, 40.8542771781]}, "type": "Feature", "properties": {"collection_times": [{"days": "Mon-Sat", "time": "11:00am"}, {"days": "Sun", "time": "Closed"}], "id": "0784000009", "name": "USPS COLLECTION BOX - BLUE BOX", "address": {"city": "HACKETTSTOWN", "state": "NJ", "street": "232 MAIN ST", "postcode": "07840"}}},
{"geometry": {"type": "Point", "coordinates": [-74.8225895071, 40.8312508603]}, "type": "Feature", "properties": {"collection_times": [{"days": "Mon-Sat", "time": "11:00am"}, {"days": "Sun", "time": "Closed"}], "id": "0784000018", "name": "USPS COLLECTION BOX - BLUE BOX", "address": {"city": "HACKETTSTOWN", "state": "NJ", "street": "486 SCHOOLEYS MOUNTAIN RD", "postcode": "07840"}}},
{"geometry": {"type": "Point", "coordinates": [-74.8348868777, 40.8232012862]}, "type": "Feature", "properties": {"collection_times": [{"days": "Mon-Sat", "time": "11:00am"}, {"days": "Sun", "time": "Closed"}], "id": "0784000019", "name": "USPS COLLECTION BOX - BLUE BOX", "address": {"city": "HACKETTSTOWN", "state": "NJ", "street": "1965 STATE ROUTE 57", "postcode": "07840"}}},
{"geometry": {"type": "Point", "coordinates": [-74.8298408159, 40.8537766961]}, "type": "Feature", "properties": {"collection_times": [{"days": "Mon-Fri", "time": "5:00pm"}, {"days": "Sat", "time": "3:00pm"}, {"days": "Sun", "time": "Closed"}], "id": "0784000036", "name": "USPS COLLECTION BOX - BLUE BOX", "address": {"city": "HACKETTSTOWN", "state": "NJ", "street": "120 GRAND AVE", "postcode": "07840"}}},
{"geometry": {"type": "Point", "coordinates": [-74.8298408159, 40.8537766961]}, "type": "Feature", "properties": {"collection_times": [{"days": "Mon-Fri", "time": "5:00pm"}, {"days": "Sat", "time": "3:00pm"}, {"days": "Sun", "time": "Closed"}], "id": "0784000037", "name": "USPS COLLECTION BOX - BLUE BOX", "address": {"city": "HACKETTSTOWN", "state": "NJ", "street": "120 GRAND AVE", "postcode": "07840"}}},
{"geometry": {"type": "Point", "coordinates": [-74.8298408159, 40.8537766961]}, "type": "Feature", "properties": {"collection_times": [{"days": "Mon-Fri", "time": "5:00pm"}, {"days": "Sat", "time": "3:00pm"}, {"days": "Sun", "time": "Closed"}], "id": "0784000039", "name": "USPS COLLECTION BOX - BLUE BOX", "address": {"city": "HACKETTSTOWN", "state": "NJ", "street": "120 GRAND AVE", "postcode": "07840"}}},
{"geometry": {"type": "Point", "coordinates": [-74.8133112468, 40.8621909706]}, "type": "Feature", "properties": {"collection_times": [{"days": "Mon-Sat", "time": "11:00am"}, {"days": "Sun", "time": "Closed"}], "id": "0784000045", "name": "USPS COLLECTION BOX - BLUE BOX", "address": {"city": "HACKETTSTOWN", "state": "NJ", "street": "653 WILLOW GROVE ST", "postcode": "07840"}}},
{"geometry": {"type": "Point", "coordinates": [-74.8298408159, 40.8537766961]}, "type": "Feature", "properties": {"collection_times": [{"days": "Mon-Fri", "time": "4:30pm"}, {"days": "Sat", "time": "3:00pm"}, {"days": "Sun", "time": "Closed"}], "id": "0784000049", "name": "USPS COLLECTION BOX - PO LOBBY", "address": {"city": "HACKETTSTOWN", "state": "NJ", "street": "120 GRAND AVE", "postcode": "07840"}}},
{"geometry": {"type": "Point", "coordinates": [-74.4994112321, 40.9519704812]}, "type": "Feature", "properties": {"collection_times": [{"days": "Mon-Fri", "time": "4:30pm"}, {"days": "Sat", "time": "12:00pm"}, {"days": "Sun", "time": "Closed"}], "id": "0784200001", "name": "USPS COLLECTION BOX - BLUE BOX", "address": {"city": "HIBERNIA", "state": "NJ", "street": "328 GREENPOND RD", "postcode": "07842"}}},
{"geometry": {"type": "Point", "coordinates": [-74.4994112321, 40.9519704812]}, "type": "Feature", "properties": {"collection_times": [{"days": "Mon-Fri", "time": "4:30pm"}, {"days": "Sat", "time": "12:00pm"}, {"days": "Sun", "time": "Closed"}], "id": "0784200002", "name": "USPS COLLECTION BOX - PO LOBBY", "address": {"city": "HIBERNIA", "state": "NJ", "street": "328 GREEN POND RD", "postcode": "07842"}}},
{"geometry": {"type": "Point", "coordinates": [-74.6589072215, 40.9372712057]}, "type": "Feature", "properties": {"collection_times": [{"days": "Mon-Fri", "time": "5:00pm"}, {"days": "Sat", "time": "3:00pm"}, {"days": "Sun", "time": "Closed"}], "id": "0784300001", "name": "USPS COLLECTION BOX - BLUE BOX", "address": {"city": "HOPATCONG", "state": "NJ", "street": "32 DURBAN AVE", "postcode": "07843"}}},
{"geometry": {"type": "Point", "coordinates": [-74.6589072215, 40.9372712057]}, "type": "Feature", "properties": {"collection_times": [{"days": "Mon-Fri", "time": "5:00pm"}, {"days": "Sat", "time": "3:00pm"}, {"days": "Sun", "time": "Closed"}], "id": "0784300002", "name": "USPS COLLECTION BOX - BLUE BOX", "address": {"city": "HOPATCONG", "state": "NJ", "street": "32 DURBAN AVE", "postcode": "07843"}}},
{"geometry": {"type": "Point", "coordinates": [-74.6589072215, 40.9372712057]}, "type": "Feature", "properties": {"collection_times": [{"days": "Mon-Fri", "time": "4:30pm"}, {"days": "Sat", "time": "12:00pm"}, {"days": "Sun", "time": "Closed"}], "id": "0784300003", "name": "USPS COLLECTION BOX - PO LOBBY", "address": {"city": "HOPATCONG", "state": "NJ", "street": "32 DURBAN AVE", "postcode": "07843"}}},
{"geometry": {"type": "Point", "coordinates": [-74.9676579278, 40.9152730251]}, "type": "Feature", "properties": {"collection_times": [{"days": "Mon-Fri", "time": "4:30pm"}, {"days": "Sat", "time": "12:00pm"}, {"days": "Sun", "time": "Closed"}], "id": "0784400001", "name": "USPS COLLECTION BOX - BLUE BOX", "address": {"city": "HOPE", "state": "NJ", "street": "10 BLAIRSTOWN RD", "postcode": "07844"}}},
{"geometry": {"type": "Point", "coordinates": [-74.9676579278, 40.9152730251]}, "type": "Feature", "properties": {"collection_times": [{"days": "Mon-Fri", "time": "4:30pm"}, {"days": "Sat", "time": "12:00pm"}, {"days": "Sun", "time": "Closed"}], "id": "0784400002", "name": "USPS COLLECTION BOX - PO LOBBY", "address": {"city": "HOPE", "state": "NJ", "street": "10 BLAIRSTOWN RD", "postcode": "07844"}}},
{"geometry": {"type": "Point", "coordinates": [-74.6167936482, 40.8283863385]}, "type": "Feature", "properties": {"collection_times": [{"days": "Mon-Fri", "time": "4:30pm"}, {"days": "Sat", "time": "12:00pm"}, {"days": "Sun", "time": "Closed"}], "id": "0784500001", "name": "USPS COLLECTION BOX - BLUE BOX", "address": {"city": "IRONIA", "state": "NJ", "street": "389 DOVER CHESTER RD", "postcode": "07845"}}},
{"geometry": {"type": "Point", "coordinates": [-74.6167936482, 40.8283863385]}, "type": "Feature", "properties": {"collection_times": [{"days": "Mon-Fri", "time": "4:30pm"}, {"days": "Sat", "time": "11:00am"}, {"days": "Sun", "time": "Closed"}], "id": "0784500002", "name": "USPS COLLECTION BOX - PO LOBBY", "address": {"city": "IRONIA", "state": "NJ", "street": "389 DOVER CHESTER RD", "postcode": "07845"}}},
{"geometry": {"type": "Point", "coordinates": [-74.8739230574, 40.966510795]}, "type": "Feature", "properties": {"collection_times": [{"days": "Mon-Sat", "time": "10:30am"}, {"days": "Sun", "time": "Closed"}], "id": "0784600001", "name": "USPS COLLECTION BOX - BLUE BOX", "address": {"city": "JOHNSONBURG", "state": "NJ", "street": "210 MAIN ST", "postcode": "07846"}}},
{"geometry": {"type": "Point", "coordinates": [-74.6294157461, 40.8793779336]}, "type": "Feature", "properties": {"collection_times": [{"days": "Mon-Fri", "time": "12:30pm"}, {"days": "Sat", "time": "12:00pm"}, {"days": "Sun", "time": "Closed"}], "id": "0784700001", "name": "USPS COLLECTION BOX - BLUE BOX", "address": {"city": "KENVIL", "state": "NJ", "street": "708 US HIGHWAY 46", "postcode": "07847"}}},
{"geometry": {"type": "Point", "coordinates": [-74.6294157461, 40.8793779336]}, "type": "Feature", "properties": {"collection_times": [{"days": "Mon-Fri", "time": "12:30pm"}, {"days": "Sat", "time": "12:00pm"}, {"days": "Sun", "time": "Closed"}], "id": "0784700002", "name": "USPS COLLECTION BOX - PO LOBBY", "address": {"city": "KENVIL", "state": "NJ", "street": "708 US HIGHWAY 46", "postcode": "07847"}}},
{"geometry": {"type": "Point", "coordinates": [-74.6839110152, 41.0920860025]}, "type": "Feature", "properties": {"collection_times": [{"days": "Mon-Fri", "time": "4:30pm"}, {"days": "Sat", "time": "2:00pm"}, {"days": "Sun", "time": "Closed"}], "id": "0784800002", "name": "USPS COLLECTION BOX - BLUE BOX", "address": {"city": "LAFAYETTE", "state": "NJ", "street": "96 STATE ROUTE 15", "postcode": "07848"}}},
{"geometry": {"type": "Point", "coordinates": [-74.6839110152, 41.0920860025]}, "type": "Feature", "properties": {"collection_times": [{"days": "Mon-Fri", "time": "4:30pm"}, {"days": "Sat", "time": "2:00pm"}, {"days": "Sun", "time": "Closed"}], "id": "0784800005", "name": "USPS COLLECTION BOX - PO LOBBY", "address": {"city": "LAFAYETTE", "state": "NJ", "street": "96 STATE ROUTE 15", "postcode": "07848"}}},
{"geometry": {"type": "Point", "coordinates": [-74.5970178014, 40.9566164703]}, "type": "Feature", "properties": {"collection_times": [{"days": "Mon-Fri", "time": "4:30pm"}, {"days": "Sat", "time": "3:00pm"}, {"days": "Sun", "time": "Closed"}], "id": "0784900002", "name": "USPS COLLECTION BOX - BLUE BOX", "address": {"city": "LAKE HOPATCONG", "state": "NJ", "street": "700 STATE ROUTE 15 S", "postcode": "07849"}}},
{"geometry": {"type": "Point", "coordinates": [-74.6149296864, 40.9627211747]}, "type": "Feature", "properties": {"collection_times": [{"days": "Mon-Fri", "time": "4:30pm"}, {"days": "Sat", "time": "3:00pm"}, {"days": "Sun", "time": "Closed"}], "id": "0784900003", "name": "USPS COLLECTION BOX - EXPRESS", "address": {"city": "LAKE HOPATCONG", "state": "NJ", "street": "700 STATE ROUTE 15 S", "postcode": "07849"}}},
{"geometry": {"type": "Point", "coordinates": [-74.5970178014, 40.9566164703]}, "type": "Feature", "properties": {"collection_times": [{"days": "Mon-Fri", "time": "5:00pm"}, {"days": "Sat", "time": "1:00pm"}, {"days": "Sun", "time": "Closed"}], "id": "0784900004", "name": "USPS COLLECTION BOX - PO LOBBY", "address": {"city": "LAKE HOPATCONG", "state": "NJ", "street": "700 STATE ROUTE 15 S", "postcode": "07849"}}},
{"geometry": {"type": "Point", "coordinates": [-74.6654665315, 40.9070891765]}, "type": "Feature", "properties": {"collection_times": [{"days": "Mon-Fri", "time": "5:00pm"}, {"days": "Sat", "time": "3:00pm"}, {"days": "Sun", "time": "Closed"}], "id": "0785000001", "name": "USPS COLLECTION BOX - BLUE BOX", "address": {"city": "LANDING", "state": "NJ", "street": "130 LAKESIDE BLVD", "postcode": "07850"}}},
{"geometry": {"type": "Point", "coordinates": [-74.6654665315, 40.9070891765]}, "type": "Feature", "properties": {"collection_times": [{"days": "Mon-Fri", "time": "5:00pm"}, {"days": "Sat", "time": "3:00pm"}, {"days": "Sun", "time": "Closed"}], "id": "0785000002", "name": "USPS COLLECTION BOX - PO LOBBY", "address": {"city": "LANDING", "state": "NJ", "street": "130 LAKESIDE BLVD", "postcode": "07850"}}},
{"geometry": {"type": "Point", "coordinates": [-74.8272584669, 41.2155158253]}, "type": "Feature", "properties": {"collection_times": [{"days": "Mon-Fri", "time": "4:30pm"}, {"days": "Sat", "time": "11:00am"}, {"days": "Sun", "time": "Closed"}], "id": "0785100001", "name": "USPS COLLECTION BOX - BLUE BOX", "address": {"city": "LAYTON", "state": "NJ", "street": "122 ROUTE 560", "postcode": "07851"}}},
{"geometry": {"type": "Point", "coordinates": [-74.815543308, 41.2000182497]}, "type": "Feature", "properties": {"collection_times": [{"days": "Mon-Fri", "time": "11:15am"}, {"days": "Sat", "time": "11:30am"}, {"days": "Sun", "time": "Closed"}], "id": "0785100002", "name": "USPS COLLECTION BOX - PO LOBBY", "address": {"city": "LAYTON", "state": "NJ", "street": "122 COUNTY ROAD 560", "postcode": "07851"}}},
{"geometry": {"type": "Point", "coordinates": [-74.6475872897, 40.8790577809]}, "type": "Feature", "properties": {"collection_times": [{"days": "Mon-Fri", "time": "5:00pm"}, {"days": "Sat", "time": "12:00pm"}, {"days": "Sun", "time": "Closed"}], "id": "0785200001", "name": "USPS COLLECTION BOX - BLUE BOX", "address": {"city": "LEDGEWOOD", "state": "NJ", "street": "1070 US HIGHWAY 46", "postcode": "07852"}}},
{"geometry": {"type": "Point", "coordinates": [-74.6475872897, 40.8790577809]}, "type": "Feature", "properties": {"collection_times": [{"days": "Mon-Fri", "time": "5:00pm"}, {"days": "Sat", "time": "12:00pm"}, {"days": "Sun", "time": "Closed"}], "id": "0785200002", "name": "USPS COLLECTION BOX - PO LOBBY", "address": {"city": "LEDGEWOOD", "state": "NJ", "street": "1070 US HIGHWAY 46", "postcode": "07852"}}},
{"geometry": {"type": "Point", "coordinates": [-74.7681154297, 40.7834119997]}, "type": "Feature", "properties": {"collection_times": [{"days": "Mon-Fri", "time": "5:00pm"}, {"days": "Sat", "time": "3:00pm"}, {"days": "Sun", "time": "Closed"}], "id": "0785300001", "name": "USPS COLLECTION BOX - BLUE BOX", "address": {"city": "LONG VALLEY", "state": "NJ", "street": "3 OLD FARMERS RD", "postcode": "07853"}}},
{"geometry": {"type": "Point", "coordinates": [-74.7681154297, 40.7834119997]}, "type": "Feature", "properties": {"collection_times": [{"days": "Mon-Fri", "time": "5:00pm"}, {"days": "Sat", "time": "3:00pm"}, {"days": "Sun", "time": "Closed"}], "id": "0785300002", "name": "USPS COLLECTION BOX - BLUE BOX", "address": {"city": "LONG VALLEY", "state": "NJ", "street": "3 OLD FARMERS RD", "postcode": "07853"}}},
{"geometry": {"type": "Point", "coordinates": [-74.7681154297, 40.7834119997]}, "type": "Feature", "properties": {"collection_times": [{"days": "Mon-Fri", "time": "4:45pm"}, {"days": "Sat", "time": "12:00pm"}, {"days": "Sun", "time": "Closed"}], "id": "0785300003", "name": "USPS COLLECTION BOX - PO LOBBY", "address": {"city": "LONG VALLEY", "state": "NJ", "street": "3 OLD FARMERS RD", "postcode": "07853"}}},
{"geometry": {"type": "Point", "coordinates": [-74.7534859535, 41.0572378636]}, "type": "Feature", "properties": {"collection_times": [{"days": "Mon-Fri", "time": "4:00pm"}, {"days": "Sat", "time": "11:00am"}, {"days": "Sun", "time": "Closed"}], "id": "0785500001", "name": "USPS COLLECTION BOX - BLUE BOX", "address": {"city": "MIDDLEVILLE", "state": "NJ", "street": "904 ROUTE 521", "postcode": "07855"}}},
{"geometry": {"type": "Point", "coordinates": [-74.6337052662, 40.9283481321]}, "type": "Feature", "properties": {"collection_times": [{"days": "Mon-Fri", "time": "5:00pm"}, {"days": "Sat", "time": "3:00pm"}, {"days": "Sun", "time": "Closed"}], "id": "0785600001", "name": "USPS COLLECTION BOX - BLUE BOX", "address": {"city": "MOUNT ARLINGTON", "state": "NJ", "street": "385 HOWARD BLVD", "postcode": "07856"}}},
{"geometry": {"type": "Point", "coordinates": [-74.63412, 40.900814]}, "type": "Feature", "properties": {"collection_times": [{"days": "Mon-Fri", "time": "3:00pm"}, {"days": "Sat", "time": "11:00am"}, {"days": "Sun", "time": "Closed"}], "id": "0785600002", "name": "USPS COLLECTION BOX - BLUE BOX", "address": {"city": "MOUNT ARLINGTON", "state": "NJ", "street": "10 SEASONS DR", "postcode": "07856"}}},
{"geometry": {"type": "Point", "coordinates": [-74.6337052662, 40.9283481321]}, "type": "Feature", "properties": {"collection_times": [{"days": "Mon-Fri", "time": "5:00pm"}, {"days": "Sat", "time": "12:00pm"}, {"days": "Sun", "time": "Closed"}], "id": "0785600003", "name": "USPS COLLECTION BOX - PO LOBBY", "address": {"city": "MOUNT ARLINGTON", "state": "NJ", "street": "385 HOWARD BLVD", "postcode": "07856"}}},
{"geometry": {"type": "Point", "coordinates": [-74.7050187644, 40.8987422181]}, "type": "Feature", "properties": {"collection_times": [{"days": "Mon-Fri", "time": "5:00pm"}, {"days": "Sat", "time": "3:00pm"}, {"days": "Sun", "time": "Closed"}], "id": "0785700001", "name": "USPS COLLECTION BOX - BLUE BOX", "address": {"city": "NETCONG", "state": "NJ", "street": "18 MAPLE AVE", "postcode": "07857"}}},
{"geometry": {"type": "Point", "coordinates": [-74.7066512478, 40.8982359116]}, "type": "Feature", "properties": {"collection_times": [{"days": "Mon-Sat", "time": "11:00am"}, {"days": "Sun", "time": "Closed"}], "id": "0785700006", "name": "USPS COLLECTION BOX - BLUE BOX", "address": {"city": "NETCONG", "state": "NJ", "street": "75 MAIN ST", "postcode": "07857"}}},
{"geometry": {"type": "Point", "coordinates": [-74.693232503, 40.896119896]}, "type": "Feature", "properties": {"collection_times": [{"days": "Mon-Sat", "time": "11:00am"}, {"days": "Sun", "time": "Closed"}], "id": "0785700007", "name": "USPS COLLECTION BOX - BLUE BOX", "address": {"city": "NETCONG", "state": "NJ", "street": "2 NETCONG HTS", "postcode": "07857"}}},
{"geometry": {"type": "Point", "coordinates": [-74.7050187644, 40.8987422181]}, "type": "Feature", "properties": {"collection_times": [{"days": "Mon-Fri", "time": "4:30pm"}, {"days": "Sat", "time": "12:00pm"}, {"days": "Sun", "time": "Closed"}], "id": "0785700009", "name": "USPS COLLECTION BOX - PO LOBBY", "address": {"city": "NETCONG", "state": "NJ", "street": "18 MAPLE AVE", "postcode": "07857"}}},
{"geometry": {"type": "Point", "coordinates": [-74.7538408192, 41.056842796]}, "type": "Feature", "properties": {"collection_times": [{"days": "Mon-Fri", "time": "5:00pm"}, {"days": "Sat", "time": "3:00pm"}, {"days": "Sun", "time": "Closed"}], "id": "0786000004", "name": "USPS COLLECTION BOX - BLUE BOX", "address": {"city": "NEWTON", "state": "NJ", "street": "39 MAIN ST", "postcode": "07860"}}},
{"geometry": {"type": "Point", "coordinates": [-74.749137233, 41.0543084747]}, "type": "Feature", "properties": {"collection_times": [{"days": "Mon-Sat", "time": "11:00am"}, {"days": "Sun", "time": "Closed"}], "id": "0786000005", "name": "USPS COLLECTION BOX - BLUE BOX", "address": {"city": "NEWTON", "state": "NJ", "street": "267 SPRING ST", "postcode": "07860"}}},
{"geometry": {"type": "Point", "coordinates": [-74.754818328, 41.0578563404]}, "type": "Feature", "properties": {"collection_times": [{"days": "Mon-Sat", "time": "11:00am"}, {"days": "Sun", "time": "Closed"}], "id": "0786000029", "name": "USPS COLLECTION BOX - BLUE BOX", "address": {"city": "NEWTON", "state": "NJ", "street": "39 HIGH ST", "postcode": "07860"}}},
{"geometry": {"type": "Point", "coordinates": [-74.7534609589, 41.0581579254]}, "type": "Feature", "properties": {"collection_times": [{"days": "Mon-Sat", "time": "11:00am"}, {"days": "Sun", "time": "Closed"}], "id": "0786000032", "name": "USPS COLLECTION BOX - BLUE BOX", "address": {"city": "NEWTON", "state": "NJ", "street": "27 US HIGHWAY 206", "postcode": "07860"}}},
{"geometry": {"type": "Point", "coordinates": [-74.7509448879, 41.0584293066]}, "type": "Feature", "properties": {"collection_times": [{"days": "Mon-Sat", "time": "11:00am"}, {"days": "Sun", "time": "Closed"}], "id": "0786000034", "name": "USPS COLLECTION BOX - BLUE BOX", "address": {"city": "NEWTON", "state": "NJ", "street": "28 TRINITY ST", "postcode": "07860"}}},
{"geometry": {"type": "Point", "coordinates": [-74.7523791151, 41.0580568111]}, "type": "Feature", "properties": {"collection_times": [{"days": "Mon-Sat", "time": "11:00am"}, {"days": "Sun", "time": "Closed"}], "id": "0786000036", "name": "USPS COLLECTION BOX - BLUE BOX", "address": {"city": "NEWTON", "state": "NJ", "street": "93 SPRING ST", "postcode": "07860"}}},
{"geometry": {"type": "Point", "coordinates": [-74.7538408192, 41.056842796]}, "type": "Feature", "properties": {"collection_times": [{"days": "Mon-Fri", "time": "5:00pm"}, {"days": "Sat", "time": "4:00pm"}, {"days": "Sun", "time": "Closed"}], "id": "0786000039", "name": "USPS COLLECTION BOX - PO LOBBY", "address": {"city": "NEWTON", "state": "NJ", "street": "39 MAIN ST", "postcode": "07860"}}},
{"geometry": {"type": "Point", "coordinates": [-74.9927055148, 40.8029544441]}, "type": "Feature", "properties": {"collection_times": [{"days": "Mon-Fri", "time": "4:00pm"}, {"days": "Sat", "time": "3:00pm"}, {"days": "Sun", "time": "Closed"}], "id": "0786300001", "name": "USPS COLLECTION BOX - BLUE BOX", "address": {"city": "OXFORD", "state": "NJ", "street": "170 STATE ROUTE 31 N", "postcode": "07863"}}},
{"geometry": {"type": "Point", "coordinates": [-74.9927055148, 40.8029544441]}, "type": "Feature", "properties": {"collection_times": [{"days": "Mon-Fri", "time": "4:00pm"}, {"days": "Sat", "time": "3:00pm"}, {"days": "Sun", "time": "Closed"}], "id": "0786300002", "name": "USPS COLLECTION BOX - PO LOBBY", "address": {"city": "OXFORD", "state": "NJ", "street": "170 STATE ROUTE 31 N", "postcode": "07863"}}},
{"geometry": {"type": "Point", "coordinates": [-74.9155647622, 40.7939381253]}, "type": "Feature", "properties": {"collection_times": [{"days": "Mon-Fri", "time": "3:00pm"}, {"days": "Sat", "time": "12:00pm"}, {"days": "Sun", "time": "Closed"}], "id": "0786500001", "name": "USPS COLLECTION BOX - BLUE BOX", "address": {"city": "PORT MURRAY", "state": "NJ", "street": "218 MAIN ST", "postcode": "07865"}}},
{"geometry": {"type": "Point", "coordinates": [-74.9155647622, 40.7939381253]}, "type": "Feature", "properties": {"collection_times": [{"days": "Mon-Fri", "time": "3:15pm"}, {"days": "Sat", "time": "12:00pm"}, {"days": "Sun", "time": "Closed"}], "id": "0786500002", "name": "USPS COLLECTION BOX - PO LOBBY", "address": {"city": "PORT MURRAY", "state": "NJ", "street": "218 MAIN ST", "postcode": "07865"}}},
{"geometry": {"type": "Point", "coordinates": [-74.5283769659, 40.9126289734]}, "type": "Feature", "properties": {"collection_times": [{"days": "Mon-Sat", "time": "11:00am"}, {"days": "Sun", "time": "Closed"}], "id": "0786600001", "name": "USPS COLLECTION BOX - BLUE BOX", "address": {"city": "ROCKAWAY", "state": "NJ", "street": "65 MOUNT HOPE RD", "postcode": "07866"}}},
{"geometry": {"type": "Point", "coordinates": [-74.5114341566, 40.9260687909]}, "type": "Feature", "properties": {"collection_times": [{"days": "Mon-Sat", "time": "11:00am"}, {"days": "Sun", "time": "Closed"}], "id": "0786600004", "name": "USPS COLLECTION BOX - BLUE BOX", "address": {"city": "ROCKAWAY", "state": "NJ", "street": "100 WHITE MEADOW RD", "postcode": "07866"}}},
{"geometry": {"type": "Point", "coordinates": [-74.5080099614, 40.9037650619]}, "type": "Feature", "properties": {"collection_times": [{"days": "Mon-Sat", "time": "11:00am"}, {"days": "Sun", "time": "Closed"}], "id": "0786600015", "name": "USPS COLLECTION BOX - BLUE BOX", "address": {"city": "ROCKAWAY", "state": "NJ", "street": "14 UNION ST", "postcode": "07866"}}},
{"geometry": {"type": "Point", "coordinates": [-74.5130037205, 40.8998877304]}, "type": "Feature", "properties": {"collection_times": [{"days": "Mon-Fri", "time": "5:00pm"}, {"days": "Sat", "time": "3:00pm"}, {"days": "Sun", "time": "Closed"}], "id": "0786600019", "name": "USPS COLLECTION BOX - BLUE BOX", "address": {"city": "ROCKAWAY", "state": "NJ", "street": "1 BANK ST", "postcode": "07866"}}},
{"geometry": {"type": "Point", "coordinates": [-74.5130037205, 40.8998877304]}, "type": "Feature", "properties": {"collection_times": [{"days": "Mon-Fri", "time": "5:00pm"}, {"days": "Sat", "time": "3:00pm"}, {"days": "Sun", "time": "Closed"}], "id": "0786600025", "name": "USPS COLLECTION BOX - BLUE BOX", "address": {"city": "ROCKAWAY", "state": "NJ", "street": "1 BANK ST", "postcode": "07866"}}},
{"geometry": {"type": "Point", "coordinates": [-74.5399381043, 40.9079783258]}, "type": "Feature", "properties": {"collection_times": [{"days": "Mon-Sat", "time": "11:00am"}, {"days": "Sun", "time": "Closed"}], "id": "0786600026", "name": "USPS COLLECTION BOX - BLUE BOX", "address": {"city": "ROCKAWAY", "state": "NJ", "street": "75 FLEETWOOD DR", "postcode": "07866"}}},
{"geometry": {"type": "Point", "coordinates": [-74.5130037205, 40.8998877304]}, "type": "Feature", "properties": {"collection_times": [{"days": "Mon-Fri", "time": "4:30pm"}, {"days": "Sat", "time": "12:00pm"}, {"days": "Sun", "time": "Closed"}], "id": "0786600027", "name": "USPS COLLECTION BOX - PO LOBBY", "address": {"city": "ROCKAWAY", "state": "NJ", "street": "1 BANK ST STE 9", "postcode": "07866"}}},
{"geometry": {"type": "Point", "coordinates": [-74.8131077758, 40.7990485487]}, "type": "Feature", "properties": {"collection_times": [{"days": "Mon-Fri", "time": "4:30pm"}, {"days": "Sat", "time": "12:00pm"}, {"days": "Sun", "time": "Closed"}], "id": "0787000002", "name": "USPS COLLECTION BOX - PO LOBBY", "address": {"city": "SCHOOLEYS MTN", "state": "NJ", "street": "250 SCHOOLEYS MOUNTAIN RD", "postcode": "07870"}}},
{"geometry": {"type": "Point", "coordinates": [-74.636172909, 41.036522875]}, "type": "Feature", "properties": {"collection_times": [{"days": "Mon-Fri", "time": "5:00pm"}, {"days": "Sat", "time": "3:00pm"}, {"days": "Sun", "time": "Closed"}], "id": "0787100001", "name": "USPS COLLECTION BOX - EXPRESS", "address": {"city": "SPARTA", "state": "NJ", "street": "2 MAIN ST", "postcode": "07871"}}},
{"geometry": {"type": "Point", "coordinates": [-74.636172909, 41.036522875]}, "type": "Feature", "properties": {"collection_times": [{"days": "Mon-Fri", "time": "5:00pm"}, {"days": "Sat", "time": "3:00pm"}, {"days": "Sun", "time": "Closed"}], "id": "0787100002", "name": "USPS COLLECTION BOX - BLUE BOX", "address": {"city": "SPARTA", "state": "NJ", "street": "2 MAIN ST", "postcode": "07871"}}},
{"geometry": {"type": "Point", "coordinates": [-74.636172909, 41.036522875]}, "type": "Feature", "properties": {"collection_times": [{"days": "Mon-Fri", "time": "5:00pm"}, {"days": "Sat", "time": "3:00pm"}, {"days": "Sun", "time": "Closed"}], "id": "0787100004", "name": "USPS COLLECTION BOX - BLUE BOX", "address": {"city": "SPARTA", "state": "NJ", "street": "2 MAIN ST", "postcode": "07871"}}},
{"geometry": {"type": "Point", "coordinates": [-74.6311585203, 41.0254063279]}, "type": "Feature", "properties": {"collection_times": [{"days": "Mon-Sat", "time": "10:00am"}, {"days": "Sun", "time": "Closed"}], "id": "0787100007", "name": "USPS COLLECTION BOX - BLUE BOX", "address": {"city": "SPARTA", "state": "NJ", "street": "191 WOODPORT RD", "postcode": "07871"}}},
{"geometry": {"type": "Point", "coordinates": [-74.6525523076, 41.0386965595]}, "type": "Feature", "properties": {"collection_times": [{"days": "Mon-Sat", "time": "10:00am"}, {"days": "Sun", "time": "Closed"}], "id": "0787100009", "name": "USPS COLLECTION BOX - BLUE BOX", "address": {"city": "SPARTA", "state": "NJ", "street": "270 SPARTA AVE", "postcode": "07871"}}},
{"geometry": {"type": "Point", "coordinates": [-74.6246434854, 41.0467766235]}, "type": "Feature", "properties": {"collection_times": [{"days": "Mon-Sat", "time": "1:30pm"}, {"days": "Sun", "time": "Closed"}], "id": "0787100021", "name": "USPS COLLECTION BOX - BLUE BOX", "address": {"city": "SPARTA", "state": "NJ", "street": "30 C VILLAGE GRN", "postcode": "07871"}}},
{"geometry": {"type": "Point", "coordinates": [-74.6413050802, 41.0386074922]}, "type": "Feature", "properties": {"collection_times": [{"days": "Mon-Sat", "time": "12:00pm"}, {"days": "Sun", "time": "Closed"}], "id": "0787100022", "name": "USPS COLLECTION BOX - BLUE BOX", "address": {"city": "SPARTA", "state": "NJ", "street": "89 SPARTA AVE", "postcode": "07871"}}},
{"geometry": {"type": "Point", "coordinates": [-74.636172909, 41.036522875]}, "type": "Feature", "properties": {"collection_times": [{"days": "Mon-Fri", "time": "5:00pm"}, {"days": "Sat", "time": "2:00pm"}, {"days": "Sun", "time": "Closed"}], "id": "0787100023", "name": "USPS COLLECTION BOX - PO LOBBY", "address": {"city": "SPARTA", "state": "NJ", "street": "2 MAIN ST", "postcode": "07871"}}},
{"geometry": {"type": "Point", "coordinates": [-74.7100269815, 40.9227435127]}, "type": "Feature", "properties": {"collection_times": [{"days": "Mon-Sat", "time": "11:00am"}, {"days": "Sun", "time": "Closed"}], "id": "0787400001", "name": "USPS COLLECTION BOX - BLUE BOX", "address": {"city": "STANHOPE", "state": "NJ", "street": "17 US HIGHWAY 206", "postcode": "07874"}}},
{"geometry": {"type": "Point", "coordinates": [-74.7087866787, 40.9026954872]}, "type": "Feature", "properties": {"collection_times": [{"days": "Mon-Fri", "time": "5:00pm"}, {"days": "Sat", "time": "3:00pm"}, {"days": "Sun", "time": "Closed"}], "id": "0787400002", "name": "USPS COLLECTION BOX - BLUE BOX", "address": {"city": "STANHOPE", "state": "NJ", "street": "4 KELLY PL", "postcode": "07874"}}},
{"geometry": {"type": "Point", "coordinates": [-74.7087866787, 40.9026954872]}, "type": "Feature", "properties": {"collection_times": [{"days": "Mon-Fri", "time": "5:00pm"}, {"days": "Sat", "time": "3:00pm"}, {"days": "Sun", "time": "Closed"}], "id": "0787400003", "name": "USPS COLLECTION BOX - BLUE BOX", "address": {"city": "STANHOPE", "state": "NJ", "street": "4 KELLY PL", "postcode": "07874"}}},
{"geometry": {"type": "Point", "coordinates": [-74.7087866787, 40.9026954872]}, "type": "Feature", "properties": {"collection_times": [{"days": "Mon-Fri", "time": "5:00pm"}, {"days": "Sat", "time": "3:00pm"}, {"days": "Sun", "time": "Closed"}], "id": "0787400004", "name": "USPS COLLECTION BOX - PO LOBBY", "address": {"city": "STANHOPE", "state": "NJ", "street": "4 4 KELLY PL", "postcode": "07874"}}},
{"geometry": {"type": "Point", "coordinates": [-74.8626363413, 41.0559563155]}, "type": "Feature", "properties": {"collection_times": [{"days": "Mon-Fri", "time": "4:00pm"}, {"days": "Sat", "time": "10:45am"}, {"days": "Sun", "time": "Closed"}], "id": "0787500001", "name": "USPS COLLECTION BOX - BLUE BOX", "address": {"city": "STILLWATER", "state": "NJ", "street": "912 MAIN ST", "postcode": "07875"}}},
{"geometry": {"type": "Point", "coordinates": [-74.8626363413, 41.0559563155]}, "type": "Feature", "properties": {"collection_times": [{"days": "Mon-Fri", "time": "12:00pm"}, {"days": "Sat", "time": "11:00am"}, {"days": "Sun", "time": "Closed"}], "id": "0787500002", "name": "USPS COLLECTION BOX - PO LOBBY", "address": {"city": "STILLWATER", "state": "NJ", "street": "912 MAIN ST", "postcode": "07875"}}},
{"geometry": {"type": "Point", "coordinates": [-74.6497351933, 40.8677344999]}, "type": "Feature", "properties": {"collection_times": [{"days": "Mon-Sat", "time": "11:00am"}, {"days": "Sun", "time": "Closed"}], "id": "0787600004", "name": "USPS COLLECTION BOX - BLUE BOX", "address": {"city": "SUCCASUNNA", "state": "NJ", "street": "66 SUNSET STRIP", "postcode": "07876"}}},
{"geometry": {"type": "Point", "coordinates": [-74.6502492431, 40.8664670047]}, "type": "Feature", "properties": {"collection_times": [{"days": "Mon-Fri", "time": "5:00pm"}, {"days": "Sat", "time": "3:00pm"}, {"days": "Sun", "time": "Closed"}], "id": "0787600005", "name": "USPS COLLECTION BOX - BLUE BOX", "address": {"city": "SUCCASUNNA", "state": "NJ", "street": "1 ROXBURY MALL", "postcode": "07876"}}},
{"geometry": {"type": "Point", "coordinates": [-74.6502492431, 40.8664670047]}, "type": "Feature", "properties": {"collection_times": [{"days": "Mon-Fri", "time": "5:00pm"}, {"days": "Sat", "time": "3:00pm"}, {"days": "Sun", "time": "Closed"}], "id": "0787600008", "name": "USPS COLLECTION BOX - BLUE BOX", "address": {"city": "SUCCASUNNA", "state": "NJ", "street": "1 ROXBURY MALL", "postcode": "07876"}}},
{"geometry": {"type": "Point", "coordinates": [-74.6502492431, 40.8664670047]}, "type": "Feature", "properties": {"collection_times": [{"days": "Mon-Fri", "time": "4:30pm"}, {"days": "Sat", "time": "12:00pm"}, {"days": "Sun", "time": "Closed"}], "id": "0787600009", "name": "USPS COLLECTION BOX - PO LOBBY", "address": {"city": "SUCCASUNNA", "state": "NJ", "street": "1 ROXBURY MALL", "postcode": "07876"}}},
{"geometry": {"type": "Point", "coordinates": [-74.826713213, 41.0882805953]}, "type": "Feature", "properties": {"collection_times": [{"days": "Mon-Fri", "time": "3:30pm"}, {"days": "Sat", "time": "10:30am"}, {"days": "Sun", "time": "Closed"}], "id": "0787700001", "name": "USPS COLLECTION BOX - BLUE BOX", "address": {"city": "SWARTSWOOD", "state": "NJ", "street": "1064 COUNTY ROAD 521", "postcode": "07877"}}},
{"geometry": {"type": "Point", "coordinates": [-74.4788212157, 40.8738471965]}, "type": "Feature", "properties": {"collection_times": [{"days": "Mon-Fri", "time": "5:00pm"}, {"days": "Sat", "time": "1:00pm"}, {"days": "Sun", "time": "Closed"}], "id": "0787800001", "name": "USPS COLLECTION BOX - BLUE BOX", "address": {"city": "MOUNT TABOR", "state": "NJ", "street": "26 SIMPSON AVE", "postcode": "07878"}}},
{"geometry": {"type": "Point", "coordinates": [-74.4788212157, 40.8738471965]}, "type": "Feature", "properties": {"collection_times": [{"days": "Mon-Fri", "time": "4:30pm"}, {"days": "Sat", "time": "12:00pm"}, {"days": "Sun", "time": "Closed"}], "id": "0787800002", "name": "USPS COLLECTION BOX - PO LOBBY", "address": {"city": "MOUNT TABOR", "state": "NJ", "street": "26 SIMPSON AVE", "postcode": "07878"}}},
{"geometry": {"type": "Point", "coordinates": [-74.806319265, 40.9537720366]}, "type": "Feature", "properties": {"collection_times": [{"days": "Mon-Fri", "time": "4:30pm"}, {"days": "Sat", "time": "11:30am"}, {"days": "Sun", "time": "Closed"}], "id": "0787900001", "name": "USPS COLLECTION BOX - BLUE BOX", "address": {"city": "TRANQUILITY", "state": "NJ", "street": "28 KENNEDY RD", "postcode": "07879"}}},
{"geometry": {"type": "Point", "coordinates": [-74.806319265, 40.9537720366]}, "type": "Feature", "properties": {"collection_times": [{"days": "Mon-Fri", "time": "4:30pm"}, {"days": "Sat", "time": "11:30am"}, {"days": "Sun", "time": "Closed"}], "id": "0787900002", "name": "USPS COLLECTION BOX - PO LOBBY", "address": {"city": "TRANQUILITY", "state": "NJ", "street": "28 KENNEDY RD", "postcode": "07879"}}},
{"geometry": {"type": "Point", "coordinates": [-74.8921701993, 40.8723511099]}, "type": "Feature", "properties": {"collection_times": [{"days": "Mon-Fri", "time": "4:30pm"}, {"days": "Sat", "time": "11:30am"}, {"days": "Sun", "time": "Closed"}], "id": "0788000001", "name": "USPS COLLECTION BOX - BLUE BOX", "address": {"city": "VIENNA", "state": "NJ", "street": "7 WATER ST", "postcode": "07880"}}},
{"geometry": {"type": "Point", "coordinates": [-74.8921701993, 40.8723511099]}, "type": "Feature", "properties": {"collection_times": [{"days": "Mon-Fri", "time": "12:00pm"}, {"days": "Sat", "time": "11:30am"}, {"days": "Sun", "time": "Closed"}], "id": "0788000002", "name": "USPS COLLECTION BOX - PO LOBBY", "address": {"city": "VIENNA", "state": "NJ", "street": "7 WATER ST", "postcode": "07880"}}},
{"geometry": {"type": "Point", "coordinates": [-74.9814859168, 40.7579914274]}, "type": "Feature", "properties": {"collection_times": [{"days": "Mon-Fri", "time": "12:00pm"}, {"days": "Sat", "time": "11:00am"}, {"days": "Sun", "time": "Closed"}], "id": "0788200021", "name": "USPS COLLECTION BOX - BLUE BOX", "address": {"city": "WASHINGTON", "state": "NJ", "street": "3 E WASHINGTON AVE", "postcode": "07882"}}},
{"geometry": {"type": "Point", "coordinates": [-74.9799384078, 40.759095569]}, "type": "Feature", "properties": {"collection_times": [{"days": "Mon-Fri", "time": "4:30pm"}, {"days": "Sat", "time": "2:00pm"}, {"days": "Sun", "time": "Closed"}], "id": "0788200024", "name": "USPS COLLECTION BOX - BLUE BOX", "address": {"city": "WASHINGTON", "state": "NJ", "street": "36 BELVIDERE AVE", "postcode": "07882"}}},
{"geometry": {"type": "Point", "coordinates": [-74.9799384078, 40.759095569]}, "type": "Feature", "properties": {"collection_times": [{"days": "Mon-Fri", "time": "4:30pm"}, {"days": "Sat", "time": "2:00pm"}, {"days": "Sun", "time": "Closed"}], "id": "0788200025", "name": "USPS COLLECTION BOX - BLUE BOX", "address": {"city": "WASHINGTON", "state": "NJ", "street": "36 BELVIDERE AVE", "postcode": "07882"}}},
{"geometry": {"type": "Point", "coordinates": [-74.9799384078, 40.759095569]}, "type": "Feature", "properties": {"collection_times": [{"days": "Mon-Fri", "time": "4:30pm"}, {"days": "Sat", "time": "2:00pm"}, {"days": "Sun", "time": "Closed"}], "id": "0788200028", "name": "USPS COLLECTION BOX - PO LOBBY", "address": {"city": "WASHINGTON", "state": "NJ", "street": "36 BELVIDERE AVE", "postcode": "07882"}}},
{"geometry": {"type": "Point", "coordinates": [-74.57981678, 40.9094677472]}, "type": "Feature", "properties": {"collection_times": [{"days": "Mon-Fri", "time": "5:00pm"}, {"days": "Sat", "time": "1:00pm"}, {"days": "Sun", "time": "Closed"}], "id": "0788500001", "name": "USPS COLLECTION BOX - BLUE BOX", "address": {"city": "WHARTON", "state": "NJ", "street": "350 N MAIN ST", "postcode": "07885"}}},
{"geometry": {"type": "Point", "coordinates": [-74.5831893695, 40.8978005827]}, "type": "Feature", "properties": {"collection_times": [{"days": "Mon-Sat", "time": "10:30am"}, {"days": "Sun", "time": "Closed"}], "id": "0788500003", "name": "USPS COLLECTION BOX - BLUE BOX", "address": {"city": "WHARTON", "state": "NJ", "street": "37 N MAIN ST", "postcode": "07885"}}},
{"geometry": {"type": "Point", "coordinates": [-74.5835608186, 40.8957860036]}, "type": "Feature", "properties": {"collection_times": [{"days": "Mon-Sat", "time": "9:30am"}, {"days": "Sun", "time": "Closed"}], "id": "0788500009", "name": "USPS COLLECTION BOX - BLUE BOX", "address": {"city": "WHARTON", "state": "NJ", "street": "10 ROBERT ST", "postcode": "07885"}}},
{"geometry": {"type": "Point", "coordinates": [-74.574268676, 40.8930415388]}, "type": "Feature", "properties": {"collection_times": [{"days": "Mon-Sat", "time": "8:30am"}, {"days": "Sun", "time": "Closed"}], "id": "0788500012", "name": "USPS COLLECTION BOX - BLUE BOX", "address": {"city": "WHARTON", "state": "NJ", "street": "164 BAKER AVE", "postcode": "07885"}}},
{"geometry": {"type": "Point", "coordinates": [-74.57981678, 40.9094677472]}, "type": "Feature", "properties": {"collection_times": [{"days": "Mon-Fri", "time": "5:00pm"}, {"days": "Sat", "time": "1:00pm"}, {"days": "Sun", "time": "Closed"}], "id": "0788500013", "name": "USPS COLLECTION BOX - PO LOBBY", "address": {"city": "WHARTON", "state": "NJ", "street": "350 N MAIN ST STE 7", "postcode": "07885"}}}
]}
