{"type": "FeatureCollection", "features": [
{"geometry": {"type": "Point", "coordinates": [-74.3592505056, 40.716494377]}, "type": "Feature", "properties": {"collection_times": [{"days": "Mon-Fri", "time": "5:00pm"}, {"days": "Sat", "time": "3:00pm"}, {"days": "Sun", "time": "Closed"}], "id": "0790100002", "name": "USPS COLLECTION BOX - BLUE BOX", "address": {"city": "SUMMIT", "state": "NJ", "street": "61 MAPLE ST", "postcode": "07901"}}},
{"geometry": {"type": "Point", "coordinates": [-74.3592436482, 40.7168087789]}, "type": "Feature", "properties": {"collection_times": [{"days": "Mon-Sat", "time": "3:00pm"}, {"days": "Sun", "time": "Closed"}], "id": "0790100006", "name": "USPS COLLECTION BOX - BLUE BOX", "address": {"city": "SUMMIT", "state": "NJ", "street": "51 RAILROAD AVE", "postcode": "07901"}}},
{"geometry": {"type": "Point", "coordinates": [-74.3588484339, 40.7165995831]}, "type": "Feature", "properties": {"collection_times": [{"days": "Mon-Fri", "time": "5:00pm"}, {"days": "Sat", "time": "3:00pm"}, {"days": "Sun", "time": "Closed"}], "id": "0790100007", "name": "USPS COLLECTION BOX - BLUE BOX", "address": {"city": "SUMMIT", "state": "NJ", "street": "40 RAILROAD AVE", "postcode": "07901"}}},
{"geometry": {"type": "Point", "coordinates": [-74.3586199885, 40.7179872712]}, "type": "Feature", "properties": {"collection_times": [{"days": "Mon-Sat", "time": "3:00pm"}, {"days": "Sun", "time": "Closed"}], "id": "0790100010", "name": "USPS COLLECTION BOX - BLUE BOX", "address": {"city": "SUMMIT", "state": "NJ", "street": "396 SPRINGFIELD AVE", "postcode": "07901"}}},
{"geometry": {"type": "Point", "coordinates": [-74.3576386075, 40.718050796]}, "type": "Feature", "properties": {"collection_times": [{"days": "Mon-Sat", "time": "3:00pm"}, {"days": "Sun", "time": "Closed"}], "id": "0790100014", "name": "USPS COLLECTION BOX - BLUE BOX", "address": {"city": "SUMMIT", "state": "NJ", "street": "30 BEECHWOOD RD", "postcode": "07901"}}},
{"geometry": {"type": "Point", "coordinates": [-74.3561302008, 40.7169780534]}, "type": "Feature", "properties": {"collection_times": [{"days": "Mon-Sat", "time": "3:00pm"}, {"days": "Sun", "time": "Closed"}], "id": "0790100015", "name": "USPS COLLECTION BOX - BLUE BOX", "address": {"city": "SUMMIT", "state": "NJ", "street": "69 SUMMIT AVE", "postcode": "07901"}}},
{"geometry": {"type": "Point", "coordinates": [-74.3628514327, 40.71724319]}, "type": "Feature", "properties": {"collection_times": [{"days": "Mon-Sat", "time": "3:00pm"}, {"days": "Sun", "time": "Closed"}], "id": "0790100020", "name": "USPS COLLECTION BOX - BLUE BOX", "address": {"city": "SUMMIT", "state": "NJ", "street": "512 SPRINGFIELD AVE", "postcode": "07901"}}},
{"geometry": {"type": "Point", "coordinates": [-74.3631192377, 40.7160117624]}, "type": "Feature", "properties": {"collection_times": [{"days": "Mon-Sat", "time": "11:00am"}, {"days": "Sun", "time": "Closed"}], "id": "0790100024", "name": "USPS COLLECTION BOX - BLUE BOX", "address": {"city": "SUMMIT", "state": "NJ", "street": "105 NEW ENGLAND AVE", "postcode": "07901"}}},
{"geometry": {"type": "Point", "coordinates": [-74.3861506706, 40.7122152704]}, "type": "Feature", "properties": {"collection_times": [{"days": "Mon-Sat", "time": "3:00pm"}, {"days": "Sun", "time": "Closed"}], "id": "0790100038", "name": "USPS COLLECTION BOX - BLUE BOX", "address": {"city": "SUMMIT", "state": "NJ", "street": "801 OLD SPRINGFIELD AVE", "postcode": "07901"}}},
{"geometry": {"type": "Point", "coordinates": [-74.3613833806, 40.717820474]}, "type": "Feature", "properties": {"collection_times": [{"days": "Mon-Sat", "time": "3:00pm"}, {"days": "Sun", "time": "Closed"}], "id": "0790100045", "name": "USPS COLLECTION BOX - BLUE BOX", "address": {"city": "SUMMIT", "state": "NJ", "street": "2 KENT PLACE BLVD", "postcode": "07901"}}},
{"geometry": {"type": "Point", "coordinates": [-74.3592505056, 40.716494377]}, "type": "Feature", "properties": {"collection_times": [{"days": "Mon-Fri", "time": "4:00pm"}, {"days": "Sat", "time": "1:00pm"}, {"days": "Sun", "time": "Closed"}], "id": "0790100062", "name": "USPS COLLECTION BOX - PO LOBBY", "address": {"city": "SUMMIT", "state": "NJ", "street": "61 MAPLE ST", "postcode": "07901"}}},
{"geometry": {"type": "Point", "coordinates": [-74.553857902, 40.6808470915]}, "type": "Feature", "properties": {"collection_times": [{"days": "Mon-Sat", "time": "11:00am"}, {"days": "Sun", "time": "Closed"}], "id": "0792000001", "name": "USPS COLLECTION BOX - BLUE BOX", "address": {"city": "BASKING RIDGE", "state": "NJ", "street": "120 LYONS PL", "postcode": "07920"}}},
{"geometry": {"type": "Point", "coordinates": [-74.5621978776, 40.6555336327]}, "type": "Feature", "properties": {"collection_times": [{"days": "Mon-Sat", "time": "11:00am"}, {"days": "Sun", "time": "Closed"}], "id": "0792000002", "name": "USPS COLLECTION BOX - BLUE BOX", "address": {"city": "BASKING RIDGE", "state": "NJ", "street": "150 SPRING VALLEY BLVD", "postcode": "07920"}}},
{"geometry": {"type": "Point", "coordinates": [-74.5501777804, 40.7054238899]}, "type": "Feature", "properties": {"collection_times": [{"days": "Mon-Fri", "time": "5:00pm"}, {"days": "Sat", "time": "3:00pm"}, {"days": "Sun", "time": "Closed"}], "id": "0792000004", "name": "USPS COLLECTION BOX - BLUE BOX", "address": {"city": "BASKING RIDGE", "state": "NJ", "street": "21 BROWNLEE PL", "postcode": "07920"}}},
{"geometry": {"type": "Point", "coordinates": [-74.5501777804, 40.7054238899]}, "type": "Feature", "properties": {"collection_times": [{"days": "Mon-Fri", "time": "5:00pm"}, {"days": "Sat", "time": "3:00pm"}, {"days": "Sun", "time": "Closed"}], "id": "0792000005", "name": "USPS COLLECTION BOX - BLUE BOX", "address": {"city": "BASKING RIDGE", "state": "NJ", "street": "21 BROWNLEE PL", "postcode": "07920"}}},
{"geometry": {"type": "Point", "coordinates": [-74.5488811936, 40.7049262213]}, "type": "Feature", "properties": {"collection_times": [{"days": "Mon-Sat", "time": "11:00am"}, {"days": "Sun", "time": "Closed"}], "id": "0792000006", "name": "USPS COLLECTION BOX - BLUE BOX", "address": {"city": "BASKING RIDGE", "state": "NJ", "street": "59 S FINLEY AVE", "postcode": "07920"}}},
{"geometry": {"type": "Point", "coordinates": [-74.548352411, 40.7026111706]}, "type": "Feature", "properties": {"collection_times": [{"days": "Mon-Sat", "time": "11:00am"}, {"days": "Sun", "time": "Closed"}], "id": "0792000008", "name": "USPS COLLECTION BOX - BLUE BOX", "address": {"city": "BASKING RIDGE", "state": "NJ", "street": "150 N FINLEY AVE", "postcode": "07920"}}},
{"geometry": {"type": "Point", "coordinates": [-74.5434111914, 40.707413984]}, "type": "Feature", "properties": {"collection_times": [{"days": "Mon-Sat", "time": "11:00am"}, {"days": "Sun", "time": "Closed"}], "id": "0792000009", "name": "USPS COLLECTION BOX - BLUE BOX", "address": {"city": "BASKING RIDGE", "state": "NJ", "street": "150 MANCHESTER DR", "postcode": "07920"}}},
{"geometry": {"type": "Point", "coordinates": [-74.5352606041, 40.6849129215]}, "type": "Feature", "properties": {"collection_times": [{"days": "Mon-Sat", "time": "11:00am"}, {"days": "Sun", "time": "Closed"}], "id": "0792000011", "name": "USPS COLLECTION BOX - BLUE BOX", "address": {"city": "BASKING RIDGE", "state": "NJ", "street": "1 DEXTER DR S", "postcode": "07920"}}},
{"geometry": {"type": "Point", "coordinates": [-74.5496308818, 40.6833699411]}, "type": "Feature", "properties": {"collection_times": [{"days": "Mon-Sat", "time": "11:00am"}, {"days": "Sun", "time": "Closed"}], "id": "0792000014", "name": "USPS COLLECTION BOX - BLUE BOX", "address": {"city": "BASKING RIDGE", "state": "NJ", "street": "1 LYONS MALL", "postcode": "07920"}}},
{"geometry": {"type": "Point", "coordinates": [-74.5568496052, 40.662009653]}, "type": "Feature", "properties": {"collection_times": [{"days": "Mon-Sat", "time": "11:00am"}, {"days": "Sun", "time": "Closed"}], "id": "0792000015", "name": "USPS COLLECTION BOX - BLUE BOX", "address": {"city": "BASKING RIDGE", "state": "NJ", "street": "1 ARBOR CIR", "postcode": "07920"}}},
{"geometry": {"type": "Point", "coordinates": [-74.5582899838, 40.6819531311]}, "type": "Feature", "properties": {"collection_times": [{"days": "Mon-Sat", "time": "11:00am"}, {"days": "Sun", "time": "Closed"}], "id": "0792000016", "name": "USPS COLLECTION BOX - BLUE BOX", "address": {"city": "BASKING RIDGE", "state": "NJ", "street": "10 LINBERG LN", "postcode": "07920"}}},
{"geometry": {"type": "Point", "coordinates": [-74.5547179611, 40.6724424993]}, "type": "Feature", "properties": {"collection_times": [{"days": "Mon-Sat", "time": "11:00am"}, {"days": "Sun", "time": "Closed"}], "id": "0792000017", "name": "USPS COLLECTION BOX - BLUE BOX", "address": {"city": "BASKING RIDGE", "state": "NJ", "street": "41 ASPEN DR", "postcode": "07920"}}},
{"geometry": {"type": "Point", "coordinates": [-74.5533870843, 40.722087407]}, "type": "Feature", "properties": {"collection_times": [{"days": "Mon-Sat", "time": "11:00am"}, {"days": "Sun", "time": "Closed"}], "id": "0792000018", "name": "USPS COLLECTION BOX - BLUE BOX", "address": {"city": "BASKING RIDGE", "state": "NJ", "street": "19 MORRISTOWN RD", "postcode": "07920"}}},
{"geometry": {"type": "Point", "coordinates": [-74.6199376819, 40.6559662594]}, "type": "Feature", "properties": {"collection_times": [{"days": "Mon-Fri", "time": "5:00pm"}, {"days": "Sat", "time": "3:00pm"}, {"days": "Sun", "time": "Closed"}], "id": "0792000019", "name": "USPS COLLECTION BOX - BLUE BOX", "address": {"city": "BASKING RIDGE", "state": "NJ", "street": "566 ALLEN RD", "postcode": "07920"}}},
{"geometry": {"type": "Point", "coordinates": [-74.6199376819, 40.6559662594]}, "type": "Feature", "properties": {"collection_times": [{"days": "Mon-Fri", "time": "5:00pm"}, {"days": "Sat", "time": "3:00pm"}, {"days": "Sun", "time": "Closed"}], "id": "0792000020", "name": "USPS COLLECTION BOX - BLUE BOX", "address": {"city": "BASKING RIDGE", "state": "NJ", "street": "566 ALLEN RD", "postcode": "07920"}}},
{"geometry": {"type": "Point", "coordinates": [-74.5501777804, 40.7054238899]}, "type": "Feature", "properties": {"collection_times": [{"days": "Mon-Fri", "time": "5:00pm"}, {"days": "Sat", "time": "4:00pm"}, {"days": "Sun", "time": "Closed"}], "id": "0792000021", "name": "USPS COLLECTION BOX - PO LOBBY", "address": {"city": "BASKING RIDGE", "state": "NJ", "street": "21 BROWNLEE PL", "postcode": "07920"}}},
{"geometry": {"type": "Point", "coordinates": [-74.6199376819, 40.6559662594]}, "type": "Feature", "properties": {"collection_times": [{"days": "Mon-Fri", "time": "3:00pm"}, {"days": "Sat", "time": "12:00pm"}, {"days": "Sun", "time": "Closed"}], "id": "0792000022", "name": "USPS COLLECTION BOX - PO LOBBY", "address": {"city": "BASKING RIDGE", "state": "NJ", "street": "566 ALLEN RD", "postcode": "07920"}}},
{"geometry": {"type": "Point", "coordinates": [-74.6456699365, 40.6791459675]}, "type": "Feature", "properties": {"collection_times": [{"days": "Mon-Fri", "time": "5:00pm"}, {"days": "Sat", "time": "3:00pm"}, {"days": "Sun", "time": "Closed"}], "id": "0792100001", "name": "USPS COLLECTION BOX - BLUE BOX", "address": {"city": "BEDMINSTER", "state": "NJ", "street": "251 SOMERVILLE RD", "postcode": "07921"}}},
{"geometry": {"type": "Point", "coordinates": [-74.6414734273, 40.6519872356]}, "type": "Feature", "properties": {"collection_times": [{"days": "Mon-Fri", "time": "9:30am"}, {"days": "Sat-Sun", "time": "Closed"}], "id": "0792100002", "name": "USPS COLLECTION BOX - BLUE BOX", "address": {"city": "BEDMINSTER", "state": "NJ", "street": "500 HILLS DR", "postcode": "07921"}}},
{"geometry": {"type": "Point", "coordinates": [-74.6756113062, 40.6537022419]}, "type": "Feature", "properties": {"collection_times": [{"days": "Mon-Fri", "time": "9:30am"}, {"days": "Sat-Sun", "time": "Closed"}], "id": "0792100003", "name": "USPS COLLECTION BOX - BLUE BOX", "address": {"city": "BEDMINSTER", "state": "NJ", "street": "550 US HIGHWAY 202 206", "postcode": "07921"}}},
{"geometry": {"type": "Point", "coordinates": [-74.6756113062, 40.6537022419]}, "type": "Feature", "properties": {"collection_times": [{"days": "Mon-Sat", "time": "3:00pm"}, {"days": "Sun", "time": "Closed"}], "id": "0792100004", "name": "USPS COLLECTION BOX - BLUE BOX", "address": {"city": "BEDMINSTER", "state": "NJ", "street": "442 US HIGHWAY 202 206", "postcode": "07921"}}},
{"geometry": {"type": "Point", "coordinates": [-74.6399840883, 40.6467237736]}, "type": "Feature", "properties": {"collection_times": [{"days": "Mon-Sat", "time": "3:00pm"}, {"days": "Sun", "time": "Closed"}], "id": "0792100005", "name": "USPS COLLECTION BOX - BLUE BOX", "address": {"city": "BEDMINSTER", "state": "NJ", "street": "1 WASHINGTON VALLEY RD", "postcode": "07921"}}},
{"geometry": {"type": "Point", "coordinates": [-74.6456699365, 40.6791459675]}, "type": "Feature", "properties": {"collection_times": [{"days": "Mon-Fri", "time": "5:00pm"}, {"days": "Sat", "time": "3:00pm"}, {"days": "Sun", "time": "Closed"}], "id": "0792100008", "name": "USPS COLLECTION BOX - BLUE BOX", "address": {"city": "BEDMINSTER", "state": "NJ", "street": "251 SOMERVILLE RD", "postcode": "07921"}}},
{"geometry": {"type": "Point", "coordinates": [-74.644476784, 40.6465565803]}, "type": "Feature", "properties": {"collection_times": [{"days": "Mon-Fri", "time": "3:00pm"}, {"days": "Sat-Sun", "time": "Closed"}], "id": "0792100009", "name": "USPS COLLECTION BOX - BLUE BOX", "address": {"city": "BEDMINSTER", "state": "NJ", "street": "1 CROSSROADS DR", "postcode": "07921"}}},
{"geometry": {"type": "Point", "coordinates": [-74.6456699365, 40.6791459675]}, "type": "Feature", "properties": {"collection_times": [{"days": "Mon-Fri", "time": "4:00pm"}, {"days": "Sat", "time": "3:00pm"}, {"days": "Sun", "time": "Closed"}], "id": "0792100010", "name": "USPS COLLECTION BOX - PO LOBBY", "address": {"city": "BEDMINSTER", "state": "NJ", "street": "251 SOMERVILLE RD", "postcode": "07921"}}},
{"geometry": {"type": "Point", "coordinates": [-74.4372945552, 40.6867101205]}, "type": "Feature", "properties": {"collection_times": [{"days": "Mon-Fri", "time": "5:00pm"}, {"days": "Sat", "time": "3:00pm"}, {"days": "Sun", "time": "Closed"}], "id": "0792200003", "name": "USPS COLLECTION BOX - BLUE BOX", "address": {"city": "BERKELEY HTS", "state": "NJ", "street": "360 SPRINGFIELD AVE", "postcode": "07922"}}},
{"geometry": {"type": "Point", "coordinates": [-74.4425402804, 40.681581709]}, "type": "Feature", "properties": {"collection_times": [{"days": "Mon-Sat", "time": "11:00am"}, {"days": "Sun", "time": "Closed"}], "id": "0792200004", "name": "USPS COLLECTION BOX - BLUE BOX", "address": {"city": "BERKELEY HTS", "state": "NJ", "street": "29 PARK AVE", "postcode": "07922"}}},
{"geometry": {"type": "Point", "coordinates": [-74.4373788833, 40.6866160792]}, "type": "Feature", "properties": {"collection_times": [{"days": "Mon-Fri", "time": "4:30pm"}, {"days": "Sat", "time": "1:00pm"}, {"days": "Sun", "time": "Closed"}], "id": "0792200012", "name": "USPS COLLECTION BOX - PO LOBBY", "address": {"city": "BERKELEY HTS", "state": "NJ", "street": "364 SPRINGFIELD AVE", "postcode": "07922"}}},
{"geometry": {"type": "Point", "coordinates": [-74.5665226607, 40.7223346454]}, "type": "Feature", "properties": {"collection_times": [{"days": "Mon-Sat", "time": "10:00am"}, {"days": "Sun", "time": "Closed"}], "id": "0792400001", "name": "USPS COLLECTION BOX - BLUE BOX", "address": {"city": "BERNARDSVILLE", "state": "NJ", "street": "25 OLCOTT AVE", "postcode": "07924"}}},
{"geometry": {"type": "Point", "coordinates": [-74.5570365127, 40.7208594956]}, "type": "Feature", "properties": {"collection_times": [{"days": "Mon-Sat", "time": "10:00am"}, {"days": "Sun", "time": "Closed"}], "id": "0792400002", "name": "USPS COLLECTION BOX - BLUE BOX", "address": {"city": "BERNARDSVILLE", "state": "NJ", "street": "150 MORRISTOWN RD", "postcode": "07924"}}},
{"geometry": {"type": "Point", "coordinates": [-74.5714970031, 40.7171414555]}, "type": "Feature", "properties": {"collection_times": [{"days": "Mon-Sat", "time": "11:00am"}, {"days": "Sun", "time": "Closed"}], "id": "0792400003", "name": "USPS COLLECTION BOX - BLUE BOX", "address": {"city": "BERNARDSVILLE", "state": "NJ", "street": "47 MINE BROOK RD", "postcode": "07924"}}},
{"geometry": {"type": "Point", "coordinates": [-74.5715123816, 40.7136221526]}, "type": "Feature", "properties": {"collection_times": [{"days": "Mon-Sat", "time": "11:00am"}, {"days": "Sun", "time": "Closed"}], "id": "0792400004", "name": "USPS COLLECTION BOX - BLUE BOX", "address": {"city": "BERNARDSVILLE", "state": "NJ", "street": "50 BERNARDS AVE", "postcode": "07924"}}},
{"geometry": {"type": "Point", "coordinates": [-74.5734603366, 40.7160375045]}, "type": "Feature", "properties": {"collection_times": [{"days": "Mon-Sat", "time": "11:00am"}, {"days": "Sun", "time": "Closed"}], "id": "0792400006", "name": "USPS COLLECTION BOX - BLUE BOX", "address": {"city": "BERNARDSVILLE", "state": "NJ", "street": "100 US HIGHWAY 202 # 82", "postcode": "07924"}}},
{"geometry": {"type": "Point", "coordinates": [-74.5734603366, 40.7160375045]}, "type": "Feature", "properties": {"collection_times": [{"days": "Mon-Sat", "time": "11:00am"}, {"days": "Sun", "time": "Closed"}], "id": "0792400007", "name": "USPS COLLECTION BOX - BLUE BOX", "address": {"city": "BERNARDSVILLE", "state": "NJ", "street": "100 US HIGHWAY 202 # 82", "postcode": "07924"}}},
{"geometry": {"type": "Point", "coordinates": [-74.5705541848, 40.718598861]}, "type": "Feature", "properties": {"collection_times": [{"days": "Mon-Fri", "time": "5:00pm"}, {"days": "Sat", "time": "3:00pm"}, {"days": "Sun", "time": "Closed"}], "id": "0792400008", "name": "USPS COLLECTION BOX - BLUE BOX", "address": {"city": "BERNARDSVILLE", "state": "NJ", "street": "23 QUIMBY LN", "postcode": "07924"}}},
{"geometry": {"type": "Point", "coordinates": [-74.5705541848, 40.718598861]}, "type": "Feature", "properties": {"collection_times": [{"days": "Mon-Fri", "time": "5:00pm"}, {"days": "Sat", "time": "3:00pm"}, {"days": "Sun", "time": "Closed"}], "id": "0792400009", "name": "USPS COLLECTION BOX - BLUE BOX", "address": {"city": "BERNARDSVILLE", "state": "NJ", "street": "23 QUIMBY LN", "postcode": "07924"}}},
{"geometry": {"type": "Point", "coordinates": [-74.5705541848, 40.718598861]}, "type": "Feature", "properties": {"collection_times": [{"days": "Mon-Fri", "time": "4:30pm"}, {"days": "Sat", "time": "12:00pm"}, {"days": "Sun", "time": "Closed"}], "id": "0792400010", "name": "USPS COLLECTION BOX - PO LOBBY", "address": {"city": "BERNARDSVILLE", "state": "NJ", "street": "23 QUIMBY LN", "postcode": "07924"}}},
{"geometry": {"type": "Point", "coordinates": [-74.5576264772, 40.7959839155]}, "type": "Feature", "properties": {"collection_times": [{"days": "Mon-Fri", "time": "4:30pm"}, {"days": "Sat", "time": "11:30am"}, {"days": "Sun", "time": "Closed"}], "id": "0792600001", "name": "USPS COLLECTION BOX - BLUE BOX", "address": {"city": "BROOKSIDE", "state": "NJ", "street": "2 E MAIN ST", "postcode": "07926"}}},
{"geometry": {"type": "Point", "coordinates": [-74.5576264772, 40.7959839155]}, "type": "Feature", "properties": {"collection_times": [{"days": "Mon-Fri", "time": "4:30pm"}, {"days": "Sat", "time": "11:00am"}, {"days": "Sun", "time": "Closed"}], "id": "0792600002", "name": "USPS COLLECTION BOX - PO LOBBY", "address": {"city": "BROOKSIDE", "state": "NJ", "street": "2 E MAIN ST", "postcode": "07926"}}},
{"geometry": {"type": "Point", "coordinates": [-74.4530087114, 40.8217431263]}, "type": "Feature", "properties": {"collection_times": [{"days": "Mon-Fri", "time": "3:00pm"}, {"days": "Sat", "time": "11:00am"}, {"days": "Sun", "time": "Closed"}], "id": "0792700002", "name": "USPS COLLECTION BOX - EXPRESS", "address": {"city": "CEDAR KNOLLS", "state": "NJ", "street": "1 SADDLE RD", "postcode": "07927"}}},
{"geometry": {"type": "Point", "coordinates": [-74.4491667638, 40.8231549976]}, "type": "Feature", "properties": {"collection_times": [{"days": "Mon-Fri", "time": "5:00pm"}, {"days": "Sat", "time": "2:00pm"}, {"days": "Sun", "time": "Closed"}], "id": "0792700003", "name": "USPS COLLECTION BOX - BLUE BOX", "address": {"city": "CEDAR KNOLLS", "state": "NJ", "street": "2 MOUNTAIN AVE", "postcode": "07927"}}},
{"geometry": {"type": "Point", "coordinates": [-74.4491667638, 40.8231549976]}, "type": "Feature", "properties": {"collection_times": [{"days": "Mon-Fri", "time": "5:00pm"}, {"days": "Sat", "time": "2:00pm"}, {"days": "Sun", "time": "Closed"}], "id": "0792700004", "name": "USPS COLLECTION BOX - BLUE BOX", "address": {"city": "CEDAR KNOLLS", "state": "NJ", "street": "2 MOUNTAIN AVE", "postcode": "07927"}}},
{"geometry": {"type": "Point", "coordinates": [-74.4491667638, 40.8231549976]}, "type": "Feature", "properties": {"collection_times": [{"days": "Mon-Fri", "time": "5:00pm"}, {"days": "Sat", "time": "2:00pm"}, {"days": "Sun", "time": "Closed"}], "id": "0792700005", "name": "USPS COLLECTION BOX - BLUE BOX", "address": {"city": "CEDAR KNOLLS", "state": "NJ", "street": "2 MOUNTAIN AVE", "postcode": "07927"}}},
{"geometry": {"type": "Point", "coordinates": [-74.4491667638, 40.8231549976]}, "type": "Feature", "properties": {"collection_times": [{"days": "Mon-Fri", "time": "5:00pm"}, {"days": "Sat", "time": "2:00pm"}, {"days": "Sun", "time": "Closed"}], "id": "0792700006", "name": "USPS COLLECTION BOX - BLUE BOX", "address": {"city": "CEDAR KNOLLS", "state": "NJ", "street": "2 MOUNTAIN AVE", "postcode": "07927"}}},
{"geometry": {"type": "Point", "coordinates": [-74.4456112419, 40.83494879]}, "type": "Feature", "properties": {"collection_times": [{"days": "Mon-Fri", "time": "3:00pm"}, {"days": "Sat", "time": "11:00am"}, {"days": "Sun", "time": "Closed"}], "id": "0792700007", "name": "USPS COLLECTION BOX - BLUE BOX", "address": {"city": "CEDAR KNOLLS", "state": "NJ", "street": "2 RIDGEDALE AVE", "postcode": "07927"}}},
{"geometry": {"type": "Point", "coordinates": [-74.4457046956, 40.8295982666]}, "type": "Feature", "properties": {"collection_times": [{"days": "Mon-Fri", "time": "3:00pm"}, {"days": "Sat", "time": "11:00am"}, {"days": "Sun", "time": "Closed"}], "id": "0792700008", "name": "USPS COLLECTION BOX - BLUE BOX", "address": {"city": "CEDAR KNOLLS", "state": "NJ", "street": "14 RIDGEDALE AVE", "postcode": "07927"}}},
{"geometry": {"type": "Point", "coordinates": [-74.4640985246, 40.8143404619]}, "type": "Feature", "properties": {"collection_times": [{"days": "Mon-Fri", "time": "3:00pm"}, {"days": "Sat", "time": "11:00am"}, {"days": "Sun", "time": "Closed"}], "id": "0792700010", "name": "USPS COLLECTION BOX - BLUE BOX", "address": {"city": "CEDAR KNOLLS", "state": "NJ", "street": "1 SADDLE RD", "postcode": "07927"}}},
{"geometry": {"type": "Point", "coordinates": [-74.4550981392, 40.8135532083]}, "type": "Feature", "properties": {"collection_times": [{"days": "Mon-Fri", "time": "3:00pm"}, {"days": "Sat", "time": "11:00am"}, {"days": "Sun", "time": "Closed"}], "id": "0792700012", "name": "USPS COLLECTION BOX - BLUE BOX", "address": {"city": "CEDAR KNOLLS", "state": "NJ", "street": "2 E FREDERICK PL", "postcode": "07927"}}},
{"geometry": {"type": "Point", "coordinates": [-74.4491667638, 40.8231549976]}, "type": "Feature", "properties": {"collection_times": [{"days": "Mon-Fri", "time": "4:30pm"}, {"days": "Sat", "time": "1:00pm"}, {"days": "Sun", "time": "Closed"}], "id": "0792700014", "name": "USPS COLLECTION BOX - PO LOBBY", "address": {"city": "CEDAR KNOLLS", "state": "NJ", "street": "2 MOUNTAIN AVE", "postcode": "07927"}}},
{"geometry": {"type": "Point", "coordinates": [-74.3815824049, 40.741198109]}, "type": "Feature", "properties": {"collection_times": [{"days": "Mon-Fri", "time": "5:00pm"}, {"days": "Sat", "time": "3:00pm"}, {"days": "Sun", "time": "Closed"}], "id": "0792800002", "name": "USPS COLLECTION BOX - BLUE BOX", "address": {"city": "CHATHAM", "state": "NJ", "street": "19 S PASSAIC AVE", "postcode": "07928"}}},
{"geometry": {"type": "Point", "coordinates": [-74.3815824049, 40.741198109]}, "type": "Feature", "properties": {"collection_times": [{"days": "Mon-Fri", "time": "5:00pm"}, {"days": "Sat", "time": "3:00pm"}, {"days": "Sun", "time": "Closed"}], "id": "0792800003", "name": "USPS COLLECTION BOX - BLUE BOX", "address": {"city": "CHATHAM", "state": "NJ", "street": "19 S PASSAIC AVE", "postcode": "07928"}}},
{"geometry": {"type": "Point", "coordinates": [-74.3944288403, 40.722235102]}, "type": "Feature", "properties": {"collection_times": [{"days": "Mon-Sat", "time": "11:00am"}, {"days": "Sun", "time": "Closed"}], "id": "0792800012", "name": "USPS COLLECTION BOX - BLUE BOX", "address": {"city": "CHATHAM", "state": "NJ", "street": "23 CANTERBURY RD", "postcode": "07928"}}},
{"geometry": {"type": "Point", "coordinates": [-74.4006058067, 40.7192047408]}, "type": "Feature", "properties": {"collection_times": [{"days": "Mon-Sat", "time": "11:00am"}, {"days": "Sun", "time": "Closed"}], "id": "0792800022", "name": "USPS COLLECTION BOX - BLUE BOX", "address": {"city": "CHATHAM", "state": "NJ", "street": "13 HERITAGE DR", "postcode": "07928"}}},
{"geometry": {"type": "Point", "coordinates": [-74.3907231289, 40.7439520375]}, "type": "Feature", "properties": {"collection_times": [{"days": "Mon-Sat", "time": "11:00am"}, {"days": "Sun", "time": "Closed"}], "id": "0792800023", "name": "USPS COLLECTION BOX - BLUE BOX", "address": {"city": "CHATHAM", "state": "NJ", "street": "465 MAIN ST", "postcode": "07928"}}},
{"geometry": {"type": "Point", "coordinates": [-74.3825905916, 40.7395852289]}, "type": "Feature", "properties": {"collection_times": [{"days": "Mon-Fri", "time": "5:00pm"}, {"days": "Sat", "time": "3:00pm"}, {"days": "Sun", "time": "Closed"}], "id": "0792800024", "name": "USPS COLLECTION BOX - BLUE BOX", "address": {"city": "CHATHAM", "state": "NJ", "street": "23 S PASSAIC AVE", "postcode": "07928"}}},
{"geometry": {"type": "Point", "coordinates": [-74.412560065, 40.7267376955]}, "type": "Feature", "properties": {"collection_times": [{"days": "Mon-Sat", "time": "11:00am"}, {"days": "Sun", "time": "Closed"}], "id": "0792800025", "name": "USPS COLLECTION BOX - BLUE BOX", "address": {"city": "CHATHAM", "state": "NJ", "street": "650 SHUNPIKE RD", "postcode": "07928"}}},
{"geometry": {"type": "Point", "coordinates": [-74.4314015388, 40.7463084918]}, "type": "Feature", "properties": {"collection_times": [{"days": "Mon-Sat", "time": "11:00am"}, {"days": "Sun", "time": "Closed"}], "id": "0792800026", "name": "USPS COLLECTION BOX - BLUE BOX", "address": {"city": "CHATHAM", "state": "NJ", "street": "641 SHUNPIKE RD", "postcode": "07928"}}},
{"geometry": {"type": "Point", "coordinates": [-74.3955787246, 40.7182037195]}, "type": "Feature", "properties": {"collection_times": [{"days": "Mon-Sat", "time": "11:00am"}, {"days": "Sun", "time": "Closed"}], "id": "0792800031", "name": "USPS COLLECTION BOX - BLUE BOX", "address": {"city": "CHATHAM", "state": "NJ", "street": "165 RIVEREDGE DR", "postcode": "07928"}}},
{"geometry": {"type": "Point", "coordinates": [-74.3815824049, 40.741198109]}, "type": "Feature", "properties": {"collection_times": [{"days": "Mon-Fri", "time": "5:00pm"}, {"days": "Sat", "time": "3:00pm"}, {"days": "Sun", "time": "Closed"}], "id": "0792800034", "name": "USPS COLLECTION BOX - PO LOBBY", "address": {"city": "CHATHAM", "state": "NJ", "street": "19 S PASSAIC AVE", "postcode": "07928"}}},
{"geometry": {"type": "Point", "coordinates": [-74.3811589056, 40.7403310001]}, "type": "Feature", "properties": {"collection_times": [{"days": "Mon-Fri", "time": "5:00pm"}, {"days": "Sat", "time": "4:00pm"}, {"days": "Sun", "time": "Closed"}], "id": "0792800035", "name": "USPS COLLECTION BOX - PO LOBBY", "address": {"city": "CHATHAM", "state": "NJ", "street": "219 MAIN ST", "postcode": "07928"}}},
{"geometry": {"type": "Point", "coordinates": [-74.6833439782, 40.7875934349]}, "type": "Feature", "properties": {"collection_times": [{"days": "Mon-Fri", "time": "5:00pm"}, {"days": "Sat", "time": "3:00pm"}, {"days": "Sun", "time": "Closed"}], "id": "0793000001", "name": "USPS COLLECTION BOX - BLUE BOX", "address": {"city": "CHESTER", "state": "NJ", "street": "1 SENTRY LN", "postcode": "07930"}}},
{"geometry": {"type": "Point", "coordinates": [-74.6833439782, 40.7875934349]}, "type": "Feature", "properties": {"collection_times": [{"days": "Mon-Fri", "time": "5:00pm"}, {"days": "Sat", "time": "3:00pm"}, {"days": "Sun", "time": "Closed"}], "id": "0793000002", "name": "USPS COLLECTION BOX - BLUE BOX", "address": {"city": "CHESTER", "state": "NJ", "street": "1 SENTRY LN", "postcode": "07930"}}},
{"geometry": {"type": "Point", "coordinates": [-74.6977833543, 40.7805921416]}, "type": "Feature", "properties": {"collection_times": [{"days": "Mon-Sat", "time": "10:00am"}, {"days": "Sun", "time": "Closed"}], "id": "0793000003", "name": "USPS COLLECTION BOX - BLUE BOX", "address": {"city": "CHESTER", "state": "NJ", "street": "195 US HIGHWAY 206 S", "postcode": "07930"}}},
{"geometry": {"type": "Point", "coordinates": [-74.6957065115, 40.785450238]}, "type": "Feature", "properties": {"collection_times": [{"days": "Mon-Sat", "time": "10:00am"}, {"days": "Sun", "time": "Closed"}], "id": "0793000004", "name": "USPS COLLECTION BOX - BLUE BOX", "address": {"city": "CHESTER", "state": "NJ", "street": "71 W MAIN ST", "postcode": "07930"}}},
{"geometry": {"type": "Point", "coordinates": [-74.685959578, 40.7879226919]}, "type": "Feature", "properties": {"collection_times": [{"days": "Mon-Sat", "time": "10:00am"}, {"days": "Sun", "time": "Closed"}], "id": "0793000005", "name": "USPS COLLECTION BOX - BLUE BOX", "address": {"city": "CHESTER", "state": "NJ", "street": "385 ROUTE 24", "postcode": "07930"}}},
{"geometry": {"type": "Point", "coordinates": [-74.6833439782, 40.7875934349]}, "type": "Feature", "properties": {"collection_times": [{"days": "Mon-Fri", "time": "5:00pm"}, {"days": "Sat", "time": "3:00pm"}, {"days": "Sun", "time": "Closed"}], "id": "0793000006", "name": "USPS COLLECTION BOX - PO LOBBY", "address": {"city": "CHESTER", "state": "NJ", "street": "1 SENTRY LN", "postcode": "07930"}}},
{"geometry": {"type": "Point", "coordinates": [-74.6350459768, 40.6839257917]}, "type": "Feature", "properties": {"collection_times": [{"days": "Mon-Fri", "time": "4:30pm"}, {"days": "Sat", "time": "1:30pm"}, {"days": "Sun", "time": "Closed"}], "id": "0793100001", "name": "USPS COLLECTION BOX - BLUE BOX", "address": {"city": "FAR HILLS", "state": "NJ", "street": "35 US HIGHWAY 202", "postcode": "07931"}}},
{"geometry": {"type": "Point", "coordinates": [-74.6351745012, 40.6838139526]}, "type": "Feature", "properties": {"collection_times": [{"days": "Mon-Fri", "time": "4:30pm"}, {"days": "Sat", "time": "12:00pm"}, {"days": "Sun", "time": "Closed"}], "id": "0793100004", "name": "USPS COLLECTION BOX - PO LOBBY", "address": {"city": "FAR HILLS", "state": "NJ", "street": "35 US HIGHWAY 202", "postcode": "07931"}}},
{"geometry": {"type": "Point", "coordinates": [-74.3919652358, 40.7883733296]}, "type": "Feature", "properties": {"collection_times": [{"days": "Mon-Fri", "time": "5:00pm"}, {"days": "Sat", "time": "3:00pm"}, {"days": "Sun", "time": "Closed"}], "id": "0793200002", "name": "USPS COLLECTION BOX - BLUE BOX", "address": {"city": "FLORHAM PARK", "state": "NJ", "street": "187 COLUMBIA TPKE", "postcode": "07932"}}},
{"geometry": {"type": "Point", "coordinates": [-74.3919652358, 40.7883733296]}, "type": "Feature", "properties": {"collection_times": [{"days": "Mon-Fri", "time": "5:00pm"}, {"days": "Sat", "time": "3:00pm"}, {"days": "Sun", "time": "Closed"}], "id": "0793200003", "name": "USPS COLLECTION BOX - BLUE BOX", "address": {"city": "FLORHAM PARK", "state": "NJ", "street": "187 COLUMBIA TPKE", "postcode": "07932"}}},
{"geometry": {"type": "Point", "coordinates": [-74.3971643404, 40.7755062849]}, "type": "Feature", "properties": {"collection_times": [{"days": "Mon-Sat", "time": "11:00am"}, {"days": "Sun", "time": "Closed"}], "id": "0793200005", "name": "USPS COLLECTION BOX - BLUE BOX", "address": {"city": "FLORHAM PARK", "state": "NJ", "street": "27 ROOSEVELT BLVD", "postcode": "07932"}}},
{"geometry": {"type": "Point", "coordinates": [-74.3845054965, 40.7892014009]}, "type": "Feature", "properties": {"collection_times": [{"days": "Mon-Fri", "time": "3:00pm"}, {"days": "Sat", "time": "11:00am"}, {"days": "Sun", "time": "Closed"}], "id": "0793200012", "name": "USPS COLLECTION BOX - BLUE BOX", "address": {"city": "FLORHAM PARK", "state": "NJ", "street": "25 HANOVER RD", "postcode": "07932"}}},
{"geometry": {"type": "Point", "coordinates": [-74.3919652358, 40.7883733296]}, "type": "Feature", "properties": {"collection_times": [{"days": "Mon-Fri", "time": "5:00pm"}, {"days": "Sat", "time": "3:00pm"}, {"days": "Sun", "time": "Closed"}], "id": "0793200013", "name": "USPS COLLECTION BOX - BLUE BOX", "address": {"city": "FLORHAM PARK", "state": "NJ", "street": "187 COLUMBIA TPKE", "postcode": "07932"}}},
{"geometry": {"type": "Point", "coordinates": [-74.3991219604, 40.7892601057]}, "type": "Feature", "properties": {"collection_times": [{"days": "Mon-Sat", "time": "11:00am"}, {"days": "Sun", "time": "Closed"}], "id": "0793200015", "name": "USPS COLLECTION BOX - BLUE BOX", "address": {"city": "FLORHAM PARK", "state": "NJ", "street": "256 COLUMBIA TPKE", "postcode": "07932"}}},
{"geometry": {"type": "Point", "coordinates": [-74.3701573873, 40.7862345398]}, "type": "Feature", "properties": {"collection_times": [{"days": "Mon-Fri", "time": "3:00pm"}, {"days": "Sat", "time": "11:00am"}, {"days": "Sun", "time": "Closed"}], "id": "0793200016", "name": "USPS COLLECTION BOX - BLUE BOX", "address": {"city": "FLORHAM PARK", "state": "NJ", "street": "23 VREELAND RD", "postcode": "07932"}}},
{"geometry": {"type": "Point", "coordinates": [-74.4141835905, 40.7907654286]}, "type": "Feature", "properties": {"collection_times": [{"days": "Mon-Sat", "time": "11:00am"}, {"days": "Sun", "time": "Closed"}], "id": "0793200017", "name": "USPS COLLECTION BOX - BLUE BOX", "address": {"city": "FLORHAM PARK", "state": "NJ", "street": "325 COLUMBIA TPKE", "postcode": "07932"}}},
{"geometry": {"type": "Point", "coordinates": [-74.3977297948, 40.7832120796]}, "type": "Feature", "properties": {"collection_times": [{"days": "Mon-Sat", "time": "12:00pm"}, {"days": "Sun", "time": "Closed"}], "id": "0793200018", "name": "USPS COLLECTION BOX - BLUE BOX", "address": {"city": "FLORHAM PARK", "state": "NJ", "street": "111 RIDGEDALE AVE", "postcode": "07932"}}},
{"geometry": {"type": "Point", "coordinates": [-74.3703506563, 40.7848995912]}, "type": "Feature", "properties": {"collection_times": [{"days": "Mon-Sat", "time": "1:30pm"}, {"days": "Sun", "time": "Closed"}], "id": "0793200019", "name": "USPS COLLECTION BOX - BLUE BOX", "address": {"city": "FLORHAM PARK", "state": "NJ", "street": "25 VREELAND RD", "postcode": "07932"}}},
{"geometry": {"type": "Point", "coordinates": [-74.3919652358, 40.7883733296]}, "type": "Feature", "properties": {"collection_times": [{"days": "Mon-Fri", "time": "5:00pm"}, {"days": "Sat", "time": "3:00pm"}, {"days": "Sun", "time": "Closed"}], "id": "0793200020", "name": "USPS COLLECTION BOX - BLUE BOX", "address": {"city": "FLORHAM PARK", "state": "NJ", "street": "187 COLUMBIA TPKE", "postcode": "07932"}}},
{"geometry": {"type": "Point", "coordinates": [-74.3705820695, 40.7837917295]}, "type": "Feature", "properties": {"collection_times": [{"days": "Mon-Sat", "time": "1:30pm"}, {"days": "Sun", "time": "Closed"}], "id": "0793200021", "name": "USPS COLLECTION BOX - BLUE BOX", "address": {"city": "FLORHAM PARK", "state": "NJ", "street": "30 VREELAND RD", "postcode": "07932"}}},
{"geometry": {"type": "Point", "coordinates": [-74.3877349745, 40.787151333]}, "type": "Feature", "properties": {"collection_times": [{"days": "Mon-Fri", "time": "3:00pm"}, {"days": "Sat", "time": "11:00am"}, {"days": "Sun", "time": "Closed"}], "id": "0793200022", "name": "USPS COLLECTION BOX - BLUE BOX", "address": {"city": "FLORHAM PARK", "state": "NJ", "street": "147 COLUMBIA TPKE", "postcode": "07932"}}},
{"geometry": {"type": "Point", "coordinates": [-74.3919652358, 40.7883733296]}, "type": "Feature", "properties": {"collection_times": [{"days": "Mon-Fri", "time": "4:30pm"}, {"days": "Sat", "time": "1:00pm"}, {"days": "Sun", "time": "Closed"}], "id": "0793200023", "name": "USPS COLLECTION BOX - PO LOBBY", "address": {"city": "FLORHAM PARK", "state": "NJ", "street": "187 COLUMBIA TPKE", "postcode": "07932"}}},
{"geometry": {"type": "Point", "coordinates": [-74.4642279472, 40.6748700536]}, "type": "Feature", "properties": {"collection_times": [{"days": "Mon-Fri", "time": "5:00pm"}, {"days": "Sat", "time": "3:00pm"}, {"days": "Sun", "time": "Closed"}], "id": "0793300001", "name": "USPS COLLECTION BOX - BLUE BOX", "address": {"city": "GILLETTE", "state": "NJ", "street": "594 VALLEY RD", "postcode": "07933"}}},
{"geometry": {"type": "Point", "coordinates": [-74.4794150286, 40.6701080284]}, "type": "Feature", "properties": {"collection_times": [{"days": "Mon-Sat", "time": "11:00am"}, {"days": "Sun", "time": "Closed"}], "id": "0793300003", "name": "USPS COLLECTION BOX - BLUE BOX", "address": {"city": "GILLETTE", "state": "NJ", "street": "977 VALLEY RD", "postcode": "07933"}}},
{"geometry": {"type": "Point", "coordinates": [-74.4642279472, 40.6748700536]}, "type": "Feature", "properties": {"collection_times": [{"days": "Mon-Fri", "time": "4:00pm"}, {"days": "Sat", "time": "12:00pm"}, {"days": "Sun", "time": "Closed"}], "id": "0793300004", "name": "USPS COLLECTION BOX - PO LOBBY", "address": {"city": "GILLETTE", "state": "NJ", "street": "594 VALLEY RD", "postcode": "07933"}}},
{"geometry": {"type": "Point", "coordinates": [-74.6674834765, 40.7219312564]}, "type": "Feature", "properties": {"collection_times": [{"days": "Mon-Fri", "time": "4:30pm"}, {"days": "Sat", "time": "11:30am"}, {"days": "Sun", "time": "Closed"}], "id": "0793400001", "name": "USPS COLLECTION BOX - BLUE BOX", "address": {"city": "GLADSTONE", "state": "NJ", "street": "266 MAIN ST", "postcode": "07934"}}},
{"geometry": {"type": "Point", "coordinates": [-74.6674834765, 40.7219312564]}, "type": "Feature", "properties": {"collection_times": [{"days": "Mon-Fri", "time": "2:00pm"}, {"days": "Sat", "time": "12:00pm"}, {"days": "Sun", "time": "Closed"}], "id": "0793400002", "name": "USPS COLLECTION BOX - PO LOBBY", "address": {"city": "GLADSTONE", "state": "NJ", "street": "266 MAIN ST", "postcode": "07934"}}},
{"geometry": {"type": "Point", "coordinates": [-74.439841951, 40.7409165648]}, "type": "Feature", "properties": {"collection_times": [{"days": "Mon-Fri", "time": "4:00pm"}, {"days": "Sat", "time": "11:30am"}, {"days": "Sun", "time": "Closed"}], "id": "0793500001", "name": "USPS COLLECTION BOX - BLUE BOX", "address": {"city": "GREEN VILLAGE", "state": "NJ", "street": "372 GREEN VILLAGE RD", "postcode": "07935"}}},
{"geometry": {"type": "Point", "coordinates": [-74.439841951, 40.7409165648]}, "type": "Feature", "properties": {"collection_times": [{"days": "Mon-Fri", "time": "4:30pm"}, {"days": "Sat", "time": "12:00pm"}, {"days": "Sun", "time": "Closed"}], "id": "0793500002", "name": "USPS COLLECTION BOX - PO LOBBY", "address": {"city": "GREEN VILLAGE", "state": "NJ", "street": "372 GREEN VILLAGE RD", "postcode": "07935"}}},
{"geometry": {"type": "Point", "coordinates": [-74.3670639496, 40.8208372725]}, "type": "Feature", "properties": {"collection_times": [{"days": "Mon-Fri", "time": "5:00pm"}, {"days": "Sat", "time": "3:00pm"}, {"days": "Sun", "time": "Closed"}], "id": "0793600001", "name": "USPS COLLECTION BOX - BLUE BOX", "address": {"city": "EAST HANOVER", "state": "NJ", "street": "315 RIDGEDALE AVE", "postcode": "07936"}}},
{"geometry": {"type": "Point", "coordinates": [-74.3670639496, 40.8208372725]}, "type": "Feature", "properties": {"collection_times": [{"days": "Mon-Fri", "time": "5:00pm"}, {"days": "Sat", "time": "3:00pm"}, {"days": "Sun", "time": "Closed"}], "id": "0793600002", "name": "USPS COLLECTION BOX - BLUE BOX", "address": {"city": "EAST HANOVER", "state": "NJ", "street": "315 RIDGEDALE AVE", "postcode": "07936"}}},
{"geometry": {"type": "Point", "coordinates": [-74.3670639496, 40.8208372725]}, "type": "Feature", "properties": {"collection_times": [{"days": "Mon-Fri", "time": "5:00pm"}, {"days": "Sat", "time": "3:00pm"}, {"days": "Sun", "time": "Closed"}], "id": "0793600003", "name": "USPS COLLECTION BOX - BLUE BOX", "address": {"city": "EAST HANOVER", "state": "NJ", "street": "315 RIDGEDALE AVE", "postcode": "07936"}}},
{"geometry": {"type": "Point", "coordinates": [-74.365207887, 40.817766311]}, "type": "Feature", "properties": {"collection_times": [{"days": "Mon-Sat", "time": "9:00am"}, {"days": "Sun", "time": "Closed"}], "id": "0793600004", "name": "USPS COLLECTION BOX - BLUE BOX", "address": {"city": "EAST HANOVER", "state": "NJ", "street": "44 DEFOREST AVE", "postcode": "07936"}}},
{"geometry": {"type": "Point", "coordinates": [-74.3533853951, 40.8149603323]}, "type": "Feature", "properties": {"collection_times": [{"days": "Mon-Sat", "time": "2:30pm"}, {"days": "Sun", "time": "Closed"}], "id": "0793600005", "name": "USPS COLLECTION BOX - BLUE BOX", "address": {"city": "EAST HANOVER", "state": "NJ", "street": "56 FAIRWAY DR", "postcode": "07936"}}},
{"geometry": {"type": "Point", "coordinates": [-74.370007139, 40.8042654226]}, "type": "Feature", "properties": {"collection_times": [{"days": "Mon-Sat", "time": "11:00am"}, {"days": "Sun", "time": "Closed"}], "id": "0793600006", "name": "USPS COLLECTION BOX - BLUE BOX", "address": {"city": "EAST HANOVER", "state": "NJ", "street": "96 MOUNT PLEASANT AVE", "postcode": "07936"}}},
{"geometry": {"type": "Point", "coordinates": [-74.3775993821, 40.8083925442]}, "type": "Feature", "properties": {"collection_times": [{"days": "Mon-Sat", "time": "12:00pm"}, {"days": "Sun", "time": "Closed"}], "id": "0793600010", "name": "USPS COLLECTION BOX - BLUE BOX", "address": {"city": "EAST HANOVER", "state": "NJ", "street": "188 STATE ROUTE 10", "postcode": "07936"}}},
{"geometry": {"type": "Point", "coordinates": [-74.3884104441, 40.8131752473]}, "type": "Feature", "properties": {"collection_times": [{"days": "Mon-Sat", "time": "11:00am"}, {"days": "Sun", "time": "Closed"}], "id": "0793600011", "name": "USPS COLLECTION BOX - BLUE BOX", "address": {"city": "EAST HANOVER", "state": "NJ", "street": "7 LITTELL RD", "postcode": "07936"}}},
{"geometry": {"type": "Point", "coordinates": [-74.3944448552, 40.8023175108]}, "type": "Feature", "properties": {"collection_times": [{"days": "Mon-Sat", "time": "10:00am"}, {"days": "Sun", "time": "Closed"}], "id": "0793600012", "name": "USPS COLLECTION BOX - BLUE BOX", "address": {"city": "EAST HANOVER", "state": "NJ", "street": "3 GREAT MEADOW LN", "postcode": "07936"}}},
{"geometry": {"type": "Point", "coordinates": [-74.3398996629, 40.831489818]}, "type": "Feature", "properties": {"collection_times": [{"days": "Mon-Fri", "time": "3:00pm"}, {"days": "Sat", "time": "11:00am"}, {"days": "Sun", "time": "Closed"}], "id": "0793600016", "name": "USPS COLLECTION BOX - BLUE BOX", "address": {"city": "EAST HANOVER", "state": "NJ", "street": "72 EAGLE ROCK AVE", "postcode": "07936"}}},
{"geometry": {"type": "Point", "coordinates": [-74.3620934297, 40.8061334937]}, "type": "Feature", "properties": {"collection_times": [{"days": "Mon-Sat", "time": "12:00pm"}, {"days": "Sun", "time": "Closed"}], "id": "0793600017", "name": "USPS COLLECTION BOX - BLUE BOX", "address": {"city": "EAST HANOVER", "state": "NJ", "street": "10 GRACIE RD", "postcode": "07936"}}},
{"geometry": {"type": "Point", "coordinates": [-74.3670639496, 40.8208372725]}, "type": "Feature", "properties": {"collection_times": [{"days": "Mon-Fri", "time": "5:00pm"}, {"days": "Sat", "time": "3:00pm"}, {"days": "Sun", "time": "Closed"}], "id": "0793600018", "name": "USPS COLLECTION BOX - BLUE BOX", "address": {"city": "EAST HANOVER", "state": "NJ", "street": "315 RIDGEDALE AVE", "postcode": "07936"}}},
{"geometry": {"type": "Point", "coordinates": [-74.3892643094, 40.8172477616]}, "type": "Feature", "properties": {"collection_times": [{"days": "Mon-Fri", "time": "3:00pm"}, {"days": "Sat", "time": "11:00am"}, {"days": "Sun", "time": "Closed"}], "id": "0793600019", "name": "USPS COLLECTION BOX - BLUE BOX", "address": {"city": "EAST HANOVER", "state": "NJ", "street": "15 MELANIE LN", "postcode": "07936"}}},
{"geometry": {"type": "Point", "coordinates": [-74.3578024416, 40.8271901168]}, "type": "Feature", "properties": {"collection_times": [{"days": "Mon-Sat", "time": "10:00am"}, {"days": "Sun", "time": "Closed"}], "id": "0793600020", "name": "USPS COLLECTION BOX - BLUE BOX", "address": {"city": "EAST HANOVER", "state": "NJ", "street": "460 RIDGEDALE AVE", "postcode": "07936"}}},
{"geometry": {"type": "Point", "coordinates": [-74.3670639496, 40.8208372725]}, "type": "Feature", "properties": {"collection_times": [{"days": "Mon-Fri", "time": "5:00pm"}, {"days": "Sat", "time": "4:00pm"}, {"days": "Sun", "time": "Closed"}], "id": "0793600021", "name": "USPS COLLECTION BOX - PO LOBBY", "address": {"city": "EAST HANOVER", "state": "NJ", "street": "315 RIDGEDALE AVE", "postcode": "07936"}}},
{"geometry": {"type": "Point", "coordinates": [-74.5891167562, 40.6659494088]}, "type": "Feature", "properties": {"collection_times": [{"days": "Mon-Fri", "time": "4:30pm"}, {"days": "Sat", "time": "2:30pm"}, {"days": "Sun", "time": "Closed"}], "id": "0793800001", "name": "USPS COLLECTION BOX - BLUE BOX", "address": {"city": "LIBERTY CORNER", "state": "NJ", "street": "8 CHURCH ST", "postcode": "07938"}}},
{"geometry": {"type": "Point", "coordinates": [-74.5891167562, 40.6659494088]}, "type": "Feature", "properties": {"collection_times": [{"days": "Mon-Fri", "time": "4:30pm"}, {"days": "Sat", "time": "12:00pm"}, {"days": "Sun", "time": "Closed"}], "id": "0793800002", "name": "USPS COLLECTION BOX - PO LOBBY", "address": {"city": "LIBERTY CORNER", "state": "NJ", "street": "8 CHURCH ST", "postcode": "07938"}}},
{"geometry": {"type": "Point", "coordinates": [-74.4209086928, 40.7623399517]}, "type": "Feature", "properties": {"collection_times": [{"days": "Mon-Sat", "time": "3:00pm"}, {"days": "Sun", "time": "Closed"}], "id": "0794000006", "name": "USPS COLLECTION BOX - BLUE BOX", "address": {"city": "MADISON", "state": "NJ", "street": "17 MADISON AVE", "postcode": "07940"}}},
{"geometry": {"type": "Point", "coordinates": [-74.4149430574, 40.7587819461]}, "type": "Feature", "properties": {"collection_times": [{"days": "Mon-Sat", "time": "3:00pm"}, {"days": "Sun", "time": "Closed"}], "id": "0794000007", "name": "USPS COLLECTION BOX - BLUE BOX", "address": {"city": "MADISON", "state": "NJ", "street": "64 MAIN ST", "postcode": "07940"}}},
{"geometry": {"type": "Point", "coordinates": [-74.416343502, 40.7594887086]}, "type": "Feature", "properties": {"collection_times": [{"days": "Mon-Sat", "time": "3:00pm"}, {"days": "Sun", "time": "Closed"}], "id": "0794000008", "name": "USPS COLLECTION BOX - BLUE BOX", "address": {"city": "MADISON", "state": "NJ", "street": "23 MAIN ST", "postcode": "07940"}}},
{"geometry": {"type": "Point", "coordinates": [-74.4173085258, 40.7609408989]}, "type": "Feature", "properties": {"collection_times": [{"days": "Mon-Sat", "time": "3:00pm"}, {"days": "Sun", "time": "Closed"}], "id": "0794000009", "name": "USPS COLLECTION BOX - BLUE BOX", "address": {"city": "MADISON", "state": "NJ", "street": "2 COMMUNITY PL", "postcode": "07940"}}},
{"geometry": {"type": "Point", "coordinates": [-74.4032991656, 40.7563175076]}, "type": "Feature", "properties": {"collection_times": [{"days": "Mon-Sat", "time": "2:00pm"}, {"days": "Sun", "time": "Closed"}], "id": "0794000012", "name": "USPS COLLECTION BOX - BLUE BOX", "address": {"city": "MADISON", "state": "NJ", "street": "42 ROSEDALE AVE", "postcode": "07940"}}},
{"geometry": {"type": "Point", "coordinates": [-74.4103386552, 40.759387353]}, "type": "Feature", "properties": {"collection_times": [{"days": "Mon-Sat", "time": "3:00pm"}, {"days": "Sun", "time": "Closed"}], "id": "0794000013", "name": "USPS COLLECTION BOX - BLUE BOX", "address": {"city": "MADISON", "state": "NJ", "street": "41 GREENWOOD AVE", "postcode": "07940"}}},
{"geometry": {"type": "Point", "coordinates": [-74.4085609583, 40.7547296679]}, "type": "Feature", "properties": {"collection_times": [{"days": "Mon-Sat", "time": "3:00pm"}, {"days": "Sun", "time": "Closed"}], "id": "0794000014", "name": "USPS COLLECTION BOX - BLUE BOX", "address": {"city": "MADISON", "state": "NJ", "street": "171 MAIN ST", "postcode": "07940"}}},
{"geometry": {"type": "Point", "coordinates": [-74.396918285, 40.7475884534]}, "type": "Feature", "properties": {"collection_times": [{"days": "Mon-Sat", "time": "3:00pm"}, {"days": "Sun", "time": "Closed"}], "id": "0794000015", "name": "USPS COLLECTION BOX - BLUE BOX", "address": {"city": "MADISON", "state": "NJ", "street": "340 MAIN ST", "postcode": "07940"}}},
{"geometry": {"type": "Point", "coordinates": [-74.4155081175, 40.7579113329]}, "type": "Feature", "properties": {"collection_times": [{"days": "Mon-Fri", "time": "5:00pm"}, {"days": "Sat", "time": "4:00pm"}, {"days": "Sun", "time": "Closed"}], "id": "0794000020", "name": "USPS COLLECTION BOX - BLUE BOX", "address": {"city": "MADISON", "state": "NJ", "street": "10 LINCOLN PL # 1", "postcode": "07940"}}},
{"geometry": {"type": "Point", "coordinates": [-74.4155081175, 40.7579113329]}, "type": "Feature", "properties": {"collection_times": [{"days": "Mon-Fri", "time": "5:00pm"}, {"days": "Sat", "time": "4:00pm"}, {"days": "Sun", "time": "Closed"}], "id": "0794000021", "name": "USPS COLLECTION BOX - BLUE BOX", "address": {"city": "MADISON", "state": "NJ", "street": "10 LINCOLN PL # 2", "postcode": "07940"}}},
{"geometry": {"type": "Point", "coordinates": [-74.4155081175, 40.7579113329]}, "type": "Feature", "properties": {"collection_times": [{"days": "Mon-Fri", "time": "5:00pm"}, {"days": "Sat", "time": "4:00pm"}, {"days": "Sun", "time": "Closed"}], "id": "0794000029", "name": "USPS COLLECTION BOX - BLUE BOX", "address": {"city": "MADISON", "state": "NJ", "street": "10 LINCOLN PL # 3", "postcode": "07940"}}},
{"geometry": {"type": "Point", "coordinates": [-74.4155081175, 40.7579113329]}, "type": "Feature", "properties": {"collection_times": [{"days": "Mon-Fri", "time": "5:00pm"}, {"days": "Sat", "time": "4:00pm"}, {"days": "Sun", "time": "Closed"}], "id": "0794000030", "name": "USPS COLLECTION BOX - PO LOBBY", "address": {"city": "MADISON", "state": "NJ", "street": "10 LINCOLN PL", "postcode": "07940"}}},
{"geometry": {"type": "Point", "coordinates": [-74.5888522999, 40.7810898016]}, "type": "Feature", "properties": {"collection_times": [{"days": "Mon-Fri", "time": "5:00pm"}, {"days": "Sat", "time": "3:00pm"}, {"days": "Sun", "time": "Closed"}], "id": "0794500001", "name": "USPS COLLECTION BOX - BLUE BOX", "address": {"city": "MENDHAM", "state": "NJ", "street": "2 TEMPE WICK RD", "postcode": "07945"}}},
{"geometry": {"type": "Point", "coordinates": [-74.58867442, 40.7817643613]}, "type": "Feature", "properties": {"collection_times": [{"days": "Mon-Sat", "time": "11:00am"}, {"days": "Sun", "time": "Closed"}], "id": "0794500002", "name": "USPS COLLECTION BOX - BLUE BOX", "address": {"city": "MENDHAM", "state": "NJ", "street": "86 E MAIN ST", "postcode": "07945"}}},
{"geometry": {"type": "Point", "coordinates": [-74.5973433898, 40.7770755592]}, "type": "Feature", "properties": {"collection_times": [{"days": "Mon-Sat", "time": "11:00am"}, {"days": "Sun", "time": "Closed"}], "id": "0794500003", "name": "USPS COLLECTION BOX - BLUE BOX", "address": {"city": "MENDHAM", "state": "NJ", "street": "30 E MAIN ST", "postcode": "07945"}}},
{"geometry": {"type": "Point", "coordinates": [-74.5888522999, 40.7810898016]}, "type": "Feature", "properties": {"collection_times": [{"days": "Mon-Fri", "time": "5:00pm"}, {"days": "Sat", "time": "3:00pm"}, {"days": "Sun", "time": "Closed"}], "id": "0794500007", "name": "USPS COLLECTION BOX - BLUE BOX", "address": {"city": "MENDHAM", "state": "NJ", "street": "2 TEMPE WICK RD", "postcode": "07945"}}},
{"geometry": {"type": "Point", "coordinates": [-74.5888522999, 40.7810898016]}, "type": "Feature", "properties": {"collection_times": [{"days": "Mon-Fri", "time": "4:30pm"}, {"days": "Sat", "time": "1:00pm"}, {"days": "Sun", "time": "Closed"}], "id": "0794500008", "name": "USPS COLLECTION BOX - PO LOBBY", "address": {"city": "MENDHAM", "state": "NJ", "street": "2 TEMPE WICK RD", "postcode": "07945"}}},
{"geometry": {"type": "Point", "coordinates": [-74.5231982686, 40.6738047732]}, "type": "Feature", "properties": {"collection_times": [{"days": "Mon-Fri", "time": "5:00pm"}, {"days": "Sat", "time": "11:00am"}, {"days": "Sun", "time": "Closed"}], "id": "0794600001", "name": "USPS COLLECTION BOX - BLUE BOX", "address": {"city": "MILLINGTON", "state": "NJ", "street": "1936 LONG HILL RD", "postcode": "07946"}}},
{"geometry": {"type": "Point", "coordinates": [-74.5231982686, 40.6738047732]}, "type": "Feature", "properties": {"collection_times": [{"days": "Mon-Fri", "time": "4:30pm"}, {"days": "Sat", "time": "12:00pm"}, {"days": "Sun", "time": "Closed"}], "id": "0794600002", "name": "USPS COLLECTION BOX - PO LOBBY", "address": {"city": "MILLINGTON", "state": "NJ", "street": "1936 LONG HILL RD", "postcode": "07946"}}},
{"geometry": {"type": "Point", "coordinates": [-74.4552180516, 40.851669915]}, "type": "Feature", "properties": {"collection_times": [{"days": "Mon-Sat", "time": "11:00am"}, {"days": "Sun", "time": "Closed"}], "id": "0795000001", "name": "USPS COLLECTION BOX - BLUE BOX", "address": {"city": "MORRIS PLAINS", "state": "NJ", "street": "2 SEDGEFIELD DR", "postcode": "07950"}}},
{"geometry": {"type": "Point", "coordinates": [-74.4895865585, 40.8222556403]}, "type": "Feature", "properties": {"collection_times": [{"days": "Mon-Sat", "time": "11:00am"}, {"days": "Sun", "time": "Closed"}], "id": "0795000005", "name": "USPS COLLECTION BOX - BLUE BOX", "address": {"city": "MORRIS PLAINS", "state": "NJ", "street": "16 BURNHAM RD", "postcode": "07950"}}},
{"geometry": {"type": "Point", "coordinates": [-74.4826922736, 40.8197371206]}, "type": "Feature", "properties": {"collection_times": [{"days": "Mon-Sat", "time": "11:00am"}, {"days": "Sun", "time": "Closed"}], "id": "0795000007", "name": "USPS COLLECTION BOX - BLUE BOX", "address": {"city": "MORRIS PLAINS", "state": "NJ", "street": "2 SHERMAN AVE", "postcode": "07950"}}},
{"geometry": {"type": "Point", "coordinates": [-74.4787471055, 40.8305032302]}, "type": "Feature", "properties": {"collection_times": [{"days": "Mon-Sat", "time": "11:00am"}, {"days": "Sun", "time": "Closed"}], "id": "0795000012", "name": "USPS COLLECTION BOX - BLUE BOX", "address": {"city": "MORRIS PLAINS", "state": "NJ", "street": "800 SPEEDWELL AVE", "postcode": "07950"}}},
{"geometry": {"type": "Point", "coordinates": [-74.4737608075, 40.8487506995]}, "type": "Feature", "properties": {"collection_times": [{"days": "Mon-Sat", "time": "11:00am"}, {"days": "Sun", "time": "Closed"}], "id": "0795000013", "name": "USPS COLLECTION BOX - BLUE BOX", "address": {"city": "MORRIS PLAINS", "state": "NJ", "street": "288 TABOR RD", "postcode": "07950"}}},
{"geometry": {"type": "Point", "coordinates": [-74.4841973406, 40.8559831954]}, "type": "Feature", "properties": {"collection_times": [{"days": "Mon-Sat", "time": "11:00am"}, {"days": "Sun", "time": "Closed"}], "id": "0795000014", "name": "USPS COLLECTION BOX - BLUE BOX", "address": {"city": "MORRIS PLAINS", "state": "NJ", "street": "2467 STATE ROUTE 10", "postcode": "07950"}}},
{"geometry": {"type": "Point", "coordinates": [-74.4899195312, 40.8577224891]}, "type": "Feature", "properties": {"collection_times": [{"days": "Mon-Sat", "time": "11:00am"}, {"days": "Sun", "time": "Closed"}], "id": "0795000017", "name": "USPS COLLECTION BOX - BLUE BOX", "address": {"city": "MORRIS PLAINS", "state": "NJ", "street": "28 GIBRALTAR DR", "postcode": "07950"}}},
{"geometry": {"type": "Point", "coordinates": [-74.480258927, 40.8253585417]}, "type": "Feature", "properties": {"collection_times": [{"days": "Mon-Fri", "time": "5:00pm"}, {"days": "Sat", "time": "3:00pm"}, {"days": "Sun", "time": "Closed"}], "id": "0795000019", "name": "USPS COLLECTION BOX - BLUE BOX", "address": {"city": "MORRIS PLAINS", "state": "NJ", "street": "485 SPEEDWELL AVE", "postcode": "07950"}}},
{"geometry": {"type": "Point", "coordinates": [-74.480258927, 40.8253585417]}, "type": "Feature", "properties": {"collection_times": [{"days": "Mon-Fri", "time": "5:00pm"}, {"days": "Sat", "time": "3:00pm"}, {"days": "Sun", "time": "Closed"}], "id": "0795000020", "name": "USPS COLLECTION BOX - BLUE BOX", "address": {"city": "MORRIS PLAINS", "state": "NJ", "street": "485 SPEEDWELL AVE", "postcode": "07950"}}},
{"geometry": {"type": "Point", "coordinates": [-74.480258927, 40.8253585417]}, "type": "Feature", "properties": {"collection_times": [{"days": "Mon-Fri", "time": "5:00pm"}, {"days": "Sat", "time": "3:00pm"}, {"days": "Sun", "time": "Closed"}], "id": "0795000021", "name": "USPS COLLECTION BOX - BLUE BOX", "address": {"city": "MORRIS PLAINS", "state": "NJ", "street": "485 SPEEDWELL AVE", "postcode": "07950"}}},
{"geometry": {"type": "Point", "coordinates": [-74.481107862, 40.8432509035]}, "type": "Feature", "properties": {"collection_times": [{"days": "Mon-Fri", "time": "5:00pm"}, {"days": "Sat", "time": "3:00pm"}, {"days": "Sun", "time": "Closed"}], "id": "0795000022", "name": "USPS COLLECTION BOX - EXPRESS", "address": {"city": "MORRIS PLAINS", "state": "NJ", "street": "485 SPEEDWELL AVE", "postcode": "07950"}}},
{"geometry": {"type": "Point", "coordinates": [-74.4886033155, 40.8568031582]}, "type": "Feature", "properties": {"collection_times": [{"days": "Mon-Fri", "time": "11:00am"}, {"days": "Sat-Sun", "time": "Closed"}], "id": "0795000025", "name": "USPS COLLECTION BOX - BLUE BOX", "address": {"city": "MORRIS PLAINS", "state": "NJ", "street": "101 GIBRALTAR DR", "postcode": "07950"}}},
{"geometry": {"type": "Point", "coordinates": [-74.4811579758, 40.8226401019]}, "type": "Feature", "properties": {"collection_times": [{"days": "Mon-Sat", "time": "11:00am"}, {"days": "Sun", "time": "Closed"}], "id": "0795000026", "name": "USPS COLLECTION BOX - BLUE BOX", "address": {"city": "MORRIS PLAINS", "state": "NJ", "street": "329 SPEEDWELL AVE", "postcode": "07950"}}},
{"geometry": {"type": "Point", "coordinates": [-74.480258927, 40.8253585417]}, "type": "Feature", "properties": {"collection_times": [{"days": "Mon-Fri", "time": "5:00pm"}, {"days": "Sat", "time": "3:00pm"}, {"days": "Sun", "time": "Closed"}], "id": "0795000027", "name": "USPS COLLECTION BOX - PO LOBBY", "address": {"city": "MORRIS PLAINS", "state": "NJ", "street": "485 SPEEDWELL AVE", "postcode": "07950"}}},
{"geometry": {"type": "Point", "coordinates": [-74.4790049905, 40.7896698526]}, "type": "Feature", "properties": {"collection_times": [{"days": "Mon-Fri", "time": "3:00pm"}, {"days": "Sat", "time": "11:00am"}, {"days": "Sun", "time": "Closed"}], "id": "0796000003", "name": "USPS COLLECTION BOX - BLUE BOX", "address": {"city": "MORRISTOWN", "state": "NJ", "street": "55 MADISON AVE", "postcode": "07960"}}},
{"geometry": {"type": "Point", "coordinates": [-74.4633383732, 40.7879798537]}, "type": "Feature", "properties": {"collection_times": [{"days": "Mon-Fri", "time": "3:00pm"}, {"days": "Sat", "time": "11:00am"}, {"days": "Sun", "time": "Closed"}], "id": "0796000005", "name": "USPS COLLECTION BOX - BLUE BOX", "address": {"city": "MORRISTOWN", "state": "NJ", "street": "100 MADISON AVE", "postcode": "07960"}}},
{"geometry": {"type": "Point", "coordinates": [-74.4639660952, 40.7877674056]}, "type": "Feature", "properties": {"collection_times": [{"days": "Mon-Fri", "time": "3:00pm"}, {"days": "Sat", "time": "11:00am"}, {"days": "Sun", "time": "Closed"}], "id": "0796000006", "name": "USPS COLLECTION BOX - BLUE BOX", "address": {"city": "MORRISTOWN", "state": "NJ", "street": "95 MADISON AVE", "postcode": "07960"}}},
{"geometry": {"type": "Point", "coordinates": [-74.4807272694, 40.7960699587]}, "type": "Feature", "properties": {"collection_times": [{"days": "Mon-Fri", "time": "3:00pm"}, {"days": "Sat", "time": "11:00am"}, {"days": "Sun", "time": "Closed"}], "id": "0796000015", "name": "USPS COLLECTION BOX - BLUE BOX", "address": {"city": "MORRISTOWN", "state": "NJ", "street": "16 SOUTH ST", "postcode": "07960"}}},
{"geometry": {"type": "Point", "coordinates": [-74.480058277, 40.7955471868]}, "type": "Feature", "properties": {"collection_times": [{"days": "Mon-Fri", "time": "3:00pm"}, {"days": "Sat", "time": "11:00am"}, {"days": "Sun", "time": "Closed"}], "id": "0796000016", "name": "USPS COLLECTION BOX - BLUE BOX", "address": {"city": "MORRISTOWN", "state": "NJ", "street": "60 SOUTH ST", "postcode": "07960"}}},
{"geometry": {"type": "Point", "coordinates": [-74.4897209998, 40.7999795354]}, "type": "Feature", "properties": {"collection_times": [{"days": "Mon-Fri", "time": "3:00pm"}, {"days": "Sat", "time": "11:00am"}, {"days": "Sun", "time": "Closed"}], "id": "0796000018", "name": "USPS COLLECTION BOX - BLUE BOX", "address": {"city": "MORRISTOWN", "state": "NJ", "street": "123 WASHINGTON ST", "postcode": "07960"}}},
{"geometry": {"type": "Point", "coordinates": [-74.4819907789, 40.7947530273]}, "type": "Feature", "properties": {"collection_times": [{"days": "Mon-Fri", "time": "3:00pm"}, {"days": "Sat", "time": "11:00am"}, {"days": "Sun", "time": "Closed"}], "id": "0796000019", "name": "USPS COLLECTION BOX - BLUE BOX", "address": {"city": "MORRISTOWN", "state": "NJ", "street": "22 MAPLE AVE", "postcode": "07960"}}},
{"geometry": {"type": "Point", "coordinates": [-74.4803951125, 40.7956609325]}, "type": "Feature", "properties": {"collection_times": [{"days": "Mon-Fri", "time": "3:00pm"}, {"days": "Sat", "time": "11:00am"}, {"days": "Sun", "time": "Closed"}], "id": "0796000020", "name": "USPS COLLECTION BOX - BLUE BOX", "address": {"city": "MORRISTOWN", "state": "NJ", "street": "21 SOUTH ST", "postcode": "07960"}}},
{"geometry": {"type": "Point", "coordinates": [-74.4753106097, 40.7934872612]}, "type": "Feature", "properties": {"collection_times": [{"days": "Mon-Fri", "time": "3:00pm"}, {"days": "Sat", "time": "11:00am"}, {"days": "Sun", "time": "Closed"}], "id": "0796000021", "name": "USPS COLLECTION BOX - BLUE BOX", "address": {"city": "MORRISTOWN", "state": "NJ", "street": "25 ELM ST", "postcode": "07960"}}},
{"geometry": {"type": "Point", "coordinates": [-74.4791493115, 40.7926615559]}, "type": "Feature", "properties": {"collection_times": [{"days": "Mon-Fri", "time": "3:00pm"}, {"days": "Sat", "time": "11:00am"}, {"days": "Sun", "time": "Closed"}], "id": "0796000022", "name": "USPS COLLECTION BOX - BLUE BOX", "address": {"city": "MORRISTOWN", "state": "NJ", "street": "67 MAPLE AVE", "postcode": "07960"}}},
{"geometry": {"type": "Point", "coordinates": [-74.4744097112, 40.7965617968]}, "type": "Feature", "properties": {"collection_times": [{"days": "Mon-Fri", "time": "3:00pm"}, {"days": "Sat", "time": "11:00am"}, {"days": "Sun", "time": "Closed"}], "id": "0796000023", "name": "USPS COLLECTION BOX - BLUE BOX", "address": {"city": "MORRISTOWN", "state": "NJ", "street": "131 MORRIS ST", "postcode": "07960"}}},
{"geometry": {"type": "Point", "coordinates": [-74.4819985881, 40.7945042868]}, "type": "Feature", "properties": {"collection_times": [{"days": "Mon-Fri", "time": "3:00pm"}, {"days": "Sat", "time": "11:00am"}, {"days": "Sun", "time": "Closed"}], "id": "0796000027", "name": "USPS COLLECTION BOX - BLUE BOX", "address": {"city": "MORRISTOWN", "state": "NJ", "street": "32 WASHINGTON ST", "postcode": "07960"}}},
{"geometry": {"type": "Point", "coordinates": [-74.4764163084, 40.7923013763]}, "type": "Feature", "properties": {"collection_times": [{"days": "Mon-Fri", "time": "3:00pm"}, {"days": "Sat", "time": "11:00am"}, {"days": "Sun", "time": "Closed"}], "id": "0796000028", "name": "USPS COLLECTION BOX - BLUE BOX", "address": {"city": "MORRISTOWN", "state": "NJ", "street": "159 SOUTH ST", "postcode": "07960"}}},
{"geometry": {"type": "Point", "coordinates": [-74.4819146351, 40.7971168566]}, "type": "Feature", "properties": {"collection_times": [{"days": "Mon-Fri", "time": "3:00pm"}, {"days": "Sat", "time": "11:00am"}, {"days": "Sun", "time": "Closed"}], "id": "0796000029", "name": "USPS COLLECTION BOX - BLUE BOX", "address": {"city": "MORRISTOWN", "state": "NJ", "street": "10 N PARK PL", "postcode": "07960"}}},
{"geometry": {"type": "Point", "coordinates": [-74.4826142017, 40.8039752559]}, "type": "Feature", "properties": {"collection_times": [{"days": "Mon-Fri", "time": "3:00pm"}, {"days": "Sat", "time": "11:00am"}, {"days": "Sun", "time": "Closed"}], "id": "0796000035", "name": "USPS COLLECTION BOX - BLUE BOX", "address": {"city": "MORRISTOWN", "state": "NJ", "street": "150 SPEEDWELL AVE", "postcode": "07960"}}},
{"geometry": {"type": "Point", "coordinates": [-74.4645097532, 40.8042983989]}, "type": "Feature", "properties": {"collection_times": [{"days": "Mon-Fri", "time": "5:00pm"}, {"days": "Sat", "time": "4:00pm"}, {"days": "Sun", "time": "Closed"}], "id": "0796000037", "name": "USPS COLLECTION BOX - BLUE BOX", "address": {"city": "MORRISTOWN", "state": "NJ", "street": "150 RIDGEDALE AVE", "postcode": "07960"}}},
{"geometry": {"type": "Point", "coordinates": [-74.4645097532, 40.8042983989]}, "type": "Feature", "properties": {"collection_times": [{"days": "Mon-Fri", "time": "5:00pm"}, {"days": "Sat", "time": "4:00pm"}, {"days": "Sun", "time": "Closed"}], "id": "0796000038", "name": "USPS COLLECTION BOX - BLUE BOX", "address": {"city": "MORRISTOWN", "state": "NJ", "street": "150 RIDGEDALE AVE", "postcode": "07960"}}},
{"geometry": {"type": "Point", "coordinates": [-74.47806447, 40.7949666305]}, "type": "Feature", "properties": {"collection_times": [{"days": "Mon-Sat", "time": "11:00am"}, {"days": "Sun", "time": "Closed"}], "id": "0796000052", "name": "USPS COLLECTION BOX - BLUE BOX", "address": {"city": "MORRISTOWN", "state": "NJ", "street": "22 PINE ST", "postcode": "07960"}}},
{"geometry": {"type": "Point", "coordinates": [-74.4889508247, 40.8024359982]}, "type": "Feature", "properties": {"collection_times": [{"days": "Mon-Sat", "time": "11:00am"}, {"days": "Sun", "time": "Closed"}], "id": "0796000053", "name": "USPS COLLECTION BOX - BLUE BOX", "address": {"city": "MORRISTOWN", "state": "NJ", "street": "40 MILLS ST", "postcode": "07960"}}},
{"geometry": {"type": "Point", "coordinates": [-74.480598253, 40.7978413952]}, "type": "Feature", "properties": {"collection_times": [{"days": "Mon-Sat", "time": "11:00am"}, {"days": "Sun", "time": "Closed"}], "id": "0796000058", "name": "USPS COLLECTION BOX - BLUE BOX", "address": {"city": "MORRISTOWN", "state": "NJ", "street": "1 SPEEDWELL AVE", "postcode": "07960"}}},
{"geometry": {"type": "Point", "coordinates": [-74.4792628756, 40.7783808752]}, "type": "Feature", "properties": {"collection_times": [{"days": "Mon-Sat", "time": "11:00am"}, {"days": "Sun", "time": "Closed"}], "id": "0796000059", "name": "USPS COLLECTION BOX - BLUE BOX", "address": {"city": "MORRISTOWN", "state": "NJ", "street": "3 COTTONWOOD RD", "postcode": "07960"}}},
{"geometry": {"type": "Point", "coordinates": [-74.4886106153, 40.7896665733]}, "type": "Feature", "properties": {"collection_times": [{"days": "Mon-Sat", "time": "11:00am"}, {"days": "Sun", "time": "Closed"}], "id": "0796000065", "name": "USPS COLLECTION BOX - BLUE BOX", "address": {"city": "MORRISTOWN", "state": "NJ", "street": "95 MOUNT KEMBLE AVE", "postcode": "07960"}}},
{"geometry": {"type": "Point", "coordinates": [-74.458077342, 40.7982979081]}, "type": "Feature", "properties": {"collection_times": [{"days": "Mon-Sat", "time": "11:00am"}, {"days": "Sun", "time": "Closed"}], "id": "0796000067", "name": "USPS COLLECTION BOX - BLUE BOX", "address": {"city": "MORRISTOWN", "state": "NJ", "street": "201 LINDSLEY DR", "postcode": "07960"}}},
{"geometry": {"type": "Point", "coordinates": [-74.4818973252, 40.7696707484]}, "type": "Feature", "properties": {"collection_times": [{"days": "Mon-Sat", "time": "11:00am"}, {"days": "Sun", "time": "Closed"}], "id": "0796000069", "name": "USPS COLLECTION BOX - BLUE BOX", "address": {"city": "MORRISTOWN", "state": "NJ", "street": "261 JAMES ST", "postcode": "07960"}}},
{"geometry": {"type": "Point", "coordinates": [-74.4712575538, 40.7937757872]}, "type": "Feature", "properties": {"collection_times": [{"days": "Mon-Sat", "time": "11:00am"}, {"days": "Sun", "time": "Closed"}], "id": "0796000070", "name": "USPS COLLECTION BOX - BLUE BOX", "address": {"city": "MORRISTOWN", "state": "NJ", "street": "44 HILL ST", "postcode": "07960"}}},
{"geometry": {"type": "Point", "coordinates": [-74.4655136044, 40.7905861826]}, "type": "Feature", "properties": {"collection_times": [{"days": "Mon-Sat", "time": "11:00am"}, {"days": "Sun", "time": "Closed"}], "id": "0796000071", "name": "USPS COLLECTION BOX - BLUE BOX", "address": {"city": "MORRISTOWN", "state": "NJ", "street": "114 FRANKLIN ST", "postcode": "07960"}}},
{"geometry": {"type": "Point", "coordinates": [-74.4855586443, 40.8018204136]}, "type": "Feature", "properties": {"collection_times": [{"days": "Mon-Sat", "time": "11:00am"}, {"days": "Sun", "time": "Closed"}], "id": "0796000073", "name": "USPS COLLECTION BOX - BLUE BOX", "address": {"city": "MORRISTOWN", "state": "NJ", "street": "50 EARLY ST", "postcode": "07960"}}},
{"geometry": {"type": "Point", "coordinates": [-74.4850037099, 40.7986315111]}, "type": "Feature", "properties": {"collection_times": [{"days": "Mon-Fri", "time": "3:00pm"}, {"days": "Sat", "time": "11:00am"}, {"days": "Sun", "time": "Closed"}], "id": "0796000076", "name": "USPS COLLECTION BOX - BLUE BOX", "address": {"city": "MORRISTOWN", "state": "NJ", "street": "50 WASHINGTON ST", "postcode": "07960"}}},
{"geometry": {"type": "Point", "coordinates": [-74.4645097532, 40.8042983989]}, "type": "Feature", "properties": {"collection_times": [{"days": "Mon-Fri", "time": "5:00pm"}, {"days": "Sat", "time": "4:00pm"}, {"days": "Sun", "time": "Closed"}], "id": "0796000088", "name": "USPS COLLECTION BOX - BLUE BOX", "address": {"city": "MORRISTOWN", "state": "NJ", "street": "150 RIDGEDALE AVE", "postcode": "07960"}}},
{"geometry": {"type": "Point", "coordinates": [-74.4793811715, 40.7971213112]}, "type": "Feature", "properties": {"collection_times": [{"days": "Mon-Fri", "time": "4:00pm"}, {"days": "Sat", "time": "12:30pm"}, {"days": "Sun", "time": "Closed"}], "id": "0796000089", "name": "USPS COLLECTION BOX - PO LOBBY", "address": {"city": "MORRISTOWN", "state": "NJ", "street": "1 MORRIS ST", "postcode": "07960"}}},
{"geometry": {"type": "Point", "coordinates": [-74.4645097532, 40.8042983989]}, "type": "Feature", "properties": {"collection_times": [{"days": "Mon-Fri", "time": "5:00pm"}, {"days": "Sat", "time": "1:30pm"}, {"days": "Sun", "time": "Closed"}], "id": "0796000090", "name": "USPS COLLECTION BOX - PO LOBBY", "address": {"city": "MORRISTOWN", "state": "NJ", "street": "150 RIDGEDALE AVE", "postcode": "07960"}}},
{"geometry": {"type": "Point", "coordinates": [-74.4424690205, 40.7789830214]}, "type": "Feature", "properties": {"collection_times": [{"days": "Mon-Fri", "time": "5:00pm"}, {"days": "Sat", "time": "11:00am"}, {"days": "Sun", "time": "Closed"}], "id": "0796100000", "name": "USPS COLLECTION BOX - BLUE BOX", "address": {"city": "MORRISTOWN", "state": "NJ", "street": "1 CONVENT RD", "postcode": "07961"}}},
{"geometry": {"type": "Point", "coordinates": [-74.4425542574, 40.7790453165]}, "type": "Feature", "properties": {"collection_times": [{"days": "Mon-Fri", "time": "4:00pm"}, {"days": "Sat", "time": "12:00pm"}, {"days": "Sun", "time": "Closed"}], "id": "0796100001", "name": "USPS COLLECTION BOX - PO LOBBY", "address": {"city": "MORRISTOWN", "state": "NJ", "street": "501 CONVENT RD", "postcode": "07961"}}},
{"geometry": {"type": "Point", "coordinates": [-74.4793811715, 40.7971213112]}, "type": "Feature", "properties": {"collection_times": [{"days": "Mon-Fri", "time": "5:00pm"}, {"days": "Sat", "time": "11:00am"}, {"days": "Sun", "time": "Closed"}], "id": "0796300001", "name": "USPS COLLECTION BOX - BLUE BOX", "address": {"city": "MORRISTOWN", "state": "NJ", "street": "1 MORRIS ST", "postcode": "07963"}}},
{"geometry": {"type": "Point", "coordinates": [-74.5795761848, 40.8089983062]}, "type": "Feature", "properties": {"collection_times": [{"days": "Mon-Fri", "time": "4:30pm"}, {"days": "Sat", "time": "12:00pm"}, {"days": "Sun", "time": "Closed"}], "id": "0797000001", "name": "USPS COLLECTION BOX - BLUE BOX", "address": {"city": "MOUNT FREEDOM", "state": "NJ", "street": "1250 SUSSEX TPKE", "postcode": "07970"}}},
{"geometry": {"type": "Point", "coordinates": [-74.5795761848, 40.8089983062]}, "type": "Feature", "properties": {"collection_times": [{"days": "Mon-Fri", "time": "4:30pm"}, {"days": "Sat", "time": "12:00pm"}, {"days": "Sun", "time": "Closed"}], "id": "0797000003", "name": "USPS COLLECTION BOX - BLUE BOX", "address": {"city": "MOUNT FREEDOM", "state": "NJ", "street": "1250 SUSSEX TPKE", "postcode": "07970"}}},
{"geometry": {"type": "Point", "coordinates": [-74.5795761848, 40.8089983062]}, "type": "Feature", "properties": {"collection_times": [{"days": "Mon-Fri", "time": "4:30pm"}, {"days": "Sat", "time": "12:00pm"}, {"days": "Sun", "time": "Closed"}], "id": "0797000004", "name": "USPS COLLECTION BOX - PO LOBBY", "address": {"city": "MOUNT FREEDOM", "state": "NJ", "street": "1250 SUSSEX TPKE", "postcode": "07970"}}},
{"geometry": {"type": "Point", "coordinates": [-74.4052196021, 40.7020331306]}, "type": "Feature", "properties": {"collection_times": [{"days": "Mon-Sat", "time": "11:00am"}, {"days": "Sun", "time": "Closed"}], "id": "0797400007", "name": "USPS COLLECTION BOX - BLUE BOX", "address": {"city": "NEW PROVIDENCE", "state": "NJ", "street": "111 SOUTH ST", "postcode": "07974"}}},
{"geometry": {"type": "Point", "coordinates": [-74.4029133256, 40.6950939349]}, "type": "Feature", "properties": {"collection_times": [{"days": "Mon-Sat", "time": "11:00am"}, {"days": "Sun", "time": "Closed"}], "id": "0797400013", "name": "USPS COLLECTION BOX - BLUE BOX", "address": {"city": "NEW PROVIDENCE", "state": "NJ", "street": "2 FOLEY PL", "postcode": "07974"}}},
{"geometry": {"type": "Point", "coordinates": [-74.4052321206, 40.6979491293]}, "type": "Feature", "properties": {"collection_times": [{"days": "Mon-Fri", "time": "5:00pm"}, {"days": "Sat", "time": "3:00pm"}, {"days": "Sun", "time": "Closed"}], "id": "0797400023", "name": "USPS COLLECTION BOX - BLUE BOX", "address": {"city": "NEW PROVIDENCE", "state": "NJ", "street": "598 CENTRAL AVE", "postcode": "07974"}}},
{"geometry": {"type": "Point", "coordinates": [-74.3943713743, 40.6888249668]}, "type": "Feature", "properties": {"collection_times": [{"days": "Mon-Fri", "time": "3:00pm"}, {"days": "Sat", "time": "11:00am"}, {"days": "Sun", "time": "Closed"}], "id": "0797400024", "name": "USPS COLLECTION BOX - BLUE BOX", "address": {"city": "NEW PROVIDENCE", "state": "NJ", "street": "430 MOUNTAIN AVE", "postcode": "07974"}}},
{"geometry": {"type": "Point", "coordinates": [-74.4020795349, 40.6860249029]}, "type": "Feature", "properties": {"collection_times": [{"days": "Mon-Fri", "time": "11:00am"}, {"days": "Sat-Sun", "time": "Closed"}], "id": "0797400025", "name": "USPS COLLECTION BOX - BLUE BOX", "address": {"city": "NEW PROVIDENCE", "state": "NJ", "street": "600 MOUNTAIN AVE", "postcode": "07974"}}},
{"geometry": {"type": "Point", "coordinates": [-74.4052321206, 40.6979491293]}, "type": "Feature", "properties": {"collection_times": [{"days": "Mon-Fri", "time": "4:30pm"}, {"days": "Sat", "time": "2:00pm"}, {"days": "Sun", "time": "Closed"}], "id": "0797400027", "name": "USPS COLLECTION BOX - PO LOBBY", "address": {"city": "NEW PROVIDENCE", "state": "NJ", "street": "598 CENTRAL AVE", "postcode": "07974"}}},
{"geometry": {"type": "Point", "coordinates": [-74.478409188, 40.7338572492]}, "type": "Feature", "properties": {"collection_times": [{"days": "Mon-Fri", "time": "4:30pm"}, {"days": "Sat", "time": "11:30am"}, {"days": "Sun", "time": "Closed"}], "id": "0797600002", "name": "USPS COLLECTION BOX - PO LOBBY", "address": {"city": "NEW VERNON", "state": "NJ", "street": "12 VILLAGE RD", "postcode": "07976"}}},
{"geometry": {"type": "Point", "coordinates": [-74.478409188, 40.7338572492]}, "type": "Feature", "properties": {"collection_times": [{"days": "Mon-Fri", "time": "4:30pm"}, {"days": "Sat", "time": "11:30am"}, {"days": "Sun", "time": "Closed"}], "id": "0797600003", "name": "USPS COLLECTION BOX - BLUE BOX", "address": {"city": "NEW VERNON", "state": "NJ", "street": "12 VILLAGE RD", "postcode": "07976"}}},
{"geometry": {"type": "Point", "coordinates": [-74.6591032051, 40.7153770986]}, "type": "Feature", "properties": {"collection_times": [{"days": "Mon-Fri", "time": "4:30pm"}, {"days": "Sat", "time": "12:00pm"}, {"days": "Sun", "time": "Closed"}], "id": "0797700001", "name": "USPS COLLECTION BOX - BLUE BOX", "address": {"city": "PEAPACK", "state": "NJ", "street": "155 MAIN ST", "postcode": "07977"}}},
{"geometry": {"type": "Point", "coordinates": [-74.6591032051, 40.7153770986]}, "type": "Feature", "properties": {"collection_times": [{"days": "Mon-Fri", "time": "4:30pm"}, {"days": "Sat", "time": "12:00pm"}, {"days": "Sun", "time": "Closed"}], "id": "0797700002", "name": "USPS COLLECTION BOX - PO LOBBY", "address": {"city": "PEAPACK", "state": "NJ", "street": "155 MAIN ST", "postcode": "07977"}}},
{"geometry": {"type": "Point", "coordinates": [-74.6434390503, 40.6470302355]}, "type": "Feature", "properties": {"collection_times": [{"days": "Mon-Fri", "time": "4:15pm"}, {"days": "Sat", "time": "11:15am"}, {"days": "Sun", "time": "Closed"}], "id": "0797800001", "name": "USPS COLLECTION BOX - BLUE BOX", "address": {"city": "PLUCKEMIN", "state": "NJ", "street": "318 US HIGHWAY 206", "postcode": "07978"}}},
{"geometry": {"type": "Point", "coordinates": [-74.6434390503, 40.6470302355]}, "type": "Feature", "properties": {"collection_times": [{"days": "Mon-Fri", "time": "4:15pm"}, {"days": "Sat", "time": "11:15am"}, {"days": "Sun", "time": "Closed"}], "id": "0797800002", "name": "USPS COLLECTION BOX - BLUE BOX", "address": {"city": "PLUCKEMIN", "state": "NJ", "street": "318 US HIGHWAY 206", "postcode": "07978"}}},
{"geometry": {"type": "Point", "coordinates": [-74.6434390503, 40.6470302355]}, "type": "Feature", "properties": {"collection_times": [{"days": "Mon-Fri", "time": "4:30pm"}, {"days": "Sat", "time": "11:30am"}, {"days": "Sun", "time": "Closed"}], "id": "0797800003", "name": "USPS COLLECTION BOX - PO LOBBY", "address": {"city": "PLUCKEMIN", "state": "NJ", "street": "318 US HIGHWAY 206", "postcode": "07978"}}},
{"geometry": {"type": "Point", "coordinates": [-74.7221207036, 40.7140713971]}, "type": "Feature", "properties": {"collection_times": [{"days": "Mon-Fri", "time": "4:30pm"}, {"days": "Sat", "time": "12:00pm"}, {"days": "Sun", "time": "Closed"}], "id": "0797900001", "name": "USPS COLLECTION BOX - BLUE BOX", "address": {"city": "POTTERSVILLE", "state": "NJ", "street": "5 STATE ROUTE 512", "postcode": "07979"}}},
{"geometry": {"type": "Point", "coordinates": [-74.4948353474, 40.6749429433]}, "type": "Feature", "properties": {"collection_times": [{"days": "Mon-Sat", "time": "11:00am"}, {"days": "Sun", "time": "Closed"}], "id": "0798000001", "name": "USPS COLLECTION BOX - BLUE BOX", "address": {"city": "STIRLING", "state": "NJ", "street": "184 CENTRAL AVE", "postcode": "07980"}}},
{"geometry": {"type": "Point", "coordinates": [-74.4886981563, 40.6681267338]}, "type": "Feature", "properties": {"collection_times": [{"days": "Mon-Fri", "time": "5:00pm"}, {"days": "Sat", "time": "1:00pm"}, {"days": "Sun", "time": "Closed"}], "id": "0798000002", "name": "USPS COLLECTION BOX - BLUE BOX", "address": {"city": "STIRLING", "state": "NJ", "street": "1153 VALLEY RD", "postcode": "07980"}}},
{"geometry": {"type": "Point", "coordinates": [-74.4886981563, 40.6681267338]}, "type": "Feature", "properties": {"collection_times": [{"days": "Mon-Fri", "time": "5:00pm"}, {"days": "Sat", "time": "1:00pm"}, {"days": "Sun", "time": "Closed"}], "id": "0798000003", "name": "USPS COLLECTION BOX - PO LOBBY", "address": {"city": "STIRLING", "state": "NJ", "street": "1153 VALLEY RD", "postcode": "07980"}}},
{"geometry": {"type": "Point", "coordinates": [-74.4161242566, 40.8234777428]}, "type": "Feature", "properties": {"collection_times": [{"days": "Mon-Fri", "time": "2:00pm"}, {"days": "Sat", "time": "11:00am"}, {"days": "Sun", "time": "Closed"}], "id": "0798100001", "name": "USPS COLLECTION BOX - BLUE BOX", "address": {"city": "WHIPPANY", "state": "NJ", "street": "628 STATE ROUTE 10", "postcode": "07981"}}},
{"geometry": {"type": "Point", "coordinates": [-74.4264915133, 40.8268747778]}, "type": "Feature", "properties": {"collection_times": [{"days": "Mon-Fri", "time": "2:00pm"}, {"days": "Sat", "time": "11:00am"}, {"days": "Sun", "time": "Closed"}], "id": "0798100003", "name": "USPS COLLECTION BOX - BLUE BOX", "address": {"city": "WHIPPANY", "state": "NJ", "street": "831 STATE ROUTE 10", "postcode": "07981"}}},
{"geometry": {"type": "Point", "coordinates": [-74.4124103156, 40.8213554085]}, "type": "Feature", "properties": {"collection_times": [{"days": "Mon-Fri", "time": "2:00pm"}, {"days": "Sat", "time": "11:00am"}, {"days": "Sun", "time": "Closed"}], "id": "0798100005", "name": "USPS COLLECTION BOX - BLUE BOX", "address": {"city": "WHIPPANY", "state": "NJ", "street": "9 WHIPPANY RD", "postcode": "07981"}}},
{"geometry": {"type": "Point", "coordinates": [-74.4334294251, 40.829866437]}, "type": "Feature", "properties": {"collection_times": [{"days": "Mon-Fri", "time": "2:00pm"}, {"days": "Sat", "time": "11:00am"}, {"days": "Sun", "time": "Closed"}], "id": "0798100018", "name": "USPS COLLECTION BOX - BLUE BOX", "address": {"city": "WHIPPANY", "state": "NJ", "street": "1000 STATE ROUTE 10", "postcode": "07981"}}}
]}
