{"type": "FeatureCollection", "features": [
{"geometry": {"type": "Point", "coordinates": [-75.1220224462, 39.9458403808]}, "type": "Feature", "properties": {"collection_times": [{"days": "Mon-Fri", "time": "5:00pm"}, {"days": "Sat", "time": "12:30pm"}, {"days": "Sun", "time": "Closed"}], "id": "0810100000", "name": "USPS COLLECTION BOX - PO LOBBY", "address": {"city": "CAMDEN", "state": "NJ", "street": "401 MARKET ST", "postcode": "08101"}}},
{"geometry": {"type": "Point", "coordinates": [-75.120875412, 39.9455703642]}, "type": "Feature", "properties": {"collection_times": [{"days": "Mon-Fri", "time": "3:00pm"}, {"days": "Sat-Sun", "time": "Closed"}], "id": "0810200001", "name": "USPS COLLECTION BOX - BLUE BOX", "address": {"city": "CAMDEN", "state": "NJ", "street": "520 MARKET ST", "postcode": "08102"}}},
{"geometry": {"type": "Point", "coordinates": [-75.1224333159, 39.9458626654]}, "type": "Feature", "properties": {"collection_times": [{"days": "Mon-Fri", "time": "3:15pm"}, {"days": "Sat", "time": "10:00am"}, {"days": "Sun", "time": "Closed"}], "id": "0810200004", "name": "USPS COLLECTION BOX - BLUE BOX", "address": {"city": "CAMDEN", "state": "NJ", "street": "400 MARKET ST", "postcode": "08102"}}},
{"geometry": {"type": "Point", "coordinates": [-75.1260818052, 39.9479224474]}, "type": "Feature", "properties": {"collection_times": [{"days": "Mon-Fri", "time": "3:15pm"}, {"days": "Sat-Sun", "time": "Closed"}], "id": "0810200010", "name": "USPS COLLECTION BOX - BLUE BOX", "address": {"city": "CAMDEN", "state": "NJ", "street": "200 N FRONT ST", "postcode": "08102"}}},
{"geometry": {"type": "Point", "coordinates": [-75.120875412, 39.9455703642]}, "type": "Feature", "properties": {"collection_times": [{"days": "Mon-Fri", "time": "3:00pm"}, {"days": "Sat-Sun", "time": "Closed"}], "id": "0810200040", "name": "USPS COLLECTION BOX - BLUE BOX", "address": {"city": "CAMDEN", "state": "NJ", "street": "520 MARKET ST", "postcode": "08102"}}},
{"geometry": {"type": "Point", "coordinates": [-75.1157477525, 39.9408535321]}, "type": "Feature", "properties": {"collection_times": [{"days": "Mon-Fri", "time": "1:00pm"}, {"days": "Sat-Sun", "time": "Closed"}], "id": "0810300001", "name": "USPS COLLECTION BOX - BLUE BOX", "address": {"city": "CAMDEN", "state": "NJ", "street": "3 COOPER PLZ", "postcode": "08103"}}},
{"geometry": {"type": "Point", "coordinates": [-75.1150485096, 39.936122426]}, "type": "Feature", "properties": {"collection_times": [{"days": "Mon-Fri", "time": "1:00pm"}, {"days": "Sat", "time": "10:00am"}, {"days": "Sun", "time": "Closed"}], "id": "0810300006", "name": "USPS COLLECTION BOX - BLUE BOX", "address": {"city": "CAMDEN", "state": "NJ", "street": "1 S BROADWAY", "postcode": "08103"}}},
{"geometry": {"type": "Point", "coordinates": [-75.1026455784, 39.9320435304]}, "type": "Feature", "properties": {"collection_times": [{"days": "Mon-Fri", "time": "1:15pm"}, {"days": "Sat", "time": "10:15am"}, {"days": "Sun", "time": "Closed"}], "id": "0810300014", "name": "USPS COLLECTION BOX - BLUE BOX", "address": {"city": "CAMDEN", "state": "NJ", "street": "1201 HADDON AVE", "postcode": "08103"}}},
{"geometry": {"type": "Point", "coordinates": [-75.095648976, 39.9270717894]}, "type": "Feature", "properties": {"collection_times": [{"days": "Mon-Fri", "time": "1:15pm"}, {"days": "Sat", "time": "10:15am"}, {"days": "Sun", "time": "Closed"}], "id": "0810300052", "name": "USPS COLLECTION BOX - BLUE BOX", "address": {"city": "CAMDEN", "state": "NJ", "street": "1600 HADDON AVE", "postcode": "08103"}}},
{"geometry": {"type": "Point", "coordinates": [-75.1168789407, 39.9433206782]}, "type": "Feature", "properties": {"collection_times": [{"days": "Mon-Fri", "time": "1:00pm"}, {"days": "Sat-Sun", "time": "Closed"}], "id": "0810300057", "name": "USPS COLLECTION BOX - BLUE BOX", "address": {"city": "CAMDEN", "state": "NJ", "street": "101 HADDON AVE", "postcode": "08103"}}},
{"geometry": {"type": "Point", "coordinates": [-75.1195299517, 39.9293085292]}, "type": "Feature", "properties": {"collection_times": [{"days": "Mon-Fri", "time": "4:45pm"}, {"days": "Sat", "time": "10:15am"}, {"days": "Sun", "time": "Closed"}], "id": "0810400000", "name": "USPS COLLECTION BOX - BLUE BOX", "address": {"city": "CAMDEN", "state": "NJ", "street": "1400 S BROADWAY", "postcode": "08104"}}},
{"geometry": {"type": "Point", "coordinates": [-75.1083722827, 39.9295037175]}, "type": "Feature", "properties": {"collection_times": [{"days": "Mon-Fri", "time": "12:45pm"}, {"days": "Sat", "time": "10:45am"}, {"days": "Sun", "time": "Closed"}], "id": "0810400003", "name": "USPS COLLECTION BOX - BLUE BOX", "address": {"city": "CAMDEN", "state": "NJ", "street": "1000 ATLANTIC AVE", "postcode": "08104"}}},
{"geometry": {"type": "Point", "coordinates": [-75.1128919926, 39.9172440139]}, "type": "Feature", "properties": {"collection_times": [{"days": "Mon-Fri", "time": "12:30pm"}, {"days": "Sat", "time": "10:30am"}, {"days": "Sun", "time": "Closed"}], "id": "0810400017", "name": "USPS COLLECTION BOX - BLUE BOX", "address": {"city": "CAMDEN", "state": "NJ", "street": "1800 FERRY AVE", "postcode": "08104"}}},
{"geometry": {"type": "Point", "coordinates": [-75.0991806916, 39.9120692682]}, "type": "Feature", "properties": {"collection_times": [{"days": "Mon-Fri", "time": "12:30pm"}, {"days": "Sat-Sun", "time": "Closed"}], "id": "0810400023", "name": "USPS COLLECTION BOX - BLUE BOX", "address": {"city": "CAMDEN", "state": "NJ", "street": "2600 MOUNT EPHRAIM AVE", "postcode": "08104"}}},
{"geometry": {"type": "Point", "coordinates": [-75.1006428289, 39.9055831042]}, "type": "Feature", "properties": {"collection_times": [{"days": "Mon-Fri", "time": "2:45pm"}, {"days": "Sat", "time": "11:15am"}, {"days": "Sun", "time": "Closed"}], "id": "0810400031", "name": "USPS COLLECTION BOX - BLUE BOX", "address": {"city": "CAMDEN", "state": "NJ", "street": "1503 COLLINGS RD", "postcode": "08104"}}},
{"geometry": {"type": "Point", "coordinates": [-75.0840488864, 39.9465910192]}, "type": "Feature", "properties": {"collection_times": [{"days": "Mon-Fri", "time": "4:30pm"}, {"days": "Sat", "time": "3:45pm"}, {"days": "Sun", "time": "Closed"}], "id": "0810500001", "name": "USPS COLLECTION BOX - BLUE BOX", "address": {"city": "PENNSAUKEN", "state": "NJ", "street": "2816 FEDERAL ST", "postcode": "08105"}}},
{"geometry": {"type": "Point", "coordinates": [-75.0725134948, 39.9478367877]}, "type": "Feature", "properties": {"collection_times": [{"days": "Mon-Fri", "time": "12:30pm"}, {"days": "Sat", "time": "9:15am"}, {"days": "Sun", "time": "Closed"}], "id": "0810500016", "name": "USPS COLLECTION BOX - BLUE BOX", "address": {"city": "PENNSAUKEN", "state": "NJ", "street": "3620 FEDERAL ST", "postcode": "08105"}}},
{"geometry": {"type": "Point", "coordinates": [-75.0835750969, 39.9385994889]}, "type": "Feature", "properties": {"collection_times": [{"days": "Mon-Fri", "time": "12:30pm"}, {"days": "Sat", "time": "9:30am"}, {"days": "Sun", "time": "Closed"}], "id": "0810500022", "name": "USPS COLLECTION BOX - BLUE BOX", "address": {"city": "PENNSAUKEN", "state": "NJ", "street": "7101 LEE AVE", "postcode": "08105"}}},
{"geometry": {"type": "Point", "coordinates": [-75.0840488864, 39.9465910192]}, "type": "Feature", "properties": {"collection_times": [{"days": "Mon-Fri", "time": "4:15pm"}, {"days": "Sat", "time": "12:30pm"}, {"days": "Sun", "time": "Closed"}], "id": "0810500030", "name": "USPS COLLECTION BOX - PO LOBBY", "address": {"city": "PENNSAUKEN", "state": "NJ", "street": "2816 FEDERAL ST", "postcode": "08105"}}},
{"geometry": {"type": "Point", "coordinates": [-75.0934356299, 39.8985252493]}, "type": "Feature", "properties": {"collection_times": [{"days": "Mon-Fri", "time": "5:00pm"}, {"days": "Sat", "time": "4:30pm"}, {"days": "Sun", "time": "Closed"}], "id": "0810600001", "name": "USPS COLLECTION BOX - BLUE BOX", "address": {"city": "AUDUBON", "state": "NJ", "street": "130 BLACK HORSE PIKE", "postcode": "08106"}}},
{"geometry": {"type": "Point", "coordinates": [-75.0688791977, 39.8846340839]}, "type": "Feature", "properties": {"collection_times": [{"days": "Mon-Fri", "time": "9:45am"}, {"days": "Sat", "time": "11:45am"}, {"days": "Sun", "time": "Closed"}], "id": "0810600003", "name": "USPS COLLECTION BOX - BLUE BOX", "address": {"city": "AUDUBON", "state": "NJ", "street": "303 WASHINGTON TER", "postcode": "08106"}}},
{"geometry": {"type": "Point", "coordinates": [-75.0573867514, 39.8889814581]}, "type": "Feature", "properties": {"collection_times": [{"days": "Mon-Fri", "time": "10:00am"}, {"days": "Sat", "time": "12:00pm"}, {"days": "Sun", "time": "Closed"}], "id": "0810600005", "name": "USPS COLLECTION BOX - BLUE BOX", "address": {"city": "AUDUBON", "state": "NJ", "street": "137 PARIS AVE", "postcode": "08106"}}},
{"geometry": {"type": "Point", "coordinates": [-75.0622818355, 39.8880977878]}, "type": "Feature", "properties": {"collection_times": [{"days": "Mon-Fri", "time": "10:15am"}, {"days": "Sat", "time": "12:00pm"}, {"days": "Sun", "time": "Closed"}], "id": "0810600006", "name": "USPS COLLECTION BOX - BLUE BOX", "address": {"city": "AUDUBON", "state": "NJ", "street": "701 S WHITE HORSE PIKE", "postcode": "08106"}}},
{"geometry": {"type": "Point", "coordinates": [-75.0755853921, 39.892329232]}, "type": "Feature", "properties": {"collection_times": [{"days": "Mon-Fri", "time": "10:00am"}, {"days": "Sat", "time": "11:45am"}, {"days": "Sun", "time": "Closed"}], "id": "0810600008", "name": "USPS COLLECTION BOX - BLUE BOX", "address": {"city": "AUDUBON", "state": "NJ", "street": "270 W MERCHANT ST", "postcode": "08106"}}},
{"geometry": {"type": "Point", "coordinates": [-75.0716591513, 39.887715692]}, "type": "Feature", "properties": {"collection_times": [{"days": "Mon-Fri", "time": "10:00am"}, {"days": "Sat", "time": "11:45am"}, {"days": "Sun", "time": "Closed"}], "id": "0810600010", "name": "USPS COLLECTION BOX - BLUE BOX", "address": {"city": "AUDUBON", "state": "NJ", "street": "268 WYOMING AVE", "postcode": "08106"}}},
{"geometry": {"type": "Point", "coordinates": [-75.0581083563, 39.8918714269]}, "type": "Feature", "properties": {"collection_times": [{"days": "Mon-Fri", "time": "10:00am"}, {"days": "Sat", "time": "12:00pm"}, {"days": "Sun", "time": "Closed"}], "id": "0810600011", "name": "USPS COLLECTION BOX - BLUE BOX", "address": {"city": "AUDUBON", "state": "NJ", "street": "199 CARLISLE RD", "postcode": "08106"}}},
{"geometry": {"type": "Point", "coordinates": [-75.0654415189, 39.8953599728]}, "type": "Feature", "properties": {"collection_times": [{"days": "Mon-Fri", "time": "10:15am"}, {"days": "Sat", "time": "12:15pm"}, {"days": "Sun", "time": "Closed"}], "id": "0810600014", "name": "USPS COLLECTION BOX - BLUE BOX", "address": {"city": "AUDUBON", "state": "NJ", "street": "118 E GRAISBURY AVE", "postcode": "08106"}}},
{"geometry": {"type": "Point", "coordinates": [-75.0883339954, 39.8948880415]}, "type": "Feature", "properties": {"collection_times": [{"days": "Mon-Fri", "time": "10:30am"}, {"days": "Sat-Sun", "time": "Closed"}], "id": "0810600015", "name": "USPS COLLECTION BOX - BLUE BOX", "address": {"city": "AUDUBON", "state": "NJ", "street": "20 ROAD C", "postcode": "08106"}}},
{"geometry": {"type": "Point", "coordinates": [-75.0661150918, 39.891769722]}, "type": "Feature", "properties": {"collection_times": [{"days": "Mon-Fri", "time": "10:15am"}, {"days": "Sat", "time": "12:15pm"}, {"days": "Sun", "time": "Closed"}], "id": "0810600018", "name": "USPS COLLECTION BOX - BLUE BOX", "address": {"city": "AUDUBON", "state": "NJ", "street": "277 S WHITE HORSE PIKE", "postcode": "08106"}}},
{"geometry": {"type": "Point", "coordinates": [-75.0869394322, 39.893625755]}, "type": "Feature", "properties": {"collection_times": [{"days": "Mon-Fri", "time": "10:30am"}, {"days": "Sat-Sun", "time": "Closed"}], "id": "0810600022", "name": "USPS COLLECTION BOX - BLUE BOX", "address": {"city": "AUDUBON", "state": "NJ", "street": "606 W NICHOLSON RD", "postcode": "08106"}}},
{"geometry": {"type": "Point", "coordinates": [-75.0725963347, 39.893584895]}, "type": "Feature", "properties": {"collection_times": [{"days": "Mon-Fri", "time": "10:00am"}, {"days": "Sat", "time": "11:45am"}, {"days": "Sun", "time": "Closed"}], "id": "0810600024", "name": "USPS COLLECTION BOX - BLUE BOX", "address": {"city": "AUDUBON", "state": "NJ", "street": "200 W MERCHANT ST", "postcode": "08106"}}},
{"geometry": {"type": "Point", "coordinates": [-75.0934356299, 39.8985252493]}, "type": "Feature", "properties": {"collection_times": [{"days": "Mon-Fri", "time": "5:00pm"}, {"days": "Sat", "time": "12:30pm"}, {"days": "Sun", "time": "Closed"}], "id": "0810600026", "name": "USPS COLLECTION BOX - PO LOBBY", "address": {"city": "AUDUBON", "state": "NJ", "street": "130 BLACK HORSE PIKE", "postcode": "08106"}}},
{"geometry": {"type": "Point", "coordinates": [-75.0787971257, 39.9051785323]}, "type": "Feature", "properties": {"collection_times": [{"days": "Mon-Fri", "time": "5:00pm"}, {"days": "Sat", "time": "1:00pm"}, {"days": "Sun", "time": "Closed"}], "id": "0810700001", "name": "USPS COLLECTION BOX - BLUE BOX", "address": {"city": "HADDON TOWNSHIP", "state": "NJ", "street": "5 E BETTLEWOOD AVE", "postcode": "08107"}}},
{"geometry": {"type": "Point", "coordinates": [-75.0826878777, 39.9016781567]}, "type": "Feature", "properties": {"collection_times": [{"days": "Mon-Fri", "time": "9:45am"}, {"days": "Sat", "time": "12:30pm"}, {"days": "Sun", "time": "Closed"}], "id": "0810700003", "name": "USPS COLLECTION BOX - BLUE BOX", "address": {"city": "HADDON TOWNSHIP", "state": "NJ", "street": "201 CLINTON AVE", "postcode": "08107"}}},
{"geometry": {"type": "Point", "coordinates": [-75.0782541475, 39.9037294075]}, "type": "Feature", "properties": {"collection_times": [{"days": "Mon-Fri", "time": "9:45am"}, {"days": "Sat", "time": "12:15pm"}, {"days": "Sun", "time": "Closed"}], "id": "0810700005", "name": "USPS COLLECTION BOX - BLUE BOX", "address": {"city": "HADDON TOWNSHIP", "state": "NJ", "street": "507 WHITE HORSE PIKE", "postcode": "08107"}}},
{"geometry": {"type": "Point", "coordinates": [-75.0854276107, 39.9105964843]}, "type": "Feature", "properties": {"collection_times": [{"days": "Mon-Fri", "time": "9:45am"}, {"days": "Sat", "time": "12:45pm"}, {"days": "Sun", "time": "Closed"}], "id": "0810700006", "name": "USPS COLLECTION BOX - BLUE BOX", "address": {"city": "HADDON TOWNSHIP", "state": "NJ", "street": "701 COLLINGS AVE", "postcode": "08107"}}},
{"geometry": {"type": "Point", "coordinates": [-75.0955295625, 39.9174653836]}, "type": "Feature", "properties": {"collection_times": [{"days": "Mon-Fri", "time": "12:30pm"}, {"days": "Sat", "time": "10:30am"}, {"days": "Sun", "time": "Closed"}], "id": "0810700013", "name": "USPS COLLECTION BOX - BLUE BOX", "address": {"city": "HADDON TOWNSHIP", "state": "NJ", "street": "200 COOPER AVE", "postcode": "08107"}}},
{"geometry": {"type": "Point", "coordinates": [-75.0718176678, 39.9003922803]}, "type": "Feature", "properties": {"collection_times": [{"days": "Mon-Fri", "time": "9:45am"}, {"days": "Sat", "time": "12:15pm"}, {"days": "Sun", "time": "Closed"}], "id": "0810700024", "name": "USPS COLLECTION BOX - BLUE BOX", "address": {"city": "HADDON TOWNSHIP", "state": "NJ", "street": "100 E CEDAR AVE", "postcode": "08107"}}},
{"geometry": {"type": "Point", "coordinates": [-75.0787971257, 39.9051785323]}, "type": "Feature", "properties": {"collection_times": [{"days": "Mon-Fri", "time": "5:00pm"}, {"days": "Sat", "time": "12:30pm"}, {"days": "Sun", "time": "Closed"}], "id": "0810700033", "name": "USPS COLLECTION BOX - PO LOBBY", "address": {"city": "HADDON TOWNSHIP", "state": "NJ", "street": "5 E BETTLEWOOD AVE", "postcode": "08107"}}},
{"geometry": {"type": "Point", "coordinates": [-75.0694907875, 39.9167644324]}, "type": "Feature", "properties": {"collection_times": [{"days": "Mon-Fri", "time": "2:00pm"}, {"days": "Sat", "time": "2:15pm"}, {"days": "Sun", "time": "Closed"}], "id": "0810800007", "name": "USPS COLLECTION BOX - BLUE BOX", "address": {"city": "CAMDEN", "state": "NJ", "street": "9 LINCOLN AVE", "postcode": "08108"}}},
{"geometry": {"type": "Point", "coordinates": [-75.0761969819, 39.9186678133]}, "type": "Feature", "properties": {"collection_times": [{"days": "Mon-Fri", "time": "1:45pm"}, {"days": "Sat", "time": "1:00pm"}, {"days": "Sun", "time": "Closed"}], "id": "0810800025", "name": "USPS COLLECTION BOX - BLUE BOX", "address": {"city": "CAMDEN", "state": "NJ", "street": "460 HADDON AVE", "postcode": "08108"}}},
{"geometry": {"type": "Point", "coordinates": [-75.0494999639, 39.9104131257]}, "type": "Feature", "properties": {"collection_times": [{"days": "Mon-Fri", "time": "4:30pm"}, {"days": "Sat", "time": "2:00pm"}, {"days": "Sun", "time": "Closed"}], "id": "0810800027", "name": "USPS COLLECTION BOX - BLUE BOX", "address": {"city": "CAMDEN", "state": "NJ", "street": "135 HADDON AVE", "postcode": "08108"}}},
{"geometry": {"type": "Point", "coordinates": [-75.0644465754, 39.9150404135]}, "type": "Feature", "properties": {"collection_times": [{"days": "Mon-Fri", "time": "2:15pm"}, {"days": "Sat", "time": "1:45pm"}, {"days": "Sun", "time": "Closed"}], "id": "0810800042", "name": "USPS COLLECTION BOX - BLUE BOX", "address": {"city": "CAMDEN", "state": "NJ", "street": "11 MACARTHUR BLVD", "postcode": "08108"}}},
{"geometry": {"type": "Point", "coordinates": [-75.0644465754, 39.9150404135]}, "type": "Feature", "properties": {"collection_times": [{"days": "Mon-Fri", "time": "2:15pm"}, {"days": "Sat", "time": "1:45pm"}, {"days": "Sun", "time": "Closed"}], "id": "0810800043", "name": "USPS COLLECTION BOX - BLUE BOX", "address": {"city": "CAMDEN", "state": "NJ", "street": "1 MACARTHUR BLVD", "postcode": "08108"}}},
{"geometry": {"type": "Point", "coordinates": [-75.0618796295, 39.9142683889]}, "type": "Feature", "properties": {"collection_times": [{"days": "Mon-Fri", "time": "5:00pm"}, {"days": "Sat", "time": "1:15pm"}, {"days": "Sun", "time": "Closed"}], "id": "0810800047", "name": "USPS COLLECTION BOX - BLUE BOX", "address": {"city": "CAMDEN", "state": "NJ", "street": "970 HADDON AVE", "postcode": "08108"}}},
{"geometry": {"type": "Point", "coordinates": [-75.1221561206, 39.9285171297]}, "type": "Feature", "properties": {"collection_times": [{"days": "Mon-Fri", "time": "4:30pm"}, {"days": "Sat", "time": "2:00pm"}, {"days": "Sun", "time": "Closed"}], "id": "0810800048", "name": "USPS COLLECTION BOX - BLUE BOX", "address": {"city": "CAMDEN", "state": "NJ", "street": "350 ATLANTIC AVE", "postcode": "08108"}}},
{"geometry": {"type": "Point", "coordinates": [-75.0644465754, 39.9150404135]}, "type": "Feature", "properties": {"collection_times": [{"days": "Mon-Fri", "time": "2:15pm"}, {"days": "Sat", "time": "1:45pm"}, {"days": "Sun", "time": "Closed"}], "id": "0810800054", "name": "USPS COLLECTION BOX - BLUE BOX", "address": {"city": "CAMDEN", "state": "NJ", "street": "654 W CUTHBERT BLVD", "postcode": "08108"}}},
{"geometry": {"type": "Point", "coordinates": [-75.0618796295, 39.9142683889]}, "type": "Feature", "properties": {"collection_times": [{"days": "Mon-Fri", "time": "5:00pm"}, {"days": "Sat", "time": "1:15pm"}, {"days": "Sun", "time": "Closed"}], "id": "0810800060", "name": "USPS COLLECTION BOX - BLUE BOX", "address": {"city": "CAMDEN", "state": "NJ", "street": "970 HADDON AVE", "postcode": "08108"}}},
{"geometry": {"type": "Point", "coordinates": [-75.0618796295, 39.9142683889]}, "type": "Feature", "properties": {"collection_times": [{"days": "Mon-Fri", "time": "5:00pm"}, {"days": "Sat", "time": "1:15pm"}, {"days": "Sun", "time": "Closed"}], "id": "0810800061", "name": "USPS COLLECTION BOX - BLUE BOX", "address": {"city": "CAMDEN", "state": "NJ", "street": "970 HADDON AVE", "postcode": "08108"}}},
{"geometry": {"type": "Point", "coordinates": [-75.0618796295, 39.9142683889]}, "type": "Feature", "properties": {"collection_times": [{"days": "Mon-Fri", "time": "5:00pm"}, {"days": "Sat", "time": "1:15pm"}, {"days": "Sun", "time": "Closed"}], "id": "0810800062", "name": "USPS COLLECTION BOX - BLUE BOX", "address": {"city": "CAMDEN", "state": "NJ", "street": "970 HADDON AVE", "postcode": "08108"}}},
{"geometry": {"type": "Point", "coordinates": [-75.0618796295, 39.9142683889]}, "type": "Feature", "properties": {"collection_times": [{"days": "Mon-Fri", "time": "5:00pm"}, {"days": "Sat", "time": "1:15pm"}, {"days": "Sun", "time": "Closed"}], "id": "0810800068", "name": "USPS COLLECTION BOX - BLUE BOX", "address": {"city": "CAMDEN", "state": "NJ", "street": "970 HADDON AVE", "postcode": "08108"}}},
{"geometry": {"type": "Point", "coordinates": [-75.0618796295, 39.9142683889]}, "type": "Feature", "properties": {"collection_times": [{"days": "Mon-Fri", "time": "5:00pm"}, {"days": "Sat", "time": "12:30pm"}, {"days": "Sun", "time": "Closed"}], "id": "0810800069", "name": "USPS COLLECTION BOX - PO LOBBY", "address": {"city": "CAMDEN", "state": "NJ", "street": "970 HADDON AVE", "postcode": "08108"}}},
{"geometry": {"type": "Point", "coordinates": [-75.0372125692, 39.9674057227]}, "type": "Feature", "properties": {"collection_times": [{"days": "Mon-Fri", "time": "1:00pm"}, {"days": "Sat", "time": "3:00pm"}, {"days": "Sun", "time": "Closed"}], "id": "0810900005", "name": "USPS COLLECTION BOX - BLUE BOX", "address": {"city": "PENNSAUKEN", "state": "NJ", "street": "2557 UNION AVE", "postcode": "08109"}}},
{"geometry": {"type": "Point", "coordinates": [-75.0590776192, 39.9377864434]}, "type": "Feature", "properties": {"collection_times": [{"days": "Mon-Fri", "time": "12:45pm"}, {"days": "Sat", "time": "4:15pm"}, {"days": "Sun", "time": "Closed"}], "id": "0810900013", "name": "USPS COLLECTION BOX - BLUE BOX", "address": {"city": "PENNSAUKEN", "state": "NJ", "street": "5339 GARFIELD AVE", "postcode": "08109"}}},
{"geometry": {"type": "Point", "coordinates": [-75.0264322641, 39.9550083127]}, "type": "Feature", "properties": {"collection_times": [{"days": "Mon-Fri", "time": "4:15pm"}, {"days": "Sat-Sun", "time": "Closed"}], "id": "0810900016", "name": "USPS COLLECTION BOX - BLUE BOX", "address": {"city": "PENNSAUKEN", "state": "NJ", "street": "4350 HADDONFIELD RD", "postcode": "08109"}}},
{"geometry": {"type": "Point", "coordinates": [-75.0265694874, 39.9543446728]}, "type": "Feature", "properties": {"collection_times": [{"days": "Mon-Fri", "time": "4:15pm"}, {"days": "Sat-Sun", "time": "Closed"}], "id": "0810900017", "name": "USPS COLLECTION BOX - BLUE BOX", "address": {"city": "PENNSAUKEN", "state": "NJ", "street": "4300 HADDONFIELD RD", "postcode": "08109"}}},
{"geometry": {"type": "Point", "coordinates": [-75.0501317239, 39.9502267005]}, "type": "Feature", "properties": {"collection_times": [{"days": "Mon-Fri", "time": "5:00pm"}, {"days": "Sat", "time": "3:30pm"}, {"days": "Sun", "time": "Closed"}], "id": "0810900022", "name": "USPS COLLECTION BOX - BLUE BOX", "address": {"city": "PENNSAUKEN", "state": "NJ", "street": "22 W MAPLE AVE", "postcode": "08109"}}},
{"geometry": {"type": "Point", "coordinates": [-75.0801397841, 39.9267024706]}, "type": "Feature", "properties": {"collection_times": [{"days": "Mon-Fri", "time": "1:30pm"}, {"days": "Sat-Sun", "time": "Closed"}], "id": "0810900050", "name": "USPS COLLECTION BOX - BLUE BOX", "address": {"city": "PENNSAUKEN", "state": "NJ", "street": "6981 N PARK DR", "postcode": "08109"}}},
{"geometry": {"type": "Point", "coordinates": [-75.0597396567, 39.9339871319]}, "type": "Feature", "properties": {"collection_times": [{"days": "Mon-Fri", "time": "12:30pm"}, {"days": "Sat", "time": "4:15pm"}, {"days": "Sun", "time": "Closed"}], "id": "0810900057", "name": "USPS COLLECTION BOX - BLUE BOX", "address": {"city": "PENNSAUKEN", "state": "NJ", "street": "5468 BURWOOD AVE", "postcode": "08109"}}},
{"geometry": {"type": "Point", "coordinates": [-75.0677951458, 39.9302778433]}, "type": "Feature", "properties": {"collection_times": [{"days": "Mon-Fri", "time": "4:00pm"}, {"days": "Sat-Sun", "time": "Closed"}], "id": "0810900074", "name": "USPS COLLECTION BOX - BLUE BOX", "address": {"city": "PENNSAUKEN", "state": "NJ", "street": "2500 MCCLELLAN AVE", "postcode": "08109"}}},
{"geometry": {"type": "Point", "coordinates": [-75.0795577683, 39.9265936384]}, "type": "Feature", "properties": {"collection_times": [{"days": "Mon-Fri", "time": "1:30pm"}, {"days": "Sat-Sun", "time": "Closed"}], "id": "0810900075", "name": "USPS COLLECTION BOX - BLUE BOX", "address": {"city": "PENNSAUKEN", "state": "NJ", "street": "6991 N PARK DR", "postcode": "08109"}}},
{"geometry": {"type": "Point", "coordinates": [-75.0727706775, 39.9289654099]}, "type": "Feature", "properties": {"collection_times": [{"days": "Mon-Fri", "time": "1:30pm"}, {"days": "Sat-Sun", "time": "Closed"}], "id": "0810900078", "name": "USPS COLLECTION BOX - BLUE BOX", "address": {"city": "PENNSAUKEN", "state": "NJ", "street": "7882 BROWNING RD", "postcode": "08109"}}},
{"geometry": {"type": "Point", "coordinates": [-75.0501317239, 39.9502267005]}, "type": "Feature", "properties": {"collection_times": [{"days": "Mon-Fri", "time": "5:00pm"}, {"days": "Sat", "time": "3:30pm"}, {"days": "Sun", "time": "Closed"}], "id": "0810900079", "name": "USPS COLLECTION BOX - BLUE BOX", "address": {"city": "PENNSAUKEN", "state": "NJ", "street": "22 W MAPLE AVE", "postcode": "08109"}}},
{"geometry": {"type": "Point", "coordinates": [-75.0501317239, 39.9502267005]}, "type": "Feature", "properties": {"collection_times": [{"days": "Mon-Fri", "time": "5:00pm"}, {"days": "Sat", "time": "12:30pm"}, {"days": "Sun", "time": "Closed"}], "id": "0810900086", "name": "USPS COLLECTION BOX - PO LOBBY", "address": {"city": "PENNSAUKEN", "state": "NJ", "street": "22 W MAPLE AVE", "postcode": "08109"}}},
{"geometry": {"type": "Point", "coordinates": [-75.0264322641, 39.9550083127]}, "type": "Feature", "properties": {"collection_times": [{"days": "Mon-Fri", "time": "4:15pm"}, {"days": "Sat-Sun", "time": "Closed"}], "id": "0810900089", "name": "USPS COLLECTION BOX - BLUE BOX", "address": {"city": "PENNSAUKEN", "state": "NJ", "street": "4350 HADDONFIELD RD", "postcode": "08109"}}},
{"geometry": {"type": "Point", "coordinates": [-75.0265694874, 39.9543446728]}, "type": "Feature", "properties": {"collection_times": [{"days": "Mon-Fri", "time": "4:15pm"}, {"days": "Sat-Sun", "time": "Closed"}], "id": "0810900090", "name": "USPS COLLECTION BOX - BLUE BOX", "address": {"city": "PENNSAUKEN", "state": "NJ", "street": "4300 HADDONFIELD RD", "postcode": "08109"}}},
{"geometry": {"type": "Point", "coordinates": [-75.0316651544, 39.9562119943]}, "type": "Feature", "properties": {"collection_times": [{"days": "Mon-Fri", "time": "1:00pm"}, {"days": "Sat", "time": "3:15pm"}, {"days": "Sun", "time": "Closed"}], "id": "0810900091", "name": "USPS COLLECTION BOX - BLUE BOX", "address": {"city": "PENNSAUKEN", "state": "NJ", "street": "3730 HERBERT AVE", "postcode": "08109"}}},
{"geometry": {"type": "Point", "coordinates": [-75.0667747137, 39.9577444968]}, "type": "Feature", "properties": {"collection_times": [{"days": "Mon-Fri", "time": "5:00pm"}, {"days": "Sat", "time": "4:00pm"}, {"days": "Sun", "time": "Closed"}], "id": "0811000001", "name": "USPS COLLECTION BOX - BLUE BOX", "address": {"city": "PENNSAUKEN", "state": "NJ", "street": "4724 WESTFIELD AVE", "postcode": "08110"}}},
{"geometry": {"type": "Point", "coordinates": [-75.0434765815, 39.9833316501]}, "type": "Feature", "properties": {"collection_times": [{"days": "Mon-Fri", "time": "12:00pm"}, {"days": "Sat-Sun", "time": "Closed"}], "id": "0811000008", "name": "USPS COLLECTION BOX - BLUE BOX", "address": {"city": "PENNSAUKEN", "state": "NJ", "street": "1201 JOHN TIPTON BLVD", "postcode": "08110"}}},
{"geometry": {"type": "Point", "coordinates": [-75.0595030649, 39.9623745982]}, "type": "Feature", "properties": {"collection_times": [{"days": "Mon-Fri", "time": "12:15pm"}, {"days": "Sat", "time": "8:45am"}, {"days": "Sun", "time": "Closed"}], "id": "0811000018", "name": "USPS COLLECTION BOX - BLUE BOX", "address": {"city": "PENNSAUKEN", "state": "NJ", "street": "6001 WESTFIELD AVE", "postcode": "08110"}}},
{"geometry": {"type": "Point", "coordinates": [-75.0729707116, 39.9639149726]}, "type": "Feature", "properties": {"collection_times": [{"days": "Mon-Fri", "time": "12:00pm"}, {"days": "Sat", "time": "8:30am"}, {"days": "Sun", "time": "Closed"}], "id": "0811000023", "name": "USPS COLLECTION BOX - BLUE BOX", "address": {"city": "PENNSAUKEN", "state": "NJ", "street": "4700 RIVER RD", "postcode": "08110"}}},
{"geometry": {"type": "Point", "coordinates": [-75.0292051728, 39.9886952069]}, "type": "Feature", "properties": {"collection_times": [{"days": "Mon-Fri", "time": "12:00pm"}, {"days": "Sat-Sun", "time": "Closed"}], "id": "0811000040", "name": "USPS COLLECTION BOX - BLUE BOX", "address": {"city": "PENNSAUKEN", "state": "NJ", "street": "731 HYLTON RD", "postcode": "08110"}}},
{"geometry": {"type": "Point", "coordinates": [-75.0667747137, 39.9577444968]}, "type": "Feature", "properties": {"collection_times": [{"days": "Mon-Fri", "time": "5:00pm"}, {"days": "Sat", "time": "4:00pm"}, {"days": "Sun", "time": "Closed"}], "id": "0811000048", "name": "USPS COLLECTION BOX - BLUE BOX", "address": {"city": "PENNSAUKEN", "state": "NJ", "street": "4724 WESTFIELD AVE", "postcode": "08110"}}},
{"geometry": {"type": "Point", "coordinates": [-75.0667747137, 39.9577444968]}, "type": "Feature", "properties": {"collection_times": [{"days": "Mon-Fri", "time": "5:00pm"}, {"days": "Sat", "time": "12:30pm"}, {"days": "Sun", "time": "Closed"}], "id": "0811000049", "name": "USPS COLLECTION BOX - PO LOBBY", "address": {"city": "PENNSAUKEN", "state": "NJ", "street": "4724 WESTFIELD AVE", "postcode": "08110"}}}
]}
