{"type": "FeatureCollection", "features": [
{"geometry": {"type": "Point", "coordinates": [-74.5010612604, 39.4251952981]}, "type": "Feature", "properties": {"collection_times": [{"days": "Mon-Sat", "time": "10:00am"}, {"days": "Sun", "time": "Closed"}], "id": "0820100014", "name": "USPS COLLECTION BOX - BLUE BOX", "address": {"city": "ABSECON", "state": "NJ", "street": "136 NEW JERSEY AVE", "postcode": "08201"}}},
{"geometry": {"type": "Point", "coordinates": [-74.5133617777, 39.4336083764]}, "type": "Feature", "properties": {"collection_times": [{"days": "Mon-Sat", "time": "9:00am"}, {"days": "Sun", "time": "Closed"}], "id": "0820100015", "name": "USPS COLLECTION BOX - BLUE BOX", "address": {"city": "ABSECON", "state": "NJ", "street": "616 WHITE HORSE PIKE", "postcode": "08201"}}},
{"geometry": {"type": "Point", "coordinates": [-74.5062177785, 39.4328585063]}, "type": "Feature", "properties": {"collection_times": [{"days": "Mon-Sat", "time": "10:00am"}, {"days": "Sun", "time": "Closed"}], "id": "0820100019", "name": "USPS COLLECTION BOX - BLUE BOX", "address": {"city": "ABSECON", "state": "NJ", "street": "500 MILL RD", "postcode": "08201"}}},
{"geometry": {"type": "Point", "coordinates": [-74.5154271141, 39.4370520958]}, "type": "Feature", "properties": {"collection_times": [{"days": "Mon-Fri", "time": "5:15pm"}, {"days": "Sat", "time": "2:45pm"}, {"days": "Sun", "time": "Closed"}], "id": "0820100024", "name": "USPS COLLECTION BOX - BLUE BOX", "address": {"city": "ABSECON", "state": "NJ", "street": "1001 NEW JERSEY AVE", "postcode": "08201"}}},
{"geometry": {"type": "Point", "coordinates": [-74.5154271141, 39.4370520958]}, "type": "Feature", "properties": {"collection_times": [{"days": "Mon-Fri", "time": "5:15pm"}, {"days": "Sat", "time": "2:45pm"}, {"days": "Sun", "time": "Closed"}], "id": "0820100030", "name": "USPS COLLECTION BOX - PO LOBBY", "address": {"city": "ABSECON", "state": "NJ", "street": "1001 NEW JERSEY AVE", "postcode": "08201"}}},
{"geometry": {"type": "Point", "coordinates": [-74.5154271137, 39.4370520958]}, "type": "Feature", "properties": {"collection_times": [{"days": "Mon-Fri", "time": "5:15pm"}, {"days": "Sat", "time": "2:45pm"}, {"days": "Sun", "time": "Closed"}], "id": "0820100038", "name": "USPS COLLECTION BOX - BLUE BOX", "address": {"city": "ABSECON", "state": "NJ", "street": "1001 NEW JERSEY AVE", "postcode": "08201"}}},
{"geometry": {"type": "Point", "coordinates": [-74.7241779678, 39.0941454147]}, "type": "Feature", "properties": {"collection_times": [{"days": "Mon-Fri", "time": "5:00pm"}, {"days": "Sat", "time": "11:45am"}, {"days": "Sun", "time": "Closed"}], "id": "0820200002", "name": "USPS COLLECTION BOX - BLUE BOX", "address": {"city": "AVALON", "state": "NJ", "street": "3219 DUNE DR", "postcode": "08202"}}},
{"geometry": {"type": "Point", "coordinates": [-74.7241779678, 39.0941454147]}, "type": "Feature", "properties": {"collection_times": [{"days": "Mon-Fri", "time": "5:00pm"}, {"days": "Sat", "time": "11:45am"}, {"days": "Sun", "time": "Closed"}], "id": "0820200003", "name": "USPS COLLECTION BOX - BLUE BOX", "address": {"city": "AVALON", "state": "NJ", "street": "3219 DUNE DR", "postcode": "08202"}}},
{"geometry": {"type": "Point", "coordinates": [-74.7181624825, 39.0979978791]}, "type": "Feature", "properties": {"collection_times": [{"days": "Mon-Sat", "time": "10:45am"}, {"days": "Sun", "time": "Closed"}], "id": "0820200008", "name": "USPS COLLECTION BOX - BLUE BOX", "address": {"city": "AVALON", "state": "NJ", "street": "2501 1ST AVE", "postcode": "08202"}}},
{"geometry": {"type": "Point", "coordinates": [-74.7219972384, 39.097136405]}, "type": "Feature", "properties": {"collection_times": [{"days": "Mon-Sat", "time": "10:30am"}, {"days": "Sun", "time": "Closed"}], "id": "0820200009", "name": "USPS COLLECTION BOX - BLUE BOX", "address": {"city": "AVALON", "state": "NJ", "street": "2808 DUNE DR", "postcode": "08202"}}},
{"geometry": {"type": "Point", "coordinates": [-74.7091141684, 39.1088649731]}, "type": "Feature", "properties": {"collection_times": [{"days": "Mon-Sat", "time": "12:30pm"}, {"days": "Sun", "time": "Closed"}], "id": "0820200010", "name": "USPS COLLECTION BOX - BLUE BOX", "address": {"city": "AVALON", "state": "NJ", "street": "818 1ST AVE", "postcode": "08202"}}},
{"geometry": {"type": "Point", "coordinates": [-74.7279232841, 39.1071592269]}, "type": "Feature", "properties": {"collection_times": [{"days": "Mon-Sat", "time": "9:30am"}, {"days": "Sun", "time": "Closed"}], "id": "0820200011", "name": "USPS COLLECTION BOX - BLUE BOX", "address": {"city": "AVALON", "state": "NJ", "street": "2105 7TH AVE", "postcode": "08202"}}},
{"geometry": {"type": "Point", "coordinates": [-74.7333056792, 39.090131635]}, "type": "Feature", "properties": {"collection_times": [{"days": "Mon-Sat", "time": "10:45am"}, {"days": "Sun", "time": "Closed"}], "id": "0820200012", "name": "USPS COLLECTION BOX - BLUE BOX", "address": {"city": "AVALON", "state": "NJ", "street": "318 42ND ST", "postcode": "08202"}}},
{"geometry": {"type": "Point", "coordinates": [-74.7416987731, 39.0770753169]}, "type": "Feature", "properties": {"collection_times": [{"days": "Mon-Sat", "time": "1:00pm"}, {"days": "Sun", "time": "Closed"}], "id": "0820200014", "name": "USPS COLLECTION BOX - BLUE BOX", "address": {"city": "AVALON", "state": "NJ", "street": "6089 OCEAN DR", "postcode": "08202"}}},
{"geometry": {"type": "Point", "coordinates": [-74.7489499443, 39.0646014516]}, "type": "Feature", "properties": {"collection_times": [{"days": "Mon-Sat", "time": "12:45pm"}, {"days": "Sun", "time": "Closed"}], "id": "0820200016", "name": "USPS COLLECTION BOX - BLUE BOX", "address": {"city": "AVALON", "state": "NJ", "street": "7849 DUNE DR", "postcode": "08202"}}},
{"geometry": {"type": "Point", "coordinates": [-74.7241779678, 39.0941454147]}, "type": "Feature", "properties": {"collection_times": [{"days": "Mon-Fri", "time": "5:00pm"}, {"days": "Sat", "time": "12:00pm"}, {"days": "Sun", "time": "Closed"}], "id": "0820200018", "name": "USPS COLLECTION BOX - PO LOBBY", "address": {"city": "AVALON", "state": "NJ", "street": "3219 DUNE DR", "postcode": "08202"}}},
{"geometry": {"type": "Point", "coordinates": [-74.3900062557, 39.3909580998]}, "type": "Feature", "properties": {"collection_times": [{"days": "Mon-Sat", "time": "1:00pm"}, {"days": "Sun", "time": "Closed"}], "id": "0820300003", "name": "USPS COLLECTION BOX - BLUE BOX", "address": {"city": "BRIGANTINE", "state": "NJ", "street": "3801 W BRIGANTINE AVE", "postcode": "08203"}}},
{"geometry": {"type": "Point", "coordinates": [-74.3852815176, 39.3964907988]}, "type": "Feature", "properties": {"collection_times": [{"days": "Mon-Sat", "time": "2:00pm"}, {"days": "Sun", "time": "Closed"}], "id": "0820300004", "name": "USPS COLLECTION BOX - BLUE BOX", "address": {"city": "BRIGANTINE", "state": "NJ", "street": "2901 REVERE BLVD", "postcode": "08203"}}},
{"geometry": {"type": "Point", "coordinates": [-74.3748072112, 39.4028079897]}, "type": "Feature", "properties": {"collection_times": [{"days": "Mon-Sat", "time": "1:00pm"}, {"days": "Sun", "time": "Closed"}], "id": "0820300007", "name": "USPS COLLECTION BOX - BLUE BOX", "address": {"city": "BRIGANTINE", "state": "NJ", "street": "1501 REVERE BLVD", "postcode": "08203"}}},
{"geometry": {"type": "Point", "coordinates": [-74.3855749501, 39.3948222393]}, "type": "Feature", "properties": {"collection_times": [{"days": "Mon-Sat", "time": "10:00am"}, {"days": "Sun", "time": "Closed"}], "id": "0820300008", "name": "USPS COLLECTION BOX - BLUE BOX", "address": {"city": "BRIGANTINE", "state": "NJ", "street": "3100 BRIGANTINE BLVD", "postcode": "08203"}}},
{"geometry": {"type": "Point", "coordinates": [-74.3697261507, 39.4046244693]}, "type": "Feature", "properties": {"collection_times": [{"days": "Mon-Sat", "time": "10:00am"}, {"days": "Sun", "time": "Closed"}], "id": "0820300010", "name": "USPS COLLECTION BOX - BLUE BOX", "address": {"city": "BRIGANTINE", "state": "NJ", "street": "260 9TH ST S", "postcode": "08203"}}},
{"geometry": {"type": "Point", "coordinates": [-74.3688854701, 39.4087041868]}, "type": "Feature", "properties": {"collection_times": [{"days": "Mon-Sat", "time": "11:00am"}, {"days": "Sun", "time": "Closed"}], "id": "0820300011", "name": "USPS COLLECTION BOX - BLUE BOX", "address": {"city": "BRIGANTINE", "state": "NJ", "street": "501 W EVANS BLVD", "postcode": "08203"}}},
{"geometry": {"type": "Point", "coordinates": [-74.397348882, 39.3918890885]}, "type": "Feature", "properties": {"collection_times": [{"days": "Mon-Fri", "time": "5:00pm"}, {"days": "Sat", "time": "1:00pm"}, {"days": "Sun", "time": "Closed"}], "id": "0820300017", "name": "USPS COLLECTION BOX - BLUE BOX", "address": {"city": "BRIGANTINE", "state": "NJ", "street": "4326 HARBOUR BEACH BLVD", "postcode": "08203"}}},
{"geometry": {"type": "Point", "coordinates": [-74.4029114251, 39.3829565773]}, "type": "Feature", "properties": {"collection_times": [{"days": "Mon-Sat", "time": "9:30am"}, {"days": "Sun", "time": "Closed"}], "id": "0820300018", "name": "USPS COLLECTION BOX - BLUE BOX", "address": {"city": "BRIGANTINE", "state": "NJ", "street": "4901 HARBOUR BEACH BLVD", "postcode": "08203"}}},
{"geometry": {"type": "Point", "coordinates": [-74.3588163597, 39.4110613044]}, "type": "Feature", "properties": {"collection_times": [{"days": "Mon-Sat", "time": "9:30am"}, {"days": "Sun", "time": "Closed"}], "id": "0820300019", "name": "USPS COLLECTION BOX - BLUE BOX", "address": {"city": "BRIGANTINE", "state": "NJ", "street": "701 E BRIGANTINE AVE", "postcode": "08203"}}},
{"geometry": {"type": "Point", "coordinates": [-74.3974676972, 39.3934806931]}, "type": "Feature", "properties": {"collection_times": [{"days": "Mon-Sat", "time": "10:00am"}, {"days": "Sun", "time": "Closed"}], "id": "0820300022", "name": "USPS COLLECTION BOX - BLUE BOX", "address": {"city": "BRIGANTINE", "state": "NJ", "street": "4230 HARBOUR BEACH BLVD", "postcode": "08203"}}},
{"geometry": {"type": "Point", "coordinates": [-74.397348882, 39.3918890885]}, "type": "Feature", "properties": {"collection_times": [{"days": "Mon-Fri", "time": "5:00pm"}, {"days": "Sat", "time": "1:00pm"}, {"days": "Sun", "time": "Closed"}], "id": "0820300023", "name": "USPS COLLECTION BOX - BLUE BOX", "address": {"city": "BRIGANTINE", "state": "NJ", "street": "4326 HARBOUR BEACH BLVD", "postcode": "08203"}}},
{"geometry": {"type": "Point", "coordinates": [-74.3629789961, 39.4079736848]}, "type": "Feature", "properties": {"collection_times": [{"days": "Mon-Sat", "time": "10:00am"}, {"days": "Sun", "time": "Closed"}], "id": "0820300025", "name": "USPS COLLECTION BOX - BLUE BOX", "address": {"city": "BRIGANTINE", "state": "NJ", "street": "101 W BRIGANTINE AVE", "postcode": "08203"}}},
{"geometry": {"type": "Point", "coordinates": [-74.397348882, 39.3918890885]}, "type": "Feature", "properties": {"collection_times": [{"days": "Mon-Fri", "time": "5:00pm"}, {"days": "Sat", "time": "1:00pm"}, {"days": "Sun", "time": "Closed"}], "id": "0820300026", "name": "USPS COLLECTION BOX - PO LOBBY", "address": {"city": "BRIGANTINE", "state": "NJ", "street": "4326 HARBOUR BEACH BLVD", "postcode": "08203"}}},
{"geometry": {"type": "Point", "coordinates": [-74.397348882, 39.3918890885]}, "type": "Feature", "properties": {"collection_times": [{"days": "Mon-Fri", "time": "5:00pm"}, {"days": "Sat", "time": "1:00pm"}, {"days": "Sun", "time": "Closed"}], "id": "0820300027", "name": "USPS COLLECTION BOX - PO LOBBY", "address": {"city": "BRIGANTINE", "state": "NJ", "street": "4326 HARBOUR BEACH BLVD", "postcode": "08203"}}},
{"geometry": {"type": "Point", "coordinates": [-74.3909875362, 39.3948427167]}, "type": "Feature", "properties": {"collection_times": [{"days": "Mon-Sat", "time": "10:30am"}, {"days": "Sun", "time": "Closed"}], "id": "0820300028", "name": "USPS COLLECTION BOX - BLUE BOX", "address": {"city": "BRIGANTINE", "state": "NJ", "street": "3625 ATLANTIC BRIGANTINE BLVD", "postcode": "08203"}}},
{"geometry": {"type": "Point", "coordinates": [-74.9296679932, 38.935229261]}, "type": "Feature", "properties": {"collection_times": [{"days": "Mon-Sat", "time": "9:30am"}, {"days": "Sun", "time": "Closed"}], "id": "0820400002", "name": "USPS COLLECTION BOX - BLUE BOX", "address": {"city": "CAPE MAY", "state": "NJ", "street": "139 MYRTLE AVE", "postcode": "08204"}}},
{"geometry": {"type": "Point", "coordinates": [-74.9220337695, 38.9339940641]}, "type": "Feature", "properties": {"collection_times": [{"days": "Mon-Sat", "time": "9:00am"}, {"days": "Sun", "time": "Closed"}], "id": "0820400007", "name": "USPS COLLECTION BOX - BLUE BOX", "address": {"city": "CAPE MAY", "state": "NJ", "street": "525 WASHINGTON ST", "postcode": "08204"}}},
{"geometry": {"type": "Point", "coordinates": [-74.908144928, 38.946404006]}, "type": "Feature", "properties": {"collection_times": [{"days": "Mon-Sat", "time": "9:30am"}, {"days": "Sun", "time": "Closed"}], "id": "0820400012", "name": "USPS COLLECTION BOX - BLUE BOX", "address": {"city": "CAPE MAY", "state": "NJ", "street": "1432 TEXAS AVE", "postcode": "08204"}}},
{"geometry": {"type": "Point", "coordinates": [-74.9266099659, 38.9644618353]}, "type": "Feature", "properties": {"collection_times": [{"days": "Mon-Fri", "time": "4:30pm"}, {"days": "Sat", "time": "12:30pm"}, {"days": "Sun", "time": "Closed"}], "id": "0820400016", "name": "USPS COLLECTION BOX - BLUE BOX", "address": {"city": "CAPE MAY", "state": "NJ", "street": "3860 BAYSHORE RD STE 3", "postcode": "08204"}}},
{"geometry": {"type": "Point", "coordinates": [-74.9424819377, 38.9771320095]}, "type": "Feature", "properties": {"collection_times": [{"days": "Mon-Sat", "time": "9:15am"}, {"days": "Sun", "time": "Closed"}], "id": "0820400017", "name": "USPS COLLECTION BOX - BLUE BOX", "address": {"city": "CAPE MAY", "state": "NJ", "street": "3845 BAYSHORE RD", "postcode": "08204"}}},
{"geometry": {"type": "Point", "coordinates": [-74.9138243837, 38.9751527293]}, "type": "Feature", "properties": {"collection_times": [{"days": "Mon-Sat", "time": "8:00am"}, {"days": "Sun", "time": "Closed"}], "id": "0820400021", "name": "USPS COLLECTION BOX - BLUE BOX", "address": {"city": "CAPE MAY", "state": "NJ", "street": "1 MUNRO DR", "postcode": "08204"}}},
{"geometry": {"type": "Point", "coordinates": [-74.9138243837, 38.9751527293]}, "type": "Feature", "properties": {"collection_times": [{"days": "Mon-Sat", "time": "8:15am"}, {"days": "Sun", "time": "Closed"}], "id": "0820400022", "name": "USPS COLLECTION BOX - BLUE BOX", "address": {"city": "CAPE MAY", "state": "NJ", "street": "1 MUNRO DR", "postcode": "08204"}}},
{"geometry": {"type": "Point", "coordinates": [-74.9192017658, 38.9347795489]}, "type": "Feature", "properties": {"collection_times": [{"days": "Mon-Fri", "time": "5:00pm"}, {"days": "Sat", "time": "3:30pm"}, {"days": "Sun", "time": "Closed"}], "id": "0820400025", "name": "USPS COLLECTION BOX - BLUE BOX", "address": {"city": "CAPE MAY", "state": "NJ", "street": "700 WASHINGTON ST", "postcode": "08204"}}},
{"geometry": {"type": "Point", "coordinates": [-74.9192017658, 38.9347795489]}, "type": "Feature", "properties": {"collection_times": [{"days": "Mon-Fri", "time": "5:00pm"}, {"days": "Sat", "time": "3:30pm"}, {"days": "Sun", "time": "Closed"}], "id": "0820400030", "name": "USPS COLLECTION BOX - BLUE BOX", "address": {"city": "CAPE MAY", "state": "NJ", "street": "700 WASHINGTON ST", "postcode": "08204"}}},
{"geometry": {"type": "Point", "coordinates": [-74.9192017658, 38.9347795489]}, "type": "Feature", "properties": {"collection_times": [{"days": "Mon-Fri", "time": "5:00pm"}, {"days": "Sat", "time": "3:30pm"}, {"days": "Sun", "time": "Closed"}], "id": "0820400031", "name": "USPS COLLECTION BOX - PO LOBBY", "address": {"city": "CAPE MAY", "state": "NJ", "street": "700 WASHINGTON ST", "postcode": "08204"}}},
{"geometry": {"type": "Point", "coordinates": [-74.9426895017, 38.9746099062]}, "type": "Feature", "properties": {"collection_times": [{"days": "Mon-Fri", "time": "4:30pm"}, {"days": "Sat", "time": "12:30pm"}, {"days": "Sun", "time": "Closed"}], "id": "0820400032", "name": "USPS COLLECTION BOX - PO LOBBY", "address": {"city": "CAPE MAY", "state": "NJ", "street": "3868 BAYSHORE RD", "postcode": "08204"}}},
{"geometry": {"type": "Point", "coordinates": [-74.499720949, 39.4667054699]}, "type": "Feature", "properties": {"collection_times": [{"days": "Mon-Sat", "time": "10:00am"}, {"days": "Sun", "time": "Closed"}], "id": "0820500002", "name": "USPS COLLECTION BOX - BLUE BOX", "address": {"city": "ABSECON", "state": "NJ", "street": "300 E JIMMIE LEEDS RD", "postcode": "08205"}}},
{"geometry": {"type": "Point", "coordinates": [-74.4605046953, 39.4880589205]}, "type": "Feature", "properties": {"collection_times": [{"days": "Mon-Sat", "time": "10:00am"}, {"days": "Sun", "time": "Closed"}], "id": "0820500003", "name": "USPS COLLECTION BOX - BLUE BOX", "address": {"city": "ABSECON", "state": "NJ", "street": "45 S NEW YORK RD", "postcode": "08205"}}},
{"geometry": {"type": "Point", "coordinates": [-74.5512447456, 39.478098406]}, "type": "Feature", "properties": {"collection_times": [{"days": "Mon-Sat", "time": "10:00am"}, {"days": "Sun", "time": "Closed"}], "id": "0820500004", "name": "USPS COLLECTION BOX - BLUE BOX", "address": {"city": "ABSECON", "state": "NJ", "street": "101 W JIMMIE LEEDS RD", "postcode": "08205"}}},
{"geometry": {"type": "Point", "coordinates": [-74.4609956232, 39.4948289946]}, "type": "Feature", "properties": {"collection_times": [{"days": "Mon-Sat", "time": "10:30am"}, {"days": "Sun", "time": "Closed"}], "id": "0820500005", "name": "USPS COLLECTION BOX - BLUE BOX", "address": {"city": "ABSECON", "state": "NJ", "street": "615 E MOSS MILL RD", "postcode": "08205"}}},
{"geometry": {"type": "Point", "coordinates": [-74.4588197216, 39.485232364]}, "type": "Feature", "properties": {"collection_times": [{"days": "Mon-Sat", "time": "11:00am"}, {"days": "Sun", "time": "Closed"}], "id": "0820500006", "name": "USPS COLLECTION BOX - BLUE BOX", "address": {"city": "ABSECON", "state": "NJ", "street": "48 S NEW YORK RD", "postcode": "08205"}}},
{"geometry": {"type": "Point", "coordinates": [-74.4974147435, 39.4654603397]}, "type": "Feature", "properties": {"collection_times": [{"days": "Mon-Sat", "time": "10:15am"}, {"days": "Sun", "time": "Closed"}], "id": "0820500007", "name": "USPS COLLECTION BOX - BLUE BOX", "address": {"city": "ABSECON", "state": "NJ", "street": "333 E JIMMIE LEEDS RD", "postcode": "08205"}}},
{"geometry": {"type": "Point", "coordinates": [-74.499720949, 39.4667054699]}, "type": "Feature", "properties": {"collection_times": [{"days": "Mon-Sat", "time": "10:00am"}, {"days": "Sun", "time": "Closed"}], "id": "0820500009", "name": "USPS COLLECTION BOX - BLUE BOX", "address": {"city": "ABSECON", "state": "NJ", "street": "300 E JIMMIE LEEDS RD", "postcode": "08205"}}},
{"geometry": {"type": "Point", "coordinates": [-74.8176790444, 39.0867507382]}, "type": "Feature", "properties": {"collection_times": [{"days": "Mon-Sat", "time": "11:15am"}, {"days": "Sun", "time": "Closed"}], "id": "0821000001", "name": "USPS COLLECTION BOX - BLUE BOX", "address": {"city": "CAPE MAY CH", "state": "NJ", "street": "2 STONE HARBOR BLVD", "postcode": "08210"}}},
{"geometry": {"type": "Point", "coordinates": [-74.8194698284, 39.0894221184]}, "type": "Feature", "properties": {"collection_times": [{"days": "Mon-Sat", "time": "11:45am"}, {"days": "Sun", "time": "Closed"}], "id": "0821000003", "name": "USPS COLLECTION BOX - BLUE BOX", "address": {"city": "CAPE MAY CH", "state": "NJ", "street": "11 COURT HOUSE SOUTH DENNIS RD", "postcode": "08210"}}},
{"geometry": {"type": "Point", "coordinates": [-74.8255185135, 39.0830882973]}, "type": "Feature", "properties": {"collection_times": [{"days": "Mon-Sat", "time": "11:30am"}, {"days": "Sun", "time": "Closed"}], "id": "0821000005", "name": "USPS COLLECTION BOX - BLUE BOX", "address": {"city": "CAPE MAY CH", "state": "NJ", "street": "33 MECHANIC ST", "postcode": "08210"}}},
{"geometry": {"type": "Point", "coordinates": [-74.8246064521, 39.0806691462]}, "type": "Feature", "properties": {"collection_times": [{"days": "Mon-Sat", "time": "11:30am"}, {"days": "Sun", "time": "Closed"}], "id": "0821000007", "name": "USPS COLLECTION BOX - BLUE BOX", "address": {"city": "CAPE MAY CH", "state": "NJ", "street": "101 S MAIN ST", "postcode": "08210"}}},
{"geometry": {"type": "Point", "coordinates": [-74.8293619472, 39.0721400121]}, "type": "Feature", "properties": {"collection_times": [{"days": "Mon-Fri", "time": "5:00pm"}, {"days": "Sat", "time": "3:30pm"}, {"days": "Sun", "time": "Closed"}], "id": "0821000008", "name": "USPS COLLECTION BOX - BLUE BOX", "address": {"city": "CAPE MAY CH", "state": "NJ", "street": "615 S ROUTE 9", "postcode": "08210"}}},
{"geometry": {"type": "Point", "coordinates": [-74.8293619472, 39.0721400121]}, "type": "Feature", "properties": {"collection_times": [{"days": "Mon-Fri", "time": "5:00pm"}, {"days": "Sat", "time": "3:30pm"}, {"days": "Sun", "time": "Closed"}], "id": "0821000009", "name": "USPS COLLECTION BOX - BLUE BOX", "address": {"city": "CAPE MAY CH", "state": "NJ", "street": "615 S ROUTE 9", "postcode": "08210"}}},
{"geometry": {"type": "Point", "coordinates": [-74.8293619472, 39.0721400121]}, "type": "Feature", "properties": {"collection_times": [{"days": "Mon-Fri", "time": "5:00pm"}, {"days": "Sat", "time": "3:30pm"}, {"days": "Sun", "time": "Closed"}], "id": "0821000012", "name": "USPS COLLECTION BOX - PO LOBBY", "address": {"city": "CAPE MAY CH", "state": "NJ", "street": "615 S ROUTE 9", "postcode": "08210"}}},
{"geometry": {"type": "Point", "coordinates": [-74.9665889483, 38.9354223781]}, "type": "Feature", "properties": {"collection_times": [{"days": "Mon-Fri", "time": "4:00pm"}, {"days": "Sat", "time": "12:00pm"}, {"days": "Sun", "time": "Closed"}], "id": "0821200001", "name": "USPS COLLECTION BOX - BLUE BOX", "address": {"city": "CAPE MAY POINT", "state": "NJ", "street": "408 YALE AVE", "postcode": "08212"}}},
{"geometry": {"type": "Point", "coordinates": [-74.9665889483, 38.9354223781]}, "type": "Feature", "properties": {"collection_times": [{"days": "Mon-Fri", "time": "4:00pm"}, {"days": "Sat", "time": "12:00pm"}, {"days": "Sun", "time": "Closed"}], "id": "0821200002", "name": "USPS COLLECTION BOX - PO LOBBY", "address": {"city": "CAPE MAY POINT", "state": "NJ", "street": "408 YALE AVE", "postcode": "08212"}}},
{"geometry": {"type": "Point", "coordinates": [-74.5985394024, 39.4945959923]}, "type": "Feature", "properties": {"collection_times": [{"days": "Mon-Fri", "time": "5:00pm"}, {"days": "Sat", "time": "12:00pm"}, {"days": "Sun", "time": "Closed"}], "id": "0821300001", "name": "USPS COLLECTION BOX - BLUE BOX", "address": {"city": "COLOGNE", "state": "NJ", "street": "807 W WHITE HORSE PIKE", "postcode": "08213"}}},
{"geometry": {"type": "Point", "coordinates": [-74.5985394024, 39.4945959923]}, "type": "Feature", "properties": {"collection_times": [{"days": "Mon-Fri", "time": "5:00pm"}, {"days": "Sat", "time": "12:00pm"}, {"days": "Sun", "time": "Closed"}], "id": "0821300002", "name": "USPS COLLECTION BOX - PO LOBBY", "address": {"city": "COLOGNE", "state": "NJ", "street": "807 W WHITE HORSE PIKE", "postcode": "08213"}}},
{"geometry": {"type": "Point", "coordinates": [-74.8111284098, 39.1968935595]}, "type": "Feature", "properties": {"collection_times": [{"days": "Mon-Fri", "time": "4:00pm"}, {"days": "Sat", "time": "10:30am"}, {"days": "Sun", "time": "Closed"}], "id": "0821400001", "name": "USPS COLLECTION BOX - BLUE BOX", "address": {"city": "DENNISVILLE", "state": "NJ", "street": "24 HALL AVE", "postcode": "08214"}}},
{"geometry": {"type": "Point", "coordinates": [-74.8111284098, 39.1968935595]}, "type": "Feature", "properties": {"collection_times": [{"days": "Mon-Fri", "time": "4:15pm"}, {"days": "Sat", "time": "11:30am"}, {"days": "Sun", "time": "Closed"}], "id": "0821400002", "name": "USPS COLLECTION BOX - PO LOBBY", "address": {"city": "DENNISVILLE", "state": "NJ", "street": "24 HALL AVE", "postcode": "08214"}}},
{"geometry": {"type": "Point", "coordinates": [-74.6455091115, 39.5306591868]}, "type": "Feature", "properties": {"collection_times": [{"days": "Mon-Fri", "time": "5:00pm"}, {"days": "Sat", "time": "12:30pm"}, {"days": "Sun", "time": "Closed"}], "id": "0821500001", "name": "USPS COLLECTION BOX - BLUE BOX", "address": {"city": "EGG HARBOR CITY", "state": "NJ", "street": "237 PHILADELPHIA AVE", "postcode": "08215"}}},
{"geometry": {"type": "Point", "coordinates": [-74.6455091115, 39.5306591868]}, "type": "Feature", "properties": {"collection_times": [{"days": "Mon-Fri", "time": "5:00pm"}, {"days": "Sat", "time": "12:30pm"}, {"days": "Sun", "time": "Closed"}], "id": "0821500008", "name": "USPS COLLECTION BOX - PO LOBBY", "address": {"city": "EGG HARBOR CITY", "state": "NJ", "street": "237 PHILADELPHIA AVE", "postcode": "08215"}}},
{"geometry": {"type": "Point", "coordinates": [-74.7167700272, 39.5766747424]}, "type": "Feature", "properties": {"collection_times": [{"days": "Mon-Fri", "time": "4:45pm"}, {"days": "Sat", "time": "12:00pm"}, {"days": "Sun", "time": "Closed"}], "id": "0821700001", "name": "USPS COLLECTION BOX - BLUE BOX", "address": {"city": "ELWOOD", "state": "NJ", "street": "4401 WHITE HORSE PIKE", "postcode": "08217"}}},
{"geometry": {"type": "Point", "coordinates": [-74.7167700272, 39.5766747424]}, "type": "Feature", "properties": {"collection_times": [{"days": "Mon-Fri", "time": "4:45pm"}, {"days": "Sat", "time": "12:30pm"}, {"days": "Sun", "time": "Closed"}], "id": "0821700002", "name": "USPS COLLECTION BOX - PO LOBBY", "address": {"city": "ELWOOD", "state": "NJ", "street": "4401 WHITE HORSE PIKE", "postcode": "08217"}}},
{"geometry": {"type": "Point", "coordinates": [-74.8980379945, 39.0432380509]}, "type": "Feature", "properties": {"collection_times": [{"days": "Mon-Fri", "time": "4:30pm"}, {"days": "Sat", "time": "12:00pm"}, {"days": "Sun", "time": "Closed"}], "id": "0821900001", "name": "USPS COLLECTION BOX - BLUE BOX", "address": {"city": "GREEN CREEK", "state": "NJ", "street": "501 ROUTE 47 S", "postcode": "08219"}}},
{"geometry": {"type": "Point", "coordinates": [-74.8954763661, 39.0327272004]}, "type": "Feature", "properties": {"collection_times": [{"days": "Mon-Fri", "time": "4:30pm"}, {"days": "Sat", "time": "12:30pm"}, {"days": "Sun", "time": "Closed"}], "id": "0821900002", "name": "USPS COLLECTION BOX - PO LOBBY", "address": {"city": "GREEN CREEK", "state": "NJ", "street": "501-A ROUTE 47 S", "postcode": "08219"}}},
{"geometry": {"type": "Point", "coordinates": [-74.4370330869, 39.4896132992]}, "type": "Feature", "properties": {"collection_times": [{"days": "Mon-Fri", "time": "5:00pm"}, {"days": "Sat", "time": "12:30pm"}, {"days": "Sun", "time": "Closed"}], "id": "0822000001", "name": "USPS COLLECTION BOX - BLUE BOX", "address": {"city": "LEEDS POINT", "state": "NJ", "street": "15 S LEEDS POINT RD", "postcode": "08220"}}},
{"geometry": {"type": "Point", "coordinates": [-74.4370330869, 39.4896132992]}, "type": "Feature", "properties": {"collection_times": [{"days": "Mon-Fri", "time": "5:00pm"}, {"days": "Sat", "time": "12:30pm"}, {"days": "Sun", "time": "Closed"}], "id": "0822000002", "name": "USPS COLLECTION BOX - PO LOBBY", "address": {"city": "LEEDS POINT", "state": "NJ", "street": "15 S LEEDS POINT RD", "postcode": "08220"}}},
{"geometry": {"type": "Point", "coordinates": [-74.5692740734, 39.347254542]}, "type": "Feature", "properties": {"collection_times": [{"days": "Mon-Fri", "time": "5:00pm"}, {"days": "Sat", "time": "1:00pm"}, {"days": "Sun", "time": "Closed"}], "id": "0822100001", "name": "USPS COLLECTION BOX - BLUE BOX", "address": {"city": "LINWOOD", "state": "NJ", "street": "115 W EDGEWOOD AVE", "postcode": "08221"}}},
{"geometry": {"type": "Point", "coordinates": [-74.5667646682, 39.360074977]}, "type": "Feature", "properties": {"collection_times": [{"days": "Mon-Sat", "time": "12:00pm"}, {"days": "Sun", "time": "Closed"}], "id": "0822100006", "name": "USPS COLLECTION BOX - BLUE BOX", "address": {"city": "LINWOOD", "state": "NJ", "street": "199 NEW RD", "postcode": "08221"}}},
{"geometry": {"type": "Point", "coordinates": [-74.569798274, 39.3576199502]}, "type": "Feature", "properties": {"collection_times": [{"days": "Mon-Sat", "time": "12:00pm"}, {"days": "Sun", "time": "Closed"}], "id": "0822100008", "name": "USPS COLLECTION BOX - BLUE BOX", "address": {"city": "LINWOOD", "state": "NJ", "street": "222 NEW RD", "postcode": "08221"}}},
{"geometry": {"type": "Point", "coordinates": [-74.5740229977, 39.3534723411]}, "type": "Feature", "properties": {"collection_times": [{"days": "Mon-Sat", "time": "12:00pm"}, {"days": "Sun", "time": "Closed"}], "id": "0822100009", "name": "USPS COLLECTION BOX - BLUE BOX", "address": {"city": "LINWOOD", "state": "NJ", "street": "400 W POPLAR AVE", "postcode": "08221"}}},
{"geometry": {"type": "Point", "coordinates": [-74.5892466202, 39.3337720399]}, "type": "Feature", "properties": {"collection_times": [{"days": "Mon-Sat", "time": "12:00pm"}, {"days": "Sun", "time": "Closed"}], "id": "0822100014", "name": "USPS COLLECTION BOX - BLUE BOX", "address": {"city": "LINWOOD", "state": "NJ", "street": "2106 NEW RD", "postcode": "08221"}}},
{"geometry": {"type": "Point", "coordinates": [-74.5874835106, 39.335831029]}, "type": "Feature", "properties": {"collection_times": [{"days": "Mon-Sat", "time": "12:00pm"}, {"days": "Sun", "time": "Closed"}], "id": "0822100015", "name": "USPS COLLECTION BOX - BLUE BOX", "address": {"city": "LINWOOD", "state": "NJ", "street": "2021 NEW RD", "postcode": "08221"}}},
{"geometry": {"type": "Point", "coordinates": [-74.5722908482, 39.3597467458]}, "type": "Feature", "properties": {"collection_times": [{"days": "Mon-Sat", "time": "12:00pm"}, {"days": "Sun", "time": "Closed"}], "id": "0822100017", "name": "USPS COLLECTION BOX - BLUE BOX", "address": {"city": "LINWOOD", "state": "NJ", "street": "550 CENTRAL AVE", "postcode": "08221"}}},
{"geometry": {"type": "Point", "coordinates": [-74.5692740734, 39.347254542]}, "type": "Feature", "properties": {"collection_times": [{"days": "Mon-Fri", "time": "5:00pm"}, {"days": "Sat", "time": "1:00pm"}, {"days": "Sun", "time": "Closed"}], "id": "0822100018", "name": "USPS COLLECTION BOX - PO LOBBY", "address": {"city": "LINWOOD", "state": "NJ", "street": "1103 SHORE RD", "postcode": "08221"}}},
{"geometry": {"type": "Point", "coordinates": [-74.6538273982, 39.2655644495]}, "type": "Feature", "properties": {"collection_times": [{"days": "Mon-Fri", "time": "4:45pm"}, {"days": "Sat", "time": "12:00pm"}, {"days": "Sun", "time": "Closed"}], "id": "0822300001", "name": "USPS COLLECTION BOX - BLUE BOX", "address": {"city": "MARMORA", "state": "NJ", "street": "120 TUCKAHOE RD", "postcode": "08223"}}},
{"geometry": {"type": "Point", "coordinates": [-74.6613380999, 39.2690932574]}, "type": "Feature", "properties": {"collection_times": [{"days": "Mon-Fri", "time": "12:00pm"}, {"days": "Sat", "time": "11:00am"}, {"days": "Sun", "time": "Closed"}], "id": "0822300003", "name": "USPS COLLECTION BOX - BLUE BOX", "address": {"city": "MARMORA", "state": "NJ", "street": "62 TUCKAHOE RD", "postcode": "08223"}}},
{"geometry": {"type": "Point", "coordinates": [-74.6538273982, 39.2655644495]}, "type": "Feature", "properties": {"collection_times": [{"days": "Mon-Fri", "time": "5:00pm"}, {"days": "Sat", "time": "12:00pm"}, {"days": "Sun", "time": "Closed"}], "id": "0822300005", "name": "USPS COLLECTION BOX - PO LOBBY", "address": {"city": "MARMORA", "state": "NJ", "street": "120 TUCKAHOE RD", "postcode": "08223"}}},
{"geometry": {"type": "Point", "coordinates": [-74.6613380999, 39.2690932574]}, "type": "Feature", "properties": {"collection_times": [{"days": "Mon-Fri", "time": "12:00pm"}, {"days": "Sat", "time": "11:00am"}, {"days": "Sun", "time": "Closed"}], "id": "0822300006", "name": "USPS COLLECTION BOX - BLUE BOX", "address": {"city": "MARMORA", "state": "NJ", "street": "287 ROUTE US 9 S", "postcode": "08223"}}},
{"geometry": {"type": "Point", "coordinates": [-74.6538273982, 39.2655644495]}, "type": "Feature", "properties": {"collection_times": [{"days": "Mon-Fri", "time": "5:00pm"}, {"days": "Sat", "time": "12:00pm"}, {"days": "Sun", "time": "Closed"}], "id": "0822300007", "name": "USPS COLLECTION BOX - PO LOBBY", "address": {"city": "MARMORA", "state": "NJ", "street": "120 TUCKAHOE RD", "postcode": "08223"}}},
{"geometry": {"type": "Point", "coordinates": [-74.4510192945, 39.5920050127]}, "type": "Feature", "properties": {"collection_times": [{"days": "Mon-Fri", "time": "4:45pm"}, {"days": "Sat", "time": "12:00pm"}, {"days": "Sun", "time": "Closed"}], "id": "0822400001", "name": "USPS COLLECTION BOX - BLUE BOX", "address": {"city": "NEW GRETNA", "state": "NJ", "street": "5624 ROUTE 9", "postcode": "08224"}}},
{"geometry": {"type": "Point", "coordinates": [-74.4510192945, 39.5920050127]}, "type": "Feature", "properties": {"collection_times": [{"days": "Mon-Fri", "time": "4:45pm"}, {"days": "Sat", "time": "12:00pm"}, {"days": "Sun", "time": "Closed"}], "id": "0822400002", "name": "USPS COLLECTION BOX - PO LOBBY", "address": {"city": "NEW GRETNA", "state": "NJ", "street": "5624 ROUTE 9", "postcode": "08224"}}},
{"geometry": {"type": "Point", "coordinates": [-74.5503859174, 39.378035456]}, "type": "Feature", "properties": {"collection_times": [{"days": "Mon-Fri", "time": "5:00pm"}, {"days": "Sat", "time": "2:00pm"}, {"days": "Sun", "time": "Closed"}], "id": "0822500001", "name": "USPS COLLECTION BOX - BLUE BOX", "address": {"city": "NORTHFIELD", "state": "NJ", "street": "800 NEW RD", "postcode": "08225"}}},
{"geometry": {"type": "Point", "coordinates": [-74.5529103518, 39.3708690906]}, "type": "Feature", "properties": {"collection_times": [{"days": "Mon-Sat", "time": "10:00am"}, {"days": "Sun", "time": "Closed"}], "id": "0822500003", "name": "USPS COLLECTION BOX - BLUE BOX", "address": {"city": "NORTHFIELD", "state": "NJ", "street": "1501 TILTON RD", "postcode": "08225"}}},
{"geometry": {"type": "Point", "coordinates": [-74.5557719296, 39.3833824305]}, "type": "Feature", "properties": {"collection_times": [{"days": "Mon-Sat", "time": "10:00am"}, {"days": "Sun", "time": "Closed"}], "id": "0822500004", "name": "USPS COLLECTION BOX - BLUE BOX", "address": {"city": "NORTHFIELD", "state": "NJ", "street": "801 TILTON RD", "postcode": "08225"}}},
{"geometry": {"type": "Point", "coordinates": [-74.5567252051, 39.3864507534]}, "type": "Feature", "properties": {"collection_times": [{"days": "Mon-Sat", "time": "11:00am"}, {"days": "Sun", "time": "Closed"}], "id": "0822500005", "name": "USPS COLLECTION BOX - BLUE BOX", "address": {"city": "NORTHFIELD", "state": "NJ", "street": "535 TILTON RD", "postcode": "08225"}}},
{"geometry": {"type": "Point", "coordinates": [-74.5650583529, 39.3624314592]}, "type": "Feature", "properties": {"collection_times": [{"days": "Mon-Sat", "time": "10:00am"}, {"days": "Sun", "time": "Closed"}], "id": "0822500006", "name": "USPS COLLECTION BOX - BLUE BOX", "address": {"city": "NORTHFIELD", "state": "NJ", "street": "2500 NEW RD", "postcode": "08225"}}},
{"geometry": {"type": "Point", "coordinates": [-74.5620392462, 39.3671498676]}, "type": "Feature", "properties": {"collection_times": [{"days": "Mon-Sat", "time": "11:00am"}, {"days": "Sun", "time": "Closed"}], "id": "0822500011", "name": "USPS COLLECTION BOX - BLUE BOX", "address": {"city": "NORTHFIELD", "state": "NJ", "street": "2111 NEW RD", "postcode": "08225"}}},
{"geometry": {"type": "Point", "coordinates": [-74.5503859174, 39.378035456]}, "type": "Feature", "properties": {"collection_times": [{"days": "Mon-Fri", "time": "5:00pm"}, {"days": "Sat", "time": "2:00pm"}, {"days": "Sun", "time": "Closed"}], "id": "0822500012", "name": "USPS COLLECTION BOX - PO LOBBY", "address": {"city": "NORTHFIELD", "state": "NJ", "street": "800 NEW RD", "postcode": "08225"}}},
{"geometry": {"type": "Point", "coordinates": [-74.5580257019, 39.2939435679]}, "type": "Feature", "properties": {"collection_times": [{"days": "Mon-Sat", "time": "12:00pm"}, {"days": "Sun", "time": "Closed"}], "id": "0822600002", "name": "USPS COLLECTION BOX - BLUE BOX", "address": {"city": "OCEAN CITY", "state": "NJ", "street": "805 GARDENS PKWY", "postcode": "08226"}}},
{"geometry": {"type": "Point", "coordinates": [-74.5603544127, 39.288813086]}, "type": "Feature", "properties": {"collection_times": [{"days": "Mon-Sat", "time": "12:00pm"}, {"days": "Sun", "time": "Closed"}], "id": "0822600005", "name": "USPS COLLECTION BOX - BLUE BOX", "address": {"city": "OCEAN CITY", "state": "NJ", "street": "601 BATTERSEA RD", "postcode": "08226"}}},
{"geometry": {"type": "Point", "coordinates": [-74.5651184921, 39.287561631]}, "type": "Feature", "properties": {"collection_times": [{"days": "Mon-Sat", "time": "12:00pm"}, {"days": "Sun", "time": "Closed"}], "id": "0822600010", "name": "USPS COLLECTION BOX - BLUE BOX", "address": {"city": "OCEAN CITY", "state": "NJ", "street": "101 ASBURY AVE", "postcode": "08226"}}},
{"geometry": {"type": "Point", "coordinates": [-74.5775486341, 39.2826777612]}, "type": "Feature", "properties": {"collection_times": [{"days": "Mon-Sat", "time": "12:00pm"}, {"days": "Sun", "time": "Closed"}], "id": "0822600014", "name": "USPS COLLECTION BOX - BLUE BOX", "address": {"city": "OCEAN CITY", "state": "NJ", "street": "734 BAY AVE", "postcode": "08226"}}},
{"geometry": {"type": "Point", "coordinates": [-74.5863005516, 39.2760643932]}, "type": "Feature", "properties": {"collection_times": [{"days": "Mon-Sat", "time": "12:15pm"}, {"days": "Sun", "time": "Closed"}], "id": "0822600016", "name": "USPS COLLECTION BOX - BLUE BOX", "address": {"city": "OCEAN CITY", "state": "NJ", "street": "1340 BAY AVE", "postcode": "08226"}}},
{"geometry": {"type": "Point", "coordinates": [-74.5750139401, 39.2798072754]}, "type": "Feature", "properties": {"collection_times": [{"days": "Mon-Sat", "time": "1:00pm"}, {"days": "Sun", "time": "Closed"}], "id": "0822600017", "name": "USPS COLLECTION BOX - BLUE BOX", "address": {"city": "OCEAN CITY", "state": "NJ", "street": "801 ASBURY AVE", "postcode": "08226"}}},
{"geometry": {"type": "Point", "coordinates": [-74.5735801938, 39.2809559286]}, "type": "Feature", "properties": {"collection_times": [{"days": "Mon-Sat", "time": "10:00am"}, {"days": "Sun", "time": "Closed"}], "id": "0822600018", "name": "USPS COLLECTION BOX - BLUE BOX", "address": {"city": "OCEAN CITY", "state": "NJ", "street": "700 ASBURY AVE", "postcode": "08226"}}},
{"geometry": {"type": "Point", "coordinates": [-74.5775620337, 39.2778199043]}, "type": "Feature", "properties": {"collection_times": [{"days": "Mon-Sat", "time": "10:00am"}, {"days": "Sun", "time": "Closed"}], "id": "0822600019", "name": "USPS COLLECTION BOX - BLUE BOX", "address": {"city": "OCEAN CITY", "state": "NJ", "street": "960 ASBURY AVE", "postcode": "08226"}}},
{"geometry": {"type": "Point", "coordinates": [-74.5756106016, 39.2792588709]}, "type": "Feature", "properties": {"collection_times": [{"days": "Mon-Fri", "time": "5:00pm"}, {"days": "Sat", "time": "1:00pm"}, {"days": "Sun", "time": "Closed"}], "id": "0822600020", "name": "USPS COLLECTION BOX - BLUE BOX", "address": {"city": "OCEAN CITY", "state": "NJ", "street": "859 ASBURY AVE", "postcode": "08226"}}},
{"geometry": {"type": "Point", "coordinates": [-74.5836684679, 39.2733849912]}, "type": "Feature", "properties": {"collection_times": [{"days": "Mon-Sat", "time": "10:00am"}, {"days": "Sun", "time": "Closed"}], "id": "0822600022", "name": "USPS COLLECTION BOX - BLUE BOX", "address": {"city": "OCEAN CITY", "state": "NJ", "street": "1401 ASBURY AVE", "postcode": "08226"}}},
{"geometry": {"type": "Point", "coordinates": [-74.5892721736, 39.2702436577]}, "type": "Feature", "properties": {"collection_times": [{"days": "Mon-Sat", "time": "12:45pm"}, {"days": "Sun", "time": "Closed"}], "id": "0822600024", "name": "USPS COLLECTION BOX - BLUE BOX", "address": {"city": "OCEAN CITY", "state": "NJ", "street": "1759 WEST AVE", "postcode": "08226"}}},
{"geometry": {"type": "Point", "coordinates": [-74.5877570433, 39.2726257314]}, "type": "Feature", "properties": {"collection_times": [{"days": "Mon-Sat", "time": "12:45pm"}, {"days": "Sun", "time": "Closed"}], "id": "0822600025", "name": "USPS COLLECTION BOX - BLUE BOX", "address": {"city": "OCEAN CITY", "state": "NJ", "street": "201 E 16TH ST", "postcode": "08226"}}},
{"geometry": {"type": "Point", "coordinates": [-74.6033280629, 39.2583874374]}, "type": "Feature", "properties": {"collection_times": [{"days": "Mon-Sat", "time": "12:45pm"}, {"days": "Sun", "time": "Closed"}], "id": "0822600026", "name": "USPS COLLECTION BOX - BLUE BOX", "address": {"city": "OCEAN CITY", "state": "NJ", "street": "2760 ASBURY AVE", "postcode": "08226"}}},
{"geometry": {"type": "Point", "coordinates": [-74.5908062159, 39.2672000935]}, "type": "Feature", "properties": {"collection_times": [{"days": "Mon-Sat", "time": "12:30pm"}, {"days": "Sun", "time": "Closed"}], "id": "0822600031", "name": "USPS COLLECTION BOX - BLUE BOX", "address": {"city": "OCEAN CITY", "state": "NJ", "street": "4520 WEST AVE", "postcode": "08226"}}},
{"geometry": {"type": "Point", "coordinates": [-74.5690305337, 39.2795695007]}, "type": "Feature", "properties": {"collection_times": [{"days": "Mon-Sat", "time": "10:00am"}, {"days": "Sun", "time": "Closed"}], "id": "0822600039", "name": "USPS COLLECTION BOX - BLUE BOX", "address": {"city": "OCEAN CITY", "state": "NJ", "street": "601 ATLANTIC AVE", "postcode": "08226"}}},
{"geometry": {"type": "Point", "coordinates": [-74.6103703342, 39.2507171843]}, "type": "Feature", "properties": {"collection_times": [{"days": "Mon-Sat", "time": "12:30pm"}, {"days": "Sun", "time": "Closed"}], "id": "0822600043", "name": "USPS COLLECTION BOX - BLUE BOX", "address": {"city": "OCEAN CITY", "state": "NJ", "street": "3400 CENTRAL AVE", "postcode": "08226"}}},
{"geometry": {"type": "Point", "coordinates": [-74.6136160307, 39.2527880806]}, "type": "Feature", "properties": {"collection_times": [{"days": "Mon-Sat", "time": "12:15pm"}, {"days": "Sun", "time": "Closed"}], "id": "0822600046", "name": "USPS COLLECTION BOX - BLUE BOX", "address": {"city": "OCEAN CITY", "state": "NJ", "street": "3400 SIMPSON AVE", "postcode": "08226"}}},
{"geometry": {"type": "Point", "coordinates": [-74.5792527794, 39.2744237479]}, "type": "Feature", "properties": {"collection_times": [{"days": "Mon-Sat", "time": "10:00am"}, {"days": "Sun", "time": "Closed"}], "id": "0822600048", "name": "USPS COLLECTION BOX - BLUE BOX", "address": {"city": "OCEAN CITY", "state": "NJ", "street": "1200 WESLEY AVE", "postcode": "08226"}}},
{"geometry": {"type": "Point", "coordinates": [-74.5615523654, 39.2854172229]}, "type": "Feature", "properties": {"collection_times": [{"days": "Mon-Sat", "time": "12:00pm"}, {"days": "Sun", "time": "Closed"}], "id": "0822600052", "name": "USPS COLLECTION BOX - BLUE BOX", "address": {"city": "OCEAN CITY", "state": "NJ", "street": "59 ATLANTIC AVE", "postcode": "08226"}}},
{"geometry": {"type": "Point", "coordinates": [-74.5735896575, 39.2773337082]}, "type": "Feature", "properties": {"collection_times": [{"days": "Mon-Fri", "time": "5:00pm"}, {"days": "Sat", "time": "3:15pm"}, {"days": "Sun", "time": "Closed"}], "id": "0822600054", "name": "USPS COLLECTION BOX - BLUE BOX", "address": {"city": "OCEAN CITY", "state": "NJ", "street": "859 OCEAN AVE", "postcode": "08226"}}},
{"geometry": {"type": "Point", "coordinates": [-74.5735896575, 39.2773337082]}, "type": "Feature", "properties": {"collection_times": [{"days": "Mon-Fri", "time": "5:00pm"}, {"days": "Sat", "time": "3:15pm"}, {"days": "Sun", "time": "Closed"}], "id": "0822600055", "name": "USPS COLLECTION BOX - BLUE BOX", "address": {"city": "OCEAN CITY", "state": "NJ", "street": "859 OCEAN AVE", "postcode": "08226"}}},
{"geometry": {"type": "Point", "coordinates": [-74.593016683, 39.2712414472]}, "type": "Feature", "properties": {"collection_times": [{"days": "Mon-Sat", "time": "12:15pm"}, {"days": "Sun", "time": "Closed"}], "id": "0822600056", "name": "USPS COLLECTION BOX - BLUE BOX", "address": {"city": "OCEAN CITY", "state": "NJ", "street": "1818 BAY AVE", "postcode": "08226"}}},
{"geometry": {"type": "Point", "coordinates": [-74.6189374546, 39.2440940091]}, "type": "Feature", "properties": {"collection_times": [{"days": "Mon-Sat", "time": "12:45pm"}, {"days": "Sun", "time": "Closed"}], "id": "0822600060", "name": "USPS COLLECTION BOX - BLUE BOX", "address": {"city": "OCEAN CITY", "state": "NJ", "street": "4001 WEST AVE", "postcode": "08226"}}},
{"geometry": {"type": "Point", "coordinates": [-74.6360061214, 39.2250362753]}, "type": "Feature", "properties": {"collection_times": [{"days": "Mon-Sat", "time": "12:30pm"}, {"days": "Sun", "time": "Closed"}], "id": "0822600062", "name": "USPS COLLECTION BOX - BLUE BOX", "address": {"city": "OCEAN CITY", "state": "NJ", "street": "5501 WEST AVE", "postcode": "08226"}}},
{"geometry": {"type": "Point", "coordinates": [-74.6054278151, 39.2577439078]}, "type": "Feature", "properties": {"collection_times": [{"days": "Mon-Sat", "time": "12:15pm"}, {"days": "Sun", "time": "Closed"}], "id": "0822600065", "name": "USPS COLLECTION BOX - BLUE BOX", "address": {"city": "OCEAN CITY", "state": "NJ", "street": "2860 WEST AVE", "postcode": "08226"}}},
{"geometry": {"type": "Point", "coordinates": [-74.5735896575, 39.2773337082]}, "type": "Feature", "properties": {"collection_times": [{"days": "Mon-Fri", "time": "5:00pm"}, {"days": "Sat", "time": "3:15pm"}, {"days": "Sun", "time": "Closed"}], "id": "0822600068", "name": "USPS COLLECTION BOX - BLUE BOX", "address": {"city": "OCEAN CITY", "state": "NJ", "street": "859 OCEAN AVE", "postcode": "08226"}}},
{"geometry": {"type": "Point", "coordinates": [-74.5735896575, 39.2773337082]}, "type": "Feature", "properties": {"collection_times": [{"days": "Mon-Fri", "time": "5:00pm"}, {"days": "Sat", "time": "3:15pm"}, {"days": "Sun", "time": "Closed"}], "id": "0822600069", "name": "USPS COLLECTION BOX - PO LOBBY", "address": {"city": "OCEAN CITY", "state": "NJ", "street": "859 OCEAN AVE", "postcode": "08226"}}},
{"geometry": {"type": "Point", "coordinates": [-74.5731093762, 39.2824511887]}, "type": "Feature", "properties": {"collection_times": [{"days": "Mon-Sat", "time": "12:00pm"}, {"days": "Sun", "time": "Closed"}], "id": "0822600070", "name": "USPS COLLECTION BOX - BLUE BOX", "address": {"city": "OCEAN CITY", "state": "NJ", "street": "600 WEST AVE", "postcode": "08226"}}},
{"geometry": {"type": "Point", "coordinates": [-74.5756106016, 39.2792588709]}, "type": "Feature", "properties": {"collection_times": [{"days": "Mon-Fri", "time": "5:00pm"}, {"days": "Sat", "time": "1:00pm"}, {"days": "Sun", "time": "Closed"}], "id": "0822600074", "name": "USPS COLLECTION BOX - BLUE BOX", "address": {"city": "OCEAN CITY", "state": "NJ", "street": "859 ASBURY AVE", "postcode": "08226"}}},
{"geometry": {"type": "Point", "coordinates": [-74.5617789952, 39.2929452177]}, "type": "Feature", "properties": {"collection_times": [{"days": "Mon-Sat", "time": "12:00pm"}, {"days": "Sun", "time": "Closed"}], "id": "0822600076", "name": "USPS COLLECTION BOX - BLUE BOX", "address": {"city": "OCEAN CITY", "state": "NJ", "street": "200 W ATLANTIC BLVD", "postcode": "08226"}}},
{"geometry": {"type": "Point", "coordinates": [-74.7120032935, 39.2102741787]}, "type": "Feature", "properties": {"collection_times": [{"days": "Mon-Sat", "time": "9:30am"}, {"days": "Sun", "time": "Closed"}], "id": "0823000002", "name": "USPS COLLECTION BOX - BLUE BOX", "address": {"city": "OCEAN VIEW", "state": "NJ", "street": "2087 ROUTE 9", "postcode": "08230"}}},
{"geometry": {"type": "Point", "coordinates": [-74.7120032935, 39.2102741787]}, "type": "Feature", "properties": {"collection_times": [{"days": "Mon-Sat", "time": "10:00am"}, {"days": "Sun", "time": "Closed"}], "id": "0823000003", "name": "USPS COLLECTION BOX - BLUE BOX", "address": {"city": "OCEAN VIEW", "state": "NJ", "street": "1621 ROUTE 9", "postcode": "08230"}}},
{"geometry": {"type": "Point", "coordinates": [-74.7329484256, 39.1757920595]}, "type": "Feature", "properties": {"collection_times": [{"days": "Mon-Fri", "time": "5:00pm"}, {"days": "Sat", "time": "12:30pm"}, {"days": "Sun", "time": "Closed"}], "id": "0823000005", "name": "USPS COLLECTION BOX - BLUE BOX", "address": {"city": "OCEAN VIEW", "state": "NJ", "street": "556 SEA ISLE BLVD UNIT A6", "postcode": "08230"}}},
{"geometry": {"type": "Point", "coordinates": [-74.7329484256, 39.1757920595]}, "type": "Feature", "properties": {"collection_times": [{"days": "Mon-Fri", "time": "5:00pm"}, {"days": "Sat", "time": "12:30pm"}, {"days": "Sun", "time": "Closed"}], "id": "0823000007", "name": "USPS COLLECTION BOX - BLUE BOX", "address": {"city": "OCEAN VIEW", "state": "NJ", "street": "556 SEA ISLE BLVD UNIT A6", "postcode": "08230"}}},
{"geometry": {"type": "Point", "coordinates": [-74.4685816181, 39.4524000982]}, "type": "Feature", "properties": {"collection_times": [{"days": "Mon-Fri", "time": "5:00pm"}, {"days": "Sat", "time": "12:00pm"}, {"days": "Sun", "time": "Closed"}], "id": "0823100001", "name": "USPS COLLECTION BOX - BLUE BOX", "address": {"city": "OCEANVILLE", "state": "NJ", "street": "174 S NEW YORK AVE", "postcode": "08231"}}},
{"geometry": {"type": "Point", "coordinates": [-74.4685816181, 39.4524000982]}, "type": "Feature", "properties": {"collection_times": [{"days": "Mon-Fri", "time": "5:00pm"}, {"days": "Sat", "time": "12:00pm"}, {"days": "Sun", "time": "Closed"}], "id": "0823100002", "name": "USPS COLLECTION BOX - PO LOBBY", "address": {"city": "OCEANVILLE", "state": "NJ", "street": "174 S NEW YORK AVE", "postcode": "08231"}}},
{"geometry": {"type": "Point", "coordinates": [-74.5160880504, 39.3958122088]}, "type": "Feature", "properties": {"collection_times": [{"days": "Mon-Fri", "time": "3:00pm"}, {"days": "Sat", "time": "2:00pm"}, {"days": "Sun", "time": "Closed"}], "id": "0823200015", "name": "USPS COLLECTION BOX - BLUE BOX", "address": {"city": "PLEASANTVILLE", "state": "NJ", "street": "345 N FRANKLIN BLVD", "postcode": "08232"}}},
{"geometry": {"type": "Point", "coordinates": [-74.5301783759, 39.383062967]}, "type": "Feature", "properties": {"collection_times": [{"days": "Mon-Fri", "time": "3:00pm"}, {"days": "Sat", "time": "1:45pm"}, {"days": "Sun", "time": "Closed"}], "id": "0823200016", "name": "USPS COLLECTION BOX - BLUE BOX", "address": {"city": "PLEASANTVILLE", "state": "NJ", "street": "932 S MAIN ST", "postcode": "08232"}}},
{"geometry": {"type": "Point", "coordinates": [-74.5247795123, 39.3942915044]}, "type": "Feature", "properties": {"collection_times": [{"days": "Mon-Fri", "time": "3:30pm"}, {"days": "Sat", "time": "2:15pm"}, {"days": "Sun", "time": "Closed"}], "id": "0823200039", "name": "USPS COLLECTION BOX - BLUE BOX", "address": {"city": "PLEASANTVILLE", "state": "NJ", "street": "50 W BLACK HORSE PIKE", "postcode": "08232"}}},
{"geometry": {"type": "Point", "coordinates": [-74.4899535647, 39.378397733]}, "type": "Feature", "properties": {"collection_times": [{"days": "Mon-Fri", "time": "3:15pm"}, {"days": "Sat-Sun", "time": "Closed"}], "id": "0823200045", "name": "USPS COLLECTION BOX - BLUE BOX", "address": {"city": "PLEASANTVILLE", "state": "NJ", "street": "8025 BLACK HORSE PIKE", "postcode": "08232"}}},
{"geometry": {"type": "Point", "coordinates": [-74.5358807246, 39.3929772008]}, "type": "Feature", "properties": {"collection_times": [{"days": "Mon-Fri", "time": "5:15pm"}, {"days": "Sat", "time": "2:15pm"}, {"days": "Sun", "time": "Closed"}], "id": "0823200046", "name": "USPS COLLECTION BOX - BLUE BOX", "address": {"city": "PLEASANTVILLE", "state": "NJ", "street": "752 BLACK HORSE PIKE", "postcode": "08232"}}},
{"geometry": {"type": "Point", "coordinates": [-74.5358807246, 39.3929772008]}, "type": "Feature", "properties": {"collection_times": [{"days": "Mon-Fri", "time": "5:15pm"}, {"days": "Sat", "time": "2:15pm"}, {"days": "Sun", "time": "Closed"}], "id": "0823200047", "name": "USPS COLLECTION BOX - BLUE BOX", "address": {"city": "PLEASANTVILLE", "state": "NJ", "street": "752 BLACK HORSE PIKE", "postcode": "08232"}}},
{"geometry": {"type": "Point", "coordinates": [-74.5358807246, 39.3929772008]}, "type": "Feature", "properties": {"collection_times": [{"days": "Mon-Fri", "time": "5:30pm"}, {"days": "Sat", "time": "2:15pm"}, {"days": "Sun", "time": "Closed"}], "id": "0823200049", "name": "USPS COLLECTION BOX - PO LOBBY", "address": {"city": "PLEASANTVILLE", "state": "NJ", "street": "752 BLACK HORSE PIKE", "postcode": "08232"}}},
{"geometry": {"type": "Point", "coordinates": [-74.5358807246, 39.3929772008]}, "type": "Feature", "properties": {"collection_times": [{"days": "Mon-Fri", "time": "5:30pm"}, {"days": "Sat", "time": "2:15pm"}, {"days": "Sun", "time": "Closed"}], "id": "0823200050", "name": "USPS COLLECTION BOX - PO LOBBY", "address": {"city": "PLEASANTVILLE", "state": "NJ", "street": "752 BLACK HORSE PIKE", "postcode": "08232"}}},
{"geometry": {"type": "Point", "coordinates": [-74.5581549479, 39.3912936803]}, "type": "Feature", "properties": {"collection_times": [{"days": "Mon-Fri", "time": "2:45pm"}, {"days": "Sat", "time": "1:30pm"}, {"days": "Sun", "time": "Closed"}], "id": "0823400001", "name": "USPS COLLECTION BOX - BLUE BOX", "address": {"city": "EGG HARBOR TWP", "state": "NJ", "street": "3116 HINGSTON AVE", "postcode": "08234"}}},
{"geometry": {"type": "Point", "coordinates": [-74.5623013234, 39.4030956542]}, "type": "Feature", "properties": {"collection_times": [{"days": "Mon-Fri", "time": "2:45pm"}, {"days": "Sat", "time": "1:00pm"}, {"days": "Sun", "time": "Closed"}], "id": "0823400002", "name": "USPS COLLECTION BOX - BLUE BOX", "address": {"city": "EGG HARBOR TWP", "state": "NJ", "street": "6718 BLACK HORSE PIKE", "postcode": "08234"}}},
{"geometry": {"type": "Point", "coordinates": [-74.5742249483, 39.4166148025]}, "type": "Feature", "properties": {"collection_times": [{"days": "Mon-Fri", "time": "2:00pm"}, {"days": "Sat", "time": "1:00pm"}, {"days": "Sun", "time": "Closed"}], "id": "0823400004", "name": "USPS COLLECTION BOX - BLUE BOX", "address": {"city": "EGG HARBOR TWP", "state": "NJ", "street": "1 COUNTRY OAK LN", "postcode": "08234"}}},
{"geometry": {"type": "Point", "coordinates": [-74.6095574958, 39.4322395022]}, "type": "Feature", "properties": {"collection_times": [{"days": "Mon-Fri", "time": "2:30pm"}, {"days": "Sat", "time": "1:15pm"}, {"days": "Sun", "time": "Closed"}], "id": "0823400006", "name": "USPS COLLECTION BOX - BLUE BOX", "address": {"city": "EGG HARBOR TWP", "state": "NJ", "street": "3003 ENGLISH CREEK AVE", "postcode": "08234"}}},
{"geometry": {"type": "Point", "coordinates": [-74.5450540541, 39.4049186368]}, "type": "Feature", "properties": {"collection_times": [{"days": "Mon-Fri", "time": "5:30pm"}, {"days": "Sat", "time": "2:30pm"}, {"days": "Sun", "time": "Closed"}], "id": "0823400008", "name": "USPS COLLECTION BOX - BLUE BOX", "address": {"city": "EGG HARBOR TWP", "state": "NJ", "street": "5 COLUMBUS AVE", "postcode": "08234"}}},
{"geometry": {"type": "Point", "coordinates": [-74.608418619, 39.4336563194]}, "type": "Feature", "properties": {"collection_times": [{"days": "Mon-Fri", "time": "2:15pm"}, {"days": "Sat", "time": "1:00pm"}, {"days": "Sun", "time": "Closed"}], "id": "0823400009", "name": "USPS COLLECTION BOX - BLUE BOX", "address": {"city": "EGG HARBOR TWP", "state": "NJ", "street": "6100 BLACK HORSE PIKE", "postcode": "08234"}}},
{"geometry": {"type": "Point", "coordinates": [-74.6183137936, 39.3629063555]}, "type": "Feature", "properties": {"collection_times": [{"days": "Mon-Fri", "time": "2:30pm"}, {"days": "Sat", "time": "1:30pm"}, {"days": "Sun", "time": "Closed"}], "id": "0823400011", "name": "USPS COLLECTION BOX - BLUE BOX", "address": {"city": "EGG HARBOR TWP", "state": "NJ", "street": "501 ZION RD", "postcode": "08234"}}},
{"geometry": {"type": "Point", "coordinates": [-74.6008779386, 39.39082419]}, "type": "Feature", "properties": {"collection_times": [{"days": "Mon-Fri", "time": "2:35pm"}, {"days": "Sat", "time": "1:30pm"}, {"days": "Sun", "time": "Closed"}], "id": "0823400012", "name": "USPS COLLECTION BOX - BLUE BOX", "address": {"city": "EGG HARBOR TWP", "state": "NJ", "street": "3515 BARGAINTOWN RD", "postcode": "08234"}}},
{"geometry": {"type": "Point", "coordinates": [-74.6626690044, 39.405540263]}, "type": "Feature", "properties": {"collection_times": [{"days": "Mon-Fri", "time": "2:30pm"}, {"days": "Sat", "time": "1:15pm"}, {"days": "Sun", "time": "Closed"}], "id": "0823400014", "name": "USPS COLLECTION BOX - BLUE BOX", "address": {"city": "EGG HARBOR TWP", "state": "NJ", "street": "1184 OCEAN HEIGHTS AVE", "postcode": "08234"}}},
{"geometry": {"type": "Point", "coordinates": [-74.573833524, 39.4776462462]}, "type": "Feature", "properties": {"collection_times": [{"days": "Mon-Fri", "time": "4:45pm"}, {"days": "Sat", "time": "12:00pm"}, {"days": "Sun", "time": "Closed"}], "id": "0824000001", "name": "USPS COLLECTION BOX - BLUE BOX", "address": {"city": "POMONA", "state": "NJ", "street": "269 W WHITE HORSE PIKE", "postcode": "08240"}}},
{"geometry": {"type": "Point", "coordinates": [-74.573833524, 39.4776462462]}, "type": "Feature", "properties": {"collection_times": [{"days": "Mon-Fri", "time": "4:45pm"}, {"days": "Sat", "time": "12:00pm"}, {"days": "Sun", "time": "Closed"}], "id": "0824000002", "name": "USPS COLLECTION BOX - PO LOBBY", "address": {"city": "POMONA", "state": "NJ", "street": "269 W WHITE HORSE PIKE", "postcode": "08240"}}},
{"geometry": {"type": "Point", "coordinates": [-74.5008385519, 39.5274994004]}, "type": "Feature", "properties": {"collection_times": [{"days": "Mon-Fri", "time": "5:00pm"}, {"days": "Sat", "time": "12:00pm"}, {"days": "Sun", "time": "Closed"}], "id": "0824100002", "name": "USPS COLLECTION BOX - BLUE BOX", "address": {"city": "PORT REPUBLIC", "state": "NJ", "street": "205 CLARKSLANDING RD", "postcode": "08241"}}},
{"geometry": {"type": "Point", "coordinates": [-74.4915271851, 39.526531793]}, "type": "Feature", "properties": {"collection_times": [{"days": "Mon-Fri", "time": "5:00pm"}, {"days": "Sat", "time": "12:00pm"}, {"days": "Sun", "time": "Closed"}], "id": "0824100003", "name": "USPS COLLECTION BOX - PO LOBBY", "address": {"city": "PORT REPUBLIC", "state": "NJ", "street": "205 CLARKS LANDING RD", "postcode": "08241"}}},
{"geometry": {"type": "Point", "coordinates": [-74.882121917, 39.0168804499]}, "type": "Feature", "properties": {"collection_times": [{"days": "Mon-Fri", "time": "5:00pm"}, {"days": "Sat", "time": "3:00pm"}, {"days": "Sun", "time": "Closed"}], "id": "0824200002", "name": "USPS COLLECTION BOX - BLUE BOX", "address": {"city": "RIO GRANDE", "state": "NJ", "street": "1087 ROUTE 47 S", "postcode": "08242"}}},
{"geometry": {"type": "Point", "coordinates": [-74.8776728083, 39.0151888186]}, "type": "Feature", "properties": {"collection_times": [{"days": "Mon-Sat", "time": "10:00am"}, {"days": "Sun", "time": "Closed"}], "id": "0824200003", "name": "USPS COLLECTION BOX - BLUE BOX", "address": {"city": "RIO GRANDE", "state": "NJ", "street": "3801 ROUTE 9 S", "postcode": "08242"}}},
{"geometry": {"type": "Point", "coordinates": [-74.8727471761, 39.0126164585]}, "type": "Feature", "properties": {"collection_times": [{"days": "Mon-Sat", "time": "10:00am"}, {"days": "Sun", "time": "Closed"}], "id": "0824200006", "name": "USPS COLLECTION BOX - BLUE BOX", "address": {"city": "RIO GRANDE", "state": "NJ", "street": "1500 ROUTE 47", "postcode": "08242"}}},
{"geometry": {"type": "Point", "coordinates": [-74.882121917, 39.0168804499]}, "type": "Feature", "properties": {"collection_times": [{"days": "Mon-Fri", "time": "5:00pm"}, {"days": "Sat", "time": "3:00pm"}, {"days": "Sun", "time": "Closed"}], "id": "0824200008", "name": "USPS COLLECTION BOX - BLUE BOX", "address": {"city": "RIO GRANDE", "state": "NJ", "street": "1087 ROUTE 47 S", "postcode": "08242"}}},
{"geometry": {"type": "Point", "coordinates": [-74.882121917, 39.0168804499]}, "type": "Feature", "properties": {"collection_times": [{"days": "Mon-Fri", "time": "5:00pm"}, {"days": "Sat", "time": "3:00pm"}, {"days": "Sun", "time": "Closed"}], "id": "0824200009", "name": "USPS COLLECTION BOX - PO LOBBY", "address": {"city": "RIO GRANDE", "state": "NJ", "street": "1087 ROUTE 47 S", "postcode": "08242"}}},
{"geometry": {"type": "Point", "coordinates": [-74.6896864333, 39.1573319849]}, "type": "Feature", "properties": {"collection_times": [{"days": "Mon-Sat", "time": "10:30am"}, {"days": "Sun", "time": "Closed"}], "id": "0824300001", "name": "USPS COLLECTION BOX - BLUE BOX", "address": {"city": "SEA ISLE CITY", "state": "NJ", "street": "3801 LANDIS AVE", "postcode": "08243"}}},
{"geometry": {"type": "Point", "coordinates": [-74.6930460368, 39.1532448617]}, "type": "Feature", "properties": {"collection_times": [{"days": "Mon-Sat", "time": "10:30am"}, {"days": "Sun", "time": "Closed"}], "id": "0824300003", "name": "USPS COLLECTION BOX - BLUE BOX", "address": {"city": "SEA ISLE CITY", "state": "NJ", "street": "4400 LANDIS AVE", "postcode": "08243"}}},
{"geometry": {"type": "Point", "coordinates": [-74.7025830519, 39.1409775772]}, "type": "Feature", "properties": {"collection_times": [{"days": "Mon-Sat", "time": "11:15am"}, {"days": "Sun", "time": "Closed"}], "id": "0824300006", "name": "USPS COLLECTION BOX - BLUE BOX", "address": {"city": "SEA ISLE CITY", "state": "NJ", "street": "6216 LANDIS AVE", "postcode": "08243"}}},
{"geometry": {"type": "Point", "coordinates": [-74.7116965678, 39.1260439032]}, "type": "Feature", "properties": {"collection_times": [{"days": "Mon-Sat", "time": "1:00pm"}, {"days": "Sun", "time": "Closed"}], "id": "0824300008", "name": "USPS COLLECTION BOX - BLUE BOX", "address": {"city": "SEA ISLE CITY", "state": "NJ", "street": "8515 LANDIS AVE", "postcode": "08243"}}},
{"geometry": {"type": "Point", "coordinates": [-74.6923037187, 39.156224831]}, "type": "Feature", "properties": {"collection_times": [{"days": "Mon-Fri", "time": "5:00pm"}, {"days": "Sat", "time": "3:00pm"}, {"days": "Sun", "time": "Closed"}], "id": "0824300009", "name": "USPS COLLECTION BOX - BLUE BOX", "address": {"city": "SEA ISLE CITY", "state": "NJ", "street": "145 JOHN F KENNEDY BLVD", "postcode": "08243"}}},
{"geometry": {"type": "Point", "coordinates": [-74.6923037187, 39.156224831]}, "type": "Feature", "properties": {"collection_times": [{"days": "Mon-Fri", "time": "5:00pm"}, {"days": "Sat", "time": "3:00pm"}, {"days": "Sun", "time": "Closed"}], "id": "0824300012", "name": "USPS COLLECTION BOX - PO LOBBY", "address": {"city": "SEA ISLE CITY", "state": "NJ", "street": "145 JOHN F KENNEDY BLVD", "postcode": "08243"}}},
{"geometry": {"type": "Point", "coordinates": [-74.6923037187, 39.156224831]}, "type": "Feature", "properties": {"collection_times": [{"days": "Mon-Fri", "time": "5:00pm"}, {"days": "Sat", "time": "3:00pm"}, {"days": "Sun", "time": "Closed"}], "id": "0824300013", "name": "USPS COLLECTION BOX - PO LOBBY", "address": {"city": "SEA ISLE CITY", "state": "NJ", "street": "145 JOHN F KENNEDY BLVD", "postcode": "08243"}}},
{"geometry": {"type": "Point", "coordinates": [-74.5984388935, 39.3245704426]}, "type": "Feature", "properties": {"collection_times": [{"days": "Mon-Fri", "time": "5:00pm"}, {"days": "Sat", "time": "3:30pm"}, {"days": "Sun", "time": "Closed"}], "id": "0824400001", "name": "USPS COLLECTION BOX - BLUE BOX", "address": {"city": "SOMERS POINT", "state": "NJ", "street": "325 W GROVELAND AVE", "postcode": "08244"}}},
{"geometry": {"type": "Point", "coordinates": [-74.596897498, 39.3129597004]}, "type": "Feature", "properties": {"collection_times": [{"days": "Mon-Sat", "time": "12:00pm"}, {"days": "Sun", "time": "Closed"}], "id": "0824400005", "name": "USPS COLLECTION BOX - BLUE BOX", "address": {"city": "SOMERS POINT", "state": "NJ", "street": "1 W NEW JERSEY AVE", "postcode": "08244"}}},
{"geometry": {"type": "Point", "coordinates": [-74.5855910006, 39.3267798316]}, "type": "Feature", "properties": {"collection_times": [{"days": "Mon-Sat", "time": "12:00pm"}, {"days": "Sun", "time": "Closed"}], "id": "0824400022", "name": "USPS COLLECTION BOX - BLUE BOX", "address": {"city": "SOMERS POINT", "state": "NJ", "street": "100 SHORE RD", "postcode": "08244"}}},
{"geometry": {"type": "Point", "coordinates": [-74.5984388935, 39.3245704426]}, "type": "Feature", "properties": {"collection_times": [{"days": "Mon-Fri", "time": "5:00pm"}, {"days": "Sat", "time": "3:30pm"}, {"days": "Sun", "time": "Closed"}], "id": "0824400028", "name": "USPS COLLECTION BOX - PO LOBBY", "address": {"city": "SOMERS POINT", "state": "NJ", "street": "325 W GROVELAND AVE", "postcode": "08244"}}},
{"geometry": {"type": "Point", "coordinates": [-74.8149349053, 39.1764012432]}, "type": "Feature", "properties": {"collection_times": [{"days": "Mon-Fri", "time": "4:00pm"}, {"days": "Sat", "time": "11:30am"}, {"days": "Sun", "time": "Closed"}], "id": "0824500001", "name": "USPS COLLECTION BOX - BLUE BOX", "address": {"city": "SOUTH DENNIS", "state": "NJ", "street": "231 COUNTY RD", "postcode": "08245"}}},
{"geometry": {"type": "Point", "coordinates": [-74.8149349053, 39.1764012432]}, "type": "Feature", "properties": {"collection_times": [{"days": "Mon-Fri", "time": "4:15pm"}, {"days": "Sat", "time": "11:30am"}, {"days": "Sun", "time": "Closed"}], "id": "0824500002", "name": "USPS COLLECTION BOX - PO LOBBY", "address": {"city": "SOUTH DENNIS", "state": "NJ", "street": "231 COUNTY RD", "postcode": "08245"}}},
{"geometry": {"type": "Point", "coordinates": [-74.7601267026, 39.1801208584]}, "type": "Feature", "properties": {"collection_times": [{"days": "Mon-Fri", "time": "4:30pm"}, {"days": "Sat", "time": "11:30am"}, {"days": "Sun", "time": "Closed"}], "id": "0824600001", "name": "USPS COLLECTION BOX - BLUE BOX", "address": {"city": "SOUTH SEAVILLE", "state": "NJ", "street": "493 KINGS HWY", "postcode": "08246"}}},
{"geometry": {"type": "Point", "coordinates": [-74.7601267026, 39.1801208584]}, "type": "Feature", "properties": {"collection_times": [{"days": "Mon-Fri", "time": "4:45pm"}, {"days": "Sat", "time": "11:45am"}, {"days": "Sun", "time": "Closed"}], "id": "0824600002", "name": "USPS COLLECTION BOX - PO LOBBY", "address": {"city": "SOUTH SEAVILLE", "state": "NJ", "street": "493 KINGS HWY", "postcode": "08246"}}},
{"geometry": {"type": "Point", "coordinates": [-74.7588410314, 39.0533073053]}, "type": "Feature", "properties": {"collection_times": [{"days": "Mon-Fri", "time": "4:30pm"}, {"days": "Sat", "time": "12:00pm"}, {"days": "Sun", "time": "Closed"}], "id": "0824700002", "name": "USPS COLLECTION BOX - BLUE BOX", "address": {"city": "STONE HARBOR", "state": "NJ", "street": "9601 2ND AVE", "postcode": "08247"}}},
{"geometry": {"type": "Point", "coordinates": [-74.7588410314, 39.0533073053]}, "type": "Feature", "properties": {"collection_times": [{"days": "Mon-Fri", "time": "4:30pm"}, {"days": "Sat", "time": "12:00pm"}, {"days": "Sun", "time": "Closed"}], "id": "0824700016", "name": "USPS COLLECTION BOX - PO LOBBY", "address": {"city": "STONE HARBOR", "state": "NJ", "street": "9601 2ND AVE", "postcode": "08247"}}},
{"geometry": {"type": "Point", "coordinates": [-74.6552102772, 39.1989248221]}, "type": "Feature", "properties": {"collection_times": [{"days": "Mon-Fri", "time": "4:15pm"}, {"days": "Sat", "time": "11:45am"}, {"days": "Sun", "time": "Closed"}], "id": "0824800001", "name": "USPS COLLECTION BOX - BLUE BOX", "address": {"city": "STRATHMERE", "state": "NJ", "street": "9 COMMONWEALTH AVE", "postcode": "08248"}}},
{"geometry": {"type": "Point", "coordinates": [-74.6552102772, 39.1989248221]}, "type": "Feature", "properties": {"collection_times": [{"days": "Mon-Fri", "time": "4:15pm"}, {"days": "Sat", "time": "11:45am"}, {"days": "Sun", "time": "Closed"}], "id": "0824800002", "name": "USPS COLLECTION BOX - PO LOBBY", "address": {"city": "STRATHMERE", "state": "NJ", "street": "9 COMMONWEALTH AVE", "postcode": "08248"}}},
{"geometry": {"type": "Point", "coordinates": [-74.7541920836, 39.2900881976]}, "type": "Feature", "properties": {"collection_times": [{"days": "Mon-Fri", "time": "4:45pm"}, {"days": "Sat", "time": "12:15pm"}, {"days": "Sun", "time": "Closed"}], "id": "0825000001", "name": "USPS COLLECTION BOX - BLUE BOX", "address": {"city": "TUCKAHOE", "state": "NJ", "street": "2250 ROUTE 50", "postcode": "08250"}}},
{"geometry": {"type": "Point", "coordinates": [-74.7541920836, 39.2900881976]}, "type": "Feature", "properties": {"collection_times": [{"days": "Mon-Fri", "time": "4:45pm"}, {"days": "Sat", "time": "12:15pm"}, {"days": "Sun", "time": "Closed"}], "id": "0825000002", "name": "USPS COLLECTION BOX - PO LOBBY", "address": {"city": "TUCKAHOE", "state": "NJ", "street": "2250 ROUTE 50", "postcode": "08250"}}},
{"geometry": {"type": "Point", "coordinates": [-74.9364197343, 39.0180708596]}, "type": "Feature", "properties": {"collection_times": [{"days": "Mon-Fri", "time": "5:00pm"}, {"days": "Sat", "time": "1:00pm"}, {"days": "Sun", "time": "Closed"}], "id": "0825100001", "name": "USPS COLLECTION BOX - BLUE BOX", "address": {"city": "VILLAS", "state": "NJ", "street": "1814 BAYSHORE RD", "postcode": "08251"}}},
{"geometry": {"type": "Point", "coordinates": [-74.9390068648, 39.0091935826]}, "type": "Feature", "properties": {"collection_times": [{"days": "Mon-Sat", "time": "1:15pm"}, {"days": "Sun", "time": "Closed"}], "id": "0825100003", "name": "USPS COLLECTION BOX - BLUE BOX", "address": {"city": "VILLAS", "state": "NJ", "street": "2600 BAYSHORE RD", "postcode": "08251"}}},
{"geometry": {"type": "Point", "coordinates": [-74.9331401056, 39.0348512642]}, "type": "Feature", "properties": {"collection_times": [{"days": "Mon-Sat", "time": "1:15pm"}, {"days": "Sun", "time": "Closed"}], "id": "0825100004", "name": "USPS COLLECTION BOX - BLUE BOX", "address": {"city": "VILLAS", "state": "NJ", "street": "406 BAYSHORE RD", "postcode": "08251"}}},
{"geometry": {"type": "Point", "coordinates": [-74.9243523691, 39.0426488451]}, "type": "Feature", "properties": {"collection_times": [{"days": "Mon-Sat", "time": "1:15pm"}, {"days": "Sun", "time": "Closed"}], "id": "0825100005", "name": "USPS COLLECTION BOX - BLUE BOX", "address": {"city": "VILLAS", "state": "NJ", "street": "1010 BAYSHORE RD", "postcode": "08251"}}},
{"geometry": {"type": "Point", "coordinates": [-74.9364197343, 39.0180708596]}, "type": "Feature", "properties": {"collection_times": [{"days": "Mon-Fri", "time": "5:00pm"}, {"days": "Sat", "time": "1:00pm"}, {"days": "Sun", "time": "Closed"}], "id": "0825100006", "name": "USPS COLLECTION BOX - PO LOBBY", "address": {"city": "VILLAS", "state": "NJ", "street": "1814 BAYSHORE RD", "postcode": "08251"}}},
{"geometry": {"type": "Point", "coordinates": [-74.8537379648, 39.0440821142]}, "type": "Feature", "properties": {"collection_times": [{"days": "Mon-Fri", "time": "4:15pm"}, {"days": "Sat", "time": "11:45am"}, {"days": "Sun", "time": "Closed"}], "id": "0825200001", "name": "USPS COLLECTION BOX - BLUE BOX", "address": {"city": "WHITESBORO", "state": "NJ", "street": "207 W MAIN ST", "postcode": "08252"}}},
{"geometry": {"type": "Point", "coordinates": [-74.7973498946, 39.017656471]}, "type": "Feature", "properties": {"collection_times": [{"days": "Mon-Sat", "time": "11:30am"}, {"days": "Sun", "time": "Closed"}], "id": "0826000002", "name": "USPS COLLECTION BOX - BLUE BOX", "address": {"city": "WILDWOOD", "state": "NJ", "street": "100 ANGLESEA DR", "postcode": "08260"}}},
{"geometry": {"type": "Point", "coordinates": [-74.7947686782, 39.0047882434]}, "type": "Feature", "properties": {"collection_times": [{"days": "Mon-Sat", "time": "10:00am"}, {"days": "Sun", "time": "Closed"}], "id": "0826000004", "name": "USPS COLLECTION BOX - BLUE BOX", "address": {"city": "WILDWOOD", "state": "NJ", "street": "406 CENTRAL AVE", "postcode": "08260"}}},
{"geometry": {"type": "Point", "coordinates": [-74.7962769508, 39.0010962285]}, "type": "Feature", "properties": {"collection_times": [{"days": "Mon-Sat", "time": "11:45am"}, {"days": "Sun", "time": "Closed"}], "id": "0826000005", "name": "USPS COLLECTION BOX - BLUE BOX", "address": {"city": "WILDWOOD", "state": "NJ", "street": "902 ATLANTIC AVE", "postcode": "08260"}}},
{"geometry": {"type": "Point", "coordinates": [-74.8011590225, 39.0017326604]}, "type": "Feature", "properties": {"collection_times": [{"days": "Mon-Sat", "time": "10:15am"}, {"days": "Sun", "time": "Closed"}], "id": "0826000007", "name": "USPS COLLECTION BOX - BLUE BOX", "address": {"city": "WILDWOOD", "state": "NJ", "street": "1201 NEW JERSEY AVE", "postcode": "08260"}}},
{"geometry": {"type": "Point", "coordinates": [-74.7996349996, 39.0029265658]}, "type": "Feature", "properties": {"collection_times": [{"days": "Mon-Sat", "time": "10:30am"}, {"days": "Sun", "time": "Closed"}], "id": "0826000008", "name": "USPS COLLECTION BOX - BLUE BOX", "address": {"city": "WILDWOOD", "state": "NJ", "street": "1001 NEW JERSEY AVE", "postcode": "08260"}}},
{"geometry": {"type": "Point", "coordinates": [-74.7985068285, 38.9992839353]}, "type": "Feature", "properties": {"collection_times": [{"days": "Mon-Sat", "time": "9:15am"}, {"days": "Sun", "time": "Closed"}], "id": "0826000009", "name": "USPS COLLECTION BOX - BLUE BOX", "address": {"city": "WILDWOOD", "state": "NJ", "street": "1212 ATLANTIC AVE", "postcode": "08260"}}},
{"geometry": {"type": "Point", "coordinates": [-74.809720011, 38.994734081]}, "type": "Feature", "properties": {"collection_times": [{"days": "Mon-Sat", "time": "9:15am"}, {"days": "Sun", "time": "Closed"}], "id": "0826000014", "name": "USPS COLLECTION BOX - BLUE BOX", "address": {"city": "WILDWOOD", "state": "NJ", "street": "2500 NEW JERSEY AVE", "postcode": "08260"}}},
{"geometry": {"type": "Point", "coordinates": [-74.8141254357, 38.9913841354]}, "type": "Feature", "properties": {"collection_times": [{"days": "Mon-Sat", "time": "9:15am"}, {"days": "Sun", "time": "Closed"}], "id": "0826000020", "name": "USPS COLLECTION BOX - BLUE BOX", "address": {"city": "WILDWOOD", "state": "NJ", "street": "101 E WILDWOOD AVE", "postcode": "08260"}}},
{"geometry": {"type": "Point", "coordinates": [-74.8218324134, 38.9861613715]}, "type": "Feature", "properties": {"collection_times": [{"days": "Mon-Sat", "time": "10:00am"}, {"days": "Sun", "time": "Closed"}], "id": "0826000027", "name": "USPS COLLECTION BOX - BLUE BOX", "address": {"city": "WILDWOOD", "state": "NJ", "street": "4400 NEW JERSEY AVE", "postcode": "08260"}}},
{"geometry": {"type": "Point", "coordinates": [-74.8371765741, 38.9906329564]}, "type": "Feature", "properties": {"collection_times": [{"days": "Mon-Sat", "time": "9:00am"}, {"days": "Sun", "time": "Closed"}], "id": "0826000034", "name": "USPS COLLECTION BOX - BLUE BOX", "address": {"city": "WILDWOOD", "state": "NJ", "street": "5200 SHAWCREST RD", "postcode": "08260"}}},
{"geometry": {"type": "Point", "coordinates": [-74.8266489291, 38.9825644205]}, "type": "Feature", "properties": {"collection_times": [{"days": "Mon-Sat", "time": "2:15pm"}, {"days": "Sun", "time": "Closed"}], "id": "0826000035", "name": "USPS COLLECTION BOX - BLUE BOX", "address": {"city": "WILDWOOD", "state": "NJ", "street": "5201 NEW JERSEY AVE", "postcode": "08260"}}},
{"geometry": {"type": "Point", "coordinates": [-74.8296664333, 38.9840129515]}, "type": "Feature", "properties": {"collection_times": [{"days": "Mon-Sat", "time": "10:30am"}, {"days": "Sun", "time": "Closed"}], "id": "0826000037", "name": "USPS COLLECTION BOX - BLUE BOX", "address": {"city": "WILDWOOD", "state": "NJ", "street": "5300 PARK BLVD", "postcode": "08260"}}},
{"geometry": {"type": "Point", "coordinates": [-74.8311635937, 38.9793238687]}, "type": "Feature", "properties": {"collection_times": [{"days": "Mon-Sat", "time": "10:00am"}, {"days": "Sun", "time": "Closed"}], "id": "0826000038", "name": "USPS COLLECTION BOX - BLUE BOX", "address": {"city": "WILDWOOD", "state": "NJ", "street": "5811 NEW JERSEY AVE", "postcode": "08260"}}},
{"geometry": {"type": "Point", "coordinates": [-74.8313528671, 38.9766302711]}, "type": "Feature", "properties": {"collection_times": [{"days": "Mon-Sat", "time": "12:00pm"}, {"days": "Sun", "time": "Closed"}], "id": "0826000039", "name": "USPS COLLECTION BOX - BLUE BOX", "address": {"city": "WILDWOOD", "state": "NJ", "street": "6101 PACIFIC AVE", "postcode": "08260"}}},
{"geometry": {"type": "Point", "coordinates": [-74.8324648485, 38.9783715867]}, "type": "Feature", "properties": {"collection_times": [{"days": "Mon-Sat", "time": "12:00pm"}, {"days": "Sun", "time": "Closed"}], "id": "0826000040", "name": "USPS COLLECTION BOX - BLUE BOX", "address": {"city": "WILDWOOD", "state": "NJ", "street": "6011 NEW JERSEY AVE", "postcode": "08260"}}},
{"geometry": {"type": "Point", "coordinates": [-74.8505451934, 38.9625648891]}, "type": "Feature", "properties": {"collection_times": [{"days": "Mon-Sat", "time": "3:00pm"}, {"days": "Sun", "time": "Closed"}], "id": "0826000049", "name": "USPS COLLECTION BOX - BLUE BOX", "address": {"city": "WILDWOOD", "state": "NJ", "street": "9300 PACIFIC AVE", "postcode": "08260"}}},
{"geometry": {"type": "Point", "coordinates": [-74.8114590462, 38.9886976355]}, "type": "Feature", "properties": {"collection_times": [{"days": "Mon-Fri", "time": "5:00pm"}, {"days": "Sat", "time": "1:00pm"}, {"days": "Sun", "time": "Closed"}], "id": "0826000051", "name": "USPS COLLECTION BOX - BLUE BOX", "address": {"city": "WILDWOOD", "state": "NJ", "street": "3311 ATLANTIC AVE", "postcode": "08260"}}},
{"geometry": {"type": "Point", "coordinates": [-74.8114590462, 38.9886976355]}, "type": "Feature", "properties": {"collection_times": [{"days": "Mon-Fri", "time": "5:00pm"}, {"days": "Sat", "time": "1:00pm"}, {"days": "Sun", "time": "Closed"}], "id": "0826000056", "name": "USPS COLLECTION BOX - PO LOBBY", "address": {"city": "WILDWOOD", "state": "NJ", "street": "3311 ATLANTIC AVE", "postcode": "08260"}}},
{"geometry": {"type": "Point", "coordinates": [-74.8075385315, 38.9965680545]}, "type": "Feature", "properties": {"collection_times": [{"days": "Mon-Sat", "time": "9:15am"}, {"days": "Sun", "time": "Closed"}], "id": "0826000057", "name": "USPS COLLECTION BOX - BLUE BOX", "address": {"city": "WILDWOOD", "state": "NJ", "street": "2198 NEW JERSEY AVE", "postcode": "08260"}}},
{"geometry": {"type": "Point", "coordinates": [-74.8123072278, 38.9907985707]}, "type": "Feature", "properties": {"collection_times": [{"days": "Mon-Sat", "time": "9:15am"}, {"days": "Sun", "time": "Closed"}], "id": "0826000061", "name": "USPS COLLECTION BOX - BLUE BOX", "address": {"city": "WILDWOOD", "state": "NJ", "street": "3200 PACIFIC AVE", "postcode": "08260"}}},
{"geometry": {"type": "Point", "coordinates": [-74.8183769902, 39.238739672]}, "type": "Feature", "properties": {"collection_times": [{"days": "Mon-Fri", "time": "4:45pm"}, {"days": "Sat", "time": "11:45am"}, {"days": "Sun", "time": "Closed"}], "id": "0827000001", "name": "USPS COLLECTION BOX - BLUE BOX", "address": {"city": "WOODBINE", "state": "NJ", "street": "642 WASHINGTON AVE", "postcode": "08270"}}},
{"geometry": {"type": "Point", "coordinates": [-74.8183769902, 39.238739672]}, "type": "Feature", "properties": {"collection_times": [{"days": "Mon-Fri", "time": "4:45pm"}, {"days": "Sat", "time": "11:45am"}, {"days": "Sun", "time": "Closed"}], "id": "0827000003", "name": "USPS COLLECTION BOX - PO LOBBY", "address": {"city": "WOODBINE", "state": "NJ", "street": "642 WASHINGTON AVE", "postcode": "08270"}}}
]}
