{"type": "FeatureCollection", "features": [
{"geometry": {"type": "Point", "coordinates": [-75.2315808195, 39.4313939492]}, "type": "Feature", "properties": {"collection_times": [{"days": "Mon-Fri", "time": "5:00pm"}, {"days": "Sat", "time": "12:30pm"}, {"days": "Sun", "time": "Closed"}], "id": "0830200003", "name": "USPS COLLECTION BOX - BLUE BOX", "address": {"city": "BRIDGETON", "state": "NJ", "street": "100 N PEARL ST", "postcode": "08302"}}},
{"geometry": {"type": "Point", "coordinates": [-75.214282595, 39.4960209148]}, "type": "Feature", "properties": {"collection_times": [{"days": "Mon-Fri", "time": "2:15pm"}, {"days": "Sat", "time": "2:00pm"}, {"days": "Sun", "time": "Closed"}], "id": "0830200005", "name": "USPS COLLECTION BOX - BLUE BOX", "address": {"city": "BRIDGETON", "state": "NJ", "street": "1335 HIGHWAY 77", "postcode": "08302"}}},
{"geometry": {"type": "Point", "coordinates": [-75.2099167872, 39.4611207587]}, "type": "Feature", "properties": {"collection_times": [{"days": "Mon-Fri", "time": "4:30pm"}, {"days": "Sat", "time": "1:00pm"}, {"days": "Sun", "time": "Closed"}], "id": "0830200006", "name": "USPS COLLECTION BOX - BLUE BOX", "address": {"city": "BRIDGETON", "state": "NJ", "street": "32 CORNWELL DR", "postcode": "08302"}}},
{"geometry": {"type": "Point", "coordinates": [-75.2195553204, 39.4357930518]}, "type": "Feature", "properties": {"collection_times": [{"days": "Mon-Fri", "time": "4:30pm"}, {"days": "Sat", "time": "12:15pm"}, {"days": "Sun", "time": "Closed"}], "id": "0830200010", "name": "USPS COLLECTION BOX - BLUE BOX", "address": {"city": "BRIDGETON", "state": "NJ", "street": "351 IRVING AVE", "postcode": "08302"}}},
{"geometry": {"type": "Point", "coordinates": [-75.2315662727, 39.4287130743]}, "type": "Feature", "properties": {"collection_times": [{"days": "Mon-Fri", "time": "1:15pm"}, {"days": "Sat", "time": "12:30pm"}, {"days": "Sun", "time": "Closed"}], "id": "0830200019", "name": "USPS COLLECTION BOX - BLUE BOX", "address": {"city": "BRIDGETON", "state": "NJ", "street": "110 E COMMERCE ST", "postcode": "08302"}}},
{"geometry": {"type": "Point", "coordinates": [-75.2283515489, 39.4285599664]}, "type": "Feature", "properties": {"collection_times": [{"days": "Mon-Fri", "time": "5:00pm"}, {"days": "Sat", "time": "12:30pm"}, {"days": "Sun", "time": "Closed"}], "id": "0830200020", "name": "USPS COLLECTION BOX - BLUE BOX", "address": {"city": "BRIDGETON", "state": "NJ", "street": "181 E COMMERCE ST", "postcode": "08302"}}},
{"geometry": {"type": "Point", "coordinates": [-75.2333047184, 39.4305640535]}, "type": "Feature", "properties": {"collection_times": [{"days": "Mon-Fri", "time": "2:00pm"}, {"days": "Sat", "time": "12:45pm"}, {"days": "Sun", "time": "Closed"}], "id": "0830200025", "name": "USPS COLLECTION BOX - BLUE BOX", "address": {"city": "BRIDGETON", "state": "NJ", "street": "75 N LAUREL ST", "postcode": "08302"}}},
{"geometry": {"type": "Point", "coordinates": [-75.2350797504, 39.4278132817]}, "type": "Feature", "properties": {"collection_times": [{"days": "Mon-Fri", "time": "5:00pm"}, {"days": "Sat", "time": "12:30pm"}, {"days": "Sun", "time": "Closed"}], "id": "0830200027", "name": "USPS COLLECTION BOX - BLUE BOX", "address": {"city": "BRIDGETON", "state": "NJ", "street": "53 S LAUREL ST", "postcode": "08302"}}},
{"geometry": {"type": "Point", "coordinates": [-75.2345188407, 39.4289613983]}, "type": "Feature", "properties": {"collection_times": [{"days": "Mon-Fri", "time": "5:00pm"}, {"days": "Sat", "time": "12:30pm"}, {"days": "Sun", "time": "Closed"}], "id": "0830200028", "name": "USPS COLLECTION BOX - BLUE BOX", "address": {"city": "BRIDGETON", "state": "NJ", "street": "40 E COMMERCE ST", "postcode": "08302"}}},
{"geometry": {"type": "Point", "coordinates": [-75.2464186443, 39.440420243]}, "type": "Feature", "properties": {"collection_times": [{"days": "Mon-Fri", "time": "12:45pm"}, {"days": "Sat", "time": "1:30pm"}, {"days": "Sun", "time": "Closed"}], "id": "0830200031", "name": "USPS COLLECTION BOX - BLUE BOX", "address": {"city": "BRIDGETON", "state": "NJ", "street": "226 N WEST AVE", "postcode": "08302"}}},
{"geometry": {"type": "Point", "coordinates": [-75.2646500287, 39.4397528039]}, "type": "Feature", "properties": {"collection_times": [{"days": "Mon-Fri", "time": "1:00pm"}, {"days": "Sat", "time": "1:30pm"}, {"days": "Sun", "time": "Closed"}], "id": "0830200032", "name": "USPS COLLECTION BOX - BLUE BOX", "address": {"city": "BRIDGETON", "state": "NJ", "street": "590 SHILOH PIKE", "postcode": "08302"}}},
{"geometry": {"type": "Point", "coordinates": [-75.2497527618, 39.4284944772]}, "type": "Feature", "properties": {"collection_times": [{"days": "Mon-Fri", "time": "12:45pm"}, {"days": "Sat", "time": "1:30pm"}, {"days": "Sun", "time": "Closed"}], "id": "0830200033", "name": "USPS COLLECTION BOX - BLUE BOX", "address": {"city": "BRIDGETON", "state": "NJ", "street": "402 VINE ST", "postcode": "08302"}}},
{"geometry": {"type": "Point", "coordinates": [-75.24044716, 39.4281753014]}, "type": "Feature", "properties": {"collection_times": [{"days": "Mon-Fri", "time": "5:15pm"}, {"days": "Sat", "time": "4:00pm"}, {"days": "Sun", "time": "Closed"}], "id": "0830200038", "name": "USPS COLLECTION BOX - BLUE BOX", "address": {"city": "BRIDGETON", "state": "NJ", "street": "102 W BROAD ST", "postcode": "08302"}}},
{"geometry": {"type": "Point", "coordinates": [-75.2162003723, 39.439711321]}, "type": "Feature", "properties": {"collection_times": [{"days": "Mon-Fri", "time": "1:30pm"}, {"days": "Sat", "time": "1:45pm"}, {"days": "Sun", "time": "Closed"}], "id": "0830200039", "name": "USPS COLLECTION BOX - BLUE BOX", "address": {"city": "BRIDGETON", "state": "NJ", "street": "1 RIDGE AVE", "postcode": "08302"}}},
{"geometry": {"type": "Point", "coordinates": [-75.2354065323, 39.427075978]}, "type": "Feature", "properties": {"collection_times": [{"days": "Mon-Fri", "time": "4:30pm"}, {"days": "Sat-Sun", "time": "Closed"}], "id": "0830200044", "name": "USPS COLLECTION BOX - BLUE BOX", "address": {"city": "BRIDGETON", "state": "NJ", "street": "40 E BROAD ST", "postcode": "08302"}}},
{"geometry": {"type": "Point", "coordinates": [-75.24044716, 39.4281753014]}, "type": "Feature", "properties": {"collection_times": [{"days": "Mon-Fri", "time": "5:15pm"}, {"days": "Sat", "time": "4:00pm"}, {"days": "Sun", "time": "Closed"}], "id": "0830200045", "name": "USPS COLLECTION BOX - BLUE BOX", "address": {"city": "BRIDGETON", "state": "NJ", "street": "102 W BROAD ST", "postcode": "08302"}}},
{"geometry": {"type": "Point", "coordinates": [-75.24044716, 39.4281753014]}, "type": "Feature", "properties": {"collection_times": [{"days": "Mon-Fri", "time": "5:15pm"}, {"days": "Sat", "time": "4:00pm"}, {"days": "Sun", "time": "Closed"}], "id": "0830200049", "name": "USPS COLLECTION BOX - PO LOBBY", "address": {"city": "BRIDGETON", "state": "NJ", "street": "102 W BROAD ST", "postcode": "08302"}}},
{"geometry": {"type": "Point", "coordinates": [-75.225219947, 39.4547412193]}, "type": "Feature", "properties": {"collection_times": [{"days": "Mon-Fri", "time": "2:00pm"}, {"days": "Sat", "time": "1:00pm"}, {"days": "Sun", "time": "Closed"}], "id": "0830200050", "name": "USPS COLLECTION BOX - BLUE BOX", "address": {"city": "BRIDGETON", "state": "NJ", "street": "225 LAUREL HEIGHTS DR", "postcode": "08302"}}},
{"geometry": {"type": "Point", "coordinates": [-74.9079447283, 39.5064622131]}, "type": "Feature", "properties": {"collection_times": [{"days": "Mon-Fri", "time": "4:45pm"}, {"days": "Sat", "time": "12:45pm"}, {"days": "Sun", "time": "Closed"}], "id": "0831000001", "name": "USPS COLLECTION BOX - BLUE BOX", "address": {"city": "BUENA", "state": "NJ", "street": "896 HARDING HWY", "postcode": "08310"}}},
{"geometry": {"type": "Point", "coordinates": [-74.9079447283, 39.5064622131]}, "type": "Feature", "properties": {"collection_times": [{"days": "Mon-Fri", "time": "4:45pm"}, {"days": "Sat", "time": "12:45pm"}, {"days": "Sun", "time": "Closed"}], "id": "0831000002", "name": "USPS COLLECTION BOX - PO LOBBY", "address": {"city": "BUENA", "state": "NJ", "street": "896 HARDING HWY", "postcode": "08310"}}},
{"geometry": {"type": "Point", "coordinates": [-75.2011153241, 39.332937576]}, "type": "Feature", "properties": {"collection_times": [{"days": "Mon-Fri", "time": "4:45pm"}, {"days": "Sat", "time": "11:15am"}, {"days": "Sun", "time": "Closed"}], "id": "0831100001", "name": "USPS COLLECTION BOX - BLUE BOX", "address": {"city": "CEDARVILLE", "state": "NJ", "street": "343 MAIN ST", "postcode": "08311"}}},
{"geometry": {"type": "Point", "coordinates": [-75.2011153241, 39.332937576]}, "type": "Feature", "properties": {"collection_times": [{"days": "Mon-Fri", "time": "5:00pm"}, {"days": "Sat", "time": "11:30am"}, {"days": "Sun", "time": "Closed"}], "id": "0831100002", "name": "USPS COLLECTION BOX - PO LOBBY", "address": {"city": "CEDARVILLE", "state": "NJ", "street": "343 MAIN ST", "postcode": "08311"}}},
{"geometry": {"type": "Point", "coordinates": [-75.0909960687, 39.655443042]}, "type": "Feature", "properties": {"collection_times": [{"days": "Mon-Sat", "time": "12:30pm"}, {"days": "Sun", "time": "Closed"}], "id": "0831200005", "name": "USPS COLLECTION BOX - BLUE BOX", "address": {"city": "CLAYTON", "state": "NJ", "street": "29 N DELSEA DR", "postcode": "08312"}}},
{"geometry": {"type": "Point", "coordinates": [-75.0936893961, 39.6652046596]}, "type": "Feature", "properties": {"collection_times": [{"days": "Mon-Fri", "time": "5:00pm"}, {"days": "Sat", "time": "12:00pm"}, {"days": "Sun", "time": "Closed"}], "id": "0831200007", "name": "USPS COLLECTION BOX - BLUE BOX", "address": {"city": "CLAYTON", "state": "NJ", "street": "732 N DELSEA DR", "postcode": "08312"}}},
{"geometry": {"type": "Point", "coordinates": [-75.0936893961, 39.6652046596]}, "type": "Feature", "properties": {"collection_times": [{"days": "Mon-Fri", "time": "5:00pm"}, {"days": "Sat", "time": "12:00pm"}, {"days": "Sun", "time": "Closed"}], "id": "0831200009", "name": "USPS COLLECTION BOX - PO LOBBY", "address": {"city": "CLAYTON", "state": "NJ", "street": "732 N DELSEA DR", "postcode": "08312"}}},
{"geometry": {"type": "Point", "coordinates": [-75.2358992966, 39.5235402245]}, "type": "Feature", "properties": {"collection_times": [{"days": "Mon-Fri", "time": "4:30pm"}, {"days": "Sat", "time": "11:45am"}, {"days": "Sun", "time": "Closed"}], "id": "0831300001", "name": "USPS COLLECTION BOX - BLUE BOX", "address": {"city": "DEERFIELD STREET", "state": "NJ", "street": "1542 ROUTE 77", "postcode": "08313"}}},
{"geometry": {"type": "Point", "coordinates": [-75.2358992966, 39.5235402245]}, "type": "Feature", "properties": {"collection_times": [{"days": "Mon-Fri", "time": "4:30pm"}, {"days": "Sat", "time": "11:45am"}, {"days": "Sun", "time": "Closed"}], "id": "0831300002", "name": "USPS COLLECTION BOX - PO LOBBY", "address": {"city": "DEERFIELD STREET", "state": "NJ", "street": "1542 ROUTE 77", "postcode": "08313"}}},
{"geometry": {"type": "Point", "coordinates": [-74.9510719717, 39.2140669728]}, "type": "Feature", "properties": {"collection_times": [{"days": "Mon-Fri", "time": "4:15pm"}, {"days": "Sat", "time": "11:15am"}, {"days": "Sun", "time": "Closed"}], "id": "0831400001", "name": "USPS COLLECTION BOX - BLUE BOX", "address": {"city": "DELMONT", "state": "NJ", "street": "4507 ROUTE 47", "postcode": "08314"}}},
{"geometry": {"type": "Point", "coordinates": [-74.9510719717, 39.2140669728]}, "type": "Feature", "properties": {"collection_times": [{"days": "Mon-Fri", "time": "4:15pm"}, {"days": "Sat", "time": "11:15am"}, {"days": "Sun", "time": "Closed"}], "id": "0831400002", "name": "USPS COLLECTION BOX - PO LOBBY", "address": {"city": "DELMONT", "state": "NJ", "street": "4507 ROUTE 47", "postcode": "08314"}}},
{"geometry": {"type": "Point", "coordinates": [-75.09672488, 39.2676085371]}, "type": "Feature", "properties": {"collection_times": [{"days": "Mon-Fri", "time": "4:30pm"}, {"days": "Sat", "time": "11:30am"}, {"days": "Sun", "time": "Closed"}], "id": "0831500002", "name": "USPS COLLECTION BOX - BLUE BOX", "address": {"city": "DIVIDING CREEK", "state": "NJ", "street": "918 UNION ST", "postcode": "08315"}}},
{"geometry": {"type": "Point", "coordinates": [-75.09672488, 39.2676085371]}, "type": "Feature", "properties": {"collection_times": [{"days": "Mon-Fri", "time": "4:30pm"}, {"days": "Sat", "time": "11:30am"}, {"days": "Sun", "time": "Closed"}], "id": "0831500003", "name": "USPS COLLECTION BOX - PO LOBBY", "address": {"city": "DIVIDING CREEK", "state": "NJ", "street": "918 UNION ST", "postcode": "08315"}}},
{"geometry": {"type": "Point", "coordinates": [-74.9767282194, 39.2727290463]}, "type": "Feature", "properties": {"collection_times": [{"days": "Mon-Fri", "time": "4:15pm"}, {"days": "Sat", "time": "11:45am"}, {"days": "Sun", "time": "Closed"}], "id": "0831600001", "name": "USPS COLLECTION BOX - BLUE BOX", "address": {"city": "DORCHESTER", "state": "NJ", "street": "239 CARLISLE PLACE RD", "postcode": "08316"}}},
{"geometry": {"type": "Point", "coordinates": [-74.9767282194, 39.2727290463]}, "type": "Feature", "properties": {"collection_times": [{"days": "Mon-Fri", "time": "4:15pm"}, {"days": "Sat", "time": "11:45am"}, {"days": "Sun", "time": "Closed"}], "id": "0831600002", "name": "USPS COLLECTION BOX - PO LOBBY", "address": {"city": "DORCHESTER", "state": "NJ", "street": "239 CARLISLE PLACE RD", "postcode": "08316"}}},
{"geometry": {"type": "Point", "coordinates": [-74.8298516922, 39.4075041468]}, "type": "Feature", "properties": {"collection_times": [{"days": "Mon-Fri", "time": "4:30pm"}, {"days": "Sat", "time": "12:00pm"}, {"days": "Sun", "time": "Closed"}], "id": "0831700001", "name": "USPS COLLECTION BOX - BLUE BOX", "address": {"city": "DOROTHY", "state": "NJ", "street": "42 TUCKAHOE RD", "postcode": "08317"}}},
{"geometry": {"type": "Point", "coordinates": [-74.8298516922, 39.4075041468]}, "type": "Feature", "properties": {"collection_times": [{"days": "Mon-Fri", "time": "4:30pm"}, {"days": "Sat", "time": "12:00pm"}, {"days": "Sun", "time": "Closed"}], "id": "0831700003", "name": "USPS COLLECTION BOX - PO LOBBY", "address": {"city": "DOROTHY", "state": "NJ", "street": "42 TUCKAHOE RD", "postcode": "08317"}}},
{"geometry": {"type": "Point", "coordinates": [-75.1758636406, 39.6002294555]}, "type": "Feature", "properties": {"collection_times": [{"days": "Mon-Fri", "time": "4:45pm"}, {"days": "Sat", "time": "2:30pm"}, {"days": "Sun", "time": "Closed"}], "id": "0831800001", "name": "USPS COLLECTION BOX - BLUE BOX", "address": {"city": "ELMER", "state": "NJ", "street": "625 N MAIN ST", "postcode": "08318"}}},
{"geometry": {"type": "Point", "coordinates": [-75.1758636406, 39.6002294555]}, "type": "Feature", "properties": {"collection_times": [{"days": "Mon-Fri", "time": "4:45pm"}, {"days": "Sat", "time": "2:30pm"}, {"days": "Sun", "time": "Closed"}], "id": "0831800005", "name": "USPS COLLECTION BOX - PO LOBBY", "address": {"city": "ELMER", "state": "NJ", "street": "625 N MAIN ST", "postcode": "08318"}}},
{"geometry": {"type": "Point", "coordinates": [-75.1758636406, 39.6002294555]}, "type": "Feature", "properties": {"collection_times": [{"days": "Mon-Fri", "time": "4:45pm"}, {"days": "Sat", "time": "2:30pm"}, {"days": "Sun", "time": "Closed"}], "id": "0831800006", "name": "USPS COLLECTION BOX - PO LOBBY", "address": {"city": "ELMER", "state": "NJ", "street": "625 N MAIN ST", "postcode": "08318"}}},
{"geometry": {"type": "Point", "coordinates": [-75.1758636406, 39.6002294555]}, "type": "Feature", "properties": {"collection_times": [{"days": "Mon-Fri", "time": "4:45pm"}, {"days": "Sat", "time": "2:30pm"}, {"days": "Sun", "time": "Closed"}], "id": "0831800007", "name": "USPS COLLECTION BOX - PO LOBBY", "address": {"city": "ELMER", "state": "NJ", "street": "625 N MAIN ST", "postcode": "08318"}}},
{"geometry": {"type": "Point", "coordinates": [-74.8060006372, 39.3792060522]}, "type": "Feature", "properties": {"collection_times": [{"days": "Mon-Fri", "time": "4:30pm"}, {"days": "Sat", "time": "11:45am"}, {"days": "Sun", "time": "Closed"}], "id": "0831900001", "name": "USPS COLLECTION BOX - BLUE BOX", "address": {"city": "ESTELL MANOR", "state": "NJ", "street": "156 TUCKAHOE RD", "postcode": "08319"}}},
{"geometry": {"type": "Point", "coordinates": [-74.8060006372, 39.3792060522]}, "type": "Feature", "properties": {"collection_times": [{"days": "Mon-Fri", "time": "4:30pm"}, {"days": "Sat", "time": "11:45am"}, {"days": "Sun", "time": "Closed"}], "id": "0831900002", "name": "USPS COLLECTION BOX - PO LOBBY", "address": {"city": "ESTELL MANOR", "state": "NJ", "street": "156 TUCKAHOE RD", "postcode": "08319"}}},
{"geometry": {"type": "Point", "coordinates": [-75.221914256, 39.3854283425]}, "type": "Feature", "properties": {"collection_times": [{"days": "Mon-Fri", "time": "4:30pm"}, {"days": "Sat", "time": "11:00am"}, {"days": "Sun", "time": "Closed"}], "id": "0832000001", "name": "USPS COLLECTION BOX - BLUE BOX", "address": {"city": "FAIRTON", "state": "NJ", "street": "56 BRIDGETON FAIRTON RD", "postcode": "08320"}}},
{"geometry": {"type": "Point", "coordinates": [-75.221914256, 39.3854283425]}, "type": "Feature", "properties": {"collection_times": [{"days": "Mon-Fri", "time": "4:30pm"}, {"days": "Sat", "time": "11:00am"}, {"days": "Sun", "time": "Closed"}], "id": "0832000003", "name": "USPS COLLECTION BOX - PO LOBBY", "address": {"city": "FAIRTON", "state": "NJ", "street": "56 BRIDGETON FAIRTON RD", "postcode": "08320"}}},
{"geometry": {"type": "Point", "coordinates": [-75.1689163872, 39.2409389816]}, "type": "Feature", "properties": {"collection_times": [{"days": "Mon-Fri", "time": "3:30pm"}, {"days": "Sat", "time": "10:30am"}, {"days": "Sun", "time": "Closed"}], "id": "0832100001", "name": "USPS COLLECTION BOX - BLUE BOX", "address": {"city": "FORTESCUE", "state": "NJ", "street": "880 DOWNE AVE", "postcode": "08321"}}},
{"geometry": {"type": "Point", "coordinates": [-75.0771492638, 39.615060212]}, "type": "Feature", "properties": {"collection_times": [{"days": "Mon-Fri", "time": "5:00pm"}, {"days": "Sat", "time": "12:00pm"}, {"days": "Sun", "time": "Closed"}], "id": "0832200003", "name": "USPS COLLECTION BOX - BLUE BOX", "address": {"city": "FRANKLINVILLE", "state": "NJ", "street": "2387 DELSEA DR", "postcode": "08322"}}},
{"geometry": {"type": "Point", "coordinates": [-75.0771492638, 39.615060212]}, "type": "Feature", "properties": {"collection_times": [{"days": "Mon-Fri", "time": "5:00pm"}, {"days": "Sat", "time": "12:00pm"}, {"days": "Sun", "time": "Closed"}], "id": "0832200004", "name": "USPS COLLECTION BOX - PO LOBBY", "address": {"city": "FRANKLINVILLE", "state": "NJ", "street": "2387 DELSEA DR", "postcode": "08322"}}},
{"geometry": {"type": "Point", "coordinates": [-75.3389225843, 39.3898009481]}, "type": "Feature", "properties": {"collection_times": [{"days": "Mon-Fri", "time": "4:45pm"}, {"days": "Sat", "time": "11:45am"}, {"days": "Sun", "time": "Closed"}], "id": "0832300001", "name": "USPS COLLECTION BOX - BLUE BOX", "address": {"city": "GREENWICH", "state": "NJ", "street": "1016 YE GREATE ST", "postcode": "08323"}}},
{"geometry": {"type": "Point", "coordinates": [-75.3389225843, 39.3898009481]}, "type": "Feature", "properties": {"collection_times": [{"days": "Mon-Fri", "time": "4:45pm"}, {"days": "Sat", "time": "11:45am"}, {"days": "Sun", "time": "Closed"}], "id": "0832300002", "name": "USPS COLLECTION BOX - PO LOBBY", "address": {"city": "GREENWICH", "state": "NJ", "street": "1016 YE GREATE ST", "postcode": "08323"}}},
{"geometry": {"type": "Point", "coordinates": [-75.3389225843, 39.3898009481]}, "type": "Feature", "properties": {"collection_times": [{"days": "Mon-Fri", "time": "4:45pm"}, {"days": "Sat", "time": "11:45am"}, {"days": "Sun", "time": "Closed"}], "id": "0832300003", "name": "USPS COLLECTION BOX - PO LOBBY", "address": {"city": "GREENWICH", "state": "NJ", "street": "1016 YE GREATE ST", "postcode": "08323"}}},
{"geometry": {"type": "Point", "coordinates": [-74.9907126855, 39.230601334]}, "type": "Feature", "properties": {"collection_times": [{"days": "Mon-Fri", "time": "4:45pm"}, {"days": "Sat", "time": "11:45am"}, {"days": "Sun", "time": "Closed"}], "id": "0832400001", "name": "USPS COLLECTION BOX - BLUE BOX", "address": {"city": "HEISLERVILLE", "state": "NJ", "street": "222 MAIN ST", "postcode": "08324"}}},
{"geometry": {"type": "Point", "coordinates": [-74.9907126855, 39.230601334]}, "type": "Feature", "properties": {"collection_times": [{"days": "Mon-Fri", "time": "4:45pm"}, {"days": "Sat", "time": "11:45am"}, {"days": "Sun", "time": "Closed"}], "id": "0832400002", "name": "USPS COLLECTION BOX - PO LOBBY", "address": {"city": "HEISLERVILLE", "state": "NJ", "street": "222 MAIN ST", "postcode": "08324"}}},
{"geometry": {"type": "Point", "coordinates": [-74.9380030421, 39.5248869762]}, "type": "Feature", "properties": {"collection_times": [{"days": "Mon-Fri", "time": "5:00pm"}, {"days": "Sat", "time": "12:00pm"}, {"days": "Sun", "time": "Closed"}], "id": "0832600001", "name": "USPS COLLECTION BOX - BLUE BOX", "address": {"city": "LANDISVILLE", "state": "NJ", "street": "101 S HARDING HWY", "postcode": "08326"}}},
{"geometry": {"type": "Point", "coordinates": [-74.9380030421, 39.5248869762]}, "type": "Feature", "properties": {"collection_times": [{"days": "Mon-Fri", "time": "5:00pm"}, {"days": "Sat", "time": "12:00pm"}, {"days": "Sun", "time": "Closed"}], "id": "0832600002", "name": "USPS COLLECTION BOX - PO LOBBY", "address": {"city": "LANDISVILLE", "state": "NJ", "street": "101 S HARDING HWY", "postcode": "08326"}}},
{"geometry": {"type": "Point", "coordinates": [-74.9884428189, 39.2574635875]}, "type": "Feature", "properties": {"collection_times": [{"days": "Mon-Fri", "time": "4:45pm"}, {"days": "Sat", "time": "12:00pm"}, {"days": "Sun", "time": "Closed"}], "id": "0832700001", "name": "USPS COLLECTION BOX - BLUE BOX", "address": {"city": "LEESBURG", "state": "NJ", "street": "174 HIGH ST", "postcode": "08327"}}},
{"geometry": {"type": "Point", "coordinates": [-74.9884428189, 39.2574635875]}, "type": "Feature", "properties": {"collection_times": [{"days": "Mon-Fri", "time": "4:45pm"}, {"days": "Sat", "time": "12:00pm"}, {"days": "Sun", "time": "Closed"}], "id": "0832700002", "name": "USPS COLLECTION BOX - PO LOBBY", "address": {"city": "LEESBURG", "state": "NJ", "street": "174 HIGH ST", "postcode": "08327"}}},
{"geometry": {"type": "Point", "coordinates": [-75.0487675984, 39.5738742368]}, "type": "Feature", "properties": {"collection_times": [{"days": "Mon-Fri", "time": "5:00pm"}, {"days": "Sat", "time": "12:00pm"}, {"days": "Sun", "time": "Closed"}], "id": "0832800001", "name": "USPS COLLECTION BOX - BLUE BOX", "address": {"city": "MALAGA", "state": "NJ", "street": "603 DELSEA DR", "postcode": "08328"}}},
{"geometry": {"type": "Point", "coordinates": [-75.0487675984, 39.5738742368]}, "type": "Feature", "properties": {"collection_times": [{"days": "Mon-Fri", "time": "5:00pm"}, {"days": "Sat", "time": "12:00pm"}, {"days": "Sun", "time": "Closed"}], "id": "0832800002", "name": "USPS COLLECTION BOX - PO LOBBY", "address": {"city": "MALAGA", "state": "NJ", "street": "603 DELSEA DR", "postcode": "08328"}}},
{"geometry": {"type": "Point", "coordinates": [-74.9933300922, 39.2859778665]}, "type": "Feature", "properties": {"collection_times": [{"days": "Mon-Fri", "time": "4:15pm"}, {"days": "Sat", "time": "12:30pm"}, {"days": "Sun", "time": "Closed"}], "id": "0832900001", "name": "USPS COLLECTION BOX - BLUE BOX", "address": {"city": "MAURICETOWN", "state": "NJ", "street": "9572 HIGHLAND ST", "postcode": "08329"}}},
{"geometry": {"type": "Point", "coordinates": [-74.9933300922, 39.2859778665]}, "type": "Feature", "properties": {"collection_times": [{"days": "Mon-Fri", "time": "4:15pm"}, {"days": "Sat", "time": "12:30pm"}, {"days": "Sun", "time": "Closed"}], "id": "0832900002", "name": "USPS COLLECTION BOX - PO LOBBY", "address": {"city": "MAURICETOWN", "state": "NJ", "street": "9572 HIGHLAND ST", "postcode": "08329"}}},
{"geometry": {"type": "Point", "coordinates": [-74.9933300922, 39.2859778665]}, "type": "Feature", "properties": {"collection_times": [{"days": "Mon-Fri", "time": "4:15pm"}, {"days": "Sat", "time": "12:30pm"}, {"days": "Sun", "time": "Closed"}], "id": "0832900003", "name": "USPS COLLECTION BOX - PO LOBBY", "address": {"city": "MAURICETOWN", "state": "NJ", "street": "9572 HIGHLAND ST", "postcode": "08329"}}},
{"geometry": {"type": "Point", "coordinates": [-74.74823, 39.45013]}, "type": "Feature", "properties": {"collection_times": [{"days": "Mon-Sat", "time": "9:30am"}, {"days": "Sun", "time": "Closed"}], "id": "0833000001", "name": "USPS COLLECTION BOX - BLUE BOX", "address": {"city": "MAYS LANDING", "state": "NJ", "street": "6260 OLD HARDING HWY STE 1", "postcode": "08330"}}},
{"geometry": {"type": "Point", "coordinates": [-74.7248558033, 39.4569932351]}, "type": "Feature", "properties": {"collection_times": [{"days": "Mon-Sat", "time": "1:00pm"}, {"days": "Sun", "time": "Closed"}], "id": "0833000004", "name": "USPS COLLECTION BOX - BLUE BOX", "address": {"city": "MAYS LANDING", "state": "NJ", "street": "565 ROUTE 50", "postcode": "08330"}}},
{"geometry": {"type": "Point", "coordinates": [-74.7437819919, 39.4734817062]}, "type": "Feature", "properties": {"collection_times": [{"days": "Mon-Sat", "time": "11:30am"}, {"days": "Sun", "time": "Closed"}], "id": "0833000005", "name": "USPS COLLECTION BOX - BLUE BOX", "address": {"city": "MAYS LANDING", "state": "NJ", "street": "4699 SUMMERSWEET DR", "postcode": "08330"}}},
{"geometry": {"type": "Point", "coordinates": [-74.7255145292, 39.4514455515]}, "type": "Feature", "properties": {"collection_times": [{"days": "Mon-Sat", "time": "10:30am"}, {"days": "Sun", "time": "Closed"}], "id": "0833000009", "name": "USPS COLLECTION BOX - BLUE BOX", "address": {"city": "MAYS LANDING", "state": "NJ", "street": "101 FARRAGUT AVE", "postcode": "08330"}}},
{"geometry": {"type": "Point", "coordinates": [-74.7270822932, 39.451926971]}, "type": "Feature", "properties": {"collection_times": [{"days": "Mon-Sat", "time": "11:30am"}, {"days": "Sun", "time": "Closed"}], "id": "0833000010", "name": "USPS COLLECTION BOX - BLUE BOX", "address": {"city": "MAYS LANDING", "state": "NJ", "street": "5914 MAIN ST", "postcode": "08330"}}},
{"geometry": {"type": "Point", "coordinates": [-74.6197578145, 39.4399885576]}, "type": "Feature", "properties": {"collection_times": [{"days": "Mon-Sat", "time": "11:30am"}, {"days": "Sun", "time": "Closed"}], "id": "0833000013", "name": "USPS COLLECTION BOX - BLUE BOX", "address": {"city": "MAYS LANDING", "state": "NJ", "street": "3922 BLACK HORSE PIKE", "postcode": "08330"}}},
{"geometry": {"type": "Point", "coordinates": [-74.7033034739, 39.4449566276]}, "type": "Feature", "properties": {"collection_times": [{"days": "Mon-Fri", "time": "5:00pm"}, {"days": "Sat", "time": "4:00pm"}, {"days": "Sun", "time": "Closed"}], "id": "0833000017", "name": "USPS COLLECTION BOX - BLUE BOX", "address": {"city": "MAYS LANDING", "state": "NJ", "street": "5306 ATLANTIC AVE", "postcode": "08330"}}},
{"geometry": {"type": "Point", "coordinates": [-74.7033034739, 39.4449566276]}, "type": "Feature", "properties": {"collection_times": [{"days": "Mon-Fri", "time": "5:00pm"}, {"days": "Sat", "time": "4:00pm"}, {"days": "Sun", "time": "Closed"}], "id": "0833000018", "name": "USPS COLLECTION BOX - BLUE BOX", "address": {"city": "MAYS LANDING", "state": "NJ", "street": "5306 ATLANTIC AVE", "postcode": "08330"}}},
{"geometry": {"type": "Point", "coordinates": [-74.7346637161, 39.4479660752]}, "type": "Feature", "properties": {"collection_times": [{"days": "Mon-Sat", "time": "12:00pm"}, {"days": "Sun", "time": "Closed"}], "id": "0833000019", "name": "USPS COLLECTION BOX - BLUE BOX", "address": {"city": "MAYS LANDING", "state": "NJ", "street": "6056 HARDING HWY", "postcode": "08330"}}},
{"geometry": {"type": "Point", "coordinates": [-74.6989679293, 39.4443568674]}, "type": "Feature", "properties": {"collection_times": [{"days": "Mon-Sat", "time": "9:00am"}, {"days": "Sun", "time": "Closed"}], "id": "0833000020", "name": "USPS COLLECTION BOX - BLUE BOX", "address": {"city": "MAYS LANDING", "state": "NJ", "street": "5218 ATLANTIC AVE", "postcode": "08330"}}},
{"geometry": {"type": "Point", "coordinates": [-74.7033034739, 39.4449566276]}, "type": "Feature", "properties": {"collection_times": [{"days": "Mon-Fri", "time": "5:00pm"}, {"days": "Sat", "time": "4:00pm"}, {"days": "Sun", "time": "Closed"}], "id": "0833000021", "name": "USPS COLLECTION BOX - PO LOBBY", "address": {"city": "MAYS LANDING", "state": "NJ", "street": "5306 ATLANTIC AVE", "postcode": "08330"}}},
{"geometry": {"type": "Point", "coordinates": [-74.647146046, 39.459762542]}, "type": "Feature", "properties": {"collection_times": [{"days": "Mon-Sat", "time": "11:00am"}, {"days": "Sun", "time": "Closed"}], "id": "0833000022", "name": "USPS COLLECTION BOX - BLUE BOX", "address": {"city": "MAYS LANDING", "state": "NJ", "street": "3100 JASMINE CT", "postcode": "08330"}}},
{"geometry": {"type": "Point", "coordinates": [-74.6321655953, 39.4533453189]}, "type": "Feature", "properties": {"collection_times": [{"days": "Mon-Sat", "time": "1:00pm"}, {"days": "Sun", "time": "Closed"}], "id": "0833000023", "name": "USPS COLLECTION BOX - BLUE BOX", "address": {"city": "MAYS LANDING", "state": "NJ", "street": "370 CONSUMER SQ", "postcode": "08330"}}},
{"geometry": {"type": "Point", "coordinates": [-75.0393968872, 39.4065295592]}, "type": "Feature", "properties": {"collection_times": [{"days": "Mon-Sat", "time": "11:45am"}, {"days": "Sun", "time": "Closed"}], "id": "0833200002", "name": "USPS COLLECTION BOX - BLUE BOX", "address": {"city": "MILLVILLE", "state": "NJ", "street": "1000 N HIGH ST", "postcode": "08332"}}},
{"geometry": {"type": "Point", "coordinates": [-75.0544873923, 39.3973684944]}, "type": "Feature", "properties": {"collection_times": [{"days": "Mon-Sat", "time": "1:45pm"}, {"days": "Sun", "time": "Closed"}], "id": "0833200007", "name": "USPS COLLECTION BOX - BLUE BOX", "address": {"city": "MILLVILLE", "state": "NJ", "street": "640 W MAIN ST", "postcode": "08332"}}},
{"geometry": {"type": "Point", "coordinates": [-75.0592890098, 39.3981045004]}, "type": "Feature", "properties": {"collection_times": [{"days": "Mon-Sat", "time": "2:30pm"}, {"days": "Sun", "time": "Closed"}], "id": "0833200010", "name": "USPS COLLECTION BOX - BLUE BOX", "address": {"city": "MILLVILLE", "state": "NJ", "street": "917 W MAIN ST", "postcode": "08332"}}},
{"geometry": {"type": "Point", "coordinates": [-75.0385723495, 39.3984645948]}, "type": "Feature", "properties": {"collection_times": [{"days": "Mon-Fri", "time": "5:00pm"}, {"days": "Sat", "time": "2:15pm"}, {"days": "Sun", "time": "Closed"}], "id": "0833200020", "name": "USPS COLLECTION BOX - BLUE BOX", "address": {"city": "MILLVILLE", "state": "NJ", "street": "302 N HIGH ST", "postcode": "08332"}}},
{"geometry": {"type": "Point", "coordinates": [-75.0023941271, 39.3902331723]}, "type": "Feature", "properties": {"collection_times": [{"days": "Mon-Sat", "time": "2:45pm"}, {"days": "Sun", "time": "Closed"}], "id": "0833200027", "name": "USPS COLLECTION BOX - BLUE BOX", "address": {"city": "MILLVILLE", "state": "NJ", "street": "2314 E MAIN ST", "postcode": "08332"}}},
{"geometry": {"type": "Point", "coordinates": [-75.0234149397, 39.3950699297]}, "type": "Feature", "properties": {"collection_times": [{"days": "Mon-Sat", "time": "10:15am"}, {"days": "Sun", "time": "Closed"}], "id": "0833200028", "name": "USPS COLLECTION BOX - BLUE BOX", "address": {"city": "MILLVILLE", "state": "NJ", "street": "1210 E MAIN ST", "postcode": "08332"}}},
{"geometry": {"type": "Point", "coordinates": [-75.0274064784, 39.4049232937]}, "type": "Feature", "properties": {"collection_times": [{"days": "Mon-Sat", "time": "2:15pm"}, {"days": "Sun", "time": "Closed"}], "id": "0833200038", "name": "USPS COLLECTION BOX - BLUE BOX", "address": {"city": "MILLVILLE", "state": "NJ", "street": "806 N 9TH ST", "postcode": "08332"}}},
{"geometry": {"type": "Point", "coordinates": [-75.0320951811, 39.4179494633]}, "type": "Feature", "properties": {"collection_times": [{"days": "Mon-Sat", "time": "3:30pm"}, {"days": "Sun", "time": "Closed"}], "id": "0833200039", "name": "USPS COLLECTION BOX - BLUE BOX", "address": {"city": "MILLVILLE", "state": "NJ", "street": "25 S LADOW AVE", "postcode": "08332"}}},
{"geometry": {"type": "Point", "coordinates": [-75.0367233934, 39.3941057847]}, "type": "Feature", "properties": {"collection_times": [{"days": "Mon-Sat", "time": "10:15am"}, {"days": "Sun", "time": "Closed"}], "id": "0833200041", "name": "USPS COLLECTION BOX - BLUE BOX", "address": {"city": "MILLVILLE", "state": "NJ", "street": "130 S 2ND ST", "postcode": "08332"}}},
{"geometry": {"type": "Point", "coordinates": [-75.0744015447, 39.3784302504]}, "type": "Feature", "properties": {"collection_times": [{"days": "Mon-Sat", "time": "10:30am"}, {"days": "Sun", "time": "Closed"}], "id": "0833200042", "name": "USPS COLLECTION BOX - BLUE BOX", "address": {"city": "MILLVILLE", "state": "NJ", "street": "30 BOGDEN BLVD", "postcode": "08332"}}},
{"geometry": {"type": "Point", "coordinates": [-75.0385306113, 39.3952353043]}, "type": "Feature", "properties": {"collection_times": [{"days": "Mon-Sat", "time": "1:30pm"}, {"days": "Sun", "time": "Closed"}], "id": "0833200044", "name": "USPS COLLECTION BOX - BLUE BOX", "address": {"city": "MILLVILLE", "state": "NJ", "street": "18 S HIGH ST", "postcode": "08332"}}},
{"geometry": {"type": "Point", "coordinates": [-75.0757631077, 39.4010691987]}, "type": "Feature", "properties": {"collection_times": [{"days": "Mon-Sat", "time": "2:00pm"}, {"days": "Sun", "time": "Closed"}], "id": "0833200045", "name": "USPS COLLECTION BOX - BLUE BOX", "address": {"city": "MILLVILLE", "state": "NJ", "street": "1609 W MAIN ST", "postcode": "08332"}}},
{"geometry": {"type": "Point", "coordinates": [-75.0385723495, 39.3984645948]}, "type": "Feature", "properties": {"collection_times": [{"days": "Mon-Fri", "time": "5:00pm"}, {"days": "Sat", "time": "2:15pm"}, {"days": "Sun", "time": "Closed"}], "id": "0833200051", "name": "USPS COLLECTION BOX - BLUE BOX", "address": {"city": "MILLVILLE", "state": "NJ", "street": "302 N HIGH ST", "postcode": "08332"}}},
{"geometry": {"type": "Point", "coordinates": [-75.0385723495, 39.3984645948]}, "type": "Feature", "properties": {"collection_times": [{"days": "Mon-Fri", "time": "5:00pm"}, {"days": "Sat", "time": "2:15pm"}, {"days": "Sun", "time": "Closed"}], "id": "0833200052", "name": "USPS COLLECTION BOX - PO LOBBY", "address": {"city": "MILLVILLE", "state": "NJ", "street": "302 N HIGH ST", "postcode": "08332"}}},
{"geometry": {"type": "Point", "coordinates": [-75.03854, 39.399002]}, "type": "Feature", "properties": {"collection_times": [{"days": "Mon-Fri", "time": "5:00pm"}, {"days": "Sat", "time": "2:15pm"}, {"days": "Sun", "time": "Closed"}], "id": "0833200065", "name": "USPS COLLECTION BOX - BLUE BOX", "address": {"city": "MILLVILLE", "state": "NJ", "street": "302 N HIGH ST", "postcode": "08332"}}},
{"geometry": {"type": "Point", "coordinates": [-74.858053991, 39.438675575]}, "type": "Feature", "properties": {"collection_times": [{"days": "Mon-Fri", "time": "4:30pm"}, {"days": "Sat", "time": "11:30am"}, {"days": "Sun", "time": "Closed"}], "id": "0834000001", "name": "USPS COLLECTION BOX - BLUE BOX", "address": {"city": "MILMAY", "state": "NJ", "street": "225 BROAD ST", "postcode": "08340"}}},
{"geometry": {"type": "Point", "coordinates": [-74.9483676191, 39.5192665609]}, "type": "Feature", "properties": {"collection_times": [{"days": "Mon-Fri", "time": "5:00pm"}, {"days": "Sat", "time": "11:30am"}, {"days": "Sun", "time": "Closed"}], "id": "0834100001", "name": "USPS COLLECTION BOX - BLUE BOX", "address": {"city": "MINOTOLA", "state": "NJ", "street": "807 CENTRAL AVE", "postcode": "08341"}}},
{"geometry": {"type": "Point", "coordinates": [-74.9483676191, 39.5192665609]}, "type": "Feature", "properties": {"collection_times": [{"days": "Mon-Fri", "time": "5:00pm"}, {"days": "Sat", "time": "11:30am"}, {"days": "Sun", "time": "Closed"}], "id": "0834100002", "name": "USPS COLLECTION BOX - PO LOBBY", "address": {"city": "MINOTOLA", "state": "NJ", "street": "807 CENTRAL AVE", "postcode": "08341"}}},
{"geometry": {"type": "Point", "coordinates": [-74.8378180687, 39.4816355914]}, "type": "Feature", "properties": {"collection_times": [{"days": "Mon-Fri", "time": "4:15pm"}, {"days": "Sat", "time": "12:00pm"}, {"days": "Sun", "time": "Closed"}], "id": "0834200000", "name": "USPS COLLECTION BOX - BLUE BOX", "address": {"city": "MIZPAH", "state": "NJ", "street": "6442 DEHIRSCH AVE", "postcode": "08342"}}},
{"geometry": {"type": "Point", "coordinates": [-74.8378180687, 39.4816355914]}, "type": "Feature", "properties": {"collection_times": [{"days": "Mon-Fri", "time": "4:15pm"}, {"days": "Sat", "time": "12:00pm"}, {"days": "Sun", "time": "Closed"}], "id": "0834200001", "name": "USPS COLLECTION BOX - PO LOBBY", "address": {"city": "MIZPAH", "state": "NJ", "street": "6442 DEHIRSCH AVE", "postcode": "08342"}}},
{"geometry": {"type": "Point", "coordinates": [-74.8378180687, 39.4816355914]}, "type": "Feature", "properties": {"collection_times": [{"days": "Mon-Fri", "time": "4:15pm"}, {"days": "Sat", "time": "12:00pm"}, {"days": "Sun", "time": "Closed"}], "id": "0834200002", "name": "USPS COLLECTION BOX - PO LOBBY", "address": {"city": "MIZPAH", "state": "NJ", "street": "6442 DEHIRSCH AVE", "postcode": "08342"}}},
{"geometry": {"type": "Point", "coordinates": [-75.1596424576, 39.6290439382]}, "type": "Feature", "properties": {"collection_times": [{"days": "Mon-Fri", "time": "4:30pm"}, {"days": "Sat", "time": "12:30pm"}, {"days": "Sun", "time": "Closed"}], "id": "0834300001", "name": "USPS COLLECTION BOX - BLUE BOX", "address": {"city": "MONROEVILLE", "state": "NJ", "street": "403 MONROEVILLE RD", "postcode": "08343"}}},
{"geometry": {"type": "Point", "coordinates": [-75.1596424576, 39.6290439382]}, "type": "Feature", "properties": {"collection_times": [{"days": "Mon-Fri", "time": "4:30pm"}, {"days": "Sat", "time": "12:30pm"}, {"days": "Sun", "time": "Closed"}], "id": "0834300002", "name": "USPS COLLECTION BOX - PO LOBBY", "address": {"city": "MONROEVILLE", "state": "NJ", "street": "403 MONROEVILLE RD", "postcode": "08343"}}},
{"geometry": {"type": "Point", "coordinates": [-75.0247110588, 39.5458216238]}, "type": "Feature", "properties": {"collection_times": [{"days": "Mon-Fri", "time": "5:00pm"}, {"days": "Sat", "time": "12:30pm"}, {"days": "Sun", "time": "Closed"}], "id": "0834400001", "name": "USPS COLLECTION BOX - BLUE BOX", "address": {"city": "NEWFIELD", "state": "NJ", "street": "10 N WEST BLVD", "postcode": "08344"}}},
{"geometry": {"type": "Point", "coordinates": [-75.0509516997, 39.551309645]}, "type": "Feature", "properties": {"collection_times": [{"days": "Mon-Sat", "time": "10:30am"}, {"days": "Sun", "time": "Closed"}], "id": "0834400005", "name": "USPS COLLECTION BOX - BLUE BOX", "address": {"city": "NEWFIELD", "state": "NJ", "street": "4448 ARBUTUS AVE", "postcode": "08344"}}},
{"geometry": {"type": "Point", "coordinates": [-75.0247110588, 39.5458216238]}, "type": "Feature", "properties": {"collection_times": [{"days": "Mon-Fri", "time": "5:00pm"}, {"days": "Sat", "time": "12:30pm"}, {"days": "Sun", "time": "Closed"}], "id": "0834400007", "name": "USPS COLLECTION BOX - PO LOBBY", "address": {"city": "NEWFIELD", "state": "NJ", "street": "10 N WEST BLVD", "postcode": "08344"}}},
{"geometry": {"type": "Point", "coordinates": [-75.1628583527, 39.3039680207]}, "type": "Feature", "properties": {"collection_times": [{"days": "Mon-Fri", "time": "4:30pm"}, {"days": "Sat", "time": "12:00pm"}, {"days": "Sun", "time": "Closed"}], "id": "0834500001", "name": "USPS COLLECTION BOX - BLUE BOX", "address": {"city": "NEWPORT", "state": "NJ", "street": "304 BAPTIST RD", "postcode": "08345"}}},
{"geometry": {"type": "Point", "coordinates": [-75.1628583527, 39.3039680207]}, "type": "Feature", "properties": {"collection_times": [{"days": "Mon-Fri", "time": "4:45pm"}, {"days": "Sat", "time": "12:00pm"}, {"days": "Sun", "time": "Closed"}], "id": "0834500002", "name": "USPS COLLECTION BOX - PO LOBBY", "address": {"city": "NEWPORT", "state": "NJ", "street": "304 BAPTIST RD", "postcode": "08345"}}},
{"geometry": {"type": "Point", "coordinates": [-74.8650515674, 39.5587377113]}, "type": "Feature", "properties": {"collection_times": [{"days": "Mon-Fri", "time": "4:45pm"}, {"days": "Sat", "time": "11:45am"}, {"days": "Sun", "time": "Closed"}], "id": "0834600001", "name": "USPS COLLECTION BOX - BLUE BOX", "address": {"city": "NEWTONVILLE", "state": "NJ", "street": "711 JACKSON RD", "postcode": "08346"}}},
{"geometry": {"type": "Point", "coordinates": [-74.8650515674, 39.5587377113]}, "type": "Feature", "properties": {"collection_times": [{"days": "Mon-Fri", "time": "5:00pm"}, {"days": "Sat", "time": "12:00pm"}, {"days": "Sun", "time": "Closed"}], "id": "0834600002", "name": "USPS COLLECTION BOX - PO LOBBY", "address": {"city": "NEWTONVILLE", "state": "NJ", "street": "711 JACKSON RD", "postcode": "08346"}}},
{"geometry": {"type": "Point", "coordinates": [-75.0879273792, 39.4961020244]}, "type": "Feature", "properties": {"collection_times": [{"days": "Mon-Fri", "time": "4:45pm"}, {"days": "Sat", "time": "11:45am"}, {"days": "Sun", "time": "Closed"}], "id": "0834700001", "name": "USPS COLLECTION BOX - BLUE BOX", "address": {"city": "NORMA", "state": "NJ", "street": "809 GERSHAL AVE", "postcode": "08347"}}},
{"geometry": {"type": "Point", "coordinates": [-75.0879273792, 39.4961020244]}, "type": "Feature", "properties": {"collection_times": [{"days": "Mon-Fri", "time": "5:00pm"}, {"days": "Sat", "time": "12:00pm"}, {"days": "Sun", "time": "Closed"}], "id": "0834700002", "name": "USPS COLLECTION BOX - PO LOBBY", "address": {"city": "NORMA", "state": "NJ", "street": "809 GERSHAL AVE", "postcode": "08347"}}},
{"geometry": {"type": "Point", "coordinates": [-74.9810175693, 39.3130651328]}, "type": "Feature", "properties": {"collection_times": [{"days": "Mon-Fri", "time": "4:30pm"}, {"days": "Sat", "time": "10:30am"}, {"days": "Sun", "time": "Closed"}], "id": "0834800001", "name": "USPS COLLECTION BOX - BLUE BOX", "address": {"city": "PORT ELIZABETH", "state": "NJ", "street": "3575 ROUTE 47", "postcode": "08348"}}},
{"geometry": {"type": "Point", "coordinates": [-74.9810175693, 39.3130651328]}, "type": "Feature", "properties": {"collection_times": [{"days": "Mon-Fri", "time": "4:30pm"}, {"days": "Sat", "time": "10:30am"}, {"days": "Sun", "time": "Closed"}], "id": "0834800002", "name": "USPS COLLECTION BOX - PO LOBBY", "address": {"city": "PORT ELIZABETH", "state": "NJ", "street": "3575 ROUTE 47", "postcode": "08348"}}},
{"geometry": {"type": "Point", "coordinates": [-74.9810175693, 39.3130651328]}, "type": "Feature", "properties": {"collection_times": [{"days": "Mon-Fri", "time": "4:30pm"}, {"days": "Sat", "time": "10:30am"}, {"days": "Sun", "time": "Closed"}], "id": "0834800003", "name": "USPS COLLECTION BOX - PO LOBBY", "address": {"city": "PORT ELIZABETH", "state": "NJ", "street": "3575 ROUTE 47", "postcode": "08348"}}},
{"geometry": {"type": "Point", "coordinates": [-75.0684529805, 39.253721784]}, "type": "Feature", "properties": {"collection_times": [{"days": "Mon-Fri", "time": "4:30pm"}, {"days": "Sat", "time": "11:30am"}, {"days": "Sun", "time": "Closed"}], "id": "0834900001", "name": "USPS COLLECTION BOX - BLUE BOX", "address": {"city": "PORT NORRIS", "state": "NJ", "street": "1770 MAIN ST", "postcode": "08349"}}},
{"geometry": {"type": "Point", "coordinates": [-75.0684529805, 39.253721784]}, "type": "Feature", "properties": {"collection_times": [{"days": "Mon-Fri", "time": "4:30pm"}, {"days": "Sat", "time": "11:30am"}, {"days": "Sun", "time": "Closed"}], "id": "0834900002", "name": "USPS COLLECTION BOX - PO LOBBY", "address": {"city": "PORT NORRIS", "state": "NJ", "street": "1770 MAIN ST", "postcode": "08349"}}},
{"geometry": {"type": "Point", "coordinates": [-74.8716862439, 39.4922444548]}, "type": "Feature", "properties": {"collection_times": [{"days": "Mon-Fri", "time": "4:15pm"}, {"days": "Sat", "time": "11:45am"}, {"days": "Sun", "time": "Closed"}], "id": "0835000001", "name": "USPS COLLECTION BOX - BLUE BOX", "address": {"city": "RICHLAND", "state": "NJ", "street": "1276 HARDING HWY", "postcode": "08350"}}},
{"geometry": {"type": "Point", "coordinates": [-74.8716862439, 39.4922444548]}, "type": "Feature", "properties": {"collection_times": [{"days": "Mon-Fri", "time": "4:30pm"}, {"days": "Sat", "time": "12:00pm"}, {"days": "Sun", "time": "Closed"}], "id": "0835000002", "name": "USPS COLLECTION BOX - PO LOBBY", "address": {"city": "RICHLAND", "state": "NJ", "street": "1276 HARDING HWY", "postcode": "08350"}}},
{"geometry": {"type": "Point", "coordinates": [-75.1279191929, 39.470207449]}, "type": "Feature", "properties": {"collection_times": [{"days": "Mon-Fri", "time": "4:30pm"}, {"days": "Sat", "time": "12:00pm"}, {"days": "Sun", "time": "Closed"}], "id": "0835200001", "name": "USPS COLLECTION BOX - BLUE BOX", "address": {"city": "ROSENHAYN", "state": "NJ", "street": "522 MORTON AVE", "postcode": "08352"}}},
{"geometry": {"type": "Point", "coordinates": [-75.1279191929, 39.470207449]}, "type": "Feature", "properties": {"collection_times": [{"days": "Mon-Fri", "time": "4:45pm"}, {"days": "Sat", "time": "12:00pm"}, {"days": "Sun", "time": "Closed"}], "id": "0835200002", "name": "USPS COLLECTION BOX - PO LOBBY", "address": {"city": "ROSENHAYN", "state": "NJ", "street": "522 MORTON AVE", "postcode": "08352"}}},
{"geometry": {"type": "Point", "coordinates": [-75.2999666845, 39.460317841]}, "type": "Feature", "properties": {"collection_times": [{"days": "Mon-Fri", "time": "4:30pm"}, {"days": "Sat", "time": "11:45am"}, {"days": "Sun", "time": "Closed"}], "id": "0835300001", "name": "USPS COLLECTION BOX - BLUE BOX", "address": {"city": "SHILOH", "state": "NJ", "street": "966 MAIN ST", "postcode": "08353"}}},
{"geometry": {"type": "Point", "coordinates": [-75.2999666845, 39.460317841]}, "type": "Feature", "properties": {"collection_times": [{"days": "Mon-Fri", "time": "4:30pm"}, {"days": "Sat", "time": "11:45am"}, {"days": "Sun", "time": "Closed"}], "id": "0835300003", "name": "USPS COLLECTION BOX - PO LOBBY", "address": {"city": "SHILOH", "state": "NJ", "street": "966 MAIN ST", "postcode": "08353"}}},
{"geometry": {"type": "Point", "coordinates": [-75.02452665, 39.4861749116]}, "type": "Feature", "properties": {"collection_times": [{"days": "Mon-Fri", "time": "1:45pm"}, {"days": "Sat", "time": "11:45am"}, {"days": "Sun", "time": "Closed"}], "id": "0836000008", "name": "USPS COLLECTION BOX - BLUE BOX", "address": {"city": "VINELAND", "state": "NJ", "street": "552 E LANDIS AVE", "postcode": "08360"}}},
{"geometry": {"type": "Point", "coordinates": [-75.0366044263, 39.4867432846]}, "type": "Feature", "properties": {"collection_times": [{"days": "Mon-Fri", "time": "1:45pm"}, {"days": "Sat", "time": "12:00pm"}, {"days": "Sun", "time": "Closed"}], "id": "0836000011", "name": "USPS COLLECTION BOX - BLUE BOX", "address": {"city": "VINELAND", "state": "NJ", "street": "84 W LANDIS AVE", "postcode": "08360"}}},
{"geometry": {"type": "Point", "coordinates": [-75.0408797076, 39.4869423048]}, "type": "Feature", "properties": {"collection_times": [{"days": "Mon-Fri", "time": "2:00pm"}, {"days": "Sat", "time": "12:00pm"}, {"days": "Sun", "time": "Closed"}], "id": "0836000013", "name": "USPS COLLECTION BOX - BLUE BOX", "address": {"city": "VINELAND", "state": "NJ", "street": "26 W LANDIS AVE", "postcode": "08360"}}},
{"geometry": {"type": "Point", "coordinates": [-75.0158886119, 39.4604006885]}, "type": "Feature", "properties": {"collection_times": [{"days": "Mon-Fri", "time": "4:30pm"}, {"days": "Sat", "time": "11:45am"}, {"days": "Sun", "time": "Closed"}], "id": "0836000015", "name": "USPS COLLECTION BOX - BLUE BOX", "address": {"city": "VINELAND", "state": "NJ", "street": "632 E ELMER RD", "postcode": "08360"}}},
{"geometry": {"type": "Point", "coordinates": [-75.0285340011, 39.4863709892]}, "type": "Feature", "properties": {"collection_times": [{"days": "Mon-Fri", "time": "1:45pm"}, {"days": "Sat", "time": "11:45am"}, {"days": "Sun", "time": "Closed"}], "id": "0836000017", "name": "USPS COLLECTION BOX - BLUE BOX", "address": {"city": "VINELAND", "state": "NJ", "street": "400 W LANDIS AVE", "postcode": "08360"}}},
{"geometry": {"type": "Point", "coordinates": [-75.0079037692, 39.4852808667]}, "type": "Feature", "properties": {"collection_times": [{"days": "Mon-Fri", "time": "1:30pm"}, {"days": "Sat", "time": "12:15pm"}, {"days": "Sun", "time": "Closed"}], "id": "0836000024", "name": "USPS COLLECTION BOX - BLUE BOX", "address": {"city": "VINELAND", "state": "NJ", "street": "1083 E LANDIS AVE", "postcode": "08360"}}},
{"geometry": {"type": "Point", "coordinates": [-75.0417090174, 39.4924937956]}, "type": "Feature", "properties": {"collection_times": [{"days": "Mon-Fri", "time": "1:30pm"}, {"days": "Sat", "time": "12:00pm"}, {"days": "Sun", "time": "Closed"}], "id": "0836000031", "name": "USPS COLLECTION BOX - BLUE BOX", "address": {"city": "VINELAND", "state": "NJ", "street": "14 W PARK AVE", "postcode": "08360"}}},
{"geometry": {"type": "Point", "coordinates": [-75.059202468, 39.4474789875]}, "type": "Feature", "properties": {"collection_times": [{"days": "Mon-Fri", "time": "4:45pm"}, {"days": "Sat", "time": "1:00pm"}, {"days": "Sun", "time": "Closed"}], "id": "0836000032", "name": "USPS COLLECTION BOX - BLUE BOX", "address": {"city": "VINELAND", "state": "NJ", "street": "1505 W SHERMAN AVE", "postcode": "08360"}}},
{"geometry": {"type": "Point", "coordinates": [-75.0112836816, 39.4817046774]}, "type": "Feature", "properties": {"collection_times": [{"days": "Mon-Fri", "time": "1:45pm"}, {"days": "Sat", "time": "11:30am"}, {"days": "Sun", "time": "Closed"}], "id": "0836000033", "name": "USPS COLLECTION BOX - BLUE BOX", "address": {"city": "VINELAND", "state": "NJ", "street": "47 HOWARD ST", "postcode": "08360"}}},
{"geometry": {"type": "Point", "coordinates": [-75.0247424267, 39.4987490463]}, "type": "Feature", "properties": {"collection_times": [{"days": "Mon-Fri", "time": "1:30pm"}, {"days": "Sat", "time": "11:30am"}, {"days": "Sun", "time": "Closed"}], "id": "0836000034", "name": "USPS COLLECTION BOX - BLUE BOX", "address": {"city": "VINELAND", "state": "NJ", "street": "561 N EAST BLVD", "postcode": "08360"}}},
{"geometry": {"type": "Point", "coordinates": [-74.9993502782, 39.4858491105]}, "type": "Feature", "properties": {"collection_times": [{"days": "Mon-Fri", "time": "4:00pm"}, {"days": "Sat", "time": "12:15pm"}, {"days": "Sun", "time": "Closed"}], "id": "0836000038", "name": "USPS COLLECTION BOX - BLUE BOX", "address": {"city": "VINELAND", "state": "NJ", "street": "1181 KARIN ST", "postcode": "08360"}}},
{"geometry": {"type": "Point", "coordinates": [-75.0403095557, 39.431052128]}, "type": "Feature", "properties": {"collection_times": [{"days": "Mon-Fri", "time": "2:30pm"}, {"days": "Sat", "time": "1:00pm"}, {"days": "Sun", "time": "Closed"}], "id": "0836000041", "name": "USPS COLLECTION BOX - BLUE BOX", "address": {"city": "VINELAND", "state": "NJ", "street": "3849 S DELSEA DR", "postcode": "08360"}}},
{"geometry": {"type": "Point", "coordinates": [-75.0598124522, 39.5362197073]}, "type": "Feature", "properties": {"collection_times": [{"days": "Mon-Fri", "time": "3:30pm"}, {"days": "Sat", "time": "11:00am"}, {"days": "Sun", "time": "Closed"}], "id": "0836000042", "name": "USPS COLLECTION BOX - BLUE BOX", "address": {"city": "VINELAND", "state": "NJ", "street": "3329 N MILL RD", "postcode": "08360"}}},
{"geometry": {"type": "Point", "coordinates": [-75.0046930871, 39.4780425687]}, "type": "Feature", "properties": {"collection_times": [{"days": "Mon-Fri", "time": "4:30pm"}, {"days": "Sat", "time": "11:15am"}, {"days": "Sun", "time": "Closed"}], "id": "0836000045", "name": "USPS COLLECTION BOX - BLUE BOX", "address": {"city": "VINELAND", "state": "NJ", "street": "1138 E CHESTNUT AVE", "postcode": "08360"}}},
{"geometry": {"type": "Point", "coordinates": [-74.9960527151, 39.4960960471]}, "type": "Feature", "properties": {"collection_times": [{"days": "Mon-Fri", "time": "3:45pm"}, {"days": "Sat", "time": "11:15am"}, {"days": "Sun", "time": "Closed"}], "id": "0836000048", "name": "USPS COLLECTION BOX - BLUE BOX", "address": {"city": "VINELAND", "state": "NJ", "street": "774 N MAIN RD", "postcode": "08360"}}},
{"geometry": {"type": "Point", "coordinates": [-75.0204943355, 39.4859897711]}, "type": "Feature", "properties": {"collection_times": [{"days": "Mon-Fri", "time": "5:30pm"}, {"days": "Sat", "time": "2:00pm"}, {"days": "Sun", "time": "Closed"}], "id": "0836000053", "name": "USPS COLLECTION BOX - PO LOBBY", "address": {"city": "VINELAND", "state": "NJ", "street": "722 E LANDIS AVE", "postcode": "08360"}}},
{"geometry": {"type": "Point", "coordinates": [-75.0204943355, 39.4859897711]}, "type": "Feature", "properties": {"collection_times": [{"days": "Mon-Fri", "time": "5:30pm"}, {"days": "Sat", "time": "2:00pm"}, {"days": "Sun", "time": "Closed"}], "id": "0836000056", "name": "USPS COLLECTION BOX - BLUE BOX", "address": {"city": "VINELAND", "state": "NJ", "street": "722 E LANDIS AVE", "postcode": "08360"}}},
{"geometry": {"type": "Point", "coordinates": [-75.0204943355, 39.4859897711]}, "type": "Feature", "properties": {"collection_times": [{"days": "Mon-Fri", "time": "5:30pm"}, {"days": "Sat", "time": "2:00pm"}, {"days": "Sun", "time": "Closed"}], "id": "0836000057", "name": "USPS COLLECTION BOX - BLUE BOX", "address": {"city": "VINELAND", "state": "NJ", "street": "722 E LANDIS AVE", "postcode": "08360"}}},
{"geometry": {"type": "Point", "coordinates": [-75.0256956066, 39.4938265569]}, "type": "Feature", "properties": {"collection_times": [{"days": "Mon-Fri", "time": "1:30pm"}, {"days": "Sat", "time": "11:30am"}, {"days": "Sun", "time": "Closed"}], "id": "0836000060", "name": "USPS COLLECTION BOX - BLUE BOX", "address": {"city": "VINELAND", "state": "NJ", "street": "524 N WEST BLVD", "postcode": "08360"}}},
{"geometry": {"type": "Point", "coordinates": [-75.0420006146, 39.4457786071]}, "type": "Feature", "properties": {"collection_times": [{"days": "Mon-Fri", "time": "2:30pm"}, {"days": "Sat", "time": "12:45pm"}, {"days": "Sun", "time": "Closed"}], "id": "0836000061", "name": "USPS COLLECTION BOX - BLUE BOX", "address": {"city": "VINELAND", "state": "NJ", "street": "2848 S DELSEA DR", "postcode": "08360"}}},
{"geometry": {"type": "Point", "coordinates": [-75.005817585, 39.4661957837]}, "type": "Feature", "properties": {"collection_times": [{"days": "Mon-Fri", "time": "4:15pm"}, {"days": "Sat", "time": "12:45pm"}, {"days": "Sun", "time": "Closed"}], "id": "0836000070", "name": "USPS COLLECTION BOX - BLUE BOX", "address": {"city": "VINELAND", "state": "NJ", "street": "1317 S MAIN RD", "postcode": "08360"}}},
{"geometry": {"type": "Point", "coordinates": [-74.9955391774, 39.4978280118]}, "type": "Feature", "properties": {"collection_times": [{"days": "Mon-Fri", "time": "3:45pm"}, {"days": "Sat", "time": "11:15am"}, {"days": "Sun", "time": "Closed"}], "id": "0836000072", "name": "USPS COLLECTION BOX - BLUE BOX", "address": {"city": "VINELAND", "state": "NJ", "street": "868 N MAIN RD", "postcode": "08360"}}},
{"geometry": {"type": "Point", "coordinates": [-75.0219263516, 39.4900206655]}, "type": "Feature", "properties": {"collection_times": [{"days": "Mon-Fri", "time": "3:30pm"}, {"days": "Sat", "time": "11:00am"}, {"days": "Sun", "time": "Closed"}], "id": "0836000075", "name": "USPS COLLECTION BOX - EXPRESS", "address": {"city": "VINELAND", "state": "NJ", "street": "3329 N MILL RD", "postcode": "08360"}}},
{"geometry": {"type": "Point", "coordinates": [-75.0290850375, 39.4456619971]}, "type": "Feature", "properties": {"collection_times": [{"days": "Mon-Fri", "time": "5:30pm"}, {"days": "Sat", "time": "1:15pm"}, {"days": "Sun", "time": "Closed"}], "id": "0836000085", "name": "USPS COLLECTION BOX - PO LOBBY", "address": {"city": "VINELAND", "state": "NJ", "street": "2809 S EAST BLVD", "postcode": "08360"}}},
{"geometry": {"type": "Point", "coordinates": [-75.0060532461, 39.4660085092]}, "type": "Feature", "properties": {"collection_times": [{"days": "Mon-Fri", "time": "4:15pm"}, {"days": "Sat", "time": "12:45pm"}, {"days": "Sun", "time": "Closed"}], "id": "0836000088", "name": "USPS COLLECTION BOX - BLUE BOX", "address": {"city": "VINELAND", "state": "NJ", "street": "1318 S MAIN RD", "postcode": "08360"}}},
{"geometry": {"type": "Point", "coordinates": [-75.0004895924, 39.4805356253]}, "type": "Feature", "properties": {"collection_times": [{"days": "Mon-Fri", "time": "4:30pm"}, {"days": "Sat", "time": "11:15am"}, {"days": "Sun", "time": "Closed"}], "id": "0836000089", "name": "USPS COLLECTION BOX - BLUE BOX", "address": {"city": "VINELAND", "state": "NJ", "street": "301 S MAIN RD", "postcode": "08360"}}},
{"geometry": {"type": "Point", "coordinates": [-75.0204943355, 39.4859897711]}, "type": "Feature", "properties": {"collection_times": [{"days": "Mon-Fri", "time": "5:30pm"}, {"days": "Sat", "time": "2:00pm"}, {"days": "Sun", "time": "Closed"}], "id": "0836000093", "name": "USPS COLLECTION BOX - BLUE BOX", "address": {"city": "VINELAND", "state": "NJ", "street": "722 E LANDIS AVE", "postcode": "08360"}}},
{"geometry": {"type": "Point", "coordinates": [-75.0204943355, 39.4859897711]}, "type": "Feature", "properties": {"collection_times": [{"days": "Mon-Fri", "time": "5:30pm"}, {"days": "Sat", "time": "2:00pm"}, {"days": "Sun", "time": "Closed"}], "id": "0836000094", "name": "USPS COLLECTION BOX - PO LOBBY", "address": {"city": "VINELAND", "state": "NJ", "street": "722 E LANDIS AVE", "postcode": "08360"}}},
{"geometry": {"type": "Point", "coordinates": [-75.0641666615, 39.5189225159]}, "type": "Feature", "properties": {"collection_times": [{"days": "Mon-Fri", "time": "3:30pm"}, {"days": "Sat", "time": "11:00am"}, {"days": "Sun", "time": "Closed"}], "id": "0836000095", "name": "USPS COLLECTION BOX - BLUE BOX", "address": {"city": "VINELAND", "state": "NJ", "street": "2141 DEMARCO DR", "postcode": "08360"}}},
{"geometry": {"type": "Point", "coordinates": [-75.0290850375, 39.4456619971]}, "type": "Feature", "properties": {"collection_times": [{"days": "Mon-Fri", "time": "5:00pm"}, {"days": "Sat", "time": "1:00pm"}, {"days": "Sun", "time": "Closed"}], "id": "0836000107", "name": "USPS COLLECTION BOX - BLUE BOX", "address": {"city": "VINELAND", "state": "NJ", "street": "2809 S EAST BLVD", "postcode": "08360"}}},
{"geometry": {"type": "Point", "coordinates": [-75.0326201541, 39.4865605766]}, "type": "Feature", "properties": {"collection_times": [{"days": "Mon-Fri", "time": "5:30pm"}, {"days": "Sat", "time": "12:00pm"}, {"days": "Sun", "time": "Closed"}], "id": "0836000108", "name": "USPS COLLECTION BOX - BLUE BOX", "address": {"city": "VINELAND", "state": "NJ", "street": "226 W LANDIS AVE", "postcode": "08360"}}},
{"geometry": {"type": "Point", "coordinates": [-74.7285647002, 39.6133451272]}, "type": "Feature", "properties": {"collection_times": [{"days": "Mon-Fri", "time": "5:30pm"}, {"days": "Sat", "time": "2:00pm"}, {"days": "Sun", "time": "Closed"}], "id": "0836000115", "name": "USPS COLLECTION BOX - BLUE BOX", "address": {"city": "VINELAND", "state": "NJ", "street": "722 E LANDIS AVE", "postcode": "08360"}}},
{"geometry": {"type": "Point", "coordinates": [-74.983921995, 39.4593049604]}, "type": "Feature", "properties": {"collection_times": [{"days": "Mon-Fri", "time": "4:15pm"}, {"days": "Sat", "time": "12:30pm"}, {"days": "Sun", "time": "Closed"}], "id": "0836100001", "name": "USPS COLLECTION BOX - BLUE BOX", "address": {"city": "VINELAND", "state": "NJ", "street": "1768 S LINCOLN AVE", "postcode": "08361"}}},
{"geometry": {"type": "Point", "coordinates": [-74.993178904, 39.4992943979]}, "type": "Feature", "properties": {"collection_times": [{"days": "Mon-Fri", "time": "3:45pm"}, {"days": "Sat", "time": "11:15am"}, {"days": "Sun", "time": "Closed"}], "id": "0836100002", "name": "USPS COLLECTION BOX - BLUE BOX", "address": {"city": "VINELAND", "state": "NJ", "street": "1740 E OAK RD", "postcode": "08361"}}},
{"geometry": {"type": "Point", "coordinates": [-74.9581976922, 39.4830338631]}, "type": "Feature", "properties": {"collection_times": [{"days": "Mon-Fri", "time": "4:00pm"}, {"days": "Sat", "time": "12:30pm"}, {"days": "Sun", "time": "Closed"}], "id": "0836100003", "name": "USPS COLLECTION BOX - BLUE BOX", "address": {"city": "VINELAND", "state": "NJ", "street": "3600 E LANDIS AVE", "postcode": "08361"}}}
]}
