{"type": "FeatureCollection", "features": [
{"geometry": {"type": "Point", "coordinates": [-74.425851383, 39.3635937377]}, "type": "Feature", "properties": {"collection_times": [{"days": "Mon-Fri", "time": "4:00pm"}, {"days": "Sat-Sun", "time": "Closed"}], "id": "0840100012", "name": "USPS COLLECTION BOX - BLUE BOX", "address": {"city": "ATLANTIC CITY", "state": "NJ", "street": "1201 BACHARACH BLVD", "postcode": "08401"}}},
{"geometry": {"type": "Point", "coordinates": [-74.461434501, 39.3464480857]}, "type": "Feature", "properties": {"collection_times": [{"days": "Mon-Sat", "time": "11:15am"}, {"days": "Sun", "time": "Closed"}], "id": "0840100013", "name": "USPS COLLECTION BOX - BLUE BOX", "address": {"city": "ATLANTIC CITY", "state": "NJ", "street": "4401 ATLANTIC AVE", "postcode": "08401"}}},
{"geometry": {"type": "Point", "coordinates": [-74.4468781909, 39.3545750138]}, "type": "Feature", "properties": {"collection_times": [{"days": "Mon-Sat", "time": "10:30am"}, {"days": "Sun", "time": "Closed"}], "id": "0840100019", "name": "USPS COLLECTION BOX - BLUE BOX", "address": {"city": "ATLANTIC CITY", "state": "NJ", "street": "2829 ATLANTIC AVE", "postcode": "08401"}}},
{"geometry": {"type": "Point", "coordinates": [-74.4500292057, 39.3552496803]}, "type": "Feature", "properties": {"collection_times": [{"days": "Mon-Fri", "time": "10:15am"}, {"days": "Sat", "time": "10:00am"}, {"days": "Sun", "time": "Closed"}], "id": "0840100024", "name": "USPS COLLECTION BOX - BLUE BOX", "address": {"city": "ATLANTIC CITY", "state": "NJ", "street": "3100 ARCTIC AVE", "postcode": "08401"}}},
{"geometry": {"type": "Point", "coordinates": [-74.4271310569, 39.3631573811]}, "type": "Feature", "properties": {"collection_times": [{"days": "Mon-Fri", "time": "4:00pm"}, {"days": "Sat-Sun", "time": "Closed"}], "id": "0840100026", "name": "USPS COLLECTION BOX - BLUE BOX", "address": {"city": "ATLANTIC CITY", "state": "NJ", "street": "1301 BACHARACH BLVD", "postcode": "08401"}}},
{"geometry": {"type": "Point", "coordinates": [-74.4612092635, 39.3482940205]}, "type": "Feature", "properties": {"collection_times": [{"days": "Mon-Sat", "time": "11:30am"}, {"days": "Sun", "time": "Closed"}], "id": "0840100029", "name": "USPS COLLECTION BOX - BLUE BOX", "address": {"city": "ATLANTIC CITY", "state": "NJ", "street": "4300 VENTNOR AVE", "postcode": "08401"}}},
{"geometry": {"type": "Point", "coordinates": [-74.4419131885, 39.3566368174]}, "type": "Feature", "properties": {"collection_times": [{"days": "Mon-Sat", "time": "10:15am"}, {"days": "Sun", "time": "Closed"}], "id": "0840100031", "name": "USPS COLLECTION BOX - BLUE BOX", "address": {"city": "ATLANTIC CITY", "state": "NJ", "street": "2499 ATLANTIC AVE", "postcode": "08401"}}},
{"geometry": {"type": "Point", "coordinates": [-74.4415884975, 39.3585422414]}, "type": "Feature", "properties": {"collection_times": [{"days": "Mon-Sat", "time": "10:15am"}, {"days": "Sun", "time": "Closed"}], "id": "0840100032", "name": "USPS COLLECTION BOX - BLUE BOX", "address": {"city": "ATLANTIC CITY", "state": "NJ", "street": "2398 ARCTIC AVE", "postcode": "08401"}}},
{"geometry": {"type": "Point", "coordinates": [-74.4252203879, 39.3633318268]}, "type": "Feature", "properties": {"collection_times": [{"days": "Mon-Fri", "time": "5:00pm"}, {"days": "Sat-Sun", "time": "Closed"}], "id": "0840100033", "name": "USPS COLLECTION BOX - BLUE BOX", "address": {"city": "ATLANTIC CITY", "state": "NJ", "street": "1125 ATLANTIC AVE", "postcode": "08401"}}},
{"geometry": {"type": "Point", "coordinates": [-74.459302083, 39.3552808573]}, "type": "Feature", "properties": {"collection_times": [{"days": "Mon-Sat", "time": "11:00am"}, {"days": "Sun", "time": "Closed"}], "id": "0840100035", "name": "USPS COLLECTION BOX - BLUE BOX", "address": {"city": "ATLANTIC CITY", "state": "NJ", "street": "3800 PORTER AVE", "postcode": "08401"}}},
{"geometry": {"type": "Point", "coordinates": [-74.4572054227, 39.3503057149]}, "type": "Feature", "properties": {"collection_times": [{"days": "Mon-Sat", "time": "11:30am"}, {"days": "Sun", "time": "Closed"}], "id": "0840100036", "name": "USPS COLLECTION BOX - BLUE BOX", "address": {"city": "ATLANTIC CITY", "state": "NJ", "street": "3900 VENTNOR AVE", "postcode": "08401"}}},
{"geometry": {"type": "Point", "coordinates": [-74.4319977501, 39.360537127]}, "type": "Feature", "properties": {"collection_times": [{"days": "Mon-Sat", "time": "11:00am"}, {"days": "Sun", "time": "Closed"}], "id": "0840100037", "name": "USPS COLLECTION BOX - BLUE BOX", "address": {"city": "ATLANTIC CITY", "state": "NJ", "street": "1700 ATLANTIC AVE", "postcode": "08401"}}},
{"geometry": {"type": "Point", "coordinates": [-74.4371250014, 39.3661192248]}, "type": "Feature", "properties": {"collection_times": [{"days": "Mon-Sat", "time": "10:00am"}, {"days": "Sun", "time": "Closed"}], "id": "0840100043", "name": "USPS COLLECTION BOX - BLUE BOX", "address": {"city": "ATLANTIC CITY", "state": "NJ", "street": "1800 HUMMOCK AVE", "postcode": "08401"}}},
{"geometry": {"type": "Point", "coordinates": [-74.4409757653, 39.3735962575]}, "type": "Feature", "properties": {"collection_times": [{"days": "Mon-Sat", "time": "9:00am"}, {"days": "Sun", "time": "Closed"}], "id": "0840100045", "name": "USPS COLLECTION BOX - BLUE BOX", "address": {"city": "ATLANTIC CITY", "state": "NJ", "street": "1 ATLANTIC CITY EXPY", "postcode": "08401"}}},
{"geometry": {"type": "Point", "coordinates": [-74.4445992181, 39.3535076283]}, "type": "Feature", "properties": {"collection_times": [{"days": "Mon-Fri", "time": "10:30am"}, {"days": "Sat", "time": "10:15am"}, {"days": "Sun", "time": "Closed"}], "id": "0840100046", "name": "USPS COLLECTION BOX - BLUE BOX", "address": {"city": "ATLANTIC CITY", "state": "NJ", "street": "99 S IOWA AVE", "postcode": "08401"}}},
{"geometry": {"type": "Point", "coordinates": [-74.4665160535, 39.3457607595]}, "type": "Feature", "properties": {"collection_times": [{"days": "Mon-Fri", "time": "11:30am"}, {"days": "Sat", "time": "11:15am"}, {"days": "Sun", "time": "Closed"}], "id": "0840100048", "name": "USPS COLLECTION BOX - BLUE BOX", "address": {"city": "ATLANTIC CITY", "state": "NJ", "street": "2 S JACKSON AVE", "postcode": "08401"}}},
{"geometry": {"type": "Point", "coordinates": [-74.430760375, 39.361028055]}, "type": "Feature", "properties": {"collection_times": [{"days": "Mon-Fri", "time": "11:15am"}, {"days": "Sat", "time": "11:00am"}, {"days": "Sun", "time": "Closed"}], "id": "0840100051", "name": "USPS COLLECTION BOX - BLUE BOX", "address": {"city": "ATLANTIC CITY", "state": "NJ", "street": "1601 ATLANTIC AVE", "postcode": "08401"}}},
{"geometry": {"type": "Point", "coordinates": [-74.4393998027, 39.3575886069]}, "type": "Feature", "properties": {"collection_times": [{"days": "Mon-Sat", "time": "10:00am"}, {"days": "Sun", "time": "Closed"}], "id": "0840100055", "name": "USPS COLLECTION BOX - BLUE BOX", "address": {"city": "ATLANTIC CITY", "state": "NJ", "street": "2299 ATLANTIC AVE", "postcode": "08401"}}},
{"geometry": {"type": "Point", "coordinates": [-74.439839741, 39.3553449706]}, "type": "Feature", "properties": {"collection_times": [{"days": "Mon-Fri", "time": "5:45pm"}, {"days": "Sat", "time": "11:30am"}, {"days": "Sun", "time": "Closed"}], "id": "0840100058", "name": "USPS COLLECTION BOX - BLUE BOX", "address": {"city": "ATLANTIC CITY", "state": "NJ", "street": "2291 PACIFIC AVE", "postcode": "08401"}}},
{"geometry": {"type": "Point", "coordinates": [-74.4499357776, 39.353382561]}, "type": "Feature", "properties": {"collection_times": [{"days": "Mon-Fri", "time": "10:45am"}, {"days": "Sat", "time": "10:30am"}, {"days": "Sun", "time": "Closed"}], "id": "0840100060", "name": "USPS COLLECTION BOX - BLUE BOX", "address": {"city": "ATLANTIC CITY", "state": "NJ", "street": "3199 ATLANTIC AVE", "postcode": "08401"}}},
{"geometry": {"type": "Point", "coordinates": [-74.4500142152, 39.356846295]}, "type": "Feature", "properties": {"collection_times": [{"days": "Mon-Sat", "time": "10:00am"}, {"days": "Sun", "time": "Closed"}], "id": "0840100062", "name": "USPS COLLECTION BOX - BLUE BOX", "address": {"city": "ATLANTIC CITY", "state": "NJ", "street": "3001 FAIRMOUNT AVE", "postcode": "08401"}}},
{"geometry": {"type": "Point", "coordinates": [-74.4282836526, 39.360130331]}, "type": "Feature", "properties": {"collection_times": [{"days": "Mon-Sat", "time": "10:00am"}, {"days": "Sun", "time": "Closed"}], "id": "0840100067", "name": "USPS COLLECTION BOX - BLUE BOX", "address": {"city": "ATLANTIC CITY", "state": "NJ", "street": "1499 PACIFIC AVE", "postcode": "08401"}}},
{"geometry": {"type": "Point", "coordinates": [-74.4451498879, 39.373857245]}, "type": "Feature", "properties": {"collection_times": [{"days": "Mon-Sat", "time": "11:30am"}, {"days": "Sun", "time": "Closed"}], "id": "0840100073", "name": "USPS COLLECTION BOX - BLUE BOX", "address": {"city": "ATLANTIC CITY", "state": "NJ", "street": "1400 N OHIO AVE", "postcode": "08401"}}},
{"geometry": {"type": "Point", "coordinates": [-74.4423224531, 39.3714229666]}, "type": "Feature", "properties": {"collection_times": [{"days": "Mon-Sat", "time": "10:00am"}, {"days": "Sun", "time": "Closed"}], "id": "0840100074", "name": "USPS COLLECTION BOX - BLUE BOX", "address": {"city": "ATLANTIC CITY", "state": "NJ", "street": "1900 ERIE AVE", "postcode": "08401"}}},
{"geometry": {"type": "Point", "coordinates": [-74.4236921952, 39.362785932]}, "type": "Feature", "properties": {"collection_times": [{"days": "Mon-Sat", "time": "10:30am"}, {"days": "Sun", "time": "Closed"}], "id": "0840100081", "name": "USPS COLLECTION BOX - BLUE BOX", "address": {"city": "ATLANTIC CITY", "state": "NJ", "street": "26 S PENNSYLVANIA AVE", "postcode": "08401"}}},
{"geometry": {"type": "Point", "coordinates": [-74.4624352843, 39.3495699145]}, "type": "Feature", "properties": {"collection_times": [{"days": "Mon-Sat", "time": "11:15am"}, {"days": "Sun", "time": "Closed"}], "id": "0840100082", "name": "USPS COLLECTION BOX - BLUE BOX", "address": {"city": "ATLANTIC CITY", "state": "NJ", "street": "4301 WINCHESTER AVE", "postcode": "08401"}}},
{"geometry": {"type": "Point", "coordinates": [-74.4290738754, 39.3613182141]}, "type": "Feature", "properties": {"collection_times": [{"days": "Mon-Sat", "time": "10:00am"}, {"days": "Sun", "time": "Closed"}], "id": "0840100086", "name": "USPS COLLECTION BOX - BLUE BOX", "address": {"city": "ATLANTIC CITY", "state": "NJ", "street": "1 S NEW YORK AVE", "postcode": "08401"}}},
{"geometry": {"type": "Point", "coordinates": [-74.4270588964, 39.3625174003]}, "type": "Feature", "properties": {"collection_times": [{"days": "Mon-Fri", "time": "4:00pm"}, {"days": "Sat", "time": "10:15am"}, {"days": "Sun", "time": "Closed"}], "id": "0840100089", "name": "USPS COLLECTION BOX - BLUE BOX", "address": {"city": "ATLANTIC CITY", "state": "NJ", "street": "1300 ATLANTIC AVE", "postcode": "08401"}}},
{"geometry": {"type": "Point", "coordinates": [-74.4257764125, 39.3610136802]}, "type": "Feature", "properties": {"collection_times": [{"days": "Mon-Sat", "time": "10:00am"}, {"days": "Sun", "time": "Closed"}], "id": "0840100091", "name": "USPS COLLECTION BOX - BLUE BOX", "address": {"city": "ATLANTIC CITY", "state": "NJ", "street": "100 S SOUTH CAROLINA AVE", "postcode": "08401"}}},
{"geometry": {"type": "Point", "coordinates": [-74.4276278997, 39.3622890892]}, "type": "Feature", "properties": {"collection_times": [{"days": "Mon-Fri", "time": "4:30pm"}, {"days": "Sat", "time": "11:00am"}, {"days": "Sun", "time": "Closed"}], "id": "0840100093", "name": "USPS COLLECTION BOX - BLUE BOX", "address": {"city": "ATLANTIC CITY", "state": "NJ", "street": "1333 ATLANTIC AVE", "postcode": "08401"}}},
{"geometry": {"type": "Point", "coordinates": [-74.4246101714, 39.3577962111]}, "type": "Feature", "properties": {"collection_times": [{"days": "Mon-Sat", "time": "10:15am"}, {"days": "Sun", "time": "Closed"}], "id": "0840100095", "name": "USPS COLLECTION BOX - BLUE BOX", "address": {"city": "ATLANTIC CITY", "state": "NJ", "street": "1325 BOARDWALK", "postcode": "08401"}}},
{"geometry": {"type": "Point", "coordinates": [-74.4450713578, 39.3589259825]}, "type": "Feature", "properties": {"collection_times": [{"days": "Mon-Sat", "time": "11:00am"}, {"days": "Sun", "time": "Closed"}], "id": "0840100096", "name": "USPS COLLECTION BOX - BLUE BOX", "address": {"city": "ATLANTIC CITY", "state": "NJ", "street": "2599 FAIRMOUNT AVE", "postcode": "08401"}}},
{"geometry": {"type": "Point", "coordinates": [-74.4421192821, 39.3545422525]}, "type": "Feature", "properties": {"collection_times": [{"days": "Mon-Sat", "time": "9:00am"}, {"days": "Sun", "time": "Closed"}], "id": "0840100097", "name": "USPS COLLECTION BOX - BLUE BOX", "address": {"city": "ATLANTIC CITY", "state": "NJ", "street": "2599 PACIFIC AVE", "postcode": "08401"}}},
{"geometry": {"type": "Point", "coordinates": [-74.461723143, 39.3583249938]}, "type": "Feature", "properties": {"collection_times": [{"days": "Mon-Fri", "time": "11:15am"}, {"days": "Sat", "time": "11:00am"}, {"days": "Sun", "time": "Closed"}], "id": "0840100098", "name": "USPS COLLECTION BOX - BLUE BOX", "address": {"city": "ATLANTIC CITY", "state": "NJ", "street": "574 N TRENTON AVE", "postcode": "08401"}}},
{"geometry": {"type": "Point", "coordinates": [-74.4588201617, 39.3495214131]}, "type": "Feature", "properties": {"collection_times": [{"days": "Mon-Fri", "time": "11:15am"}, {"days": "Sat", "time": "11:00am"}, {"days": "Sun", "time": "Closed"}], "id": "0840100099", "name": "USPS COLLECTION BOX - BLUE BOX", "address": {"city": "ATLANTIC CITY", "state": "NJ", "street": "4021 VENTNOR AVE", "postcode": "08401"}}},
{"geometry": {"type": "Point", "coordinates": [-74.4144887745, 39.3676183194]}, "type": "Feature", "properties": {"collection_times": [{"days": "Mon-Sat", "time": "9:30am"}, {"days": "Sun", "time": "Closed"}], "id": "0840100100", "name": "USPS COLLECTION BOX - BLUE BOX", "address": {"city": "ATLANTIC CITY", "state": "NJ", "street": "301 ATLANTIC AVE", "postcode": "08401"}}},
{"geometry": {"type": "Point", "coordinates": [-74.422964468, 39.3641169357]}, "type": "Feature", "properties": {"collection_times": [{"days": "Mon-Sat", "time": "10:30am"}, {"days": "Sun", "time": "Closed"}], "id": "0840100105", "name": "USPS COLLECTION BOX - BLUE BOX", "address": {"city": "ATLANTIC CITY", "state": "NJ", "street": "998 ATLANTIC AVE", "postcode": "08401"}}},
{"geometry": {"type": "Point", "coordinates": [-74.4531372268, 39.3555888097]}, "type": "Feature", "properties": {"collection_times": [{"days": "Mon-Fri", "time": "11:00am"}, {"days": "Sat", "time": "10:45am"}, {"days": "Sun", "time": "Closed"}], "id": "0840100117", "name": "USPS COLLECTION BOX - BLUE BOX", "address": {"city": "ATLANTIC CITY", "state": "NJ", "street": "3300 FAIRMOUNT AVE", "postcode": "08401"}}},
{"geometry": {"type": "Point", "coordinates": [-74.4491553869, 39.3536392933]}, "type": "Feature", "properties": {"collection_times": [{"days": "Mon-Fri", "time": "10:45am"}, {"days": "Sat", "time": "10:30am"}, {"days": "Sun", "time": "Closed"}], "id": "0840100119", "name": "USPS COLLECTION BOX - BLUE BOX", "address": {"city": "ATLANTIC CITY", "state": "NJ", "street": "3101 ATLANTIC AVE", "postcode": "08401"}}},
{"geometry": {"type": "Point", "coordinates": [-74.4252203879, 39.3633318268]}, "type": "Feature", "properties": {"collection_times": [{"days": "Mon-Fri", "time": "5:00pm"}, {"days": "Sat-Sun", "time": "Closed"}], "id": "0840100123", "name": "USPS COLLECTION BOX - BLUE BOX", "address": {"city": "ATLANTIC CITY", "state": "NJ", "street": "1125 ATLANTIC AVE", "postcode": "08401"}}},
{"geometry": {"type": "Point", "coordinates": [-74.4515708331, 39.3527344905]}, "type": "Feature", "properties": {"collection_times": [{"days": "Mon-Sat", "time": "10:45am"}, {"days": "Sun", "time": "Closed"}], "id": "0840100126", "name": "USPS COLLECTION BOX - BLUE BOX", "address": {"city": "ATLANTIC CITY", "state": "NJ", "street": "3399 ATLANTIC AVE", "postcode": "08401"}}},
{"geometry": {"type": "Point", "coordinates": [-74.439839741, 39.3553449706]}, "type": "Feature", "properties": {"collection_times": [{"days": "Mon-Fri", "time": "5:45pm"}, {"days": "Sat", "time": "11:30am"}, {"days": "Sun", "time": "Closed"}], "id": "0840100127", "name": "USPS COLLECTION BOX - BLUE BOX", "address": {"city": "ATLANTIC CITY", "state": "NJ", "street": "2291 PACIFIC AVE", "postcode": "08401"}}},
{"geometry": {"type": "Point", "coordinates": [-74.4246101714, 39.3577962111]}, "type": "Feature", "properties": {"collection_times": [{"days": "Mon-Fri", "time": "4:30pm"}, {"days": "Sat", "time": "10:15am"}, {"days": "Sun", "time": "Closed"}], "id": "0840100128", "name": "USPS COLLECTION BOX - BLUE BOX", "address": {"city": "ATLANTIC CITY", "state": "NJ", "street": "1325 BOARDWALK", "postcode": "08401"}}},
{"geometry": {"type": "Point", "coordinates": [-74.4236921952, 39.362785932]}, "type": "Feature", "properties": {"collection_times": [{"days": "Mon-Fri", "time": "4:30pm"}, {"days": "Sat", "time": "10:30am"}, {"days": "Sun", "time": "Closed"}], "id": "0840100129", "name": "USPS COLLECTION BOX - BLUE BOX", "address": {"city": "ATLANTIC CITY", "state": "NJ", "street": "26 S PENNSYLVANIA AVE", "postcode": "08401"}}},
{"geometry": {"type": "Point", "coordinates": [-74.4332386741, 39.3600320035]}, "type": "Feature", "properties": {"collection_times": [{"days": "Mon-Fri", "time": "5:00pm"}, {"days": "Sat", "time": "12:15pm"}, {"days": "Sun", "time": "Closed"}], "id": "0840100135", "name": "USPS COLLECTION BOX - PO LOBBY", "address": {"city": "ATLANTIC CITY", "state": "NJ", "street": "1801 ATLANTIC AVE", "postcode": "08401"}}},
{"geometry": {"type": "Point", "coordinates": [-74.4409757653, 39.3735962575]}, "type": "Feature", "properties": {"collection_times": [{"days": "Mon-Sat", "time": "10:45am"}, {"days": "Sun", "time": "Closed"}], "id": "0840100136", "name": "USPS COLLECTION BOX - BLUE BOX", "address": {"city": "ATLANTIC CITY", "state": "NJ", "street": "1501 MAGELLAN AVE", "postcode": "08401"}}},
{"geometry": {"type": "Point", "coordinates": [-74.4291125132, 39.3613285266]}, "type": "Feature", "properties": {"collection_times": [{"days": "Mon-Sat", "time": "10:00am"}, {"days": "Sun", "time": "Closed"}], "id": "0840100137", "name": "USPS COLLECTION BOX - BLUE BOX", "address": {"city": "ATLANTIC CITY", "state": "NJ", "street": "1 S NEW YORK AVE", "postcode": "08401"}}},
{"geometry": {"type": "Point", "coordinates": [-74.4332386741, 39.3600320035]}, "type": "Feature", "properties": {"collection_times": [{"days": "Mon-Fri", "time": "5:00pm"}, {"days": "Sat", "time": "12:15pm"}, {"days": "Sun", "time": "Closed"}], "id": "0840100139", "name": "USPS COLLECTION BOX - PO LOBBY", "address": {"city": "ATLANTIC CITY", "state": "NJ", "street": "1801 ATLANTIC AVE", "postcode": "08401"}}},
{"geometry": {"type": "Point", "coordinates": [-74.4332386741, 39.3600320035]}, "type": "Feature", "properties": {"collection_times": [{"days": "Mon-Sat", "time": "5:00pm"}, {"days": "Sun", "time": "Closed"}], "id": "0840100140", "name": "USPS COLLECTION BOX - BLUE BOX", "address": {"city": "ATLANTIC CITY", "state": "NJ", "street": "1801 ATLANTIC AVE", "postcode": "08401"}}},
{"geometry": {"type": "Point", "coordinates": [-74.5152165474, 39.3237932386]}, "type": "Feature", "properties": {"collection_times": [{"days": "Mon-Fri", "time": "12:30pm"}, {"days": "Sat", "time": "1:30pm"}, {"days": "Sun", "time": "Closed"}], "id": "0840200003", "name": "USPS COLLECTION BOX - BLUE BOX", "address": {"city": "MARGATE CITY", "state": "NJ", "street": "101 N WASHINGTON AVE", "postcode": "08402"}}},
{"geometry": {"type": "Point", "coordinates": [-74.5088699725, 39.3366579173]}, "type": "Feature", "properties": {"collection_times": [{"days": "Mon-Fri", "time": "12:45pm"}, {"days": "Sat", "time": "1:45pm"}, {"days": "Sun", "time": "Closed"}], "id": "0840200004", "name": "USPS COLLECTION BOX - BLUE BOX", "address": {"city": "MARGATE CITY", "state": "NJ", "street": "8200 MARSHALL AVE", "postcode": "08402"}}},
{"geometry": {"type": "Point", "coordinates": [-74.517158966, 39.3204868683]}, "type": "Feature", "properties": {"collection_times": [{"days": "Mon-Fri", "time": "12:15pm"}, {"days": "Sat", "time": "1:15pm"}, {"days": "Sun", "time": "Closed"}], "id": "0840200005", "name": "USPS COLLECTION BOX - BLUE BOX", "address": {"city": "MARGATE CITY", "state": "NJ", "street": "9615 VENTNOR AVE", "postcode": "08402"}}},
{"geometry": {"type": "Point", "coordinates": [-74.5003893397, 39.3356807932]}, "type": "Feature", "properties": {"collection_times": [{"days": "Mon-Fri", "time": "12:45pm"}, {"days": "Sat", "time": "1:45pm"}, {"days": "Sun", "time": "Closed"}], "id": "0840200006", "name": "USPS COLLECTION BOX - BLUE BOX", "address": {"city": "MARGATE CITY", "state": "NJ", "street": "300 N DELAVAN AVE", "postcode": "08402"}}},
{"geometry": {"type": "Point", "coordinates": [-74.4986178562, 39.3283868506]}, "type": "Feature", "properties": {"collection_times": [{"days": "Mon-Fri", "time": "12:00pm"}, {"days": "Sat", "time": "1:00pm"}, {"days": "Sun", "time": "Closed"}], "id": "0840200007", "name": "USPS COLLECTION BOX - BLUE BOX", "address": {"city": "MARGATE CITY", "state": "NJ", "street": "8013 ATLANTIC AVE", "postcode": "08402"}}},
{"geometry": {"type": "Point", "coordinates": [-74.5058498783, 39.3404563986]}, "type": "Feature", "properties": {"collection_times": [{"days": "Mon-Fri", "time": "12:45pm"}, {"days": "Sat", "time": "1:45pm"}, {"days": "Sun", "time": "Closed"}], "id": "0840200008", "name": "USPS COLLECTION BOX - BLUE BOX", "address": {"city": "MARGATE CITY", "state": "NJ", "street": "618 N DOUGLAS AVE", "postcode": "08402"}}},
{"geometry": {"type": "Point", "coordinates": [-74.5002213595, 39.329433587]}, "type": "Feature", "properties": {"collection_times": [{"days": "Mon-Fri", "time": "12:00pm"}, {"days": "Sat", "time": "1:00pm"}, {"days": "Sun", "time": "Closed"}], "id": "0840200011", "name": "USPS COLLECTION BOX - BLUE BOX", "address": {"city": "MARGATE CITY", "state": "NJ", "street": "8101 VENTNOR AVE", "postcode": "08402"}}},
{"geometry": {"type": "Point", "coordinates": [-74.5046787489, 39.3272758698]}, "type": "Feature", "properties": {"collection_times": [{"days": "Mon-Fri", "time": "12:00pm"}, {"days": "Sat", "time": "1:00pm"}, {"days": "Sun", "time": "Closed"}], "id": "0840200013", "name": "USPS COLLECTION BOX - BLUE BOX", "address": {"city": "MARGATE CITY", "state": "NJ", "street": "8510 VENTNOR AVE", "postcode": "08402"}}},
{"geometry": {"type": "Point", "coordinates": [-74.497872003, 39.3297636325]}, "type": "Feature", "properties": {"collection_times": [{"days": "Mon-Fri", "time": "5:00pm"}, {"days": "Sat", "time": "2:00pm"}, {"days": "Sun", "time": "Closed"}], "id": "0840200015", "name": "USPS COLLECTION BOX - BLUE BOX", "address": {"city": "MARGATE CITY", "state": "NJ", "street": "7 S FRANKLIN AVE", "postcode": "08402"}}},
{"geometry": {"type": "Point", "coordinates": [-74.5068861504, 39.3264832873]}, "type": "Feature", "properties": {"collection_times": [{"days": "Mon-Fri", "time": "12:00pm"}, {"days": "Sat", "time": "1:00pm"}, {"days": "Sun", "time": "Closed"}], "id": "0840200016", "name": "USPS COLLECTION BOX - BLUE BOX", "address": {"city": "MARGATE CITY", "state": "NJ", "street": "1 N OSBORNE AVE", "postcode": "08402"}}},
{"geometry": {"type": "Point", "coordinates": [-74.5101191772, 39.3249974908]}, "type": "Feature", "properties": {"collection_times": [{"days": "Mon-Fri", "time": "12:00pm"}, {"days": "Sat", "time": "1:00pm"}, {"days": "Sun", "time": "Closed"}], "id": "0840200019", "name": "USPS COLLECTION BOX - BLUE BOX", "address": {"city": "MARGATE CITY", "state": "NJ", "street": "1 N THURLOW AVE", "postcode": "08402"}}},
{"geometry": {"type": "Point", "coordinates": [-74.5133384647, 39.3227580434]}, "type": "Feature", "properties": {"collection_times": [{"days": "Mon-Fri", "time": "5:00pm"}, {"days": "Sat", "time": "1:15pm"}, {"days": "Sun", "time": "Closed"}], "id": "0840200020", "name": "USPS COLLECTION BOX - BLUE BOX", "address": {"city": "MARGATE CITY", "state": "NJ", "street": "9223 VENTNOR AVE", "postcode": "08402"}}},
{"geometry": {"type": "Point", "coordinates": [-74.504416132, 39.3298535374]}, "type": "Feature", "properties": {"collection_times": [{"days": "Mon-Fri", "time": "12:45pm"}, {"days": "Sat", "time": "1:45pm"}, {"days": "Sun", "time": "Closed"}], "id": "0840200022", "name": "USPS COLLECTION BOX - BLUE BOX", "address": {"city": "MARGATE CITY", "state": "NJ", "street": "101 N JASPER AVE", "postcode": "08402"}}},
{"geometry": {"type": "Point", "coordinates": [-74.498910641, 39.3307561351]}, "type": "Feature", "properties": {"collection_times": [{"days": "Mon-Fri", "time": "5:00pm"}, {"days": "Sat", "time": "2:00pm"}, {"days": "Sun", "time": "Closed"}], "id": "0840200025", "name": "USPS COLLECTION BOX - PO LOBBY", "address": {"city": "MARGATE CITY", "state": "NJ", "street": "8 S FRANKLIN AVE", "postcode": "08402"}}},
{"geometry": {"type": "Point", "coordinates": [-74.5253935434, 39.3135428992]}, "type": "Feature", "properties": {"collection_times": [{"days": "Mon-Fri", "time": "4:45pm"}, {"days": "Sat", "time": "1:15pm"}, {"days": "Sun", "time": "Closed"}], "id": "0840300001", "name": "USPS COLLECTION BOX - BLUE BOX", "address": {"city": "ATLANTIC CITY", "state": "NJ", "street": "4 S 27TH AVE", "postcode": "08403"}}},
{"geometry": {"type": "Point", "coordinates": [-74.5214553569, 39.3178968795]}, "type": "Feature", "properties": {"collection_times": [{"days": "Mon-Fri", "time": "12:15pm"}, {"days": "Sat", "time": "1:15pm"}, {"days": "Sun", "time": "Closed"}], "id": "0840300007", "name": "USPS COLLECTION BOX - BLUE BOX", "address": {"city": "ATLANTIC CITY", "state": "NJ", "street": "3202 VENTNOR AVE", "postcode": "08403"}}},
{"geometry": {"type": "Point", "coordinates": [-74.5250575928, 39.3152341753]}, "type": "Feature", "properties": {"collection_times": [{"days": "Mon-Fri", "time": "12:15pm"}, {"days": "Sat", "time": "12:30pm"}, {"days": "Sun", "time": "Closed"}], "id": "0840300008", "name": "USPS COLLECTION BOX - PO LOBBY", "address": {"city": "ATLANTIC CITY", "state": "NJ", "street": "4 S 27TH AVE", "postcode": "08403"}}},
{"geometry": {"type": "Point", "coordinates": [-74.5276837519, 39.3115105757]}, "type": "Feature", "properties": {"collection_times": [{"days": "Mon-Fri", "time": "12:15pm"}, {"days": "Sat", "time": "1:15pm"}, {"days": "Sun", "time": "Closed"}], "id": "0840300009", "name": "USPS COLLECTION BOX - BLUE BOX", "address": {"city": "ATLANTIC CITY", "state": "NJ", "street": "2301 ATLANTIC AVE", "postcode": "08403"}}},
{"geometry": {"type": "Point", "coordinates": [-74.4775305487, 39.3529204295]}, "type": "Feature", "properties": {"collection_times": [{"days": "Mon-Fri", "time": "5:00pm"}, {"days": "Sat", "time": "12:15pm"}, {"days": "Sun", "time": "Closed"}], "id": "0840600001", "name": "USPS COLLECTION BOX - BLUE BOX", "address": {"city": "VENTNOR CITY", "state": "NJ", "street": "5006 WELLINGTON AVE", "postcode": "08406"}}},
{"geometry": {"type": "Point", "coordinates": [-74.4902868702, 39.3342553277]}, "type": "Feature", "properties": {"collection_times": [{"days": "Mon-Sat", "time": "12:00pm"}, {"days": "Sun", "time": "Closed"}], "id": "0840600002", "name": "USPS COLLECTION BOX - BLUE BOX", "address": {"city": "VENTNOR CITY", "state": "NJ", "street": "7117 VENTNOR AVE", "postcode": "08406"}}},
{"geometry": {"type": "Point", "coordinates": [-74.4791962566, 39.3395725377]}, "type": "Feature", "properties": {"collection_times": [{"days": "Mon-Sat", "time": "12:00pm"}, {"days": "Sun", "time": "Closed"}], "id": "0840600004", "name": "USPS COLLECTION BOX - BLUE BOX", "address": {"city": "VENTNOR CITY", "state": "NJ", "street": "6100 VENTNOR AVE", "postcode": "08406"}}},
{"geometry": {"type": "Point", "coordinates": [-74.480779429, 39.3447812966]}, "type": "Feature", "properties": {"collection_times": [{"days": "Mon-Sat", "time": "12:15pm"}, {"days": "Sun", "time": "Closed"}], "id": "0840600005", "name": "USPS COLLECTION BOX - BLUE BOX", "address": {"city": "VENTNOR CITY", "state": "NJ", "street": "301 N DORSET AVE", "postcode": "08406"}}},
{"geometry": {"type": "Point", "coordinates": [-74.4848949432, 39.3499035089]}, "type": "Feature", "properties": {"collection_times": [{"days": "Mon-Fri", "time": "12:30pm"}, {"days": "Sat", "time": "12:15pm"}, {"days": "Sun", "time": "Closed"}], "id": "0840600006", "name": "USPS COLLECTION BOX - BLUE BOX", "address": {"city": "VENTNOR CITY", "state": "NJ", "street": "700 N DORSET AVE", "postcode": "08406"}}},
{"geometry": {"type": "Point", "coordinates": [-74.483514241, 39.3374735975]}, "type": "Feature", "properties": {"collection_times": [{"days": "Mon-Sat", "time": "12:00pm"}, {"days": "Sun", "time": "Closed"}], "id": "0840600011", "name": "USPS COLLECTION BOX - BLUE BOX", "address": {"city": "VENTNOR CITY", "state": "NJ", "street": "6524 VENTNOR AVE", "postcode": "08406"}}},
{"geometry": {"type": "Point", "coordinates": [-74.4869281703, 39.3358204588]}, "type": "Feature", "properties": {"collection_times": [{"days": "Mon-Sat", "time": "12:00pm"}, {"days": "Sun", "time": "Closed"}], "id": "0840600012", "name": "USPS COLLECTION BOX - BLUE BOX", "address": {"city": "VENTNOR CITY", "state": "NJ", "street": "6818 VENTNOR AVE", "postcode": "08406"}}},
{"geometry": {"type": "Point", "coordinates": [-74.4895923027, 39.3390714104]}, "type": "Feature", "properties": {"collection_times": [{"days": "Mon-Sat", "time": "12:00pm"}, {"days": "Sun", "time": "Closed"}], "id": "0840600013", "name": "USPS COLLECTION BOX - BLUE BOX", "address": {"city": "VENTNOR CITY", "state": "NJ", "street": "6803 VENTNOR GARDENS PLZ", "postcode": "08406"}}},
{"geometry": {"type": "Point", "coordinates": [-74.4759009062, 39.3412276878]}, "type": "Feature", "properties": {"collection_times": [{"days": "Mon-Sat", "time": "12:00pm"}, {"days": "Sun", "time": "Closed"}], "id": "0840600014", "name": "USPS COLLECTION BOX - BLUE BOX", "address": {"city": "VENTNOR CITY", "state": "NJ", "street": "5702 VENTNOR AVE", "postcode": "08406"}}},
{"geometry": {"type": "Point", "coordinates": [-74.4712584552, 39.3416832181]}, "type": "Feature", "properties": {"collection_times": [{"days": "Mon-Fri", "time": "5:00pm"}, {"days": "Sat", "time": "12:00pm"}, {"days": "Sun", "time": "Closed"}], "id": "0840600017", "name": "USPS COLLECTION BOX - BLUE BOX", "address": {"city": "VENTNOR CITY", "state": "NJ", "street": "5321 ATLANTIC AVE", "postcode": "08406"}}},
{"geometry": {"type": "Point", "coordinates": [-74.4795621642, 39.337590089]}, "type": "Feature", "properties": {"collection_times": [{"days": "Mon-Fri", "time": "4:30pm"}, {"days": "Sat", "time": "12:00pm"}, {"days": "Sun", "time": "Closed"}], "id": "0840600019", "name": "USPS COLLECTION BOX - BLUE BOX", "address": {"city": "VENTNOR CITY", "state": "NJ", "street": "6201 ATLANTIC AVE", "postcode": "08406"}}},
{"geometry": {"type": "Point", "coordinates": [-74.4813447593, 39.3386647171]}, "type": "Feature", "properties": {"collection_times": [{"days": "Mon-Fri", "time": "5:00pm"}, {"days": "Sat", "time": "12:00pm"}, {"days": "Sun", "time": "Closed"}], "id": "0840600020", "name": "USPS COLLECTION BOX - BLUE BOX", "address": {"city": "VENTNOR CITY", "state": "NJ", "street": "6311 VENTNOR AVE", "postcode": "08406"}}},
{"geometry": {"type": "Point", "coordinates": [-74.4848831136, 39.3368732159]}, "type": "Feature", "properties": {"collection_times": [{"days": "Mon-Fri", "time": "5:00pm"}, {"days": "Sat", "time": "12:00pm"}, {"days": "Sun", "time": "Closed"}], "id": "0840600023", "name": "USPS COLLECTION BOX - BLUE BOX", "address": {"city": "VENTNOR CITY", "state": "NJ", "street": "6601 VENTNOR AVE", "postcode": "08406"}}},
{"geometry": {"type": "Point", "coordinates": [-74.4775305487, 39.3529204295]}, "type": "Feature", "properties": {"collection_times": [{"days": "Mon-Fri", "time": "5:00pm"}, {"days": "Sat", "time": "12:15pm"}, {"days": "Sun", "time": "Closed"}], "id": "0840600028", "name": "USPS COLLECTION BOX - PO LOBBY", "address": {"city": "VENTNOR CITY", "state": "NJ", "street": "5006 WELLINGTON AVE", "postcode": "08406"}}}
]}
