{"type": "FeatureCollection", "features": [
{"geometry": {"type": "Point", "coordinates": [-74.5846382566, 40.1775739846]}, "type": "Feature", "properties": {"collection_times": [{"days": "Mon-Fri", "time": "4:30pm"}, {"days": "Sat", "time": "3:00pm"}, {"days": "Sun", "time": "Closed"}], "id": "0850100001", "name": "USPS COLLECTION BOX - PO LOBBY", "address": {"city": "ALLENTOWN", "state": "NJ", "street": "12 S MAIN ST", "postcode": "08501"}}},
{"geometry": {"type": "Point", "coordinates": [-74.5844941733, 40.1776435559]}, "type": "Feature", "properties": {"collection_times": [{"days": "Mon-Fri", "time": "4:30pm"}, {"days": "Sat", "time": "3:00pm"}, {"days": "Sun", "time": "Closed"}], "id": "0850100002", "name": "USPS COLLECTION BOX - BLUE BOX", "address": {"city": "ALLENTOWN", "state": "NJ", "street": "12 S MAIN ST", "postcode": "08501"}}},
{"geometry": {"type": "Point", "coordinates": [-74.6607855628, 40.4691956224]}, "type": "Feature", "properties": {"collection_times": [{"days": "Mon-Fri", "time": "4:30pm"}, {"days": "Sat", "time": "3:00pm"}, {"days": "Sun", "time": "Closed"}], "id": "0850200001", "name": "USPS COLLECTION BOX - BLUE BOX", "address": {"city": "BELLE MEAD", "state": "NJ", "street": "2468 US HIGHWAY 206", "postcode": "08502"}}},
{"geometry": {"type": "Point", "coordinates": [-74.6607855628, 40.4691956224]}, "type": "Feature", "properties": {"collection_times": [{"days": "Mon-Fri", "time": "4:30pm"}, {"days": "Sat", "time": "3:00pm"}, {"days": "Sun", "time": "Closed"}], "id": "0850200002", "name": "USPS COLLECTION BOX - BLUE BOX", "address": {"city": "BELLE MEAD", "state": "NJ", "street": "2468 US HIGHWAY 206", "postcode": "08502"}}},
{"geometry": {"type": "Point", "coordinates": [-74.6607855628, 40.4691956224]}, "type": "Feature", "properties": {"collection_times": [{"days": "Mon-Fri", "time": "5:00pm"}, {"days": "Sat", "time": "3:00pm"}, {"days": "Sun", "time": "Closed"}], "id": "0850200005", "name": "USPS COLLECTION BOX - PO LOBBY", "address": {"city": "BELLE MEAD", "state": "NJ", "street": "2468 US HIGHWAY 206", "postcode": "08502"}}},
{"geometry": {"type": "Point", "coordinates": [-74.7024811923, 40.4072756062]}, "type": "Feature", "properties": {"collection_times": [{"days": "Mon-Fri", "time": "4:45pm"}, {"days": "Sat", "time": "12:00pm"}, {"days": "Sun", "time": "Closed"}], "id": "0850400001", "name": "USPS COLLECTION BOX - BLUE BOX", "address": {"city": "BLAWENBURG", "state": "NJ", "street": "1693 GREAT RD", "postcode": "08504"}}},
{"geometry": {"type": "Point", "coordinates": [-74.7024811923, 40.4072756062]}, "type": "Feature", "properties": {"collection_times": [{"days": "Mon-Fri", "time": "4:45pm"}, {"days": "Sat", "time": "12:00pm"}, {"days": "Sun", "time": "Closed"}], "id": "0850400002", "name": "USPS COLLECTION BOX - PO LOBBY", "address": {"city": "BLAWENBURG", "state": "NJ", "street": "1693 GREAT RD", "postcode": "08504"}}},
{"geometry": {"type": "Point", "coordinates": [-74.7091662186, 40.1427533642]}, "type": "Feature", "properties": {"collection_times": [{"days": "Mon-Sat", "time": "2:00pm"}, {"days": "Sun", "time": "Closed"}], "id": "0850500005", "name": "USPS COLLECTION BOX - BLUE BOX", "address": {"city": "BORDENTOWN", "state": "NJ", "street": "501 FARNSWORTH AVE", "postcode": "08505"}}},
{"geometry": {"type": "Point", "coordinates": [-74.6980381236, 40.1447206249]}, "type": "Feature", "properties": {"collection_times": [{"days": "Mon-Sat", "time": "2:30pm"}, {"days": "Sun", "time": "Closed"}], "id": "0850500007", "name": "USPS COLLECTION BOX - BLUE BOX", "address": {"city": "BORDENTOWN", "state": "NJ", "street": "201 CROSSWICKS ST", "postcode": "08505"}}},
{"geometry": {"type": "Point", "coordinates": [-74.7130812452, 40.122545215]}, "type": "Feature", "properties": {"collection_times": [{"days": "Mon-Sat", "time": "10:00am"}, {"days": "Sun", "time": "Closed"}], "id": "0850500009", "name": "USPS COLLECTION BOX - BLUE BOX", "address": {"city": "BORDENTOWN", "state": "NJ", "street": "402 RISING SUN RD", "postcode": "08505"}}},
{"geometry": {"type": "Point", "coordinates": [-74.6958496495, 40.1313839455]}, "type": "Feature", "properties": {"collection_times": [{"days": "Mon-Sat", "time": "1:30pm"}, {"days": "Sun", "time": "Closed"}], "id": "0850500011", "name": "USPS COLLECTION BOX - BLUE BOX", "address": {"city": "BORDENTOWN", "state": "NJ", "street": "17 AMHERST CT", "postcode": "08505"}}},
{"geometry": {"type": "Point", "coordinates": [-74.7121166009, 40.1463081983]}, "type": "Feature", "properties": {"collection_times": [{"days": "Mon-Fri", "time": "5:00pm"}, {"days": "Sat", "time": "3:00pm"}, {"days": "Sun", "time": "Closed"}], "id": "0850500022", "name": "USPS COLLECTION BOX - BLUE BOX", "address": {"city": "BORDENTOWN", "state": "NJ", "street": "14 WALNUT ST", "postcode": "08505"}}},
{"geometry": {"type": "Point", "coordinates": [-74.7801106336, 40.10167748]}, "type": "Feature", "properties": {"collection_times": [{"days": "Mon-Sat", "time": "11:30am"}, {"days": "Sun", "time": "Closed"}], "id": "0850500023", "name": "USPS COLLECTION BOX - BLUE BOX", "address": {"city": "BORDENTOWN", "state": "NJ", "street": "100 BIRCH HOLLOW DR", "postcode": "08505"}}},
{"geometry": {"type": "Point", "coordinates": [-74.7121166009, 40.1463081983]}, "type": "Feature", "properties": {"collection_times": [{"days": "Mon-Fri", "time": "5:00pm"}, {"days": "Sat", "time": "3:00pm"}, {"days": "Sun", "time": "Closed"}], "id": "0850500027", "name": "USPS COLLECTION BOX - PO LOBBY", "address": {"city": "BORDENTOWN", "state": "NJ", "street": "14 WALNUT ST", "postcode": "08505"}}},
{"geometry": {"type": "Point", "coordinates": [-74.4286204023, 40.1920283369]}, "type": "Feature", "properties": {"collection_times": [{"days": "Mon-Fri", "time": "4:30pm"}, {"days": "Sat", "time": "1:00pm"}, {"days": "Sun", "time": "Closed"}], "id": "0851000001", "name": "USPS COLLECTION BOX - BLUE BOX", "address": {"city": "CLARKSBURG", "state": "NJ", "street": "424 STAGECOACH RD", "postcode": "08510"}}},
{"geometry": {"type": "Point", "coordinates": [-74.4286204023, 40.1920283369]}, "type": "Feature", "properties": {"collection_times": [{"days": "Mon-Fri", "time": "4:30pm"}, {"days": "Sat", "time": "1:00pm"}, {"days": "Sun", "time": "Closed"}], "id": "0851000002", "name": "USPS COLLECTION BOX - PO LOBBY", "address": {"city": "CLARKSBURG", "state": "NJ", "street": "424 STAGECOACH RD", "postcode": "08510"}}},
{"geometry": {"type": "Point", "coordinates": [-74.5805833109, 40.0413891593]}, "type": "Feature", "properties": {"collection_times": [{"days": "Mon-Fri", "time": "4:00pm"}, {"days": "Sat", "time": "11:00am"}, {"days": "Sun", "time": "Closed"}], "id": "0851100001", "name": "USPS COLLECTION BOX - BLUE BOX", "address": {"city": "COOKSTOWN", "state": "NJ", "street": "7 WRIGHTSTOWN COOKSTOWN RD", "postcode": "08511"}}},
{"geometry": {"type": "Point", "coordinates": [-74.5717429965, 40.0443251053]}, "type": "Feature", "properties": {"collection_times": [{"days": "Mon-Fri", "time": "4:45pm"}, {"days": "Sat", "time": "11:45am"}, {"days": "Sun", "time": "Closed"}], "id": "0851100002", "name": "USPS COLLECTION BOX - PO LOBBY", "address": {"city": "COOKSTOWN", "state": "NJ", "street": "7 WRIGHTSTOWN COOKSTOWN RD", "postcode": "08511"}}},
{"geometry": {"type": "Point", "coordinates": [-74.5186518602, 40.3067375018]}, "type": "Feature", "properties": {"collection_times": [{"days": "Mon-Sat", "time": "10:00am"}, {"days": "Sun", "time": "Closed"}], "id": "0851200001", "name": "USPS COLLECTION BOX - BLUE BOX", "address": {"city": "EAST WINDSOR", "state": "NJ", "street": "38 S MAIN ST", "postcode": "08512"}}},
{"geometry": {"type": "Point", "coordinates": [-74.5452481533, 40.2789434088]}, "type": "Feature", "properties": {"collection_times": [{"days": "Mon-Sat", "time": "12:00pm"}, {"days": "Sun", "time": "Closed"}], "id": "0851200002", "name": "USPS COLLECTION BOX - BLUE BOX", "address": {"city": "EAST WINDSOR", "state": "NJ", "street": "60 ONE MILE RD", "postcode": "08512"}}},
{"geometry": {"type": "Point", "coordinates": [-74.5500771186, 40.289163473]}, "type": "Feature", "properties": {"collection_times": [{"days": "Mon-Sat", "time": "11:00am"}, {"days": "Sun", "time": "Closed"}], "id": "0851200003", "name": "USPS COLLECTION BOX - BLUE BOX", "address": {"city": "EAST WINDSOR", "state": "NJ", "street": "1 WINDSOR MILL BLVD", "postcode": "08512"}}},
{"geometry": {"type": "Point", "coordinates": [-74.5156743525, 40.312295043]}, "type": "Feature", "properties": {"collection_times": [{"days": "Mon-Sat", "time": "11:00am"}, {"days": "Sun", "time": "Closed"}], "id": "0851200004", "name": "USPS COLLECTION BOX - BLUE BOX", "address": {"city": "EAST WINDSOR", "state": "NJ", "street": "32 N MAIN ST", "postcode": "08512"}}},
{"geometry": {"type": "Point", "coordinates": [-74.5257582693, 40.3201232328]}, "type": "Feature", "properties": {"collection_times": [{"days": "Mon-Sat", "time": "11:00am"}, {"days": "Sun", "time": "Closed"}], "id": "0851200006", "name": "USPS COLLECTION BOX - BLUE BOX", "address": {"city": "EAST WINDSOR", "state": "NJ", "street": "1 DORCHESTER ARMS", "postcode": "08512"}}},
{"geometry": {"type": "Point", "coordinates": [-74.500492759, 40.3412583286]}, "type": "Feature", "properties": {"collection_times": [{"days": "Mon-Sat", "time": "11:00am"}, {"days": "Sun", "time": "Closed"}], "id": "0851200011", "name": "USPS COLLECTION BOX - BLUE BOX", "address": {"city": "EAST WINDSOR", "state": "NJ", "street": "1000 EASTPARK BLVD", "postcode": "08512"}}},
{"geometry": {"type": "Point", "coordinates": [-74.5199613958, 40.3017950992]}, "type": "Feature", "properties": {"collection_times": [{"days": "Mon-Fri", "time": "5:00pm"}, {"days": "Sat", "time": "3:00pm"}, {"days": "Sun", "time": "Closed"}], "id": "0851200012", "name": "USPS COLLECTION BOX - BLUE BOX", "address": {"city": "EAST WINDSOR", "state": "NJ", "street": "65 N MAIN ST", "postcode": "08512"}}},
{"geometry": {"type": "Point", "coordinates": [-74.5272387851, 40.3075421864]}, "type": "Feature", "properties": {"collection_times": [{"days": "Mon-Fri", "time": "11:00am"}, {"days": "Sat-Sun", "time": "Closed"}], "id": "0851200017", "name": "USPS COLLECTION BOX - EXPRESS", "address": {"city": "EAST WINDSOR", "state": "NJ", "street": "4 BRICK YARD RD", "postcode": "08512"}}},
{"geometry": {"type": "Point", "coordinates": [-74.5327873574, 40.3067035543]}, "type": "Feature", "properties": {"collection_times": [{"days": "Mon-Fri", "time": "11:00am"}, {"days": "Sat-Sun", "time": "Closed"}], "id": "0851200019", "name": "USPS COLLECTION BOX - EXPRESS", "address": {"city": "EAST WINDSOR", "state": "NJ", "street": "53 COMMERCE DR", "postcode": "08512"}}},
{"geometry": {"type": "Point", "coordinates": [-74.496845046, 40.3509991095]}, "type": "Feature", "properties": {"collection_times": [{"days": "Mon-Sat", "time": "12:00pm"}, {"days": "Sun", "time": "Closed"}], "id": "0851200023", "name": "USPS COLLECTION BOX - BLUE BOX", "address": {"city": "EAST WINDSOR", "state": "NJ", "street": "2501 US HIGHWAY 130", "postcode": "08512"}}},
{"geometry": {"type": "Point", "coordinates": [-74.5064555533, 40.327459394]}, "type": "Feature", "properties": {"collection_times": [{"days": "Mon-Sat", "time": "10:00am"}, {"days": "Sun", "time": "Closed"}], "id": "0851200025", "name": "USPS COLLECTION BOX - BLUE BOX", "address": {"city": "EAST WINDSOR", "state": "NJ", "street": "2650 US HIGHWAY 130", "postcode": "08512"}}},
{"geometry": {"type": "Point", "coordinates": [-74.5016586547, 40.3320587385]}, "type": "Feature", "properties": {"collection_times": [{"days": "Mon-Sat", "time": "11:00am"}, {"days": "Sun", "time": "Closed"}], "id": "0851200026", "name": "USPS COLLECTION BOX - BLUE BOX", "address": {"city": "EAST WINDSOR", "state": "NJ", "street": "3 CEDARBROOK DR", "postcode": "08512"}}},
{"geometry": {"type": "Point", "coordinates": [-74.5199613958, 40.3017950992]}, "type": "Feature", "properties": {"collection_times": [{"days": "Mon-Fri", "time": "5:00pm"}, {"days": "Sat", "time": "3:00pm"}, {"days": "Sun", "time": "Closed"}], "id": "0851200027", "name": "USPS COLLECTION BOX - PO LOBBY", "address": {"city": "EAST WINDSOR", "state": "NJ", "street": "65 N MAIN ST", "postcode": "08512"}}},
{"geometry": {"type": "Point", "coordinates": [-74.528056384, 40.1333772314]}, "type": "Feature", "properties": {"collection_times": [{"days": "Mon-Fri", "time": "4:30pm"}, {"days": "Sat", "time": "11:30am"}, {"days": "Sun", "time": "Closed"}], "id": "0851400001", "name": "USPS COLLECTION BOX - BLUE BOX", "address": {"city": "CREAMRIDGE", "state": "NJ", "street": "163 BURLINGTON PATH RD STE D", "postcode": "08514"}}},
{"geometry": {"type": "Point", "coordinates": [-74.528056384, 40.1333772314]}, "type": "Feature", "properties": {"collection_times": [{"days": "Mon-Fri", "time": "4:30pm"}, {"days": "Sat", "time": "11:30am"}, {"days": "Sun", "time": "Closed"}], "id": "0851400002", "name": "USPS COLLECTION BOX - PO LOBBY", "address": {"city": "CREAMRIDGE", "state": "NJ", "street": "163 BURLINGTON PATH RD STE D", "postcode": "08514"}}},
{"geometry": {"type": "Point", "coordinates": [-74.649441867, 40.1260837821]}, "type": "Feature", "properties": {"collection_times": [{"days": "Mon-Fri", "time": "4:30pm"}, {"days": "Sat", "time": "12:00pm"}, {"days": "Sun", "time": "Closed"}], "id": "0851500001", "name": "USPS COLLECTION BOX - BLUE BOX", "address": {"city": "CROSSWICKS", "state": "NJ", "street": "3 NEW ST", "postcode": "08515"}}},
{"geometry": {"type": "Point", "coordinates": [-74.649441867, 40.1260837821]}, "type": "Feature", "properties": {"collection_times": [{"days": "Mon-Fri", "time": "4:00pm"}, {"days": "Sat", "time": "12:00pm"}, {"days": "Sun", "time": "Closed"}], "id": "0851500002", "name": "USPS COLLECTION BOX - PO LOBBY", "address": {"city": "CROSSWICKS", "state": "NJ", "street": "3 NEW ST", "postcode": "08515"}}},
{"geometry": {"type": "Point", "coordinates": [-74.8054543465, 40.1195165012]}, "type": "Feature", "properties": {"collection_times": [{"days": "Mon-Fri", "time": "4:30pm"}, {"days": "Sat", "time": "12:00pm"}, {"days": "Sun", "time": "Closed"}], "id": "0851800001", "name": "USPS COLLECTION BOX - BLUE BOX", "address": {"city": "FLORENCE", "state": "NJ", "street": "400 BROAD ST", "postcode": "08518"}}},
{"geometry": {"type": "Point", "coordinates": [-74.8089315554, 40.1229991991]}, "type": "Feature", "properties": {"collection_times": [{"days": "Mon-Sat", "time": "8:30am"}, {"days": "Sun", "time": "Closed"}], "id": "0851800003", "name": "USPS COLLECTION BOX - BLUE BOX", "address": {"city": "FLORENCE", "state": "NJ", "street": "338 W FRONT ST", "postcode": "08518"}}},
{"geometry": {"type": "Point", "coordinates": [-74.8031292546, 40.1173439158]}, "type": "Feature", "properties": {"collection_times": [{"days": "Mon-Fri", "time": "4:30pm"}, {"days": "Sat", "time": "12:00pm"}, {"days": "Sun", "time": "Closed"}], "id": "0851800008", "name": "USPS COLLECTION BOX - BLUE BOX", "address": {"city": "FLORENCE", "state": "NJ", "street": "400 BROAD ST", "postcode": "08518"}}},
{"geometry": {"type": "Point", "coordinates": [-74.8054543465, 40.1195165012]}, "type": "Feature", "properties": {"collection_times": [{"days": "Mon-Fri", "time": "4:30pm"}, {"days": "Sat", "time": "12:00pm"}, {"days": "Sun", "time": "Closed"}], "id": "0851800009", "name": "USPS COLLECTION BOX - PO LOBBY", "address": {"city": "FLORENCE", "state": "NJ", "street": "400 BROAD ST", "postcode": "08518"}}},
{"geometry": {"type": "Point", "coordinates": [-74.5570657714, 40.263451057]}, "type": "Feature", "properties": {"collection_times": [{"days": "Mon-Sat", "time": "11:30am"}, {"days": "Sun", "time": "Closed"}], "id": "0852000001", "name": "USPS COLLECTION BOX - BLUE BOX", "address": {"city": "EAST WINDSOR", "state": "NJ", "street": "152 HICKORY CORNER RD", "postcode": "08520"}}},
{"geometry": {"type": "Point", "coordinates": [-74.5593231724, 40.2708335143]}, "type": "Feature", "properties": {"collection_times": [{"days": "Mon-Sat", "time": "11:30am"}, {"days": "Sun", "time": "Closed"}], "id": "0852000002", "name": "USPS COLLECTION BOX - BLUE BOX", "address": {"city": "EAST WINDSOR", "state": "NJ", "street": "400 DUTCH NECK RD", "postcode": "08520"}}},
{"geometry": {"type": "Point", "coordinates": [-74.5221593336, 40.2714143471]}, "type": "Feature", "properties": {"collection_times": [{"days": "Mon-Sat", "time": "11:30am"}, {"days": "Sun", "time": "Closed"}], "id": "0852000009", "name": "USPS COLLECTION BOX - BLUE BOX", "address": {"city": "EAST WINDSOR", "state": "NJ", "street": "164 N MAIN ST", "postcode": "08520"}}},
{"geometry": {"type": "Point", "coordinates": [-74.5174582546, 40.2825258807]}, "type": "Feature", "properties": {"collection_times": [{"days": "Mon-Sat", "time": "11:15am"}, {"days": "Sun", "time": "Closed"}], "id": "0852000011", "name": "USPS COLLECTION BOX - BLUE BOX", "address": {"city": "EAST WINDSOR", "state": "NJ", "street": "47 GARDEN VIEW TER", "postcode": "08520"}}},
{"geometry": {"type": "Point", "coordinates": [-74.5176155882, 40.2843298931]}, "type": "Feature", "properties": {"collection_times": [{"days": "Mon-Sat", "time": "11:15am"}, {"days": "Sun", "time": "Closed"}], "id": "0852000012", "name": "USPS COLLECTION BOX - BLUE BOX", "address": {"city": "EAST WINDSOR", "state": "NJ", "street": "719 SAINT JAMES PL", "postcode": "08520"}}},
{"geometry": {"type": "Point", "coordinates": [-74.4849162365, 40.2698682197]}, "type": "Feature", "properties": {"collection_times": [{"days": "Mon-Sat", "time": "11:00am"}, {"days": "Sun", "time": "Closed"}], "id": "0852000015", "name": "USPS COLLECTION BOX - BLUE BOX", "address": {"city": "EAST WINDSOR", "state": "NJ", "street": "955 JAMESTOWN RD", "postcode": "08520"}}},
{"geometry": {"type": "Point", "coordinates": [-74.4855303054, 40.2625923332]}, "type": "Feature", "properties": {"collection_times": [{"days": "Mon-Sat", "time": "11:00am"}, {"days": "Sun", "time": "Closed"}], "id": "0852000016", "name": "USPS COLLECTION BOX - BLUE BOX", "address": {"city": "EAST WINDSOR", "state": "NJ", "street": "446 KELLINGTON DR", "postcode": "08520"}}},
{"geometry": {"type": "Point", "coordinates": [-74.4946728983, 40.2639496149]}, "type": "Feature", "properties": {"collection_times": [{"days": "Mon-Sat", "time": "11:00am"}, {"days": "Sun", "time": "Closed"}], "id": "0852000017", "name": "USPS COLLECTION BOX - BLUE BOX", "address": {"city": "EAST WINDSOR", "state": "NJ", "street": "2 COVINGTON DR", "postcode": "08520"}}},
{"geometry": {"type": "Point", "coordinates": [-74.4886082514, 40.2666434736]}, "type": "Feature", "properties": {"collection_times": [{"days": "Mon-Sat", "time": "11:00am"}, {"days": "Sun", "time": "Closed"}], "id": "0852000020", "name": "USPS COLLECTION BOX - BLUE BOX", "address": {"city": "EAST WINDSOR", "state": "NJ", "street": "659 ABBINGTON DR", "postcode": "08520"}}},
{"geometry": {"type": "Point", "coordinates": [-74.5212127529, 40.2610791101]}, "type": "Feature", "properties": {"collection_times": [{"days": "Mon-Sat", "time": "11:00am"}, {"days": "Sun", "time": "Closed"}], "id": "0852000021", "name": "USPS COLLECTION BOX - BLUE BOX", "address": {"city": "EAST WINDSOR", "state": "NJ", "street": "1 MEADOW LKS", "postcode": "08520"}}},
{"geometry": {"type": "Point", "coordinates": [-74.5257436992, 40.2679766684]}, "type": "Feature", "properties": {"collection_times": [{"days": "Mon-Fri", "time": "5:00pm"}, {"days": "Sat", "time": "3:00pm"}, {"days": "Sun", "time": "Closed"}], "id": "0852000027", "name": "USPS COLLECTION BOX - BLUE BOX", "address": {"city": "EAST WINDSOR", "state": "NJ", "street": "150 MERCER ST", "postcode": "08520"}}},
{"geometry": {"type": "Point", "coordinates": [-74.532150605, 40.279259731]}, "type": "Feature", "properties": {"collection_times": [{"days": "Mon-Sat", "time": "11:30am"}, {"days": "Sun", "time": "Closed"}], "id": "0852000037", "name": "USPS COLLECTION BOX - BLUE BOX", "address": {"city": "EAST WINDSOR", "state": "NJ", "street": "319 US HIGHWAY 130", "postcode": "08520"}}},
{"geometry": {"type": "Point", "coordinates": [-74.4941882688, 40.2701036286]}, "type": "Feature", "properties": {"collection_times": [{"days": "Mon-Sat", "time": "11:15am"}, {"days": "Sun", "time": "Closed"}], "id": "0852000039", "name": "USPS COLLECTION BOX - BLUE BOX", "address": {"city": "EAST WINDSOR", "state": "NJ", "street": "451 PROBASCO RD", "postcode": "08520"}}},
{"geometry": {"type": "Point", "coordinates": [-74.5257436992, 40.2679766684]}, "type": "Feature", "properties": {"collection_times": [{"days": "Mon-Sat", "time": "5:00pm"}, {"days": "Sun", "time": "Closed"}], "id": "0852000040", "name": "USPS COLLECTION BOX - PO LOBBY", "address": {"city": "EAST WINDSOR", "state": "NJ", "street": "150 MERCER ST", "postcode": "08520"}}},
{"geometry": {"type": "Point", "coordinates": [-74.7612708291, 40.3883084372]}, "type": "Feature", "properties": {"collection_times": [{"days": "Mon-Fri", "time": "4:45pm"}, {"days": "Sat", "time": "12:00pm"}, {"days": "Sun", "time": "Closed"}], "id": "0852500001", "name": "USPS COLLECTION BOX - BLUE BOX", "address": {"city": "HOPEWELL", "state": "NJ", "street": "9 S GREENWOOD AVE", "postcode": "08525"}}},
{"geometry": {"type": "Point", "coordinates": [-74.7649841373, 40.3875631731]}, "type": "Feature", "properties": {"collection_times": [{"days": "Mon-Sat", "time": "9:45am"}, {"days": "Sun", "time": "Closed"}], "id": "0852500003", "name": "USPS COLLECTION BOX - BLUE BOX", "address": {"city": "HOPEWELL", "state": "NJ", "street": "57 W BROAD ST", "postcode": "08525"}}},
{"geometry": {"type": "Point", "coordinates": [-74.7672341253, 40.3862299783]}, "type": "Feature", "properties": {"collection_times": [{"days": "Mon-Sat", "time": "12:00pm"}, {"days": "Sun", "time": "Closed"}], "id": "0852500004", "name": "USPS COLLECTION BOX - BLUE BOX", "address": {"city": "HOPEWELL", "state": "NJ", "street": "93 W BROAD ST", "postcode": "08525"}}},
{"geometry": {"type": "Point", "coordinates": [-74.7667491121, 40.3889093804]}, "type": "Feature", "properties": {"collection_times": [{"days": "Mon-Sat", "time": "1:00pm"}, {"days": "Sun", "time": "Closed"}], "id": "0852500006", "name": "USPS COLLECTION BOX - BLUE BOX", "address": {"city": "HOPEWELL", "state": "NJ", "street": "51 MODEL AVE", "postcode": "08525"}}},
{"geometry": {"type": "Point", "coordinates": [-74.7573374906, 40.3904969113]}, "type": "Feature", "properties": {"collection_times": [{"days": "Mon-Sat", "time": "11:30am"}, {"days": "Sun", "time": "Closed"}], "id": "0852500009", "name": "USPS COLLECTION BOX - BLUE BOX", "address": {"city": "HOPEWELL", "state": "NJ", "street": "52 E BROAD ST", "postcode": "08525"}}},
{"geometry": {"type": "Point", "coordinates": [-74.7603445723, 40.3897208902]}, "type": "Feature", "properties": {"collection_times": [{"days": "Mon-Sat", "time": "10:00am"}, {"days": "Sun", "time": "Closed"}], "id": "0852500012", "name": "USPS COLLECTION BOX - BLUE BOX", "address": {"city": "HOPEWELL", "state": "NJ", "street": "21 E BROAD ST", "postcode": "08525"}}},
{"geometry": {"type": "Point", "coordinates": [-74.7612708291, 40.3883084372]}, "type": "Feature", "properties": {"collection_times": [{"days": "Mon-Fri", "time": "4:45pm"}, {"days": "Sat", "time": "12:00pm"}, {"days": "Sun", "time": "Closed"}], "id": "0852500013", "name": "USPS COLLECTION BOX - PO LOBBY", "address": {"city": "HOPEWELL", "state": "NJ", "street": "9 S GREENWOOD AVE", "postcode": "08525"}}},
{"geometry": {"type": "Point", "coordinates": [-74.5293045487, 40.1327771003]}, "type": "Feature", "properties": {"collection_times": [{"days": "Mon-Sat", "time": "11:00am"}, {"days": "Sun", "time": "Closed"}], "id": "0852600001", "name": "USPS COLLECTION BOX - BLUE BOX", "address": {"city": "IMLAYSTOWN", "state": "NJ", "street": "41 MAIN ST", "postcode": "08526"}}},
{"geometry": {"type": "Point", "coordinates": [-74.3110660718, 40.1222015858]}, "type": "Feature", "properties": {"collection_times": [{"days": "Mon-Fri", "time": "4:30pm"}, {"days": "Sat", "time": "12:00pm"}, {"days": "Sun", "time": "Closed"}], "id": "0852700001", "name": "USPS COLLECTION BOX - EXPRESS", "address": {"city": "JACKSON", "state": "NJ", "street": "915 BENNETTS MILLS RD", "postcode": "08527"}}},
{"geometry": {"type": "Point", "coordinates": [-74.2741496206, 40.130015262]}, "type": "Feature", "properties": {"collection_times": [{"days": "Mon-Fri", "time": "5:00pm"}, {"days": "Sat", "time": "3:00pm"}, {"days": "Sun", "time": "Closed"}], "id": "0852700002", "name": "USPS COLLECTION BOX - BLUE BOX", "address": {"city": "JACKSON", "state": "NJ", "street": "915 BENNETTS MILLS RD", "postcode": "08527"}}},
{"geometry": {"type": "Point", "coordinates": [-74.2620490411, 40.1435152458]}, "type": "Feature", "properties": {"collection_times": [{"days": "Mon-Sat", "time": "11:00am"}, {"days": "Sun", "time": "Closed"}], "id": "0852700005", "name": "USPS COLLECTION BOX - BLUE BOX", "address": {"city": "JACKSON", "state": "NJ", "street": "1 E CONNECTICUT CONCOURSE", "postcode": "08527"}}},
{"geometry": {"type": "Point", "coordinates": [-74.3535534427, 40.1055079735]}, "type": "Feature", "properties": {"collection_times": [{"days": "Mon-Sat", "time": "11:00am"}, {"days": "Sun", "time": "Closed"}], "id": "0852700006", "name": "USPS COLLECTION BOX - BLUE BOX", "address": {"city": "JACKSON", "state": "NJ", "street": "1 ATRIUM WAY", "postcode": "08527"}}},
{"geometry": {"type": "Point", "coordinates": [-74.2694201507, 40.1432502069]}, "type": "Feature", "properties": {"collection_times": [{"days": "Mon-Sat", "time": "11:00am"}, {"days": "Sun", "time": "Closed"}], "id": "0852700007", "name": "USPS COLLECTION BOX - BLUE BOX", "address": {"city": "JACKSON", "state": "NJ", "street": "2 HARFIELD DR", "postcode": "08527"}}},
{"geometry": {"type": "Point", "coordinates": [-74.3927199636, 40.1035335426]}, "type": "Feature", "properties": {"collection_times": [{"days": "Mon-Sat", "time": "11:00am"}, {"days": "Sun", "time": "Closed"}], "id": "0852700012", "name": "USPS COLLECTION BOX - BLUE BOX", "address": {"city": "JACKSON", "state": "NJ", "street": "95 W VETERANS HWY", "postcode": "08527"}}},
{"geometry": {"type": "Point", "coordinates": [-74.3535534427, 40.1055079735]}, "type": "Feature", "properties": {"collection_times": [{"days": "Mon-Sat", "time": "11:00am"}, {"days": "Sun", "time": "Closed"}], "id": "0852700014", "name": "USPS COLLECTION BOX - BLUE BOX", "address": {"city": "JACKSON", "state": "NJ", "street": "1 SOUTH ST", "postcode": "08527"}}},
{"geometry": {"type": "Point", "coordinates": [-74.2533780442, 40.1195200501]}, "type": "Feature", "properties": {"collection_times": [{"days": "Mon-Sat", "time": "11:00am"}, {"days": "Sun", "time": "Closed"}], "id": "0852700016", "name": "USPS COLLECTION BOX - BLUE BOX", "address": {"city": "JACKSON", "state": "NJ", "street": "400 S NEW PROSPECT RD", "postcode": "08527"}}},
{"geometry": {"type": "Point", "coordinates": [-74.2725147713, 40.0687356217]}, "type": "Feature", "properties": {"collection_times": [{"days": "Mon-Sat", "time": "11:00am"}, {"days": "Sun", "time": "Closed"}], "id": "0852700017", "name": "USPS COLLECTION BOX - BLUE BOX", "address": {"city": "JACKSON", "state": "NJ", "street": "305 WHITESVILLE RD", "postcode": "08527"}}},
{"geometry": {"type": "Point", "coordinates": [-74.3565249682, 40.067805816]}, "type": "Feature", "properties": {"collection_times": [{"days": "Mon-Sat", "time": "11:00am"}, {"days": "Sun", "time": "Closed"}], "id": "0852700020", "name": "USPS COLLECTION BOX - BLUE BOX", "address": {"city": "JACKSON", "state": "NJ", "street": "2 LISA LN S", "postcode": "08527"}}},
{"geometry": {"type": "Point", "coordinates": [-74.2542998651, 40.1236810737]}, "type": "Feature", "properties": {"collection_times": [{"days": "Mon-Sat", "time": "11:00am"}, {"days": "Sun", "time": "Closed"}], "id": "0852700021", "name": "USPS COLLECTION BOX - BLUE BOX", "address": {"city": "JACKSON", "state": "NJ", "street": "330 S NEW PROSPECT RD", "postcode": "08527"}}},
{"geometry": {"type": "Point", "coordinates": [-74.2949140993, 40.138144556]}, "type": "Feature", "properties": {"collection_times": [{"days": "Mon-Sat", "time": "11:00am"}, {"days": "Sun", "time": "Closed"}], "id": "0852700024", "name": "USPS COLLECTION BOX - BLUE BOX", "address": {"city": "JACKSON", "state": "NJ", "street": "260 N COUNTYLINE RD", "postcode": "08527"}}},
{"geometry": {"type": "Point", "coordinates": [-74.2741496206, 40.130015262]}, "type": "Feature", "properties": {"collection_times": [{"days": "Mon-Fri", "time": "5:00pm"}, {"days": "Sat", "time": "3:00pm"}, {"days": "Sun", "time": "Closed"}], "id": "0852700025", "name": "USPS COLLECTION BOX - APC", "address": {"city": "JACKSON", "state": "NJ", "street": "915 BENNETTS MILLS RD", "postcode": "08527"}}},
{"geometry": {"type": "Point", "coordinates": [-74.2741496206, 40.130015262]}, "type": "Feature", "properties": {"collection_times": [{"days": "Mon-Fri", "time": "5:00pm"}, {"days": "Sat", "time": "3:00pm"}, {"days": "Sun", "time": "Closed"}], "id": "0852700026", "name": "USPS COLLECTION BOX - PO LOBBY", "address": {"city": "JACKSON", "state": "NJ", "street": "915 BENNETTS MILLS RD", "postcode": "08527"}}},
{"geometry": {"type": "Point", "coordinates": [-74.6151339934, 40.3750616627]}, "type": "Feature", "properties": {"collection_times": [{"days": "Mon-Fri", "time": "4:45pm"}, {"days": "Sat", "time": "12:30pm"}, {"days": "Sun", "time": "Closed"}], "id": "0852800001", "name": "USPS COLLECTION BOX - BLUE BOX", "address": {"city": "KINGSTON", "state": "NJ", "street": "4599 STATE ROUTE 27", "postcode": "08528"}}},
{"geometry": {"type": "Point", "coordinates": [-74.6151339934, 40.3750616627]}, "type": "Feature", "properties": {"collection_times": [{"days": "Mon-Fri", "time": "4:45pm"}, {"days": "Sat", "time": "12:30pm"}, {"days": "Sun", "time": "Closed"}], "id": "0852800002", "name": "USPS COLLECTION BOX - PO LOBBY", "address": {"city": "KINGSTON", "state": "NJ", "street": "4599 STATE ROUTE 27", "postcode": "08528"}}},
{"geometry": {"type": "Point", "coordinates": [-74.9461992553, 40.3681318891]}, "type": "Feature", "properties": {"collection_times": [{"days": "Mon-Fri", "time": "5:00pm"}, {"days": "Sat", "time": "12:00pm"}, {"days": "Sun", "time": "Closed"}], "id": "0853000002", "name": "USPS COLLECTION BOX - BLUE BOX", "address": {"city": "LAMBERTVILLE", "state": "NJ", "street": "10 YORK ST", "postcode": "08530"}}},
{"geometry": {"type": "Point", "coordinates": [-74.9461992553, 40.3681318891]}, "type": "Feature", "properties": {"collection_times": [{"days": "Mon-Fri", "time": "5:00pm"}, {"days": "Sat", "time": "12:00pm"}, {"days": "Sun", "time": "Closed"}], "id": "0853000003", "name": "USPS COLLECTION BOX - BLUE BOX", "address": {"city": "LAMBERTVILLE", "state": "NJ", "street": "10 YORK ST", "postcode": "08530"}}},
{"geometry": {"type": "Point", "coordinates": [-74.944938221, 40.3660983827]}, "type": "Feature", "properties": {"collection_times": [{"days": "Mon-Sat", "time": "1:00pm"}, {"days": "Sun", "time": "Closed"}], "id": "0853000004", "name": "USPS COLLECTION BOX - BLUE BOX", "address": {"city": "LAMBERTVILLE", "state": "NJ", "street": "9 N UNION ST", "postcode": "08530"}}},
{"geometry": {"type": "Point", "coordinates": [-74.9453295797, 40.3655254709]}, "type": "Feature", "properties": {"collection_times": [{"days": "Mon-Sat", "time": "1:15pm"}, {"days": "Sun", "time": "Closed"}], "id": "0853000005", "name": "USPS COLLECTION BOX - BLUE BOX", "address": {"city": "LAMBERTVILLE", "state": "NJ", "street": "29 BRIDGE ST", "postcode": "08530"}}},
{"geometry": {"type": "Point", "coordinates": [-74.9472994071, 40.3770324724]}, "type": "Feature", "properties": {"collection_times": [{"days": "Mon-Sat", "time": "11:00am"}, {"days": "Sun", "time": "Closed"}], "id": "0853000007", "name": "USPS COLLECTION BOX - BLUE BOX", "address": {"city": "LAMBERTVILLE", "state": "NJ", "street": "1 CHERRY ST", "postcode": "08530"}}},
{"geometry": {"type": "Point", "coordinates": [-74.9435399635, 40.3684477392]}, "type": "Feature", "properties": {"collection_times": [{"days": "Mon-Sat", "time": "9:30am"}, {"days": "Sun", "time": "Closed"}], "id": "0853000009", "name": "USPS COLLECTION BOX - BLUE BOX", "address": {"city": "LAMBERTVILLE", "state": "NJ", "street": "71 N MAIN ST", "postcode": "08530"}}},
{"geometry": {"type": "Point", "coordinates": [-74.9461992553, 40.3681318891]}, "type": "Feature", "properties": {"collection_times": [{"days": "Mon-Fri", "time": "5:00pm"}, {"days": "Sat", "time": "12:00pm"}, {"days": "Sun", "time": "Closed"}], "id": "0853000011", "name": "USPS COLLECTION BOX - PO LOBBY", "address": {"city": "LAMBERTVILLE", "state": "NJ", "street": "10 YORK ST", "postcode": "08530"}}},
{"geometry": {"type": "Point", "coordinates": [-74.5284692367, 40.0686031303]}, "type": "Feature", "properties": {"collection_times": [{"days": "Mon-Fri", "time": "4:45pm"}, {"days": "Sat", "time": "4:00pm"}, {"days": "Sun", "time": "Closed"}], "id": "0853300002", "name": "USPS COLLECTION BOX - BLUE BOX", "address": {"city": "NEW EGYPT", "state": "NJ", "street": "22 N MAIN ST", "postcode": "08533"}}},
{"geometry": {"type": "Point", "coordinates": [-74.5408394386, 40.0638085976]}, "type": "Feature", "properties": {"collection_times": [{"days": "Mon-Sat", "time": "11:00am"}, {"days": "Sun", "time": "Closed"}], "id": "0853300003", "name": "USPS COLLECTION BOX - BLUE BOX", "address": {"city": "NEW EGYPT", "state": "NJ", "street": "78 MAPLE AVE", "postcode": "08533"}}},
{"geometry": {"type": "Point", "coordinates": [-74.5284692367, 40.0686031303]}, "type": "Feature", "properties": {"collection_times": [{"days": "Mon-Fri", "time": "4:45pm"}, {"days": "Sat", "time": "4:00pm"}, {"days": "Sun", "time": "Closed"}], "id": "0853300007", "name": "USPS COLLECTION BOX - PO LOBBY", "address": {"city": "NEW EGYPT", "state": "NJ", "street": "22 N MAIN ST", "postcode": "08533"}}},
{"geometry": {"type": "Point", "coordinates": [-74.7785496658, 40.3010884636]}, "type": "Feature", "properties": {"collection_times": [{"days": "Mon-Sat", "time": "11:00am"}, {"days": "Sun", "time": "Closed"}], "id": "0853400006", "name": "USPS COLLECTION BOX - BLUE BOX", "address": {"city": "PENNINGTON", "state": "NJ", "street": "800 DENOW RD", "postcode": "08534"}}},
{"geometry": {"type": "Point", "coordinates": [-74.7973104925, 40.3369415281]}, "type": "Feature", "properties": {"collection_times": [{"days": "Mon-Sat", "time": "11:00am"}, {"days": "Sun", "time": "Closed"}], "id": "0853400007", "name": "USPS COLLECTION BOX - BLUE BOX", "address": {"city": "PENNINGTON", "state": "NJ", "street": "25 STATE ROUTE 31 N", "postcode": "08534"}}},
{"geometry": {"type": "Point", "coordinates": [-74.7903645072, 40.3220162935]}, "type": "Feature", "properties": {"collection_times": [{"days": "Mon-Sat", "time": "11:00am"}, {"days": "Sun", "time": "Closed"}], "id": "0853400010", "name": "USPS COLLECTION BOX - BLUE BOX", "address": {"city": "PENNINGTON", "state": "NJ", "street": "275 S MAIN ST", "postcode": "08534"}}},
{"geometry": {"type": "Point", "coordinates": [-74.7907300563, 40.3257429205]}, "type": "Feature", "properties": {"collection_times": [{"days": "Mon-Sat", "time": "11:00am"}, {"days": "Sun", "time": "Closed"}], "id": "0853400014", "name": "USPS COLLECTION BOX - BLUE BOX", "address": {"city": "PENNINGTON", "state": "NJ", "street": "65 S MAIN ST", "postcode": "08534"}}},
{"geometry": {"type": "Point", "coordinates": [-74.7971730689, 40.3301357238]}, "type": "Feature", "properties": {"collection_times": [{"days": "Mon-Fri", "time": "5:00pm"}, {"days": "Sat", "time": "3:00pm"}, {"days": "Sun", "time": "Closed"}], "id": "0853400015", "name": "USPS COLLECTION BOX - BLUE BOX", "address": {"city": "PENNINGTON", "state": "NJ", "street": "125 BROEMEL PL", "postcode": "08534"}}},
{"geometry": {"type": "Point", "coordinates": [-74.7970446912, 40.3377428563]}, "type": "Feature", "properties": {"collection_times": [{"days": "Mon-Sat", "time": "11:00am"}, {"days": "Sun", "time": "Closed"}], "id": "0853400018", "name": "USPS COLLECTION BOX - BLUE BOX", "address": {"city": "PENNINGTON", "state": "NJ", "street": "23 STATE ROUTE 31 N", "postcode": "08534"}}},
{"geometry": {"type": "Point", "coordinates": [-74.7912788348, 40.3303628304]}, "type": "Feature", "properties": {"collection_times": [{"days": "Mon-Sat", "time": "11:00am"}, {"days": "Sun", "time": "Closed"}], "id": "0853400019", "name": "USPS COLLECTION BOX - BLUE BOX", "address": {"city": "PENNINGTON", "state": "NJ", "street": "1 SHREWSBURY CT", "postcode": "08534"}}},
{"geometry": {"type": "Point", "coordinates": [-74.7971730689, 40.3301357238]}, "type": "Feature", "properties": {"collection_times": [{"days": "Mon-Fri", "time": "5:00pm"}, {"days": "Sat", "time": "4:00pm"}, {"days": "Sun", "time": "Closed"}], "id": "0853400020", "name": "USPS COLLECTION BOX - PO LOBBY", "address": {"city": "PENNINGTON", "state": "NJ", "street": "125 BROEMEL PL", "postcode": "08534"}}},
{"geometry": {"type": "Point", "coordinates": [-74.4300189094, 40.2253271175]}, "type": "Feature", "properties": {"collection_times": [{"days": "Mon-Fri", "time": "4:30pm"}, {"days": "Sat", "time": "12:00pm"}, {"days": "Sun", "time": "Closed"}], "id": "0853500001", "name": "USPS COLLECTION BOX - BLUE BOX", "address": {"city": "PERRINEVILLE", "state": "NJ", "street": "221 MILLSTONE RD", "postcode": "08535"}}},
{"geometry": {"type": "Point", "coordinates": [-74.4300189094, 40.2253271175]}, "type": "Feature", "properties": {"collection_times": [{"days": "Mon-Fri", "time": "4:30pm"}, {"days": "Sat", "time": "12:00pm"}, {"days": "Sun", "time": "Closed"}], "id": "0853500002", "name": "USPS COLLECTION BOX - PO LOBBY", "address": {"city": "PERRINEVILLE", "state": "NJ", "street": "221 MILLSTONE RD", "postcode": "08535"}}},
{"geometry": {"type": "Point", "coordinates": [-74.5926045399, 40.3368307949]}, "type": "Feature", "properties": {"collection_times": [{"days": "Mon-Fri", "time": "5:00pm"}, {"days": "Sat", "time": "3:00pm"}, {"days": "Sun", "time": "Closed"}], "id": "0853600002", "name": "USPS COLLECTION BOX - BLUE BOX", "address": {"city": "PLAINSBORO", "state": "NJ", "street": "12 SCHALKS CROSSING RD", "postcode": "08536"}}},
{"geometry": {"type": "Point", "coordinates": [-74.5926045399, 40.3368307949]}, "type": "Feature", "properties": {"collection_times": [{"days": "Mon-Fri", "time": "5:00pm"}, {"days": "Sat", "time": "3:00pm"}, {"days": "Sun", "time": "Closed"}], "id": "0853600003", "name": "USPS COLLECTION BOX - BLUE BOX", "address": {"city": "PLAINSBORO", "state": "NJ", "street": "12 SCHALKS CROSSING RD", "postcode": "08536"}}},
{"geometry": {"type": "Point", "coordinates": [-74.5926045399, 40.3368307949]}, "type": "Feature", "properties": {"collection_times": [{"days": "Mon-Fri", "time": "5:00pm"}, {"days": "Sat", "time": "3:00pm"}, {"days": "Sun", "time": "Closed"}], "id": "0853600004", "name": "USPS COLLECTION BOX - BLUE BOX", "address": {"city": "PLAINSBORO", "state": "NJ", "street": "12 SCHALKS CROSSING RD", "postcode": "08536"}}},
{"geometry": {"type": "Point", "coordinates": [-74.5885525734, 40.3319714025]}, "type": "Feature", "properties": {"collection_times": [{"days": "Mon-Sat", "time": "11:00am"}, {"days": "Sun", "time": "Closed"}], "id": "0853600005", "name": "USPS COLLECTION BOX - BLUE BOX", "address": {"city": "PLAINSBORO", "state": "NJ", "street": "70 FOX RUN DR", "postcode": "08536"}}},
{"geometry": {"type": "Point", "coordinates": [-74.5729155588, 40.3274579858]}, "type": "Feature", "properties": {"collection_times": [{"days": "Mon-Sat", "time": "11:00am"}, {"days": "Sun", "time": "Closed"}], "id": "0853600008", "name": "USPS COLLECTION BOX - BLUE BOX", "address": {"city": "PLAINSBORO", "state": "NJ", "street": "101 DEER CREEK DR", "postcode": "08536"}}},
{"geometry": {"type": "Point", "coordinates": [-74.5713284284, 40.3292174888]}, "type": "Feature", "properties": {"collection_times": [{"days": "Mon-Sat", "time": "11:00am"}, {"days": "Sun", "time": "Closed"}], "id": "0853600009", "name": "USPS COLLECTION BOX - BLUE BOX", "address": {"city": "PLAINSBORO", "state": "NJ", "street": "1101 HUNTERS GLEN DR", "postcode": "08536"}}},
{"geometry": {"type": "Point", "coordinates": [-74.5606849772, 40.3322603243]}, "type": "Feature", "properties": {"collection_times": [{"days": "Mon-Sat", "time": "11:00am"}, {"days": "Sun", "time": "Closed"}], "id": "0853600010", "name": "USPS COLLECTION BOX - BLUE BOX", "address": {"city": "PLAINSBORO", "state": "NJ", "street": "2101 QUAIL RIDGE DR", "postcode": "08536"}}},
{"geometry": {"type": "Point", "coordinates": [-74.5926045399, 40.3368307949]}, "type": "Feature", "properties": {"collection_times": [{"days": "Mon-Fri", "time": "5:00pm"}, {"days": "Sat", "time": "3:00pm"}, {"days": "Sun", "time": "Closed"}], "id": "0853600012", "name": "USPS COLLECTION BOX - APC", "address": {"city": "PLAINSBORO", "state": "NJ", "street": "12 SCHALKS CROSSING RD", "postcode": "08536"}}},
{"geometry": {"type": "Point", "coordinates": [-74.5926045399, 40.3368307949]}, "type": "Feature", "properties": {"collection_times": [{"days": "Mon-Fri", "time": "5:00pm"}, {"days": "Sat", "time": "3:00pm"}, {"days": "Sun", "time": "Closed"}], "id": "0853600013", "name": "USPS COLLECTION BOX - PO LOBBY", "address": {"city": "PLAINSBORO", "state": "NJ", "street": "12 SCHALKS CROSSING RD", "postcode": "08536"}}},
{"geometry": {"type": "Point", "coordinates": [-74.6479646536, 40.3214203885]}, "type": "Feature", "properties": {"collection_times": [{"days": "Mon-Sat", "time": "11:00am"}, {"days": "Sun", "time": "Closed"}], "id": "0854000015", "name": "USPS COLLECTION BOX - BLUE BOX", "address": {"city": "PRINCETON", "state": "NJ", "street": "101 CARNEGIE CTR", "postcode": "08540"}}},
{"geometry": {"type": "Point", "coordinates": [-74.60071192, 40.3571974656]}, "type": "Feature", "properties": {"collection_times": [{"days": "Mon-Sat", "time": "11:00am"}, {"days": "Sun", "time": "Closed"}], "id": "0854000019", "name": "USPS COLLECTION BOX - BLUE BOX", "address": {"city": "PRINCETON", "state": "NJ", "street": "105 COLLEGE RD E", "postcode": "08540"}}},
{"geometry": {"type": "Point", "coordinates": [-74.6609569319, 40.3505364495]}, "type": "Feature", "properties": {"collection_times": [{"days": "Mon-Fri", "time": "5:00pm"}, {"days": "Sat", "time": "3:00pm"}, {"days": "Sun", "time": "Closed"}], "id": "0854000026", "name": "USPS COLLECTION BOX - BLUE BOX", "address": {"city": "PRINCETON", "state": "NJ", "street": "20 PALMER SQ E", "postcode": "08540"}}},
{"geometry": {"type": "Point", "coordinates": [-74.6562098775, 40.3226755079]}, "type": "Feature", "properties": {"collection_times": [{"days": "Mon-Sat", "time": "11:00am"}, {"days": "Sun", "time": "Closed"}], "id": "0854000034", "name": "USPS COLLECTION BOX - BLUE BOX", "address": {"city": "PRINCETON", "state": "NJ", "street": "106 HERITAGE BLVD", "postcode": "08540"}}},
{"geometry": {"type": "Point", "coordinates": [-74.6622061996, 40.3251158713]}, "type": "Feature", "properties": {"collection_times": [{"days": "Mon-Sat", "time": "11:00am"}, {"days": "Sun", "time": "Closed"}], "id": "0854000035", "name": "USPS COLLECTION BOX - BLUE BOX", "address": {"city": "PRINCETON", "state": "NJ", "street": "1 HOLLY HOUSE", "postcode": "08540"}}},
{"geometry": {"type": "Point", "coordinates": [-74.6829348473, 40.3020307466]}, "type": "Feature", "properties": {"collection_times": [{"days": "Mon-Fri", "time": "3:00pm"}, {"days": "Sat", "time": "11:00am"}, {"days": "Sun", "time": "Closed"}], "id": "0854000046", "name": "USPS COLLECTION BOX - BLUE BOX", "address": {"city": "PRINCETON", "state": "NJ", "street": "100 NASSAU PARK BLVD", "postcode": "08540"}}},
{"geometry": {"type": "Point", "coordinates": [-74.6631952502, 40.3487077029]}, "type": "Feature", "properties": {"collection_times": [{"days": "Mon-Sat", "time": "11:00am"}, {"days": "Sun", "time": "Closed"}], "id": "0854000049", "name": "USPS COLLECTION BOX - BLUE BOX", "address": {"city": "PRINCETON", "state": "NJ", "street": "10 NASSAU ST", "postcode": "08540"}}},
{"geometry": {"type": "Point", "coordinates": [-74.6447629601, 40.3541962202]}, "type": "Feature", "properties": {"collection_times": [{"days": "Mon-Sat", "time": "3:00pm"}, {"days": "Sun", "time": "Closed"}], "id": "0854000051", "name": "USPS COLLECTION BOX - BLUE BOX", "address": {"city": "PRINCETON", "state": "NJ", "street": "353 NASSAU ST", "postcode": "08540"}}},
{"geometry": {"type": "Point", "coordinates": [-74.6545880408, 40.3512155759]}, "type": "Feature", "properties": {"collection_times": [{"days": "Mon-Sat", "time": "3:00pm"}, {"days": "Sun", "time": "Closed"}], "id": "0854000053", "name": "USPS COLLECTION BOX - BLUE BOX", "address": {"city": "PRINCETON", "state": "NJ", "street": "210 NASSAU ST", "postcode": "08540"}}},
{"geometry": {"type": "Point", "coordinates": [-74.6595044183, 40.3497451579]}, "type": "Feature", "properties": {"collection_times": [{"days": "Mon-Sat", "time": "3:00pm"}, {"days": "Sun", "time": "Closed"}], "id": "0854000058", "name": "USPS COLLECTION BOX - BLUE BOX", "address": {"city": "PRINCETON", "state": "NJ", "street": "92 NASSAU ST", "postcode": "08540"}}},
{"geometry": {"type": "Point", "coordinates": [-74.66196379, 40.3504785925]}, "type": "Feature", "properties": {"collection_times": [{"days": "Mon-Sat", "time": "3:00pm"}, {"days": "Sun", "time": "Closed"}], "id": "0854000061", "name": "USPS COLLECTION BOX - BLUE BOX", "address": {"city": "PRINCETON", "state": "NJ", "street": "1 PALMER SQ W", "postcode": "08540"}}},
{"geometry": {"type": "Point", "coordinates": [-74.66196379, 40.3504785925]}, "type": "Feature", "properties": {"collection_times": [{"days": "Mon-Sat", "time": "3:00pm"}, {"days": "Sun", "time": "Closed"}], "id": "0854000062", "name": "USPS COLLECTION BOX - BLUE BOX", "address": {"city": "PRINCETON", "state": "NJ", "street": "1 PALMER SQ W", "postcode": "08540"}}},
{"geometry": {"type": "Point", "coordinates": [-74.6525119478, 40.3634781286]}, "type": "Feature", "properties": {"collection_times": [{"days": "Mon-Sat", "time": "3:00pm"}, {"days": "Sun", "time": "Closed"}], "id": "0854000067", "name": "USPS COLLECTION BOX - BLUE BOX", "address": {"city": "PRINCETON", "state": "NJ", "street": "301 N HARRISON ST", "postcode": "08540"}}},
{"geometry": {"type": "Point", "coordinates": [-74.660722866, 40.3455172626]}, "type": "Feature", "properties": {"collection_times": [{"days": "Mon-Sat", "time": "11:00am"}, {"days": "Sun", "time": "Closed"}], "id": "0854000070", "name": "USPS COLLECTION BOX - BLUE BOX", "address": {"city": "PRINCETON", "state": "NJ", "street": "71 UNIVERSITY PL", "postcode": "08540"}}},
{"geometry": {"type": "Point", "coordinates": [-74.660805767, 40.3730994241]}, "type": "Feature", "properties": {"collection_times": [{"days": "Mon-Sat", "time": "11:00am"}, {"days": "Sun", "time": "Closed"}], "id": "0854000071", "name": "USPS COLLECTION BOX - BLUE BOX", "address": {"city": "PRINCETON", "state": "NJ", "street": "200 REDDING CIR", "postcode": "08540"}}},
{"geometry": {"type": "Point", "coordinates": [-74.6205699203, 40.3496728286]}, "type": "Feature", "properties": {"collection_times": [{"days": "Mon-Sat", "time": "11:00am"}, {"days": "Sun", "time": "Closed"}], "id": "0854000072", "name": "USPS COLLECTION BOX - BLUE BOX", "address": {"city": "PRINCETON", "state": "NJ", "street": "580 SAYRE DR", "postcode": "08540"}}},
{"geometry": {"type": "Point", "coordinates": [-74.6502081849, 40.4017271748]}, "type": "Feature", "properties": {"collection_times": [{"days": "Mon-Sat", "time": "11:00am"}, {"days": "Sun", "time": "Closed"}], "id": "0854000074", "name": "USPS COLLECTION BOX - BLUE BOX", "address": {"city": "PRINCETON", "state": "NJ", "street": "1225 STATE RD", "postcode": "08540"}}},
{"geometry": {"type": "Point", "coordinates": [-74.647515546, 40.3560226334]}, "type": "Feature", "properties": {"collection_times": [{"days": "Mon-Sat", "time": "11:00am"}, {"days": "Sun", "time": "Closed"}], "id": "0854000076", "name": "USPS COLLECTION BOX - BLUE BOX", "address": {"city": "PRINCETON", "state": "NJ", "street": "181 SPRUCE CIR", "postcode": "08540"}}},
{"geometry": {"type": "Point", "coordinates": [-74.6636495065, 40.3587569393]}, "type": "Feature", "properties": {"collection_times": [{"days": "Mon-Sat", "time": "11:00am"}, {"days": "Sun", "time": "Closed"}], "id": "0854000077", "name": "USPS COLLECTION BOX - BLUE BOX", "address": {"city": "PRINCETON", "state": "NJ", "street": "372 WITHERSPOON ST", "postcode": "08540"}}},
{"geometry": {"type": "Point", "coordinates": [-74.6664684977, 40.3078778742]}, "type": "Feature", "properties": {"collection_times": [{"days": "Mon-Sat", "time": "11:00am"}, {"days": "Sun", "time": "Closed"}], "id": "0854000079", "name": "USPS COLLECTION BOX - BLUE BOX", "address": {"city": "PRINCETON", "state": "NJ", "street": "3490 US HIGHWAY 1", "postcode": "08540"}}},
{"geometry": {"type": "Point", "coordinates": [-74.660125124, 40.3507865269]}, "type": "Feature", "properties": {"collection_times": [{"days": "Mon-Sat", "time": "3:00pm"}, {"days": "Sun", "time": "Closed"}], "id": "0854000084", "name": "USPS COLLECTION BOX - BLUE BOX", "address": {"city": "PRINCETON", "state": "NJ", "street": "33 WITHERSPOON ST", "postcode": "08540"}}},
{"geometry": {"type": "Point", "coordinates": [-74.6457835123, 40.3179187257]}, "type": "Feature", "properties": {"collection_times": [{"days": "Mon-Fri", "time": "5:00pm"}, {"days": "Sat", "time": "3:00pm"}, {"days": "Sun", "time": "Closed"}], "id": "0854000087", "name": "USPS COLLECTION BOX - BLUE BOX", "address": {"city": "PRINCETON", "state": "NJ", "street": "213 CARNEGIE CTR", "postcode": "08540"}}},
{"geometry": {"type": "Point", "coordinates": [-74.6490857746, 40.3572012082]}, "type": "Feature", "properties": {"collection_times": [{"days": "Mon-Sat", "time": "11:00am"}, {"days": "Sun", "time": "Closed"}], "id": "0854000096", "name": "USPS COLLECTION BOX - BLUE BOX", "address": {"city": "PRINCETON", "state": "NJ", "street": "104 STANHOPE ST", "postcode": "08540"}}},
{"geometry": {"type": "Point", "coordinates": [-74.6622061996, 40.3251158713]}, "type": "Feature", "properties": {"collection_times": [{"days": "Mon-Sat", "time": "11:00am"}, {"days": "Sun", "time": "Closed"}], "id": "0854000100", "name": "USPS COLLECTION BOX - BLUE BOX", "address": {"city": "PRINCETON", "state": "NJ", "street": "1 APPLEGATE RD", "postcode": "08540"}}},
{"geometry": {"type": "Point", "coordinates": [-74.6634767945, 40.3162118202]}, "type": "Feature", "properties": {"collection_times": [{"days": "Mon-Sat", "time": "11:00am"}, {"days": "Sun", "time": "Closed"}], "id": "0854000102", "name": "USPS COLLECTION BOX - BLUE BOX", "address": {"city": "PRINCETON", "state": "NJ", "street": "102 SEQUOIA CT", "postcode": "08540"}}},
{"geometry": {"type": "Point", "coordinates": [-74.6457835123, 40.3179187257]}, "type": "Feature", "properties": {"collection_times": [{"days": "Mon-Fri", "time": "5:00pm"}, {"days": "Sat", "time": "3:00pm"}, {"days": "Sun", "time": "Closed"}], "id": "0854000103", "name": "USPS COLLECTION BOX - APC", "address": {"city": "PRINCETON", "state": "NJ", "street": "213 CARNEGIE CTR", "postcode": "08540"}}},
{"geometry": {"type": "Point", "coordinates": [-74.6503619061, 40.3524639243]}, "type": "Feature", "properties": {"collection_times": [{"days": "Mon-Fri", "time": "5:00pm"}, {"days": "Sat", "time": "3:00pm"}, {"days": "Sun", "time": "Closed"}], "id": "0854000104", "name": "USPS COLLECTION BOX - APC", "address": {"city": "PRINCETON", "state": "NJ", "street": "259 NASSAU ST STE 2", "postcode": "08540"}}},
{"geometry": {"type": "Point", "coordinates": [-74.6457835123, 40.3179187257]}, "type": "Feature", "properties": {"collection_times": [{"days": "Mon-Fri", "time": "5:00pm"}, {"days": "Sat", "time": "4:00pm"}, {"days": "Sun", "time": "Closed"}], "id": "0854000105", "name": "USPS COLLECTION BOX - PO LOBBY", "address": {"city": "PRINCETON", "state": "NJ", "street": "213 CARNEGIE CTR", "postcode": "08540"}}},
{"geometry": {"type": "Point", "coordinates": [-74.6503619061, 40.3524639243]}, "type": "Feature", "properties": {"collection_times": [{"days": "Mon-Fri", "time": "5:00pm"}, {"days": "Sat", "time": "3:00pm"}, {"days": "Sun", "time": "Closed"}], "id": "0854000109", "name": "USPS COLLECTION BOX - BLUE BOX", "address": {"city": "PRINCETON", "state": "NJ", "street": "259 NASSAU ST STE 2", "postcode": "08540"}}},
{"geometry": {"type": "Point", "coordinates": [-74.6503619061, 40.3524639243]}, "type": "Feature", "properties": {"collection_times": [{"days": "Mon-Fri", "time": "5:00pm"}, {"days": "Sat", "time": "3:00pm"}, {"days": "Sun", "time": "Closed"}], "id": "0854000110", "name": "USPS COLLECTION BOX - BLUE BOX", "address": {"city": "PRINCETON", "state": "NJ", "street": "259 NASSAU ST STE 2", "postcode": "08540"}}},
{"geometry": {"type": "Point", "coordinates": [-74.6503619061, 40.3524639243]}, "type": "Feature", "properties": {"collection_times": [{"days": "Mon-Fri", "time": "4:30pm"}, {"days": "Sat", "time": "2:00pm"}, {"days": "Sun", "time": "Closed"}], "id": "0854000111", "name": "USPS COLLECTION BOX - PO LOBBY", "address": {"city": "PRINCETON", "state": "NJ", "street": "259 NASSAU ST STE 2", "postcode": "08540"}}},
{"geometry": {"type": "Point", "coordinates": [-74.622554695, 40.3192946112]}, "type": "Feature", "properties": {"collection_times": [{"days": "Mon-Sat", "time": "11:00am"}, {"days": "Sun", "time": "Closed"}], "id": "0855000001", "name": "USPS COLLECTION BOX - BLUE BOX", "address": {"city": "PRINCETON JCT", "state": "NJ", "street": "14 WASHINGTON RD", "postcode": "08550"}}},
{"geometry": {"type": "Point", "coordinates": [-74.6216200549, 40.2828304678]}, "type": "Feature", "properties": {"collection_times": [{"days": "Mon-Sat", "time": "11:30am"}, {"days": "Sun", "time": "Closed"}], "id": "0855000002", "name": "USPS COLLECTION BOX - BLUE BOX", "address": {"city": "PRINCETON JCT", "state": "NJ", "street": "64 HIGHTSTOWN/PRINCETON RD", "postcode": "08550"}}},
{"geometry": {"type": "Point", "coordinates": [-74.620232423, 40.3174271658]}, "type": "Feature", "properties": {"collection_times": [{"days": "Mon-Sat", "time": "12:00pm"}, {"days": "Sun", "time": "Closed"}], "id": "0855000003", "name": "USPS COLLECTION BOX - BLUE BOX", "address": {"city": "PRINCETON JCT", "state": "NJ", "street": "2 WALLACE CIR", "postcode": "08550"}}},
{"geometry": {"type": "Point", "coordinates": [-74.6323351317, 40.3053936571]}, "type": "Feature", "properties": {"collection_times": [{"days": "Mon-Fri", "time": "5:00pm"}, {"days": "Sat", "time": "2:00pm"}, {"days": "Sun", "time": "Closed"}], "id": "0855000005", "name": "USPS COLLECTION BOX - BLUE BOX", "address": {"city": "PRINCETON JCT", "state": "NJ", "street": "331 N POST RD", "postcode": "08550"}}},
{"geometry": {"type": "Point", "coordinates": [-74.6323351317, 40.3053936571]}, "type": "Feature", "properties": {"collection_times": [{"days": "Mon-Fri", "time": "5:00pm"}, {"days": "Sat", "time": "2:00pm"}, {"days": "Sun", "time": "Closed"}], "id": "0855000007", "name": "USPS COLLECTION BOX - BLUE BOX", "address": {"city": "PRINCETON JCT", "state": "NJ", "street": "331 N POST RD", "postcode": "08550"}}},
{"geometry": {"type": "Point", "coordinates": [-74.640515561, 40.2997107256]}, "type": "Feature", "properties": {"collection_times": [{"days": "Mon-Sat", "time": "11:00am"}, {"days": "Sun", "time": "Closed"}], "id": "0855000011", "name": "USPS COLLECTION BOX - BLUE BOX", "address": {"city": "PRINCETON JCT", "state": "NJ", "street": "217 CLARKSVILLE RD", "postcode": "08550"}}},
{"geometry": {"type": "Point", "coordinates": [-74.63794854, 40.3016803522]}, "type": "Feature", "properties": {"collection_times": [{"days": "Mon-Sat", "time": "11:00am"}, {"days": "Sun", "time": "Closed"}], "id": "0855000012", "name": "USPS COLLECTION BOX - BLUE BOX", "address": {"city": "PRINCETON JCT", "state": "NJ", "street": "51 EVERETT DR", "postcode": "08550"}}},
{"geometry": {"type": "Point", "coordinates": [-74.5834400602, 40.2910406373]}, "type": "Feature", "properties": {"collection_times": [{"days": "Mon-Sat", "time": "9:00am"}, {"days": "Sun", "time": "Closed"}], "id": "0855000013", "name": "USPS COLLECTION BOX - BLUE BOX", "address": {"city": "PRINCETON JCT", "state": "NJ", "street": "335 PRINCETON HIGHTSTOWN RD", "postcode": "08550"}}},
{"geometry": {"type": "Point", "coordinates": [-74.6049902265, 40.3000177984]}, "type": "Feature", "properties": {"collection_times": [{"days": "Mon-Sat", "time": "9:00am"}, {"days": "Sun", "time": "Closed"}], "id": "0855000014", "name": "USPS COLLECTION BOX - BLUE BOX", "address": {"city": "PRINCETON JCT", "state": "NJ", "street": "196 PRINCETON HIGHTSTOWN RD", "postcode": "08550"}}},
{"geometry": {"type": "Point", "coordinates": [-74.6323351317, 40.3053936571]}, "type": "Feature", "properties": {"collection_times": [{"days": "Mon-Fri", "time": "5:00pm"}, {"days": "Sat", "time": "3:30pm"}, {"days": "Sun", "time": "Closed"}], "id": "0855000015", "name": "USPS COLLECTION BOX - PO LOBBY", "address": {"city": "PRINCETON JCT", "state": "NJ", "street": "331 N POST RD", "postcode": "08550"}}},
{"geometry": {"type": "Point", "coordinates": [-74.8679287754, 40.4262341017]}, "type": "Feature", "properties": {"collection_times": [{"days": "Mon-Fri", "time": "4:30pm"}, {"days": "Sat", "time": "1:00pm"}, {"days": "Sun", "time": "Closed"}], "id": "0855100001", "name": "USPS COLLECTION BOX - BLUE BOX", "address": {"city": "RINGOES", "state": "NJ", "street": "1108 OLD YORK RD", "postcode": "08551"}}},
{"geometry": {"type": "Point", "coordinates": [-74.8679287754, 40.4262341017]}, "type": "Feature", "properties": {"collection_times": [{"days": "Mon-Fri", "time": "4:30pm"}, {"days": "Sat", "time": "1:00pm"}, {"days": "Sun", "time": "Closed"}], "id": "0855100002", "name": "USPS COLLECTION BOX - PO LOBBY", "address": {"city": "RINGOES", "state": "NJ", "street": "1108 OLD YORK RD", "postcode": "08551"}}},
{"geometry": {"type": "Point", "coordinates": [-74.6350710692, 40.4001406825]}, "type": "Feature", "properties": {"collection_times": [{"days": "Mon-Fri", "time": "4:45pm"}, {"days": "Sat", "time": "12:30pm"}, {"days": "Sun", "time": "Closed"}], "id": "0855300001", "name": "USPS COLLECTION BOX - BLUE BOX", "address": {"city": "ROCKY HILL", "state": "NJ", "street": "130 WASHINGTON ST", "postcode": "08553"}}},
{"geometry": {"type": "Point", "coordinates": [-74.6350710692, 40.4001406825]}, "type": "Feature", "properties": {"collection_times": [{"days": "Mon-Fri", "time": "4:45pm"}, {"days": "Sat", "time": "12:30pm"}, {"days": "Sun", "time": "Closed"}], "id": "0855300002", "name": "USPS COLLECTION BOX - PO LOBBY", "address": {"city": "ROCKY HILL", "state": "NJ", "street": "130 WASHINGTON ST", "postcode": "08553"}}},
{"geometry": {"type": "Point", "coordinates": [-74.7766468895, 40.1183354254]}, "type": "Feature", "properties": {"collection_times": [{"days": "Mon-Fri", "time": "4:30pm"}, {"days": "Sat", "time": "1:00pm"}, {"days": "Sun", "time": "Closed"}], "id": "0855400007", "name": "USPS COLLECTION BOX - BLUE BOX", "address": {"city": "ROEBLING", "state": "NJ", "street": "51 MAIN ST", "postcode": "08554"}}},
{"geometry": {"type": "Point", "coordinates": [-74.7766468895, 40.1183354254]}, "type": "Feature", "properties": {"collection_times": [{"days": "Mon-Fri", "time": "4:30pm"}, {"days": "Sat", "time": "1:00pm"}, {"days": "Sun", "time": "Closed"}], "id": "0855400009", "name": "USPS COLLECTION BOX - PO LOBBY", "address": {"city": "ROEBLING", "state": "NJ", "street": "51 MAIN ST", "postcode": "08554"}}},
{"geometry": {"type": "Point", "coordinates": [-74.468198605, 40.2161546356]}, "type": "Feature", "properties": {"collection_times": [{"days": "Mon-Fri", "time": "4:30pm"}, {"days": "Sat", "time": "12:00pm"}, {"days": "Sun", "time": "Closed"}], "id": "0855500001", "name": "USPS COLLECTION BOX - BLUE BOX", "address": {"city": "ROOSEVELT", "state": "NJ", "street": "1 FARM LN", "postcode": "08555"}}},
{"geometry": {"type": "Point", "coordinates": [-74.468198605, 40.2161546356]}, "type": "Feature", "properties": {"collection_times": [{"days": "Mon-Fri", "time": "4:30pm"}, {"days": "Sat", "time": "12:00pm"}, {"days": "Sun", "time": "Closed"}], "id": "0855500002", "name": "USPS COLLECTION BOX - PO LOBBY", "address": {"city": "ROOSEVELT", "state": "NJ", "street": "1 FARM LN", "postcode": "08555"}}},
{"geometry": {"type": "Point", "coordinates": [-75.0009142426, 40.4329037263]}, "type": "Feature", "properties": {"collection_times": [{"days": "Mon-Fri", "time": "4:30pm"}, {"days": "Sat", "time": "12:00pm"}, {"days": "Sun", "time": "Closed"}], "id": "0855600001", "name": "USPS COLLECTION BOX - BLUE BOX", "address": {"city": "ROSEMONT", "state": "NJ", "street": "99 KINGWOOD STOCKTON RD", "postcode": "08556"}}},
{"geometry": {"type": "Point", "coordinates": [-75.0009142426, 40.4329037263]}, "type": "Feature", "properties": {"collection_times": [{"days": "Mon-Fri", "time": "4:30pm"}, {"days": "Sat", "time": "12:00pm"}, {"days": "Sun", "time": "Closed"}], "id": "0855600002", "name": "USPS COLLECTION BOX - PO LOBBY", "address": {"city": "ROSEMONT", "state": "NJ", "street": "99 KINGWOOD STOCKTON RD", "postcode": "08556"}}},
{"geometry": {"type": "Point", "coordinates": [-74.9428297098, 40.4461013983]}, "type": "Feature", "properties": {"collection_times": [{"days": "Mon-Fri", "time": "4:30pm"}, {"days": "Sat", "time": "11:30am"}, {"days": "Sun", "time": "Closed"}], "id": "0855700001", "name": "USPS COLLECTION BOX - BLUE BOX", "address": {"city": "SERGEANTSVILLE", "state": "NJ", "street": "557 ROSEMONT RINGOES RD", "postcode": "08557"}}},
{"geometry": {"type": "Point", "coordinates": [-74.9428297098, 40.4461013983]}, "type": "Feature", "properties": {"collection_times": [{"days": "Mon-Fri", "time": "4:30pm"}, {"days": "Sat", "time": "12:00pm"}, {"days": "Sun", "time": "Closed"}], "id": "0855700002", "name": "USPS COLLECTION BOX - PO LOBBY", "address": {"city": "SERGEANTSVILLE", "state": "NJ", "street": "557 ROSEMONT RINGOES RD", "postcode": "08557"}}},
{"geometry": {"type": "Point", "coordinates": [-74.7024836834, 40.4215933536]}, "type": "Feature", "properties": {"collection_times": [{"days": "Mon-Fri", "time": "4:30pm"}, {"days": "Sat", "time": "12:00pm"}, {"days": "Sun", "time": "Closed"}], "id": "0855800001", "name": "USPS COLLECTION BOX - BLUE BOX", "address": {"city": "SKILLMAN", "state": "NJ", "street": "950 STATE ROUTE 601", "postcode": "08558"}}},
{"geometry": {"type": "Point", "coordinates": [-74.7024836834, 40.4215933536]}, "type": "Feature", "properties": {"collection_times": [{"days": "Mon-Fri", "time": "4:30pm"}, {"days": "Sat", "time": "12:00pm"}, {"days": "Sun", "time": "Closed"}], "id": "0855800002", "name": "USPS COLLECTION BOX - PO LOBBY", "address": {"city": "SKILLMAN", "state": "NJ", "street": "950 ROUTE 601", "postcode": "08558"}}},
{"geometry": {"type": "Point", "coordinates": [-74.9783721902, 40.4046214414]}, "type": "Feature", "properties": {"collection_times": [{"days": "Mon-Fri", "time": "4:30pm"}, {"days": "Sat", "time": "12:00pm"}, {"days": "Sun", "time": "Closed"}], "id": "0855900001", "name": "USPS COLLECTION BOX - BLUE BOX", "address": {"city": "STOCKTON", "state": "NJ", "street": "2 BRIDGE ST", "postcode": "08559"}}},
{"geometry": {"type": "Point", "coordinates": [-74.9783721902, 40.4046214414]}, "type": "Feature", "properties": {"collection_times": [{"days": "Mon-Fri", "time": "4:30pm"}, {"days": "Sat", "time": "12:00pm"}, {"days": "Sun", "time": "Closed"}], "id": "0855900002", "name": "USPS COLLECTION BOX - PO LOBBY", "address": {"city": "STOCKTON", "state": "NJ", "street": "2 BRIDGE ST", "postcode": "08559"}}},
{"geometry": {"type": "Point", "coordinates": [-74.8710920076, 40.3020435206]}, "type": "Feature", "properties": {"collection_times": [{"days": "Mon-Fri", "time": "4:30pm"}, {"days": "Sat", "time": "12:30pm"}, {"days": "Sun", "time": "Closed"}], "id": "0856000001", "name": "USPS COLLECTION BOX - BLUE BOX", "address": {"city": "TITUSVILLE", "state": "NJ", "street": "1380 RIVER RD", "postcode": "08560"}}},
{"geometry": {"type": "Point", "coordinates": [-74.8710920076, 40.3020435206]}, "type": "Feature", "properties": {"collection_times": [{"days": "Mon-Fri", "time": "4:30pm"}, {"days": "Sat", "time": "12:30pm"}, {"days": "Sun", "time": "Closed"}], "id": "0856000002", "name": "USPS COLLECTION BOX - PO LOBBY", "address": {"city": "TITUSVILLE", "state": "NJ", "street": "1380 RIVER RD", "postcode": "08560"}}},
{"geometry": {"type": "Point", "coordinates": [-74.5752513152, 40.2451313583]}, "type": "Feature", "properties": {"collection_times": [{"days": "Mon-Fri", "time": "4:30pm"}, {"days": "Sat", "time": "12:00pm"}, {"days": "Sun", "time": "Closed"}], "id": "0856100001", "name": "USPS COLLECTION BOX - BLUE BOX", "address": {"city": "WINDSOR", "state": "NJ", "street": "39 S MAIN ST", "postcode": "08561"}}},
{"geometry": {"type": "Point", "coordinates": [-74.5752513152, 40.2451313583]}, "type": "Feature", "properties": {"collection_times": [{"days": "Mon-Fri", "time": "4:30pm"}, {"days": "Sat", "time": "12:00pm"}, {"days": "Sun", "time": "Closed"}], "id": "0856100002", "name": "USPS COLLECTION BOX - PO LOBBY", "address": {"city": "WINDSOR", "state": "NJ", "street": "39 S MAIN ST", "postcode": "08561"}}},
{"geometry": {"type": "Point", "coordinates": [-74.616817344, 40.0360634781]}, "type": "Feature", "properties": {"collection_times": [{"days": "Mon-Fri", "time": "4:00pm"}, {"days": "Sat", "time": "1:00pm"}, {"days": "Sun", "time": "Closed"}], "id": "0856200002", "name": "USPS COLLECTION BOX - BLUE BOX", "address": {"city": "WRIGHTSTOWN", "state": "NJ", "street": "10 E MAIN ST", "postcode": "08562"}}},
{"geometry": {"type": "Point", "coordinates": [-74.616817344, 40.0360634781]}, "type": "Feature", "properties": {"collection_times": [{"days": "Mon-Fri", "time": "4:00pm"}, {"days": "Sat", "time": "1:00pm"}, {"days": "Sun", "time": "Closed"}], "id": "0856200003", "name": "USPS COLLECTION BOX - PO LOBBY", "address": {"city": "WRIGHTSTOWN", "state": "NJ", "street": "10 E MAIN ST", "postcode": "08562"}}}
]}
