{"type": "FeatureCollection", "features": [
{"geometry": {"type": "Point", "coordinates": [-74.7641284853, 40.2202640149]}, "type": "Feature", "properties": {"collection_times": [{"days": "Mon-Sat", "time": "3:00pm"}, {"days": "Sun", "time": "Closed"}], "id": "0860800001", "name": "USPS COLLECTION BOX - EXPRESS", "address": {"city": "TRENTON", "state": "NJ", "street": "20 S MONTGOMERY ST", "postcode": "08608"}}},
{"geometry": {"type": "Point", "coordinates": [-74.7616446442, 40.2193369446]}, "type": "Feature", "properties": {"collection_times": [{"days": "Mon-Sat", "time": "3:00pm"}, {"days": "Sun", "time": "Closed"}], "id": "0860800002", "name": "USPS COLLECTION BOX - BLUE BOX", "address": {"city": "TRENTON", "state": "NJ", "street": "20 S MONTGOMERY ST", "postcode": "08608"}}},
{"geometry": {"type": "Point", "coordinates": [-74.7672483208, 40.2187383674]}, "type": "Feature", "properties": {"collection_times": [{"days": "Mon-Fri", "time": "3:00pm"}, {"days": "Sat", "time": "10:00am"}, {"days": "Sun", "time": "Closed"}], "id": "0860800006", "name": "USPS COLLECTION BOX - BLUE BOX", "address": {"city": "TRENTON", "state": "NJ", "street": "28 W LAFAYETTE ST", "postcode": "08608"}}},
{"geometry": {"type": "Point", "coordinates": [-74.7619853364, 40.2209919042]}, "type": "Feature", "properties": {"collection_times": [{"days": "Mon-Sat", "time": "10:00am"}, {"days": "Sun", "time": "Closed"}], "id": "0860800009", "name": "USPS COLLECTION BOX - BLUE BOX", "address": {"city": "TRENTON", "state": "NJ", "street": "70 N MONTGOMERY ST", "postcode": "08608"}}},
{"geometry": {"type": "Point", "coordinates": [-74.7658368587, 40.2211289016]}, "type": "Feature", "properties": {"collection_times": [{"days": "Mon-Sat", "time": "10:00am"}, {"days": "Sun", "time": "Closed"}], "id": "0860800010", "name": "USPS COLLECTION BOX - BLUE BOX", "address": {"city": "TRENTON", "state": "NJ", "street": "33 N WARREN ST", "postcode": "08608"}}},
{"geometry": {"type": "Point", "coordinates": [-74.7660393367, 40.2192884433]}, "type": "Feature", "properties": {"collection_times": [{"days": "Mon-Sat", "time": "10:00am"}, {"days": "Sun", "time": "Closed"}], "id": "0860800013", "name": "USPS COLLECTION BOX - BLUE BOX", "address": {"city": "TRENTON", "state": "NJ", "street": "101 S WARREN ST", "postcode": "08608"}}},
{"geometry": {"type": "Point", "coordinates": [-74.7660266741, 40.2181796563]}, "type": "Feature", "properties": {"collection_times": [{"days": "Mon-Sat", "time": "10:00am"}, {"days": "Sun", "time": "Closed"}], "id": "0860800014", "name": "USPS COLLECTION BOX - BLUE BOX", "address": {"city": "TRENTON", "state": "NJ", "street": "221 S WARREN ST", "postcode": "08608"}}},
{"geometry": {"type": "Point", "coordinates": [-74.7670673281, 40.2204039736]}, "type": "Feature", "properties": {"collection_times": [{"days": "Mon-Fri", "time": "3:00pm"}, {"days": "Sat", "time": "10:00am"}, {"days": "Sun", "time": "Closed"}], "id": "0860800019", "name": "USPS COLLECTION BOX - BLUE BOX", "address": {"city": "TRENTON", "state": "NJ", "street": "28 W STATE ST", "postcode": "08608"}}},
{"geometry": {"type": "Point", "coordinates": [-74.7684005228, 40.2206015277]}, "type": "Feature", "properties": {"collection_times": [{"days": "Mon-Fri", "time": "3:00pm"}, {"days": "Sat", "time": "10:00am"}, {"days": "Sun", "time": "Closed"}], "id": "0860800022", "name": "USPS COLLECTION BOX - BLUE BOX", "address": {"city": "TRENTON", "state": "NJ", "street": "102 W STATE ST", "postcode": "08608"}}},
{"geometry": {"type": "Point", "coordinates": [-74.769634349, 40.2209221096]}, "type": "Feature", "properties": {"collection_times": [{"days": "Mon-Fri", "time": "3:00pm"}, {"days": "Sat", "time": "10:00am"}, {"days": "Sun", "time": "Closed"}], "id": "0860800024", "name": "USPS COLLECTION BOX - BLUE BOX", "address": {"city": "TRENTON", "state": "NJ", "street": "134 W STATE ST", "postcode": "08608"}}},
{"geometry": {"type": "Point", "coordinates": [-74.7712999553, 40.2213669022]}, "type": "Feature", "properties": {"collection_times": [{"days": "Mon-Fri", "time": "3:00pm"}, {"days": "Sat", "time": "10:00am"}, {"days": "Sun", "time": "Closed"}], "id": "0860800025", "name": "USPS COLLECTION BOX - BLUE BOX", "address": {"city": "TRENTON", "state": "NJ", "street": "170 W STATE ST", "postcode": "08608"}}},
{"geometry": {"type": "Point", "coordinates": [-74.7632429344, 40.2169854881]}, "type": "Feature", "properties": {"collection_times": [{"days": "Mon-Sat", "time": "10:00am"}, {"days": "Sun", "time": "Closed"}], "id": "0860800035", "name": "USPS COLLECTION BOX - BLUE BOX", "address": {"city": "TRENTON", "state": "NJ", "street": "178 S BROAD ST", "postcode": "08608"}}},
{"geometry": {"type": "Point", "coordinates": [-74.7616446442, 40.2193369446]}, "type": "Feature", "properties": {"collection_times": [{"days": "Mon-Fri", "time": "5:15pm"}, {"days": "Sat", "time": "4:30pm"}, {"days": "Sun", "time": "Closed"}], "id": "0860800036", "name": "USPS COLLECTION BOX - PO LOBBY", "address": {"city": "TRENTON", "state": "NJ", "street": "20 S MONTGOMERY ST", "postcode": "08608"}}},
{"geometry": {"type": "Point", "coordinates": [-74.74539, 40.21981]}, "type": "Feature", "properties": {"collection_times": [{"days": "Mon-Sat", "time": "10:00am"}, {"days": "Sun", "time": "Closed"}], "id": "0860900003", "name": "USPS COLLECTION BOX - BLUE BOX", "address": {"city": "TRENTON", "state": "NJ", "street": "739 GREENWOOD AVE", "postcode": "08609"}}},
{"geometry": {"type": "Point", "coordinates": [-74.7511017852, 40.2176013585]}, "type": "Feature", "properties": {"collection_times": [{"days": "Mon-Sat", "time": "10:00am"}, {"days": "Sun", "time": "Closed"}], "id": "0860900004", "name": "USPS COLLECTION BOX - BLUE BOX", "address": {"city": "TRENTON", "state": "NJ", "street": "511 GREENWOOD AVE", "postcode": "08609"}}},
{"geometry": {"type": "Point", "coordinates": [-74.7522156015, 40.2173121885]}, "type": "Feature", "properties": {"collection_times": [{"days": "Mon-Sat", "time": "10:00am"}, {"days": "Sun", "time": "Closed"}], "id": "0860900005", "name": "USPS COLLECTION BOX - BLUE BOX", "address": {"city": "TRENTON", "state": "NJ", "street": "465 GREENWOOD AVE", "postcode": "08609"}}},
{"geometry": {"type": "Point", "coordinates": [-74.7517834982, 40.214741149]}, "type": "Feature", "properties": {"collection_times": [{"days": "Mon-Sat", "time": "10:00am"}, {"days": "Sun", "time": "Closed"}], "id": "0860900006", "name": "USPS COLLECTION BOX - BLUE BOX", "address": {"city": "TRENTON", "state": "NJ", "street": "271 HAMILTON AVE", "postcode": "08609"}}},
{"geometry": {"type": "Point", "coordinates": [-74.743663821, 40.216892298]}, "type": "Feature", "properties": {"collection_times": [{"days": "Mon-Sat", "time": "10:00am"}, {"days": "Sun", "time": "Closed"}], "id": "0860900007", "name": "USPS COLLECTION BOX - BLUE BOX", "address": {"city": "TRENTON", "state": "NJ", "street": "534 HAMILTON AVE", "postcode": "08609"}}},
{"geometry": {"type": "Point", "coordinates": [-74.727691356, 40.2285462801]}, "type": "Feature", "properties": {"collection_times": [{"days": "Mon-Sat", "time": "10:00am"}, {"days": "Sun", "time": "Closed"}], "id": "0860900010", "name": "USPS COLLECTION BOX - BLUE BOX", "address": {"city": "TRENTON", "state": "NJ", "street": "1901 GREENWOOD AVE", "postcode": "08609"}}},
{"geometry": {"type": "Point", "coordinates": [-74.7242974467, 40.2301503725]}, "type": "Feature", "properties": {"collection_times": [{"days": "Mon-Sat", "time": "10:00am"}, {"days": "Sun", "time": "Closed"}], "id": "0860900013", "name": "USPS COLLECTION BOX - BLUE BOX", "address": {"city": "TRENTON", "state": "NJ", "street": "2090 GREENWOOD AVE", "postcode": "08609"}}},
{"geometry": {"type": "Point", "coordinates": [-74.7491674422, 40.2154786541]}, "type": "Feature", "properties": {"collection_times": [{"days": "Mon-Sat", "time": "10:00am"}, {"days": "Sun", "time": "Closed"}], "id": "0860900014", "name": "USPS COLLECTION BOX - BLUE BOX", "address": {"city": "TRENTON", "state": "NJ", "street": "360 HAMILTON AVE", "postcode": "08609"}}},
{"geometry": {"type": "Point", "coordinates": [-74.7366215132, 40.2242935427]}, "type": "Feature", "properties": {"collection_times": [{"days": "Mon-Sat", "time": "10:00am"}, {"days": "Sun", "time": "Closed"}], "id": "0860900015", "name": "USPS COLLECTION BOX - BLUE BOX", "address": {"city": "TRENTON", "state": "NJ", "street": "1235 GREENWOOD AVE", "postcode": "08609"}}},
{"geometry": {"type": "Point", "coordinates": [-74.7450134241, 40.216501392]}, "type": "Feature", "properties": {"collection_times": [{"days": "Mon-Sat", "time": "10:00am"}, {"days": "Sun", "time": "Closed"}], "id": "0860900016", "name": "USPS COLLECTION BOX - BLUE BOX", "address": {"city": "TRENTON", "state": "NJ", "street": "485 HAMILTON AVE", "postcode": "08609"}}},
{"geometry": {"type": "Point", "coordinates": [-74.7551620291, 40.2197332358]}, "type": "Feature", "properties": {"collection_times": [{"days": "Mon-Fri", "time": "3:00pm"}, {"days": "Sat", "time": "10:00am"}, {"days": "Sun", "time": "Closed"}], "id": "0860900017", "name": "USPS COLLECTION BOX - BLUE BOX", "address": {"city": "TRENTON", "state": "NJ", "street": "44 S CLINTON AVE", "postcode": "08609"}}},
{"geometry": {"type": "Point", "coordinates": [-74.7319689356, 40.231923628]}, "type": "Feature", "properties": {"collection_times": [{"days": "Mon-Sat", "time": "10:00am"}, {"days": "Sun", "time": "Closed"}], "id": "0860900020", "name": "USPS COLLECTION BOX - BLUE BOX", "address": {"city": "TRENTON", "state": "NJ", "street": "1601 E STATE ST", "postcode": "08609"}}},
{"geometry": {"type": "Point", "coordinates": [-74.7553695592, 40.2211717871]}, "type": "Feature", "properties": {"collection_times": [{"days": "Mon-Sat", "time": "10:00am"}, {"days": "Sun", "time": "Closed"}], "id": "0860900023", "name": "USPS COLLECTION BOX - BLUE BOX", "address": {"city": "TRENTON", "state": "NJ", "street": "500 E STATE ST", "postcode": "08609"}}},
{"geometry": {"type": "Point", "coordinates": [-74.7086871202, 40.2002546335]}, "type": "Feature", "properties": {"collection_times": [{"days": "Mon-Sat", "time": "11:00am"}, {"days": "Sun", "time": "Closed"}], "id": "0861000003", "name": "USPS COLLECTION BOX - BLUE BOX", "address": {"city": "TRENTON", "state": "NJ", "street": "1 BRADFORD AVE", "postcode": "08610"}}},
{"geometry": {"type": "Point", "coordinates": [-74.7352103072, 40.206646021]}, "type": "Feature", "properties": {"collection_times": [{"days": "Mon-Sat", "time": "11:00am"}, {"days": "Sun", "time": "Closed"}], "id": "0861000004", "name": "USPS COLLECTION BOX - BLUE BOX", "address": {"city": "TRENTON", "state": "NJ", "street": "1331 CHAMBERS ST", "postcode": "08610"}}},
{"geometry": {"type": "Point", "coordinates": [-74.7340119057, 40.210590146]}, "type": "Feature", "properties": {"collection_times": [{"days": "Mon-Sat", "time": "11:00am"}, {"days": "Sun", "time": "Closed"}], "id": "0861000008", "name": "USPS COLLECTION BOX - BLUE BOX", "address": {"city": "TRENTON", "state": "NJ", "street": "205 E FRANKLIN ST", "postcode": "08610"}}},
{"geometry": {"type": "Point", "coordinates": [-74.7115333195, 40.1944806108]}, "type": "Feature", "properties": {"collection_times": [{"days": "Mon-Sat", "time": "11:00am"}, {"days": "Sun", "time": "Closed"}], "id": "0861000009", "name": "USPS COLLECTION BOX - BLUE BOX", "address": {"city": "TRENTON", "state": "NJ", "street": "172 FETTER AVE", "postcode": "08610"}}},
{"geometry": {"type": "Point", "coordinates": [-74.6899194762, 40.1979703398]}, "type": "Feature", "properties": {"collection_times": [{"days": "Mon-Sat", "time": "11:00am"}, {"days": "Sun", "time": "Closed"}], "id": "0861000011", "name": "USPS COLLECTION BOX - BLUE BOX", "address": {"city": "TRENTON", "state": "NJ", "street": "99 HEMPSTEAD RD", "postcode": "08610"}}},
{"geometry": {"type": "Point", "coordinates": [-74.7152111389, 40.1879636899]}, "type": "Feature", "properties": {"collection_times": [{"days": "Mon-Sat", "time": "11:00am"}, {"days": "Sun", "time": "Closed"}], "id": "0861000012", "name": "USPS COLLECTION BOX - BLUE BOX", "address": {"city": "TRENTON", "state": "NJ", "street": "820 INDEPENDENCE AVE", "postcode": "08610"}}},
{"geometry": {"type": "Point", "coordinates": [-74.7273317364, 40.2142372085]}, "type": "Feature", "properties": {"collection_times": [{"days": "Mon-Sat", "time": "11:00am"}, {"days": "Sun", "time": "Closed"}], "id": "0861000016", "name": "USPS COLLECTION BOX - BLUE BOX", "address": {"city": "TRENTON", "state": "NJ", "street": "930 S OLDEN AVE", "postcode": "08610"}}},
{"geometry": {"type": "Point", "coordinates": [-74.7102470014, 40.2056655402]}, "type": "Feature", "properties": {"collection_times": [{"days": "Mon-Sat", "time": "11:00am"}, {"days": "Sun", "time": "Closed"}], "id": "0861000020", "name": "USPS COLLECTION BOX - BLUE BOX", "address": {"city": "TRENTON", "state": "NJ", "street": "255 REEVES AVE", "postcode": "08610"}}},
{"geometry": {"type": "Point", "coordinates": [-74.7396548462, 40.2025072326]}, "type": "Feature", "properties": {"collection_times": [{"days": "Mon-Sat", "time": "11:00am"}, {"days": "Sun", "time": "Closed"}], "id": "0861000021", "name": "USPS COLLECTION BOX - BLUE BOX", "address": {"city": "TRENTON", "state": "NJ", "street": "1301 S BROAD ST", "postcode": "08610"}}},
{"geometry": {"type": "Point", "coordinates": [-74.736309212, 40.2012719782]}, "type": "Feature", "properties": {"collection_times": [{"days": "Mon-Sat", "time": "11:00am"}, {"days": "Sun", "time": "Closed"}], "id": "0861000022", "name": "USPS COLLECTION BOX - BLUE BOX", "address": {"city": "TRENTON", "state": "NJ", "street": "1450 S BROAD ST", "postcode": "08610"}}},
{"geometry": {"type": "Point", "coordinates": [-74.7330619897, 40.1999411494]}, "type": "Feature", "properties": {"collection_times": [{"days": "Mon-Sat", "time": "11:00am"}, {"days": "Sun", "time": "Closed"}], "id": "0861000023", "name": "USPS COLLECTION BOX - BLUE BOX", "address": {"city": "TRENTON", "state": "NJ", "street": "1708 S BROAD ST", "postcode": "08610"}}},
{"geometry": {"type": "Point", "coordinates": [-74.706616942, 40.1889952301]}, "type": "Feature", "properties": {"collection_times": [{"days": "Mon-Sat", "time": "11:00am"}, {"days": "Sun", "time": "Closed"}], "id": "0861000027", "name": "USPS COLLECTION BOX - BLUE BOX", "address": {"city": "TRENTON", "state": "NJ", "street": "3048 S BROAD ST", "postcode": "08610"}}},
{"geometry": {"type": "Point", "coordinates": [-74.7014660091, 40.1880810333]}, "type": "Feature", "properties": {"collection_times": [{"days": "Mon-Sat", "time": "11:00am"}, {"days": "Sun", "time": "Closed"}], "id": "0861000028", "name": "USPS COLLECTION BOX - BLUE BOX", "address": {"city": "TRENTON", "state": "NJ", "street": "3301 S BROAD ST", "postcode": "08610"}}},
{"geometry": {"type": "Point", "coordinates": [-74.7134106753, 40.2074068034]}, "type": "Feature", "properties": {"collection_times": [{"days": "Mon-Sat", "time": "11:00am"}, {"days": "Sun", "time": "Closed"}], "id": "0861000033", "name": "USPS COLLECTION BOX - BLUE BOX", "address": {"city": "TRENTON", "state": "NJ", "street": "1590 S OLDEN AVE", "postcode": "08610"}}},
{"geometry": {"type": "Point", "coordinates": [-74.6843122507, 40.1964798115]}, "type": "Feature", "properties": {"collection_times": [{"days": "Mon-Sat", "time": "11:00am"}, {"days": "Sun", "time": "Closed"}], "id": "0861000036", "name": "USPS COLLECTION BOX - BLUE BOX", "address": {"city": "TRENTON", "state": "NJ", "street": "349 SHARPS LN", "postcode": "08610"}}},
{"geometry": {"type": "Point", "coordinates": [-74.7460702173, 40.1992493001]}, "type": "Feature", "properties": {"collection_times": [{"days": "Mon-Sat", "time": "11:00am"}, {"days": "Sun", "time": "Closed"}], "id": "0861000037", "name": "USPS COLLECTION BOX - BLUE BOX", "address": {"city": "TRENTON", "state": "NJ", "street": "1 STENTON CT", "postcode": "08610"}}},
{"geometry": {"type": "Point", "coordinates": [-74.7181269758, 40.2073364013]}, "type": "Feature", "properties": {"collection_times": [{"days": "Mon-Sat", "time": "11:00am"}, {"days": "Sun", "time": "Closed"}], "id": "0861000039", "name": "USPS COLLECTION BOX - BLUE BOX", "address": {"city": "TRENTON", "state": "NJ", "street": "100 WERT AVE", "postcode": "08610"}}},
{"geometry": {"type": "Point", "coordinates": [-74.6952492856, 40.2064750854]}, "type": "Feature", "properties": {"collection_times": [{"days": "Mon-Sat", "time": "11:00am"}, {"days": "Sun", "time": "Closed"}], "id": "0861000042", "name": "USPS COLLECTION BOX - BLUE BOX", "address": {"city": "TRENTON", "state": "NJ", "street": "1058 WHITEHORSE AVE", "postcode": "08610"}}},
{"geometry": {"type": "Point", "coordinates": [-74.7369929623, 40.2042045335]}, "type": "Feature", "properties": {"collection_times": [{"days": "Mon-Sat", "time": "11:00am"}, {"days": "Sun", "time": "Closed"}], "id": "0861000043", "name": "USPS COLLECTION BOX - BLUE BOX", "address": {"city": "TRENTON", "state": "NJ", "street": "502 WILLIAM ST", "postcode": "08610"}}},
{"geometry": {"type": "Point", "coordinates": [-74.7425031852, 40.2037975956]}, "type": "Feature", "properties": {"collection_times": [{"days": "Mon-Sat", "time": "11:00am"}, {"days": "Sun", "time": "Closed"}], "id": "0861000047", "name": "USPS COLLECTION BOX - BLUE BOX", "address": {"city": "TRENTON", "state": "NJ", "street": "1201 S BROAD ST", "postcode": "08610"}}},
{"geometry": {"type": "Point", "coordinates": [-74.7049992606, 40.1879761099]}, "type": "Feature", "properties": {"collection_times": [{"days": "Mon-Sat", "time": "11:00am"}, {"days": "Sun", "time": "Closed"}], "id": "0861000048", "name": "USPS COLLECTION BOX - BLUE BOX", "address": {"city": "TRENTON", "state": "NJ", "street": "127 ROUTE 206", "postcode": "08610"}}},
{"geometry": {"type": "Point", "coordinates": [-74.7189516148, 40.1939648078]}, "type": "Feature", "properties": {"collection_times": [{"days": "Mon-Sat", "time": "3:00pm"}, {"days": "Sun", "time": "Closed"}], "id": "0861000049", "name": "USPS COLLECTION BOX - BLUE BOX", "address": {"city": "TRENTON", "state": "NJ", "street": "2465 S BROAD ST STE C2", "postcode": "08610"}}},
{"geometry": {"type": "Point", "coordinates": [-74.6963027118, 40.2040468951]}, "type": "Feature", "properties": {"collection_times": [{"days": "Mon-Sat", "time": "11:00am"}, {"days": "Sun", "time": "Closed"}], "id": "0861000050", "name": "USPS COLLECTION BOX - BLUE BOX", "address": {"city": "TRENTON", "state": "NJ", "street": "941 WHITEHORSE AVE", "postcode": "08610"}}},
{"geometry": {"type": "Point", "coordinates": [-74.7194899015, 40.1942333724]}, "type": "Feature", "properties": {"collection_times": [{"days": "Mon-Fri", "time": "4:30pm"}, {"days": "Sat", "time": "2:00pm"}, {"days": "Sun", "time": "Closed"}], "id": "0861000051", "name": "USPS COLLECTION BOX - PO LOBBY", "address": {"city": "TRENTON", "state": "NJ", "street": "2465 S BROAD ST STE C2", "postcode": "08610"}}},
{"geometry": {"type": "Point", "coordinates": [-74.7476253975, 40.2141591332]}, "type": "Feature", "properties": {"collection_times": [{"days": "Mon-Sat", "time": "10:00am"}, {"days": "Sun", "time": "Closed"}], "id": "0861100000", "name": "USPS COLLECTION BOX - BLUE BOX", "address": {"city": "TRENTON", "state": "NJ", "street": "453 CHESTNUT AVE", "postcode": "08611"}}},
{"geometry": {"type": "Point", "coordinates": [-74.7446041203, 40.2113543375]}, "type": "Feature", "properties": {"collection_times": [{"days": "Mon-Sat", "time": "10:00am"}, {"days": "Sun", "time": "Closed"}], "id": "0861100001", "name": "USPS COLLECTION BOX - BLUE BOX", "address": {"city": "TRENTON", "state": "NJ", "street": "701 ROEBLING AVE", "postcode": "08611"}}},
{"geometry": {"type": "Point", "coordinates": [-74.7485634972, 40.2123731441]}, "type": "Feature", "properties": {"collection_times": [{"days": "Mon-Sat", "time": "10:00am"}, {"days": "Sun", "time": "Closed"}], "id": "0861100002", "name": "USPS COLLECTION BOX - BLUE BOX", "address": {"city": "TRENTON", "state": "NJ", "street": "390 WHITTAKER AVE", "postcode": "08611"}}},
{"geometry": {"type": "Point", "coordinates": [-74.7466056869, 40.2055968762]}, "type": "Feature", "properties": {"collection_times": [{"days": "Mon-Sat", "time": "10:00am"}, {"days": "Sun", "time": "Closed"}], "id": "0861100005", "name": "USPS COLLECTION BOX - BLUE BOX", "address": {"city": "TRENTON", "state": "NJ", "street": "998 S BROAD ST", "postcode": "08611"}}},
{"geometry": {"type": "Point", "coordinates": [-74.7525334942, 40.2063445063]}, "type": "Feature", "properties": {"collection_times": [{"days": "Mon-Sat", "time": "10:00am"}, {"days": "Sun", "time": "Closed"}], "id": "0861100009", "name": "USPS COLLECTION BOX - BLUE BOX", "address": {"city": "TRENTON", "state": "NJ", "street": "702 CASS ST", "postcode": "08611"}}},
{"geometry": {"type": "Point", "coordinates": [-74.7598035016, 40.2112671073]}, "type": "Feature", "properties": {"collection_times": [{"days": "Mon-Sat", "time": "10:00am"}, {"days": "Sun", "time": "Closed"}], "id": "0861100010", "name": "USPS COLLECTION BOX - BLUE BOX", "address": {"city": "TRENTON", "state": "NJ", "street": "200 CENTRE ST", "postcode": "08611"}}},
{"geometry": {"type": "Point", "coordinates": [-74.7468232193, 40.2121408699]}, "type": "Feature", "properties": {"collection_times": [{"days": "Mon-Sat", "time": "10:00am"}, {"days": "Sun", "time": "Closed"}], "id": "0861100012", "name": "USPS COLLECTION BOX - BLUE BOX", "address": {"city": "TRENTON", "state": "NJ", "street": "540 CHESTNUT AVE", "postcode": "08611"}}},
{"geometry": {"type": "Point", "coordinates": [-74.7473533169, 40.2023401902]}, "type": "Feature", "properties": {"collection_times": [{"days": "Mon-Sat", "time": "10:00am"}, {"days": "Sun", "time": "Closed"}], "id": "0861100014", "name": "USPS COLLECTION BOX - BLUE BOX", "address": {"city": "TRENTON", "state": "NJ", "street": "1662 CHESTNUT AVE", "postcode": "08611"}}},
{"geometry": {"type": "Point", "coordinates": [-74.7482239747, 40.2079817215]}, "type": "Feature", "properties": {"collection_times": [{"days": "Mon-Sat", "time": "10:00am"}, {"days": "Sun", "time": "Closed"}], "id": "0861100015", "name": "USPS COLLECTION BOX - BLUE BOX", "address": {"city": "TRENTON", "state": "NJ", "street": "1000 S CLINTON AVE", "postcode": "08611"}}},
{"geometry": {"type": "Point", "coordinates": [-74.744006726, 40.2063989224]}, "type": "Feature", "properties": {"collection_times": [{"days": "Mon-Sat", "time": "10:00am"}, {"days": "Sun", "time": "Closed"}], "id": "0861100017", "name": "USPS COLLECTION BOX - BLUE BOX", "address": {"city": "TRENTON", "state": "NJ", "street": "901 DIVISION ST", "postcode": "08611"}}},
{"geometry": {"type": "Point", "coordinates": [-74.7475922746, 40.2098649922]}, "type": "Feature", "properties": {"collection_times": [{"days": "Mon-Sat", "time": "10:00am"}, {"days": "Sun", "time": "Closed"}], "id": "0861100018", "name": "USPS COLLECTION BOX - BLUE BOX", "address": {"city": "TRENTON", "state": "NJ", "street": "202 EMORY AVE", "postcode": "08611"}}},
{"geometry": {"type": "Point", "coordinates": [-74.7426696679, 40.2153136533]}, "type": "Feature", "properties": {"collection_times": [{"days": "Mon-Sat", "time": "10:00am"}, {"days": "Sun", "time": "Closed"}], "id": "0861100019", "name": "USPS COLLECTION BOX - BLUE BOX", "address": {"city": "TRENTON", "state": "NJ", "street": "98 FRANKLIN ST", "postcode": "08611"}}},
{"geometry": {"type": "Point", "coordinates": [-74.7404472025, 40.2122888751]}, "type": "Feature", "properties": {"collection_times": [{"days": "Mon-Sat", "time": "10:00am"}, {"days": "Sun", "time": "Closed"}], "id": "0861100020", "name": "USPS COLLECTION BOX - BLUE BOX", "address": {"city": "TRENTON", "state": "NJ", "street": "302 FRANKLIN ST", "postcode": "08611"}}},
{"geometry": {"type": "Point", "coordinates": [-74.7666767384, 40.21646406]}, "type": "Feature", "properties": {"collection_times": [{"days": "Mon-Sat", "time": "10:00am"}, {"days": "Sun", "time": "Closed"}], "id": "0861100022", "name": "USPS COLLECTION BOX - BLUE BOX", "address": {"city": "TRENTON", "state": "NJ", "street": "1 JOHN FITCH PLZ", "postcode": "08611"}}},
{"geometry": {"type": "Point", "coordinates": [-74.7733405595, 40.2219335395]}, "type": "Feature", "properties": {"collection_times": [{"days": "Mon-Fri", "time": "3:00pm"}, {"days": "Sat", "time": "10:00am"}, {"days": "Sun", "time": "Closed"}], "id": "0861100023", "name": "USPS COLLECTION BOX - BLUE BOX", "address": {"city": "TRENTON", "state": "NJ", "street": "216 W STATE ST", "postcode": "08611"}}},
{"geometry": {"type": "Point", "coordinates": [-74.7622943729, 40.2049655721]}, "type": "Feature", "properties": {"collection_times": [{"days": "Mon-Fri", "time": "3:00pm"}, {"days": "Sat", "time": "10:00am"}, {"days": "Sun", "time": "Closed"}], "id": "0861100024", "name": "USPS COLLECTION BOX - BLUE BOX", "address": {"city": "TRENTON", "state": "NJ", "street": "210 RIVERVIEW PLZ", "postcode": "08611"}}},
{"geometry": {"type": "Point", "coordinates": [-74.7522342875, 40.1984815001]}, "type": "Feature", "properties": {"collection_times": [{"days": "Mon-Sat", "time": "10:00am"}, {"days": "Sun", "time": "Closed"}], "id": "0861100026", "name": "USPS COLLECTION BOX - BLUE BOX", "address": {"city": "TRENTON", "state": "NJ", "street": "410 LALOR ST", "postcode": "08611"}}},
{"geometry": {"type": "Point", "coordinates": [-74.7493229436, 40.1988173384]}, "type": "Feature", "properties": {"collection_times": [{"days": "Mon-Sat", "time": "10:00am"}, {"days": "Sun", "time": "Closed"}], "id": "0861100027", "name": "USPS COLLECTION BOX - BLUE BOX", "address": {"city": "TRENTON", "state": "NJ", "street": "528 LALOR ST", "postcode": "08611"}}},
{"geometry": {"type": "Point", "coordinates": [-74.7424039756, 40.2103479515]}, "type": "Feature", "properties": {"collection_times": [{"days": "Mon-Sat", "time": "10:00am"}, {"days": "Sun", "time": "Closed"}], "id": "0861100028", "name": "USPS COLLECTION BOX - BLUE BOX", "address": {"city": "TRENTON", "state": "NJ", "street": "300 MORRIS AVE", "postcode": "08611"}}},
{"geometry": {"type": "Point", "coordinates": [-74.7542755727, 40.2090783249]}, "type": "Feature", "properties": {"collection_times": [{"days": "Mon-Fri", "time": "3:00pm"}, {"days": "Sat", "time": "10:00am"}, {"days": "Sun", "time": "Closed"}], "id": "0861100030", "name": "USPS COLLECTION BOX - BLUE BOX", "address": {"city": "TRENTON", "state": "NJ", "street": "640 S BROAD ST", "postcode": "08611"}}},
{"geometry": {"type": "Point", "coordinates": [-74.7493214821, 40.2066539863]}, "type": "Feature", "properties": {"collection_times": [{"days": "Mon-Sat", "time": "10:00am"}, {"days": "Sun", "time": "Closed"}], "id": "0861100031", "name": "USPS COLLECTION BOX - BLUE BOX", "address": {"city": "TRENTON", "state": "NJ", "street": "899 S BROAD ST", "postcode": "08611"}}},
{"geometry": {"type": "Point", "coordinates": [-74.7510536126, 40.2092190966]}, "type": "Feature", "properties": {"collection_times": [{"days": "Mon-Sat", "time": "10:00am"}, {"days": "Sun", "time": "Closed"}], "id": "0861100032", "name": "USPS COLLECTION BOX - BLUE BOX", "address": {"city": "TRENTON", "state": "NJ", "street": "726 S CLINTON AVE", "postcode": "08611"}}},
{"geometry": {"type": "Point", "coordinates": [-74.7503012507, 40.2071370888]}, "type": "Feature", "properties": {"collection_times": [{"days": "Mon-Fri", "time": "3:00pm"}, {"days": "Sat", "time": "10:00am"}, {"days": "Sun", "time": "Closed"}], "id": "0861100033", "name": "USPS COLLECTION BOX - BLUE BOX", "address": {"city": "TRENTON", "state": "NJ", "street": "852 S BROAD ST", "postcode": "08611"}}},
{"geometry": {"type": "Point", "coordinates": [-74.7524980055, 40.2105806823]}, "type": "Feature", "properties": {"collection_times": [{"days": "Mon-Sat", "time": "10:00am"}, {"days": "Sun", "time": "Closed"}], "id": "0861100035", "name": "USPS COLLECTION BOX - BLUE BOX", "address": {"city": "TRENTON", "state": "NJ", "street": "635 S CLINTON AVE", "postcode": "08611"}}},
{"geometry": {"type": "Point", "coordinates": [-74.7618917332, 40.2045096857]}, "type": "Feature", "properties": {"collection_times": [{"days": "Mon-Sat", "time": "10:00am"}, {"days": "Sun", "time": "Closed"}], "id": "0861100036", "name": "USPS COLLECTION BOX - BLUE BOX", "address": {"city": "TRENTON", "state": "NJ", "street": "100 RIVERVIEW PLZ", "postcode": "08611"}}},
{"geometry": {"type": "Point", "coordinates": [-74.7641726275, 40.218778588]}, "type": "Feature", "properties": {"collection_times": [{"days": "Mon-Sat", "time": "10:00am"}, {"days": "Sun", "time": "Closed"}], "id": "0861100037", "name": "USPS COLLECTION BOX - BLUE BOX", "address": {"city": "TRENTON", "state": "NJ", "street": "101 S BROAD ST", "postcode": "08611"}}},
{"geometry": {"type": "Point", "coordinates": [-74.7613588881, 40.2150211445]}, "type": "Feature", "properties": {"collection_times": [{"days": "Mon-Sat", "time": "10:00am"}, {"days": "Sun", "time": "Closed"}], "id": "0861100038", "name": "USPS COLLECTION BOX - BLUE BOX", "address": {"city": "TRENTON", "state": "NJ", "street": "323 S BROAD ST", "postcode": "08611"}}},
{"geometry": {"type": "Point", "coordinates": [-74.7457196506, 40.2090558482]}, "type": "Feature", "properties": {"collection_times": [{"days": "Mon-Sat", "time": "10:00am"}, {"days": "Sun", "time": "Closed"}], "id": "0861100039", "name": "USPS COLLECTION BOX - BLUE BOX", "address": {"city": "TRENTON", "state": "NJ", "street": "819 CHESTNUT AVE", "postcode": "08611"}}},
{"geometry": {"type": "Point", "coordinates": [-74.7502896427, 40.2063904123]}, "type": "Feature", "properties": {"collection_times": [{"days": "Mon-Fri", "time": "3:00pm"}, {"days": "Sat", "time": "10:00am"}, {"days": "Sun", "time": "Closed"}], "id": "0861100040", "name": "USPS COLLECTION BOX - EXPRESS", "address": {"city": "TRENTON", "state": "NJ", "street": "852 S BROAD ST", "postcode": "08611"}}},
{"geometry": {"type": "Point", "coordinates": [-74.7417460914, 40.2087766699]}, "type": "Feature", "properties": {"collection_times": [{"days": "Mon-Sat", "time": "10:00am"}, {"days": "Sun", "time": "Closed"}], "id": "0861100041", "name": "USPS COLLECTION BOX - BLUE BOX", "address": {"city": "TRENTON", "state": "NJ", "street": "301 CUMMINGS AVE", "postcode": "08611"}}},
{"geometry": {"type": "Point", "coordinates": [-74.7644506228, 40.2141307422]}, "type": "Feature", "properties": {"collection_times": [{"days": "Mon-Fri", "time": "3:00pm"}, {"days": "Sat", "time": "10:00am"}, {"days": "Sun", "time": "Closed"}], "id": "0861100042", "name": "USPS COLLECTION BOX - BLUE BOX", "address": {"city": "TRENTON", "state": "NJ", "street": "25 MARKET ST", "postcode": "08611"}}},
{"geometry": {"type": "Point", "coordinates": [-74.7376843752, 40.2093977003]}, "type": "Feature", "properties": {"collection_times": [{"days": "Mon-Sat", "time": "11:00am"}, {"days": "Sun", "time": "Closed"}], "id": "0861100045", "name": "USPS COLLECTION BOX - BLUE BOX", "address": {"city": "TRENTON", "state": "NJ", "street": "1047 LIBERTY ST", "postcode": "08611"}}},
{"geometry": {"type": "Point", "coordinates": [-74.7665654994, 40.2164479776]}, "type": "Feature", "properties": {"collection_times": [{"days": "Mon-Sat", "time": "10:00am"}, {"days": "Sun", "time": "Closed"}], "id": "0861100049", "name": "USPS COLLECTION BOX - BLUE BOX", "address": {"city": "TRENTON", "state": "NJ", "street": "2 JOHN FITCH PLZ", "postcode": "08611"}}},
{"geometry": {"type": "Point", "coordinates": [-74.7818353878, 40.2636115498]}, "type": "Feature", "properties": {"collection_times": [{"days": "Mon-Sat", "time": "11:00am"}, {"days": "Sun", "time": "Closed"}], "id": "0861800002", "name": "USPS COLLECTION BOX - BLUE BOX", "address": {"city": "EWING", "state": "NJ", "street": "1879 PENNINGTON RD", "postcode": "08618"}}},
{"geometry": {"type": "Point", "coordinates": [-74.7754042729, 40.2485925697]}, "type": "Feature", "properties": {"collection_times": [{"days": "Mon-Sat", "time": "11:00am"}, {"days": "Sun", "time": "Closed"}], "id": "0861800003", "name": "USPS COLLECTION BOX - BLUE BOX", "address": {"city": "EWING", "state": "NJ", "street": "1479 PENNINGTON RD", "postcode": "08618"}}},
{"geometry": {"type": "Point", "coordinates": [-74.7827166922, 40.2510804655]}, "type": "Feature", "properties": {"collection_times": [{"days": "Mon-Sat", "time": "11:00am"}, {"days": "Sun", "time": "Closed"}], "id": "0861800006", "name": "USPS COLLECTION BOX - BLUE BOX", "address": {"city": "EWING", "state": "NJ", "street": "1901 N OLDEN AVENUE EXT", "postcode": "08618"}}},
{"geometry": {"type": "Point", "coordinates": [-74.7874421934, 40.2519246253]}, "type": "Feature", "properties": {"collection_times": [{"days": "Mon-Sat", "time": "11:00am"}, {"days": "Sun", "time": "Closed"}], "id": "0861800007", "name": "USPS COLLECTION BOX - BLUE BOX", "address": {"city": "EWING", "state": "NJ", "street": "1 HIGHGATE DR", "postcode": "08618"}}},
{"geometry": {"type": "Point", "coordinates": [-74.7950851025, 40.243411009]}, "type": "Feature", "properties": {"collection_times": [{"days": "Mon-Sat", "time": "11:00am"}, {"days": "Sun", "time": "Closed"}], "id": "0861800010", "name": "USPS COLLECTION BOX - BLUE BOX", "address": {"city": "EWING", "state": "NJ", "street": "1433 STUYVESANT AVE", "postcode": "08618"}}},
{"geometry": {"type": "Point", "coordinates": [-74.7793630036, 40.2582184399]}, "type": "Feature", "properties": {"collection_times": [{"days": "Mon-Sat", "time": "11:00am"}, {"days": "Sun", "time": "Closed"}], "id": "0861800011", "name": "USPS COLLECTION BOX - BLUE BOX", "address": {"city": "EWING", "state": "NJ", "street": "1678 PENNINGTON RD", "postcode": "08618"}}},
{"geometry": {"type": "Point", "coordinates": [-74.7858959621, 40.241387419]}, "type": "Feature", "properties": {"collection_times": [{"days": "Mon-Sat", "time": "11:00am"}, {"days": "Sun", "time": "Closed"}], "id": "0861800014", "name": "USPS COLLECTION BOX - BLUE BOX", "address": {"city": "EWING", "state": "NJ", "street": "207 HILLCREST AVE", "postcode": "08618"}}},
{"geometry": {"type": "Point", "coordinates": [-74.7773191045, 40.2297286077]}, "type": "Feature", "properties": {"collection_times": [{"days": "Mon-Fri", "time": "3:00pm"}, {"days": "Sat", "time": "10:00am"}, {"days": "Sun", "time": "Closed"}], "id": "0861800021", "name": "USPS COLLECTION BOX - BLUE BOX", "address": {"city": "EWING", "state": "NJ", "street": "446 BELLEVUE AVE", "postcode": "08618"}}},
{"geometry": {"type": "Point", "coordinates": [-74.7774083828, 40.2296427221]}, "type": "Feature", "properties": {"collection_times": [{"days": "Mon-Sat", "time": "10:00am"}, {"days": "Sun", "time": "Closed"}], "id": "0861800022", "name": "USPS COLLECTION BOX - BLUE BOX", "address": {"city": "EWING", "state": "NJ", "street": "447 BELLEVUE AVE", "postcode": "08618"}}},
{"geometry": {"type": "Point", "coordinates": [-74.7843106961, 40.2338169475]}, "type": "Feature", "properties": {"collection_times": [{"days": "Mon-Sat", "time": "10:00am"}, {"days": "Sun", "time": "Closed"}], "id": "0861800023", "name": "USPS COLLECTION BOX - BLUE BOX", "address": {"city": "EWING", "state": "NJ", "street": "900 BELLEVUE AVE", "postcode": "08618"}}},
{"geometry": {"type": "Point", "coordinates": [-74.7898014335, 40.2303112549]}, "type": "Feature", "properties": {"collection_times": [{"days": "Mon-Sat", "time": "10:00am"}, {"days": "Sun", "time": "Closed"}], "id": "0861800024", "name": "USPS COLLECTION BOX - BLUE BOX", "address": {"city": "EWING", "state": "NJ", "street": "900 BERKELEY AVE", "postcode": "08618"}}},
{"geometry": {"type": "Point", "coordinates": [-74.7824308526, 40.2310479515]}, "type": "Feature", "properties": {"collection_times": [{"days": "Mon-Sat", "time": "10:00am"}, {"days": "Sun", "time": "Closed"}], "id": "0861800025", "name": "USPS COLLECTION BOX - BLUE BOX", "address": {"city": "EWING", "state": "NJ", "street": "222 N HERMITAGE AVE", "postcode": "08618"}}},
{"geometry": {"type": "Point", "coordinates": [-74.7793323973, 40.2375525296]}, "type": "Feature", "properties": {"collection_times": [{"days": "Mon-Sat", "time": "10:00am"}, {"days": "Sun", "time": "Closed"}], "id": "0861800026", "name": "USPS COLLECTION BOX - BLUE BOX", "address": {"city": "EWING", "state": "NJ", "street": "237 OAKLAND ST", "postcode": "08618"}}},
{"geometry": {"type": "Point", "coordinates": [-74.7693434009, 40.2308986581]}, "type": "Feature", "properties": {"collection_times": [{"days": "Mon-Sat", "time": "10:00am"}, {"days": "Sun", "time": "Closed"}], "id": "0861800027", "name": "USPS COLLECTION BOX - BLUE BOX", "address": {"city": "EWING", "state": "NJ", "street": "301 PENNINGTON AVE", "postcode": "08618"}}},
{"geometry": {"type": "Point", "coordinates": [-74.775951495, 40.2232267929]}, "type": "Feature", "properties": {"collection_times": [{"days": "Mon-Fri", "time": "3:00pm"}, {"days": "Sat", "time": "10:00am"}, {"days": "Sun", "time": "Closed"}], "id": "0861800034", "name": "USPS COLLECTION BOX - BLUE BOX", "address": {"city": "EWING", "state": "NJ", "street": "329 W STATE ST", "postcode": "08618"}}},
{"geometry": {"type": "Point", "coordinates": [-74.7782578215, 40.2255417923]}, "type": "Feature", "properties": {"collection_times": [{"days": "Mon-Sat", "time": "10:00am"}, {"days": "Sun", "time": "Closed"}], "id": "0861800037", "name": "USPS COLLECTION BOX - BLUE BOX", "address": {"city": "EWING", "state": "NJ", "street": "407 W STATE ST", "postcode": "08618"}}},
{"geometry": {"type": "Point", "coordinates": [-74.7859314171, 40.2295315734]}, "type": "Feature", "properties": {"collection_times": [{"days": "Mon-Sat", "time": "10:00am"}, {"days": "Sun", "time": "Closed"}], "id": "0861800040", "name": "USPS COLLECTION BOX - BLUE BOX", "address": {"city": "EWING", "state": "NJ", "street": "777 W STATE ST", "postcode": "08618"}}},
{"geometry": {"type": "Point", "coordinates": [-74.7931483461, 40.2333456099]}, "type": "Feature", "properties": {"collection_times": [{"days": "Mon-Sat", "time": "10:00am"}, {"days": "Sun", "time": "Closed"}], "id": "0861800041", "name": "USPS COLLECTION BOX - BLUE BOX", "address": {"city": "EWING", "state": "NJ", "street": "1119 W STATE ST", "postcode": "08618"}}},
{"geometry": {"type": "Point", "coordinates": [-74.7828293887, 40.2401641864]}, "type": "Feature", "properties": {"collection_times": [{"days": "Mon-Sat", "time": "10:00am"}, {"days": "Sun", "time": "Closed"}], "id": "0861800042", "name": "USPS COLLECTION BOX - BLUE BOX", "address": {"city": "EWING", "state": "NJ", "street": "1315 W STATE ST", "postcode": "08618"}}},
{"geometry": {"type": "Point", "coordinates": [-74.7981803318, 40.2358486858]}, "type": "Feature", "properties": {"collection_times": [{"days": "Mon-Sat", "time": "10:00am"}, {"days": "Sun", "time": "Closed"}], "id": "0861800043", "name": "USPS COLLECTION BOX - BLUE BOX", "address": {"city": "EWING", "state": "NJ", "street": "1450 W STATE ST", "postcode": "08618"}}},
{"geometry": {"type": "Point", "coordinates": [-74.7730484425, 40.2322420491]}, "type": "Feature", "properties": {"collection_times": [{"days": "Mon-Sat", "time": "10:00am"}, {"days": "Sun", "time": "Closed"}], "id": "0861800044", "name": "USPS COLLECTION BOX - BLUE BOX", "address": {"city": "EWING", "state": "NJ", "street": "28 PROSPECT VLG", "postcode": "08618"}}},
{"geometry": {"type": "Point", "coordinates": [-74.7832255086, 40.2281198791]}, "type": "Feature", "properties": {"collection_times": [{"days": "Mon-Sat", "time": "10:00am"}, {"days": "Sun", "time": "Closed"}], "id": "0861800046", "name": "USPS COLLECTION BOX - BLUE BOX", "address": {"city": "EWING", "state": "NJ", "street": "630 W STATE ST", "postcode": "08618"}}},
{"geometry": {"type": "Point", "coordinates": [-74.7896866133, 40.2316675413]}, "type": "Feature", "properties": {"collection_times": [{"days": "Mon-Sat", "time": "10:00am"}, {"days": "Sun", "time": "Closed"}], "id": "0861800048", "name": "USPS COLLECTION BOX - BLUE BOX", "address": {"city": "EWING", "state": "NJ", "street": "942 W STATE ST", "postcode": "08618"}}},
{"geometry": {"type": "Point", "coordinates": [-74.7554861146, 40.2253195093]}, "type": "Feature", "properties": {"collection_times": [{"days": "Mon-Sat", "time": "10:00am"}, {"days": "Sun", "time": "Closed"}], "id": "0861800049", "name": "USPS COLLECTION BOX - BLUE BOX", "address": {"city": "EWING", "state": "NJ", "street": "578 PERRY ST", "postcode": "08618"}}},
{"geometry": {"type": "Point", "coordinates": [-74.8003214875, 40.2339547685]}, "type": "Feature", "properties": {"collection_times": [{"days": "Mon-Sat", "time": "10:00am"}, {"days": "Sun", "time": "Closed"}], "id": "0861800050", "name": "USPS COLLECTION BOX - BLUE BOX", "address": {"city": "EWING", "state": "NJ", "street": "1600 RIVERSIDE DR", "postcode": "08618"}}},
{"geometry": {"type": "Point", "coordinates": [-74.7692476311, 40.2221338748]}, "type": "Feature", "properties": {"collection_times": [{"days": "Mon-Fri", "time": "3:00pm"}, {"days": "Sat", "time": "10:00am"}, {"days": "Sun", "time": "Closed"}], "id": "0861800051", "name": "USPS COLLECTION BOX - BLUE BOX", "address": {"city": "EWING", "state": "NJ", "street": "135 W HANOVER ST", "postcode": "08618"}}},
{"geometry": {"type": "Point", "coordinates": [-74.7675038399, 40.2256645921]}, "type": "Feature", "properties": {"collection_times": [{"days": "Mon-Sat", "time": "10:00am"}, {"days": "Sun", "time": "Closed"}], "id": "0861800052", "name": "USPS COLLECTION BOX - BLUE BOX", "address": {"city": "EWING", "state": "NJ", "street": "260 N WILLOW ST", "postcode": "08618"}}},
{"geometry": {"type": "Point", "coordinates": [-74.7878681524, 40.2518736876]}, "type": "Feature", "properties": {"collection_times": [{"days": "Mon-Sat", "time": "10:00am"}, {"days": "Sun", "time": "Closed"}], "id": "0861800053", "name": "USPS COLLECTION BOX - BLUE BOX", "address": {"city": "EWING", "state": "NJ", "street": "1977 N OLDEN AVENUE EXT", "postcode": "08618"}}},
{"geometry": {"type": "Point", "coordinates": [-74.7639587833, 40.2280957129]}, "type": "Feature", "properties": {"collection_times": [{"days": "Mon-Sat", "time": "10:00am"}, {"days": "Sun", "time": "Closed"}], "id": "0861800054", "name": "USPS COLLECTION BOX - BLUE BOX", "address": {"city": "EWING", "state": "NJ", "street": "483 MARTIN LUTHER KING JR BLVD", "postcode": "08618"}}},
{"geometry": {"type": "Point", "coordinates": [-74.7802650585, 40.2272204026]}, "type": "Feature", "properties": {"collection_times": [{"days": "Mon-Sat", "time": "10:00am"}, {"days": "Sun", "time": "Closed"}], "id": "0861800055", "name": "USPS COLLECTION BOX - BLUE BOX", "address": {"city": "EWING", "state": "NJ", "street": "489 W STATE ST", "postcode": "08618"}}},
{"geometry": {"type": "Point", "coordinates": [-74.6813749943, 40.2399080795]}, "type": "Feature", "properties": {"collection_times": [{"days": "Mon-Sat", "time": "11:00am"}, {"days": "Sun", "time": "Closed"}], "id": "0861900000", "name": "USPS COLLECTION BOX - BLUE BOX", "address": {"city": "TRENTON", "state": "NJ", "street": "315 EDINBURG RD", "postcode": "08619"}}},
{"geometry": {"type": "Point", "coordinates": [-74.6946158233, 40.2316184246]}, "type": "Feature", "properties": {"collection_times": [{"days": "Mon-Sat", "time": "11:00am"}, {"days": "Sun", "time": "Closed"}], "id": "0861900001", "name": "USPS COLLECTION BOX - BLUE BOX", "address": {"city": "TRENTON", "state": "NJ", "street": "229 CRESCENT AVE", "postcode": "08619"}}},
{"geometry": {"type": "Point", "coordinates": [-74.7024836834, 40.2100448019]}, "type": "Feature", "properties": {"collection_times": [{"days": "Mon-Sat", "time": "11:00am"}, {"days": "Sun", "time": "Closed"}], "id": "0861900007", "name": "USPS COLLECTION BOX - BLUE BOX", "address": {"city": "TRENTON", "state": "NJ", "street": "1345 KUSER RD", "postcode": "08619"}}},
{"geometry": {"type": "Point", "coordinates": [-74.6967688086, 40.2081012003]}, "type": "Feature", "properties": {"collection_times": [{"days": "Mon-Sat", "time": "11:00am"}, {"days": "Sun", "time": "Closed"}], "id": "0861900009", "name": "USPS COLLECTION BOX - BLUE BOX", "address": {"city": "TRENTON", "state": "NJ", "street": "1540 KUSER RD", "postcode": "08619"}}},
{"geometry": {"type": "Point", "coordinates": [-74.7114871841, 40.2328676292]}, "type": "Feature", "properties": {"collection_times": [{"days": "Mon-Sat", "time": "11:00am"}, {"days": "Sun", "time": "Closed"}], "id": "0861900011", "name": "USPS COLLECTION BOX - BLUE BOX", "address": {"city": "TRENTON", "state": "NJ", "street": "1903 NOTTINGHAM WAY", "postcode": "08619"}}},
{"geometry": {"type": "Point", "coordinates": [-74.7106113581, 40.2160161503]}, "type": "Feature", "properties": {"collection_times": [{"days": "Mon-Sat", "time": "11:00am"}, {"days": "Sun", "time": "Closed"}], "id": "0861900012", "name": "USPS COLLECTION BOX - BLUE BOX", "address": {"city": "TRENTON", "state": "NJ", "street": "101 NOTTINGHILL LN", "postcode": "08619"}}},
{"geometry": {"type": "Point", "coordinates": [-74.6879503101, 40.2555932566]}, "type": "Feature", "properties": {"collection_times": [{"days": "Mon-Fri", "time": "3:00pm"}, {"days": "Sat", "time": "11:00am"}, {"days": "Sun", "time": "Closed"}], "id": "0861900013", "name": "USPS COLLECTION BOX - BLUE BOX", "address": {"city": "TRENTON", "state": "NJ", "street": "1 QUAKERBRIDGE PLZ", "postcode": "08619"}}},
{"geometry": {"type": "Point", "coordinates": [-74.6758848511, 40.2621328511]}, "type": "Feature", "properties": {"collection_times": [{"days": "Mon-Fri", "time": "3:00pm"}, {"days": "Sat", "time": "11:00am"}, {"days": "Sun", "time": "Closed"}], "id": "0861900014", "name": "USPS COLLECTION BOX - BLUE BOX", "address": {"city": "TRENTON", "state": "NJ", "street": "3705 QUAKERBRIDGE RD", "postcode": "08619"}}},
{"geometry": {"type": "Point", "coordinates": [-74.6774238807, 40.2598107026]}, "type": "Feature", "properties": {"collection_times": [{"days": "Mon-Sat", "time": "11:00am"}, {"days": "Sun", "time": "Closed"}], "id": "0861900016", "name": "USPS COLLECTION BOX - BLUE BOX", "address": {"city": "TRENTON", "state": "NJ", "street": "3635 QUAKERBRIDGE RD", "postcode": "08619"}}},
{"geometry": {"type": "Point", "coordinates": [-74.6865841022, 40.2469313181]}, "type": "Feature", "properties": {"collection_times": [{"days": "Mon-Sat", "time": "11:00am"}, {"days": "Sun", "time": "Closed"}], "id": "0861900017", "name": "USPS COLLECTION BOX - BLUE BOX", "address": {"city": "TRENTON", "state": "NJ", "street": "3100 QUAKERBRIDGE RD", "postcode": "08619"}}},
{"geometry": {"type": "Point", "coordinates": [-74.6859009646, 40.2331740156]}, "type": "Feature", "properties": {"collection_times": [{"days": "Mon-Sat", "time": "3:00pm"}, {"days": "Sun", "time": "Closed"}], "id": "0861900021", "name": "USPS COLLECTION BOX - BLUE BOX", "address": {"city": "TRENTON", "state": "NJ", "street": "339 STATE ROUTE 33", "postcode": "08619"}}},
{"geometry": {"type": "Point", "coordinates": [-74.7122929706, 40.2267674176]}, "type": "Feature", "properties": {"collection_times": [{"days": "Mon-Sat", "time": "11:00am"}, {"days": "Sun", "time": "Closed"}], "id": "0861900023", "name": "USPS COLLECTION BOX - BLUE BOX", "address": {"city": "TRENTON", "state": "NJ", "street": "1 CYPRESS LN", "postcode": "08619"}}},
{"geometry": {"type": "Point", "coordinates": [-74.6871636452, 40.2313870427]}, "type": "Feature", "properties": {"collection_times": [{"days": "Mon-Sat", "time": "11:00am"}, {"days": "Sun", "time": "Closed"}], "id": "0861900024", "name": "USPS COLLECTION BOX - BLUE BOX", "address": {"city": "TRENTON", "state": "NJ", "street": "2333 WHITEHORSE MERCERVILLE RD", "postcode": "08619"}}},
{"geometry": {"type": "Point", "coordinates": [-74.6952297331, 40.2376005868]}, "type": "Feature", "properties": {"collection_times": [{"days": "Mon-Fri", "time": "3:00pm"}, {"days": "Sat", "time": "11:00am"}, {"days": "Sun", "time": "Closed"}], "id": "0861900028", "name": "USPS COLLECTION BOX - EXPRESS", "address": {"city": "TRENTON", "state": "NJ", "street": "1 QUAKERBRIDGE PLZ", "postcode": "08619"}}},
{"geometry": {"type": "Point", "coordinates": [-74.6968788238, 40.2340588689]}, "type": "Feature", "properties": {"collection_times": [{"days": "Mon-Sat", "time": "11:00am"}, {"days": "Sun", "time": "Closed"}], "id": "0861900030", "name": "USPS COLLECTION BOX - BLUE BOX", "address": {"city": "TRENTON", "state": "NJ", "street": "2419 NOTTINGHAM WAY", "postcode": "08619"}}},
{"geometry": {"type": "Point", "coordinates": [-74.6785796316, 40.2342552401]}, "type": "Feature", "properties": {"collection_times": [{"days": "Mon-Sat", "time": "11:00am"}, {"days": "Sun", "time": "Closed"}], "id": "0861900032", "name": "USPS COLLECTION BOX - BLUE BOX", "address": {"city": "TRENTON", "state": "NJ", "street": "2918 NOTTINGHAM WAY", "postcode": "08619"}}},
{"geometry": {"type": "Point", "coordinates": [-74.7055854926, 40.2524466058]}, "type": "Feature", "properties": {"collection_times": [{"days": "Mon-Sat", "time": "11:00am"}, {"days": "Sun", "time": "Closed"}], "id": "0861900033", "name": "USPS COLLECTION BOX - BLUE BOX", "address": {"city": "TRENTON", "state": "NJ", "street": "800 SLOAN AVE", "postcode": "08619"}}},
{"geometry": {"type": "Point", "coordinates": [-74.6859009646, 40.2331740156]}, "type": "Feature", "properties": {"collection_times": [{"days": "Mon-Sat", "time": "3:00pm"}, {"days": "Sun", "time": "Closed"}], "id": "0861900036", "name": "USPS COLLECTION BOX - BLUE BOX", "address": {"city": "TRENTON", "state": "NJ", "street": "339 STATE ROUTE 33", "postcode": "08619"}}},
{"geometry": {"type": "Point", "coordinates": [-74.6782282928, 40.2312765494]}, "type": "Feature", "properties": {"collection_times": [{"days": "Mon-Fri", "time": "3:00pm"}, {"days": "Sat", "time": "11:00am"}, {"days": "Sun", "time": "Closed"}], "id": "0861900037", "name": "USPS COLLECTION BOX - BLUE BOX", "address": {"city": "TRENTON", "state": "NJ", "street": "691 STATE ROUTE 33", "postcode": "08619"}}},
{"geometry": {"type": "Point", "coordinates": [-74.6859009646, 40.2331740156]}, "type": "Feature", "properties": {"collection_times": [{"days": "Mon-Fri", "time": "5:00pm"}, {"days": "Sat", "time": "3:00pm"}, {"days": "Sun", "time": "Closed"}], "id": "0861900039", "name": "USPS COLLECTION BOX - PO LOBBY", "address": {"city": "TRENTON", "state": "NJ", "street": "339 STATE HIGHWAY 33", "postcode": "08619"}}},
{"geometry": {"type": "Point", "coordinates": [-74.703129579, 40.2217123262]}, "type": "Feature", "properties": {"collection_times": [{"days": "Mon-Sat", "time": "11:00am"}, {"days": "Sun", "time": "Closed"}], "id": "0861900040", "name": "USPS COLLECTION BOX - BLUE BOX", "address": {"city": "TRENTON", "state": "NJ", "street": "409 CYPRESS LN", "postcode": "08619"}}},
{"geometry": {"type": "Point", "coordinates": [-74.6790821167, 40.1852330834]}, "type": "Feature", "properties": {"collection_times": [{"days": "Mon-Sat", "time": "3:00pm"}, {"days": "Sun", "time": "Closed"}], "id": "0862000000", "name": "USPS COLLECTION BOX - BLUE BOX", "address": {"city": "TRENTON", "state": "NJ", "street": "9 SUNNYBRAE BLVD", "postcode": "08620"}}},
{"geometry": {"type": "Point", "coordinates": [-74.6705639016, 40.1784018326]}, "type": "Feature", "properties": {"collection_times": [{"days": "Mon-Fri", "time": "3:00pm"}, {"days": "Sat", "time": "11:00am"}, {"days": "Sun", "time": "Closed"}], "id": "0862000005", "name": "USPS COLLECTION BOX - BLUE BOX", "address": {"city": "TRENTON", "state": "NJ", "street": "4556 S BROAD ST", "postcode": "08620"}}},
{"geometry": {"type": "Point", "coordinates": [-74.700778059, 40.175286574]}, "type": "Feature", "properties": {"collection_times": [{"days": "Mon-Sat", "time": "11:00am"}, {"days": "Sun", "time": "Closed"}], "id": "0862000007", "name": "USPS COLLECTION BOX - BLUE BOX", "address": {"city": "TRENTON", "state": "NJ", "street": "3 MISSION RD", "postcode": "08620"}}},
{"geometry": {"type": "Point", "coordinates": [-74.8185491608, 40.2646346368]}, "type": "Feature", "properties": {"collection_times": [{"days": "Mon-Sat", "time": "3:00pm"}, {"days": "Sun", "time": "Closed"}], "id": "0862800002", "name": "USPS COLLECTION BOX - BLUE BOX", "address": {"city": "EWING", "state": "NJ", "street": "555 GRAND AVE", "postcode": "08628"}}},
{"geometry": {"type": "Point", "coordinates": [-74.8008659609, 40.2753812177]}, "type": "Feature", "properties": {"collection_times": [{"days": "Mon-Fri", "time": "3:00pm"}, {"days": "Sat", "time": "11:00am"}, {"days": "Sun", "time": "Closed"}], "id": "0862800007", "name": "USPS COLLECTION BOX - BLUE BOX", "address": {"city": "EWING", "state": "NJ", "street": "2 MUNICIPAL DR", "postcode": "08628"}}},
{"geometry": {"type": "Point", "coordinates": [-74.8040870413, 40.2748217256]}, "type": "Feature", "properties": {"collection_times": [{"days": "Mon-Sat", "time": "11:00am"}, {"days": "Sun", "time": "Closed"}], "id": "0862800009", "name": "USPS COLLECTION BOX - BLUE BOX", "address": {"city": "EWING", "state": "NJ", "street": "186 SCOTCH RD", "postcode": "08628"}}},
{"geometry": {"type": "Point", "coordinates": [-74.8288484573, 40.2456532132]}, "type": "Feature", "properties": {"collection_times": [{"days": "Mon-Sat", "time": "11:00am"}, {"days": "Sun", "time": "Closed"}], "id": "0862800010", "name": "USPS COLLECTION BOX - BLUE BOX", "address": {"city": "EWING", "state": "NJ", "street": "200 COUNTRY LN", "postcode": "08628"}}},
{"geometry": {"type": "Point", "coordinates": [-74.8305437232, 40.2783240104]}, "type": "Feature", "properties": {"collection_times": [{"days": "Mon-Sat", "time": "11:00am"}, {"days": "Sun", "time": "Closed"}], "id": "0862800011", "name": "USPS COLLECTION BOX - BLUE BOX", "address": {"city": "EWING", "state": "NJ", "street": "840 BEAR TAVERN RD", "postcode": "08628"}}},
{"geometry": {"type": "Point", "coordinates": [-74.8011010575, 40.2630650227]}, "type": "Feature", "properties": {"collection_times": [{"days": "Mon-Fri", "time": "3:00pm"}, {"days": "Sat", "time": "11:00am"}, {"days": "Sun", "time": "Closed"}], "id": "0862800019", "name": "USPS COLLECTION BOX - BLUE BOX", "address": {"city": "EWING", "state": "NJ", "street": "1230 PARKWAY AVE", "postcode": "08628"}}},
{"geometry": {"type": "Point", "coordinates": [-74.8015266692, 40.2654993294]}, "type": "Feature", "properties": {"collection_times": [{"days": "Mon-Sat", "time": "11:00am"}, {"days": "Sun", "time": "Closed"}], "id": "0862800021", "name": "USPS COLLECTION BOX - BLUE BOX", "address": {"city": "EWING", "state": "NJ", "street": "25 SCOTCH RD", "postcode": "08628"}}},
{"geometry": {"type": "Point", "coordinates": [-74.8184221301, 40.2643570552]}, "type": "Feature", "properties": {"collection_times": [{"days": "Mon-Fri", "time": "5:15pm"}, {"days": "Sat", "time": "2:45pm"}, {"days": "Sun", "time": "Closed"}], "id": "0862800022", "name": "USPS COLLECTION BOX - PO LOBBY", "address": {"city": "EWING", "state": "NJ", "street": "555 GRAND AVE", "postcode": "08628"}}},
{"geometry": {"type": "Point", "coordinates": [-74.7419164375, 40.2172987063]}, "type": "Feature", "properties": {"collection_times": [{"days": "Mon-Sat", "time": "11:00am"}, {"days": "Sun", "time": "Closed"}], "id": "0862900003", "name": "USPS COLLECTION BOX - BLUE BOX", "address": {"city": "TRENTON", "state": "NJ", "street": "601 HAMILTON AVE", "postcode": "08629"}}},
{"geometry": {"type": "Point", "coordinates": [-74.7328069739, 40.2197788698]}, "type": "Feature", "properties": {"collection_times": [{"days": "Mon-Sat", "time": "11:00am"}, {"days": "Sun", "time": "Closed"}], "id": "0862900004", "name": "USPS COLLECTION BOX - BLUE BOX", "address": {"city": "TRENTON", "state": "NJ", "street": "1200 HAMILTON AVE", "postcode": "08629"}}},
{"geometry": {"type": "Point", "coordinates": [-74.729793474, 40.2205057081]}, "type": "Feature", "properties": {"collection_times": [{"days": "Mon-Sat", "time": "11:00am"}, {"days": "Sun", "time": "Closed"}], "id": "0862900005", "name": "USPS COLLECTION BOX - BLUE BOX", "address": {"city": "TRENTON", "state": "NJ", "street": "1300 HAMILTON AVE", "postcode": "08629"}}},
{"geometry": {"type": "Point", "coordinates": [-74.7226566826, 40.2224055401]}, "type": "Feature", "properties": {"collection_times": [{"days": "Mon-Sat", "time": "11:00am"}, {"days": "Sun", "time": "Closed"}], "id": "0862900006", "name": "USPS COLLECTION BOX - BLUE BOX", "address": {"city": "TRENTON", "state": "NJ", "street": "1605 HAMILTON AVE", "postcode": "08629"}}},
{"geometry": {"type": "Point", "coordinates": [-74.733805741, 40.2193956848]}, "type": "Feature", "properties": {"collection_times": [{"days": "Mon-Sat", "time": "3:00pm"}, {"days": "Sun", "time": "Closed"}], "id": "0862900008", "name": "USPS COLLECTION BOX - BLUE BOX", "address": {"city": "TRENTON", "state": "NJ", "street": "1137 HAMILTON AVE", "postcode": "08629"}}},
{"geometry": {"type": "Point", "coordinates": [-74.7334925867, 40.216674104]}, "type": "Feature", "properties": {"collection_times": [{"days": "Mon-Sat", "time": "11:00am"}, {"days": "Sun", "time": "Closed"}], "id": "0862900009", "name": "USPS COLLECTION BOX - BLUE BOX", "address": {"city": "TRENTON", "state": "NJ", "street": "934 PARK AVE", "postcode": "08629"}}},
{"geometry": {"type": "Point", "coordinates": [-74.733805741, 40.2193956848]}, "type": "Feature", "properties": {"collection_times": [{"days": "Mon-Fri", "time": "4:30pm"}, {"days": "Sat", "time": "2:00pm"}, {"days": "Sun", "time": "Closed"}], "id": "0862900014", "name": "USPS COLLECTION BOX - PO LOBBY", "address": {"city": "TRENTON", "state": "NJ", "street": "1137 HAMILTON AVE", "postcode": "08629"}}},
{"geometry": {"type": "Point", "coordinates": [-74.761525827, 40.2504226981]}, "type": "Feature", "properties": {"collection_times": [{"days": "Mon-Sat", "time": "3:00pm"}, {"days": "Sun", "time": "Closed"}], "id": "0863800000", "name": "USPS COLLECTION BOX - EXPRESS", "address": {"city": "EWING", "state": "NJ", "street": "2601 BRUNSWICK AVE", "postcode": "08638"}}},
{"geometry": {"type": "Point", "coordinates": [-74.7630194209, 40.2557261521]}, "type": "Feature", "properties": {"collection_times": [{"days": "Mon-Sat", "time": "3:00pm"}, {"days": "Sun", "time": "Closed"}], "id": "0863800001", "name": "USPS COLLECTION BOX - BLUE BOX", "address": {"city": "EWING", "state": "NJ", "street": "2601 BRUNSWICK AVE", "postcode": "08638"}}},
{"geometry": {"type": "Point", "coordinates": [-74.7630194209, 40.2557261521]}, "type": "Feature", "properties": {"collection_times": [{"days": "Mon-Sat", "time": "3:00pm"}, {"days": "Sun", "time": "Closed"}], "id": "0863800002", "name": "USPS COLLECTION BOX - BLUE BOX", "address": {"city": "EWING", "state": "NJ", "street": "2601 BRUNSWICK AVE", "postcode": "08638"}}},
{"geometry": {"type": "Point", "coordinates": [-74.7504168008, 40.2388212171]}, "type": "Feature", "properties": {"collection_times": [{"days": "Mon-Fri", "time": "3:00pm"}, {"days": "Sat", "time": "11:00am"}, {"days": "Sun", "time": "Closed"}], "id": "0863800003", "name": "USPS COLLECTION BOX - BLUE BOX", "address": {"city": "EWING", "state": "NJ", "street": "891 BRUNSWICK AVE", "postcode": "08638"}}},
{"geometry": {"type": "Point", "coordinates": [-74.7527156699, 40.2361065709]}, "type": "Feature", "properties": {"collection_times": [{"days": "Mon-Sat", "time": "11:00am"}, {"days": "Sun", "time": "Closed"}], "id": "0863800004", "name": "USPS COLLECTION BOX - BLUE BOX", "address": {"city": "EWING", "state": "NJ", "street": "750 BRUNSWICK AVE", "postcode": "08638"}}},
{"geometry": {"type": "Point", "coordinates": [-74.7441735232, 40.2397205105]}, "type": "Feature", "properties": {"collection_times": [{"days": "Mon-Sat", "time": "11:00am"}, {"days": "Sun", "time": "Closed"}], "id": "0863800007", "name": "USPS COLLECTION BOX - BLUE BOX", "address": {"city": "EWING", "state": "NJ", "street": "951 PENNSYLVANIA AVE", "postcode": "08638"}}},
{"geometry": {"type": "Point", "coordinates": [-74.7650657615, 40.255619479]}, "type": "Feature", "properties": {"collection_times": [{"days": "Mon-Sat", "time": "11:00am"}, {"days": "Sun", "time": "Closed"}], "id": "0863800008", "name": "USPS COLLECTION BOX - BLUE BOX", "address": {"city": "EWING", "state": "NJ", "street": "1501 PARKSIDE AVE", "postcode": "08638"}}},
{"geometry": {"type": "Point", "coordinates": [-74.7684927936, 40.2574802735]}, "type": "Feature", "properties": {"collection_times": [{"days": "Mon-Sat", "time": "11:00am"}, {"days": "Sun", "time": "Closed"}], "id": "0863800009", "name": "USPS COLLECTION BOX - BLUE BOX", "address": {"city": "EWING", "state": "NJ", "street": "159 BUTTONWOOD DR", "postcode": "08638"}}},
{"geometry": {"type": "Point", "coordinates": [-74.7678746767, 40.2530202362]}, "type": "Feature", "properties": {"collection_times": [{"days": "Mon-Sat", "time": "11:00am"}, {"days": "Sun", "time": "Closed"}], "id": "0863800011", "name": "USPS COLLECTION BOX - BLUE BOX", "address": {"city": "EWING", "state": "NJ", "street": "1465 PARKSIDE AVE", "postcode": "08638"}}},
{"geometry": {"type": "Point", "coordinates": [-74.7709000031, 40.2484646663]}, "type": "Feature", "properties": {"collection_times": [{"days": "Mon-Sat", "time": "11:00am"}, {"days": "Sun", "time": "Closed"}], "id": "0863800012", "name": "USPS COLLECTION BOX - BLUE BOX", "address": {"city": "EWING", "state": "NJ", "street": "1765 N OLDEN AVENUE EXT", "postcode": "08638"}}},
{"geometry": {"type": "Point", "coordinates": [-74.7687151899, 40.2402575739]}, "type": "Feature", "properties": {"collection_times": [{"days": "Mon-Sat", "time": "11:00am"}, {"days": "Sun", "time": "Closed"}], "id": "0863800013", "name": "USPS COLLECTION BOX - BLUE BOX", "address": {"city": "EWING", "state": "NJ", "street": "1125 PROSPECT ST", "postcode": "08638"}}},
{"geometry": {"type": "Point", "coordinates": [-74.761460519, 40.2567809801]}, "type": "Feature", "properties": {"collection_times": [{"days": "Mon-Sat", "time": "11:00am"}, {"days": "Sun", "time": "Closed"}], "id": "0863800020", "name": "USPS COLLECTION BOX - BLUE BOX", "address": {"city": "EWING", "state": "NJ", "street": "2325 SPRUCE ST", "postcode": "08638"}}},
{"geometry": {"type": "Point", "coordinates": [-74.7593520697, 40.2596297099]}, "type": "Feature", "properties": {"collection_times": [{"days": "Mon-Sat", "time": "11:00am"}, {"days": "Sun", "time": "Closed"}], "id": "0863800021", "name": "USPS COLLECTION BOX - BLUE BOX", "address": {"city": "EWING", "state": "NJ", "street": "15 SHERBROOKE RD", "postcode": "08638"}}},
{"geometry": {"type": "Point", "coordinates": [-74.7644710158, 40.2712115508]}, "type": "Feature", "properties": {"collection_times": [{"days": "Mon-Sat", "time": "11:00am"}, {"days": "Sun", "time": "Closed"}], "id": "0863800024", "name": "USPS COLLECTION BOX - BLUE BOX", "address": {"city": "EWING", "state": "NJ", "street": "331 EWINGVILLE RD", "postcode": "08638"}}},
{"geometry": {"type": "Point", "coordinates": [-74.7801839771, 40.2781146267]}, "type": "Feature", "properties": {"collection_times": [{"days": "Mon-Sat", "time": "11:00am"}, {"days": "Sun", "time": "Closed"}], "id": "0863800025", "name": "USPS COLLECTION BOX - BLUE BOX", "address": {"city": "EWING", "state": "NJ", "street": "2108 PENNINGTON RD", "postcode": "08638"}}},
{"geometry": {"type": "Point", "coordinates": [-74.749053229, 40.239734706]}, "type": "Feature", "properties": {"collection_times": [{"days": "Mon-Sat", "time": "11:00am"}, {"days": "Sun", "time": "Closed"}], "id": "0863800033", "name": "USPS COLLECTION BOX - BLUE BOX", "address": {"city": "EWING", "state": "NJ", "street": "940 BRUNSWICK AVE", "postcode": "08638"}}},
{"geometry": {"type": "Point", "coordinates": [-74.7630194209, 40.2557261521]}, "type": "Feature", "properties": {"collection_times": [{"days": "Mon-Sat", "time": "5:30pm"}, {"days": "Sun", "time": "Closed"}], "id": "0863800034", "name": "USPS COLLECTION BOX - PO LOBBY", "address": {"city": "EWING", "state": "NJ", "street": "2601 BRUNSWICK AVE", "postcode": "08638"}}},
{"geometry": {"type": "Point", "coordinates": [-74.619389538, 40.0163011647]}, "type": "Feature", "properties": {"collection_times": [{"days": "Mon-Sat", "time": "10:00am"}, {"days": "Sun", "time": "Closed"}], "id": "0864000001", "name": "USPS COLLECTION BOX - BLUE BOX", "address": {"city": "FORT DIX", "state": "NJ", "street": "5434 DELAWARE AVE", "postcode": "08640"}}},
{"geometry": {"type": "Point", "coordinates": [-74.6281196897, 40.0087089204]}, "type": "Feature", "properties": {"collection_times": [{"days": "Mon-Fri", "time": "3:00pm"}, {"days": "Sat", "time": "12:00pm"}, {"days": "Sun", "time": "Closed"}], "id": "0864000005", "name": "USPS COLLECTION BOX - BLUE BOX", "address": {"city": "FORT DIX", "state": "NJ", "street": "6038 W 9TH ST STE 1", "postcode": "08640"}}},
{"geometry": {"type": "Point", "coordinates": [-74.6281196897, 40.0087089204]}, "type": "Feature", "properties": {"collection_times": [{"days": "Mon-Fri", "time": "3:00pm"}, {"days": "Sat", "time": "12:00pm"}, {"days": "Sun", "time": "Closed"}], "id": "0864000006", "name": "USPS COLLECTION BOX - BLUE BOX", "address": {"city": "FORT DIX", "state": "NJ", "street": "6038 W 9TH ST STE 1", "postcode": "08640"}}},
{"geometry": {"type": "Point", "coordinates": [-74.6257791651, 40.0042216514]}, "type": "Feature", "properties": {"collection_times": [{"days": "Mon-Fri", "time": "3:00pm"}, {"days": "Sat", "time": "12:00pm"}, {"days": "Sun", "time": "Closed"}], "id": "0864000007", "name": "USPS COLLECTION BOX - EXPRESS", "address": {"city": "FORT DIX", "state": "NJ", "street": "6038 W 9TH ST STE 1", "postcode": "08640"}}},
{"geometry": {"type": "Point", "coordinates": [-74.6257661298, 40.0042216976]}, "type": "Feature", "properties": {"collection_times": [{"days": "Mon-Sat", "time": "10:00am"}, {"days": "Sun", "time": "Closed"}], "id": "0864000008", "name": "USPS COLLECTION BOX - BLUE BOX", "address": {"city": "FORT DIX", "state": "NJ", "street": "5641 BALTIMORE ST", "postcode": "08640"}}},
{"geometry": {"type": "Point", "coordinates": [-74.6281196897, 40.0087089204]}, "type": "Feature", "properties": {"collection_times": [{"days": "Mon-Fri", "time": "4:30pm"}, {"days": "Sat", "time": "3:45pm"}, {"days": "Sun", "time": "Closed"}], "id": "0864000009", "name": "USPS COLLECTION BOX - PO LOBBY", "address": {"city": "FORT DIX", "state": "NJ", "street": "6038 W 9TH ST STE 1", "postcode": "08640"}}},
{"geometry": {"type": "Point", "coordinates": [-74.5833439999, 40.0366899158]}, "type": "Feature", "properties": {"collection_times": [{"days": "Mon-Fri", "time": "3:00pm"}, {"days": "Sat", "time": "12:00pm"}, {"days": "Sun", "time": "Closed"}], "id": "0864100001", "name": "USPS COLLECTION BOX - BLUE BOX", "address": {"city": "TRENTON", "state": "NJ", "street": "2907 TUSKEGEE AIRMEN AVE", "postcode": "08641"}}},
{"geometry": {"type": "Point", "coordinates": [-74.5872725772, 40.0285539949]}, "type": "Feature", "properties": {"collection_times": [{"days": "Mon-Sat", "time": "10:00am"}, {"days": "Sun", "time": "Closed"}], "id": "0864100002", "name": "USPS COLLECTION BOX - BLUE BOX", "address": {"city": "TRENTON", "state": "NJ", "street": "4213A E GEORGE ST", "postcode": "08641"}}},
{"geometry": {"type": "Point", "coordinates": [-74.5833439999, 40.0366899158]}, "type": "Feature", "properties": {"collection_times": [{"days": "Mon-Fri", "time": "4:30pm"}, {"days": "Sat-Sun", "time": "Closed"}], "id": "0864100003", "name": "USPS COLLECTION BOX - PO LOBBY", "address": {"city": "TRENTON", "state": "NJ", "street": "2907 TUSKEGEE AIRMEN AVE", "postcode": "08641"}}},
{"geometry": {"type": "Point", "coordinates": [-74.7229769382, 40.2782437683]}, "type": "Feature", "properties": {"collection_times": [{"days": "Mon-Fri", "time": "3:00pm"}, {"days": "Sat", "time": "11:00am"}, {"days": "Sun", "time": "Closed"}], "id": "0864800000", "name": "USPS COLLECTION BOX - EXPRESS", "address": {"city": "LAWRENCEVILLE", "state": "NJ", "street": "3131 PRINCETON PIKE", "postcode": "08648"}}},
{"geometry": {"type": "Point", "coordinates": [-74.7079939062, 40.2754186632]}, "type": "Feature", "properties": {"collection_times": [{"days": "Mon-Sat", "time": "11:00am"}, {"days": "Sun", "time": "Closed"}], "id": "0864800004", "name": "USPS COLLECTION BOX - BLUE BOX", "address": {"city": "LAWRENCEVILLE", "state": "NJ", "street": "180 FRANKLIN CORNER RD", "postcode": "08648"}}},
{"geometry": {"type": "Point", "coordinates": [-74.7152158707, 40.282976588]}, "type": "Feature", "properties": {"collection_times": [{"days": "Mon-Fri", "time": "3:00pm"}, {"days": "Sat", "time": "11:00am"}, {"days": "Sun", "time": "Closed"}], "id": "0864800007", "name": "USPS COLLECTION BOX - BLUE BOX", "address": {"city": "LAWRENCEVILLE", "state": "NJ", "street": "3131 PRINCETON PIKE", "postcode": "08648"}}},
{"geometry": {"type": "Point", "coordinates": [-74.7152158707, 40.282976588]}, "type": "Feature", "properties": {"collection_times": [{"days": "Mon-Fri", "time": "3:00pm"}, {"days": "Sat", "time": "11:00am"}, {"days": "Sun", "time": "Closed"}], "id": "0864800008", "name": "USPS COLLECTION BOX - BLUE BOX", "address": {"city": "LAWRENCEVILLE", "state": "NJ", "street": "3131 PRINCETON PIKE", "postcode": "08648"}}},
{"geometry": {"type": "Point", "coordinates": [-74.7152158707, 40.282976588]}, "type": "Feature", "properties": {"collection_times": [{"days": "Mon-Fri", "time": "3:00pm"}, {"days": "Sat", "time": "11:00am"}, {"days": "Sun", "time": "Closed"}], "id": "0864800010", "name": "USPS COLLECTION BOX - BLUE BOX", "address": {"city": "LAWRENCEVILLE", "state": "NJ", "street": "3131 PRINCETON PIKE", "postcode": "08648"}}},
{"geometry": {"type": "Point", "coordinates": [-74.7183045766, 40.2781844213]}, "type": "Feature", "properties": {"collection_times": [{"days": "Mon-Sat", "time": "11:00am"}, {"days": "Sun", "time": "Closed"}], "id": "0864800012", "name": "USPS COLLECTION BOX - BLUE BOX", "address": {"city": "LAWRENCEVILLE", "state": "NJ", "street": "2988 PRINCETON PIKE", "postcode": "08648"}}},
{"geometry": {"type": "Point", "coordinates": [-74.7254449895, 40.259272582]}, "type": "Feature", "properties": {"collection_times": [{"days": "Mon-Sat", "time": "11:00am"}, {"days": "Sun", "time": "Closed"}], "id": "0864800013", "name": "USPS COLLECTION BOX - BLUE BOX", "address": {"city": "LAWRENCEVILLE", "state": "NJ", "street": "2495 BRUNSWICK PIKE", "postcode": "08648"}}},
{"geometry": {"type": "Point", "coordinates": [-74.7357712077, 40.2507862707]}, "type": "Feature", "properties": {"collection_times": [{"days": "Mon-Sat", "time": "11:00am"}, {"days": "Sun", "time": "Closed"}], "id": "0864800015", "name": "USPS COLLECTION BOX - BLUE BOX", "address": {"city": "LAWRENCEVILLE", "state": "NJ", "street": "1961 BRUNSWICK AVE", "postcode": "08648"}}},
{"geometry": {"type": "Point", "coordinates": [-74.7413462513, 40.2460931105]}, "type": "Feature", "properties": {"collection_times": [{"days": "Mon-Sat", "time": "11:00am"}, {"days": "Sun", "time": "Closed"}], "id": "0864800016", "name": "USPS COLLECTION BOX - BLUE BOX", "address": {"city": "LAWRENCEVILLE", "state": "NJ", "street": "1575 BRUNSWICK AVE", "postcode": "08648"}}},
{"geometry": {"type": "Point", "coordinates": [-74.73828, 40.24845]}, "type": "Feature", "properties": {"collection_times": [{"days": "Mon-Sat", "time": "11:00am"}, {"days": "Sun", "time": "Closed"}], "id": "0864800019", "name": "USPS COLLECTION BOX - BLUE BOX", "address": {"city": "LAWRENCEVILLE", "state": "NJ", "street": "1770 BRUNSWICK AVE", "postcode": "08648"}}},
{"geometry": {"type": "Point", "coordinates": [-74.7290198189, 40.2509621696]}, "type": "Feature", "properties": {"collection_times": [{"days": "Mon-Sat", "time": "11:00am"}, {"days": "Sun", "time": "Closed"}], "id": "0864800020", "name": "USPS COLLECTION BOX - BLUE BOX", "address": {"city": "LAWRENCEVILLE", "state": "NJ", "street": "98 LAKEDALE DR", "postcode": "08648"}}},
{"geometry": {"type": "Point", "coordinates": [-74.7329638041, 40.2517878749]}, "type": "Feature", "properties": {"collection_times": [{"days": "Mon-Sat", "time": "11:00am"}, {"days": "Sun", "time": "Closed"}], "id": "0864800021", "name": "USPS COLLECTION BOX - BLUE BOX", "address": {"city": "LAWRENCEVILLE", "state": "NJ", "street": "684 WHITEHEAD RD", "postcode": "08648"}}},
{"geometry": {"type": "Point", "coordinates": [-74.7238344278, 40.2603207834]}, "type": "Feature", "properties": {"collection_times": [{"days": "Mon-Sat", "time": "11:00am"}, {"days": "Sun", "time": "Closed"}], "id": "0864800022", "name": "USPS COLLECTION BOX - BLUE BOX", "address": {"city": "LAWRENCEVILLE", "state": "NJ", "street": "2542 BRUNSWICK PIKE", "postcode": "08648"}}},
{"geometry": {"type": "Point", "coordinates": [-74.679575683, 40.2887624403]}, "type": "Feature", "properties": {"collection_times": [{"days": "Mon-Sat", "time": "11:00am"}, {"days": "Sun", "time": "Closed"}], "id": "0864800025", "name": "USPS COLLECTION BOX - BLUE BOX", "address": {"city": "LAWRENCEVILLE", "state": "NJ", "street": "101 GROVERS MILL RD", "postcode": "08648"}}},
{"geometry": {"type": "Point", "coordinates": [-74.6829460375, 40.2944926715]}, "type": "Feature", "properties": {"collection_times": [{"days": "Mon-Sat", "time": "11:00am"}, {"days": "Sun", "time": "Closed"}], "id": "0864800027", "name": "USPS COLLECTION BOX - BLUE BOX", "address": {"city": "LAWRENCEVILLE", "state": "NJ", "street": "3373 BRUNSWICK PIKE", "postcode": "08648"}}},
{"geometry": {"type": "Point", "coordinates": [-74.7180130013, 40.2654491142]}, "type": "Feature", "properties": {"collection_times": [{"days": "Mon-Sat", "time": "11:00am"}, {"days": "Sun", "time": "Closed"}], "id": "0864800028", "name": "USPS COLLECTION BOX - BLUE BOX", "address": {"city": "LAWRENCEVILLE", "state": "NJ", "street": "2751 BRUNSWICK PIKE", "postcode": "08648"}}},
{"geometry": {"type": "Point", "coordinates": [-74.716424646, 40.2668007801]}, "type": "Feature", "properties": {"collection_times": [{"days": "Mon-Sat", "time": "11:00am"}, {"days": "Sun", "time": "Closed"}], "id": "0864800029", "name": "USPS COLLECTION BOX - BLUE BOX", "address": {"city": "LAWRENCEVILLE", "state": "NJ", "street": "2791 BRUNSWICK PIKE", "postcode": "08648"}}},
{"geometry": {"type": "Point", "coordinates": [-74.7327697988, 40.2615508353]}, "type": "Feature", "properties": {"collection_times": [{"days": "Mon-Sat", "time": "11:00am"}, {"days": "Sun", "time": "Closed"}], "id": "0864800030", "name": "USPS COLLECTION BOX - BLUE BOX", "address": {"city": "LAWRENCEVILLE", "state": "NJ", "street": "2400 PRINCETON PIKE", "postcode": "08648"}}},
{"geometry": {"type": "Point", "coordinates": [-74.7381333348, 40.2547985055]}, "type": "Feature", "properties": {"collection_times": [{"days": "Mon-Sat", "time": "11:00am"}, {"days": "Sun", "time": "Closed"}], "id": "0864800031", "name": "USPS COLLECTION BOX - BLUE BOX", "address": {"city": "LAWRENCEVILLE", "state": "NJ", "street": "2175 PRINCETON PIKE", "postcode": "08648"}}},
{"geometry": {"type": "Point", "coordinates": [-74.7405039845, 40.2658757332]}, "type": "Feature", "properties": {"collection_times": [{"days": "Mon-Sat", "time": "11:00am"}, {"days": "Sun", "time": "Closed"}], "id": "0864800033", "name": "USPS COLLECTION BOX - BLUE BOX", "address": {"city": "LAWRENCEVILLE", "state": "NJ", "street": "1276 LAWRENCEVILLE RD", "postcode": "08648"}}},
{"geometry": {"type": "Point", "coordinates": [-74.7323247949, 40.278802824]}, "type": "Feature", "properties": {"collection_times": [{"days": "Mon-Sat", "time": "11:00am"}, {"days": "Sun", "time": "Closed"}], "id": "0864800034", "name": "USPS COLLECTION BOX - BLUE BOX", "address": {"city": "LAWRENCEVILLE", "state": "NJ", "street": "2083 LAWRENCEVILLE RD", "postcode": "08648"}}},
{"geometry": {"type": "Point", "coordinates": [-74.7392170434, 40.2773995998]}, "type": "Feature", "properties": {"collection_times": [{"days": "Mon-Sat", "time": "11:00am"}, {"days": "Sun", "time": "Closed"}], "id": "0864800035", "name": "USPS COLLECTION BOX - BLUE BOX", "address": {"city": "LAWRENCEVILLE", "state": "NJ", "street": "1600 WHITE PINE CIR", "postcode": "08648"}}},
{"geometry": {"type": "Point", "coordinates": [-74.7311397377, 40.2960616581]}, "type": "Feature", "properties": {"collection_times": [{"days": "Mon-Fri", "time": "3:00pm"}, {"days": "Sat", "time": "11:00am"}, {"days": "Sun", "time": "Closed"}], "id": "0864800037", "name": "USPS COLLECTION BOX - BLUE BOX", "address": {"city": "LAWRENCEVILLE", "state": "NJ", "street": "1 CRAVEN LN", "postcode": "08648"}}},
{"geometry": {"type": "Point", "coordinates": [-74.7435455424, 40.302646746]}, "type": "Feature", "properties": {"collection_times": [{"days": "Mon-Sat", "time": "11:00am"}, {"days": "Sun", "time": "Closed"}], "id": "0864800038", "name": "USPS COLLECTION BOX - BLUE BOX", "address": {"city": "LAWRENCEVILLE", "state": "NJ", "street": "20 SHIRLEY LN", "postcode": "08648"}}},
{"geometry": {"type": "Point", "coordinates": [-74.7491502316, 40.2894674839]}, "type": "Feature", "properties": {"collection_times": [{"days": "Mon-Sat", "time": "11:00am"}, {"days": "Sun", "time": "Closed"}], "id": "0864800039", "name": "USPS COLLECTION BOX - BLUE BOX", "address": {"city": "LAWRENCEVILLE", "state": "NJ", "street": "8 STURWOOD WAY", "postcode": "08648"}}},
{"geometry": {"type": "Point", "coordinates": [-74.7317536371, 40.2829340015]}, "type": "Feature", "properties": {"collection_times": [{"days": "Mon-Sat", "time": "11:00am"}, {"days": "Sun", "time": "Closed"}], "id": "0864800041", "name": "USPS COLLECTION BOX - BLUE BOX", "address": {"city": "LAWRENCEVILLE", "state": "NJ", "street": "2207 LAWRENCEVILLE RD", "postcode": "08648"}}},
{"geometry": {"type": "Point", "coordinates": [-74.7425121675, 40.2720333556]}, "type": "Feature", "properties": {"collection_times": [{"days": "Mon-Sat", "time": "11:00am"}, {"days": "Sun", "time": "Closed"}], "id": "0864800042", "name": "USPS COLLECTION BOX - BLUE BOX", "address": {"city": "LAWRENCEVILLE", "state": "NJ", "street": "141 EGGERTS CROSSING RD", "postcode": "08648"}}},
{"geometry": {"type": "Point", "coordinates": [-74.7176787913, 40.2811252573]}, "type": "Feature", "properties": {"collection_times": [{"days": "Mon-Sat", "time": "11:00am"}, {"days": "Sun", "time": "Closed"}], "id": "0864800043", "name": "USPS COLLECTION BOX - BLUE BOX", "address": {"city": "LAWRENCEVILLE", "state": "NJ", "street": "112 FRANKLIN CORNER RD", "postcode": "08648"}}},
{"geometry": {"type": "Point", "coordinates": [-74.7071776646, 40.2843630159]}, "type": "Feature", "properties": {"collection_times": [{"days": "Mon-Sat", "time": "11:00am"}, {"days": "Sun", "time": "Closed"}], "id": "0864800047", "name": "USPS COLLECTION BOX - BLUE BOX", "address": {"city": "LAWRENCEVILLE", "state": "NJ", "street": "6 PRINCESS RD", "postcode": "08648"}}},
{"geometry": {"type": "Point", "coordinates": [-74.7157198112, 40.2821958351]}, "type": "Feature", "properties": {"collection_times": [{"days": "Mon-Sat", "time": "11:00am"}, {"days": "Sun", "time": "Closed"}], "id": "0864800048", "name": "USPS COLLECTION BOX - BLUE BOX", "address": {"city": "LAWRENCEVILLE", "state": "NJ", "street": "3100 PRINCETON PIKE", "postcode": "08648"}}},
{"geometry": {"type": "Point", "coordinates": [-74.7162060074, 40.2802037322]}, "type": "Feature", "properties": {"collection_times": [{"days": "Mon-Sat", "time": "11:00am"}, {"days": "Sun", "time": "Closed"}], "id": "0864800049", "name": "USPS COLLECTION BOX - BLUE BOX", "address": {"city": "LAWRENCEVILLE", "state": "NJ", "street": "123 FRANKLIN CORNER RD", "postcode": "08648"}}},
{"geometry": {"type": "Point", "coordinates": [-74.742373308, 40.2468027865]}, "type": "Feature", "properties": {"collection_times": [{"days": "Mon-Sat", "time": "11:00am"}, {"days": "Sun", "time": "Closed"}], "id": "0864800051", "name": "USPS COLLECTION BOX - BLUE BOX", "address": {"city": "LAWRENCEVILLE", "state": "NJ", "street": "160 LAWRENCEVILLE PENNINGTON RD", "postcode": "08648"}}},
{"geometry": {"type": "Point", "coordinates": [-74.7085002127, 40.289349188]}, "type": "Feature", "properties": {"collection_times": [{"days": "Mon-Fri", "time": "3:00pm"}, {"days": "Sat", "time": "11:00am"}, {"days": "Sun", "time": "Closed"}], "id": "0864800054", "name": "USPS COLLECTION BOX - BLUE BOX", "address": {"city": "LAWRENCEVILLE", "state": "NJ", "street": "100 LENOX DR", "postcode": "08648"}}},
{"geometry": {"type": "Point", "coordinates": [-74.68514, 40.29243]}, "type": "Feature", "properties": {"collection_times": [{"days": "Mon-Sat", "time": "11:00am"}, {"days": "Sun", "time": "Closed"}], "id": "0864800055", "name": "USPS COLLECTION BOX - BLUE BOX", "address": {"city": "LAWRENCEVILLE", "state": "NJ", "street": "3320 BRUNSWICK AVE", "postcode": "08648"}}},
{"geometry": {"type": "Point", "coordinates": [-74.6744115038, 40.2728502544]}, "type": "Feature", "properties": {"collection_times": [{"days": "Mon-Sat", "time": "11:00am"}, {"days": "Sun", "time": "Closed"}], "id": "0864800056", "name": "USPS COLLECTION BOX - BLUE BOX", "address": {"city": "LAWRENCEVILLE", "state": "NJ", "street": "3 MENDREY CT", "postcode": "08648"}}},
{"geometry": {"type": "Point", "coordinates": [-74.7229769382, 40.2782437683]}, "type": "Feature", "properties": {"collection_times": [{"days": "Mon-Fri", "time": "3:00pm"}, {"days": "Sat", "time": "11:00am"}, {"days": "Sun", "time": "Closed"}], "id": "0864800058", "name": "USPS COLLECTION BOX - EXPRESS", "address": {"city": "LAWRENCEVILLE", "state": "NJ", "street": "3131 PRINCETON PIKE", "postcode": "08648"}}},
{"geometry": {"type": "Point", "coordinates": [-74.7311397377, 40.2960616581]}, "type": "Feature", "properties": {"collection_times": [{"days": "Mon-Fri", "time": "4:30pm"}, {"days": "Sat", "time": "1:45pm"}, {"days": "Sun", "time": "Closed"}], "id": "0864800059", "name": "USPS COLLECTION BOX - PO LOBBY", "address": {"city": "LAWRENCEVILLE", "state": "NJ", "street": "1 CRAVEN LN", "postcode": "08648"}}},
{"geometry": {"type": "Point", "coordinates": [-74.6474840018, 40.1924163866]}, "type": "Feature", "properties": {"collection_times": [{"days": "Mon-Fri", "time": "5:00pm"}, {"days": "Sat", "time": "3:00pm"}, {"days": "Sun", "time": "Closed"}], "id": "0865000001", "name": "USPS COLLECTION BOX - BLUE BOX", "address": {"city": "TRENTON", "state": "NJ", "street": "680 US HIGHWAY 130", "postcode": "08650"}}},
{"geometry": {"type": "Point", "coordinates": [-74.6497626539, 40.1909738608]}, "type": "Feature", "properties": {"collection_times": [{"days": "Mon-Fri", "time": "5:00pm"}, {"days": "Sat", "time": "3:00pm"}, {"days": "Sun", "time": "Closed"}], "id": "0865000005", "name": "USPS COLLECTION BOX - PO LOBBY", "address": {"city": "TRENTON", "state": "NJ", "street": "680 US HIGHWAY 130", "postcode": "08650"}}},
{"geometry": {"type": "Point", "coordinates": [-74.6613386902, 40.2240919647]}, "type": "Feature", "properties": {"collection_times": [{"days": "Mon-Fri", "time": "3:00pm"}, {"days": "Sat", "time": "11:00am"}, {"days": "Sun", "time": "Closed"}], "id": "0869000000", "name": "USPS COLLECTION BOX - EXPRESS", "address": {"city": "HAMILTON SQUARE", "state": "NJ", "street": "2210 KLOCKNER RD", "postcode": "08690"}}},
{"geometry": {"type": "Point", "coordinates": [-74.662942097, 40.2323388466]}, "type": "Feature", "properties": {"collection_times": [{"days": "Mon-Sat", "time": "11:00am"}, {"days": "Sun", "time": "Closed"}], "id": "0869000008", "name": "USPS COLLECTION BOX - BLUE BOX", "address": {"city": "HAMILTON SQUARE", "state": "NJ", "street": "90 PARK AVE", "postcode": "08690"}}},
{"geometry": {"type": "Point", "coordinates": [-74.6779552341, 40.2141950557]}, "type": "Feature", "properties": {"collection_times": [{"days": "Mon-Sat", "time": "11:00am"}, {"days": "Sun", "time": "Closed"}], "id": "0869000009", "name": "USPS COLLECTION BOX - BLUE BOX", "address": {"city": "HAMILTON SQUARE", "state": "NJ", "street": "100 SILVER CT", "postcode": "08690"}}},
{"geometry": {"type": "Point", "coordinates": [-74.6453041789, 40.2227320368]}, "type": "Feature", "properties": {"collection_times": [{"days": "Mon-Fri", "time": "3:00pm"}, {"days": "Sat", "time": "11:00am"}, {"days": "Sun", "time": "Closed"}], "id": "0869000010", "name": "USPS COLLECTION BOX - BLUE BOX", "address": {"city": "HAMILTON SQUARE", "state": "NJ", "street": "2141 STATE ROUTE 33", "postcode": "08690"}}},
{"geometry": {"type": "Point", "coordinates": [-74.6793946903, 40.2216981307]}, "type": "Feature", "properties": {"collection_times": [{"days": "Mon-Sat", "time": "11:00am"}, {"days": "Sun", "time": "Closed"}], "id": "0869000013", "name": "USPS COLLECTION BOX - BLUE BOX", "address": {"city": "HAMILTON SQUARE", "state": "NJ", "street": "2210 KLOCKNER RD", "postcode": "08690"}}},
{"geometry": {"type": "Point", "coordinates": [-74.6213168445, 40.2143808774]}, "type": "Feature", "properties": {"collection_times": [{"days": "Mon-Fri", "time": "3:00pm"}, {"days": "Sat", "time": "11:00am"}, {"days": "Sun", "time": "Closed"}], "id": "0869100000", "name": "USPS COLLECTION BOX - EXPRESS", "address": {"city": "TRENTON", "state": "NJ", "street": "1059 WASHINGTON BLVD", "postcode": "08691"}}},
{"geometry": {"type": "Point", "coordinates": [-74.6355594492, 40.2237796693]}, "type": "Feature", "properties": {"collection_times": [{"days": "Mon-Sat", "time": "11:00am"}, {"days": "Sun", "time": "Closed"}], "id": "0869100001", "name": "USPS COLLECTION BOX - BLUE BOX", "address": {"city": "TRENTON", "state": "NJ", "street": "1059 WASHINGTON BLVD", "postcode": "08691"}}},
{"geometry": {"type": "Point", "coordinates": [-74.630308991, 40.2326121101]}, "type": "Feature", "properties": {"collection_times": [{"days": "Mon-Sat", "time": "11:00am"}, {"days": "Sun", "time": "Closed"}], "id": "0869100002", "name": "USPS COLLECTION BOX - BLUE BOX", "address": {"city": "TRENTON", "state": "NJ", "street": "203 HUTCHINSON RD", "postcode": "08691"}}},
{"geometry": {"type": "Point", "coordinates": [-74.620173866, 40.2133519024]}, "type": "Feature", "properties": {"collection_times": [{"days": "Mon-Sat", "time": "11:00am"}, {"days": "Sun", "time": "Closed"}], "id": "0869100003", "name": "USPS COLLECTION BOX - BLUE BOX", "address": {"city": "TRENTON", "state": "NJ", "street": "35 ROBBINSVILLE ALLENTOWN RD", "postcode": "08691"}}},
{"geometry": {"type": "Point", "coordinates": [-74.6279525368, 40.2073133497]}, "type": "Feature", "properties": {"collection_times": [{"days": "Mon-Sat", "time": "11:00am"}, {"days": "Sun", "time": "Closed"}], "id": "0869100006", "name": "USPS COLLECTION BOX - BLUE BOX", "address": {"city": "TRENTON", "state": "NJ", "street": "3 S GOLD DR", "postcode": "08691"}}}
]}
