{"type": "FeatureCollection", "features": [
{"geometry": {"type": "Point", "coordinates": [-74.2208512586, 40.0954736487]}, "type": "Feature", "properties": {"collection_times": [{"days": "Mon-Sat", "time": "11:00am"}, {"days": "Sun", "time": "Closed"}], "id": "0870100004", "name": "USPS COLLECTION BOX - BLUE BOX", "address": {"city": "LAKEWOOD", "state": "NJ", "street": "601 PRIVATE WAY", "postcode": "08701"}}},
{"geometry": {"type": "Point", "coordinates": [-74.2538342918, 40.0915486865]}, "type": "Feature", "properties": {"collection_times": [{"days": "Mon-Sat", "time": "11:00am"}, {"days": "Sun", "time": "Closed"}], "id": "0870100007", "name": "USPS COLLECTION BOX - BLUE BOX", "address": {"city": "LAKEWOOD", "state": "NJ", "street": "84 HILLSIDE BLVD", "postcode": "08701"}}},
{"geometry": {"type": "Point", "coordinates": [-74.2193620591, 40.1083848573]}, "type": "Feature", "properties": {"collection_times": [{"days": "Mon-Sat", "time": "3:00pm"}, {"days": "Sun", "time": "Closed"}], "id": "0870100014", "name": "USPS COLLECTION BOX - BLUE BOX", "address": {"city": "LAKEWOOD", "state": "NJ", "street": "1700 MADISON AVE", "postcode": "08701"}}},
{"geometry": {"type": "Point", "coordinates": [-74.2182820176, 40.1004483857]}, "type": "Feature", "properties": {"collection_times": [{"days": "Mon-Fri", "time": "3:00pm"}, {"days": "Sat", "time": "11:00am"}, {"days": "Sun", "time": "Closed"}], "id": "0870100015", "name": "USPS COLLECTION BOX - BLUE BOX", "address": {"city": "LAKEWOOD", "state": "NJ", "street": "1072 MADISON AVE", "postcode": "08701"}}},
{"geometry": {"type": "Point", "coordinates": [-74.2200166032, 40.0987783735]}, "type": "Feature", "properties": {"collection_times": [{"days": "Mon-Sat", "time": "11:00am"}, {"days": "Sun", "time": "Closed"}], "id": "0870100016", "name": "USPS COLLECTION BOX - BLUE BOX", "address": {"city": "LAKEWOOD", "state": "NJ", "street": "925 FOREST AVE", "postcode": "08701"}}},
{"geometry": {"type": "Point", "coordinates": [-74.2257584929, 40.0960024955]}, "type": "Feature", "properties": {"collection_times": [{"days": "Mon-Sat", "time": "11:00am"}, {"days": "Sun", "time": "Closed"}], "id": "0870100018", "name": "USPS COLLECTION BOX - BLUE BOX", "address": {"city": "LAKEWOOD", "state": "NJ", "street": "699 LAKEWOOD AVE", "postcode": "08701"}}},
{"geometry": {"type": "Point", "coordinates": [-74.2208512586, 40.0954736487]}, "type": "Feature", "properties": {"collection_times": [{"days": "Mon-Sat", "time": "11:00am"}, {"days": "Sun", "time": "Closed"}], "id": "0870100019", "name": "USPS COLLECTION BOX - BLUE BOX", "address": {"city": "LAKEWOOD", "state": "NJ", "street": "601 PRIVATE WAY", "postcode": "08701"}}},
{"geometry": {"type": "Point", "coordinates": [-74.2188876926, 40.0924965355]}, "type": "Feature", "properties": {"collection_times": [{"days": "Mon-Sat", "time": "11:00am"}, {"days": "Sun", "time": "Closed"}], "id": "0870100020", "name": "USPS COLLECTION BOX - BLUE BOX", "address": {"city": "LAKEWOOD", "state": "NJ", "street": "290 FOREST AVE", "postcode": "08701"}}},
{"geometry": {"type": "Point", "coordinates": [-74.2145864538, 40.0919949609]}, "type": "Feature", "properties": {"collection_times": [{"days": "Mon-Fri", "time": "3:00pm"}, {"days": "Sat", "time": "11:00am"}, {"days": "Sun", "time": "Closed"}], "id": "0870100023", "name": "USPS COLLECTION BOX - BLUE BOX", "address": {"city": "LAKEWOOD", "state": "NJ", "street": "129 CLIFTON AVE", "postcode": "08701"}}},
{"geometry": {"type": "Point", "coordinates": [-74.2139973402, 40.0911976465]}, "type": "Feature", "properties": {"collection_times": [{"days": "Mon-Sat", "time": "3:00pm"}, {"days": "Sun", "time": "Closed"}], "id": "0870100025", "name": "USPS COLLECTION BOX - BLUE BOX", "address": {"city": "LAKEWOOD", "state": "NJ", "street": "240 1ST ST", "postcode": "08701"}}},
{"geometry": {"type": "Point", "coordinates": [-74.2134732894, 40.0932583611]}, "type": "Feature", "properties": {"collection_times": [{"days": "Mon-Fri", "time": "3:00pm"}, {"days": "Sat", "time": "11:00am"}, {"days": "Sun", "time": "Closed"}], "id": "0870100027", "name": "USPS COLLECTION BOX - BLUE BOX", "address": {"city": "LAKEWOOD", "state": "NJ", "street": "231 3RD ST", "postcode": "08701"}}},
{"geometry": {"type": "Point", "coordinates": [-74.2134732894, 40.0932583611]}, "type": "Feature", "properties": {"collection_times": [{"days": "Mon-Fri", "time": "3:00pm"}, {"days": "Sat", "time": "11:00am"}, {"days": "Sun", "time": "Closed"}], "id": "0870100028", "name": "USPS COLLECTION BOX - BLUE BOX", "address": {"city": "LAKEWOOD", "state": "NJ", "street": "231 3RD ST", "postcode": "08701"}}},
{"geometry": {"type": "Point", "coordinates": [-74.216884943, 40.0930418796]}, "type": "Feature", "properties": {"collection_times": [{"days": "Mon-Fri", "time": "3:00pm"}, {"days": "Sat", "time": "11:00am"}, {"days": "Sun", "time": "Closed"}], "id": "0870100030", "name": "USPS COLLECTION BOX - BLUE BOX", "address": {"city": "LAKEWOOD", "state": "NJ", "street": "301 MADISON AVE", "postcode": "08701"}}},
{"geometry": {"type": "Point", "coordinates": [-74.2117071317, 40.1005654986]}, "type": "Feature", "properties": {"collection_times": [{"days": "Mon-Sat", "time": "11:00am"}, {"days": "Sun", "time": "Closed"}], "id": "0870100031", "name": "USPS COLLECTION BOX - BLUE BOX", "address": {"city": "LAKEWOOD", "state": "NJ", "street": "1003 MONMOUTH AVE", "postcode": "08701"}}},
{"geometry": {"type": "Point", "coordinates": [-74.2198979395, 40.0871318166]}, "type": "Feature", "properties": {"collection_times": [{"days": "Mon-Sat", "time": "11:00am"}, {"days": "Sun", "time": "Closed"}], "id": "0870100037", "name": "USPS COLLECTION BOX - BLUE BOX", "address": {"city": "LAKEWOOD", "state": "NJ", "street": "201 CENTRAL AVE", "postcode": "08701"}}},
{"geometry": {"type": "Point", "coordinates": [-74.2205817293, 40.0551886371]}, "type": "Feature", "properties": {"collection_times": [{"days": "Mon-Sat", "time": "3:00pm"}, {"days": "Sun", "time": "Closed"}], "id": "0870100039", "name": "USPS COLLECTION BOX - BLUE BOX", "address": {"city": "LAKEWOOD", "state": "NJ", "street": "1200 RIVER AVE", "postcode": "08701"}}},
{"geometry": {"type": "Point", "coordinates": [-74.2207236449, 40.0541024193]}, "type": "Feature", "properties": {"collection_times": [{"days": "Mon-Sat", "time": "3:00pm"}, {"days": "Sun", "time": "Closed"}], "id": "0870100040", "name": "USPS COLLECTION BOX - BLUE BOX", "address": {"city": "LAKEWOOD", "state": "NJ", "street": "1328 RIVER AVE", "postcode": "08701"}}},
{"geometry": {"type": "Point", "coordinates": [-74.1849004455, 40.0520632586]}, "type": "Feature", "properties": {"collection_times": [{"days": "Mon-Fri", "time": "3:00pm"}, {"days": "Sat", "time": "11:00am"}, {"days": "Sun", "time": "Closed"}], "id": "0870100048", "name": "USPS COLLECTION BOX - BLUE BOX", "address": {"city": "LAKEWOOD", "state": "NJ", "street": "1000 STATE ROUTE 70", "postcode": "08701"}}},
{"geometry": {"type": "Point", "coordinates": [-74.1633276589, 40.0552274133]}, "type": "Feature", "properties": {"collection_times": [{"days": "Mon-Sat", "time": "11:00am"}, {"days": "Sun", "time": "Closed"}], "id": "0870100050", "name": "USPS COLLECTION BOX - BLUE BOX", "address": {"city": "LAKEWOOD", "state": "NJ", "street": "1900 STATE ROUTE 70", "postcode": "08701"}}},
{"geometry": {"type": "Point", "coordinates": [-74.162184456, 40.0293294503]}, "type": "Feature", "properties": {"collection_times": [{"days": "Mon-Sat", "time": "11:00am"}, {"days": "Sun", "time": "Closed"}], "id": "0870100056", "name": "USPS COLLECTION BOX - BLUE BOX", "address": {"city": "LAKEWOOD", "state": "NJ", "street": "1051B ARGYLL CIR", "postcode": "08701"}}},
{"geometry": {"type": "Point", "coordinates": [-74.1801201778, 40.0575787691]}, "type": "Feature", "properties": {"collection_times": [{"days": "Mon-Fri", "time": "3:00pm"}, {"days": "Sat", "time": "11:00am"}, {"days": "Sun", "time": "Closed"}], "id": "0870100058", "name": "USPS COLLECTION BOX - BLUE BOX", "address": {"city": "LAKEWOOD", "state": "NJ", "street": "1000 AIRPORT RD", "postcode": "08701"}}},
{"geometry": {"type": "Point", "coordinates": [-74.189438059, 40.0545687347]}, "type": "Feature", "properties": {"collection_times": [{"days": "Mon-Fri", "time": "3:00pm"}, {"days": "Sat", "time": "11:00am"}, {"days": "Sun", "time": "Closed"}], "id": "0870100060", "name": "USPS COLLECTION BOX - BLUE BOX", "address": {"city": "LAKEWOOD", "state": "NJ", "street": "1195 TOWBIN AVE", "postcode": "08701"}}},
{"geometry": {"type": "Point", "coordinates": [-74.1767996316, 40.0798040246]}, "type": "Feature", "properties": {"collection_times": [{"days": "Mon-Fri", "time": "5:00pm"}, {"days": "Sat", "time": "4:00pm"}, {"days": "Sun", "time": "Closed"}], "id": "0870100065", "name": "USPS COLLECTION BOX - BLUE BOX", "address": {"city": "LAKEWOOD", "state": "NJ", "street": "1820 SWARTHMORE AVE", "postcode": "08701"}}},
{"geometry": {"type": "Point", "coordinates": [-74.2404208277, 40.0993459363]}, "type": "Feature", "properties": {"collection_times": [{"days": "Mon-Sat", "time": "11:00am"}, {"days": "Sun", "time": "Closed"}], "id": "0870100066", "name": "USPS COLLECTION BOX - BLUE BOX", "address": {"city": "LAKEWOOD", "state": "NJ", "street": "1400 PARK DR", "postcode": "08701"}}},
{"geometry": {"type": "Point", "coordinates": [-74.2170198004, 40.0760285637]}, "type": "Feature", "properties": {"collection_times": [{"days": "Mon-Sat", "time": "11:00am"}, {"days": "Sun", "time": "Closed"}], "id": "0870100067", "name": "USPS COLLECTION BOX - BLUE BOX", "address": {"city": "LAKEWOOD", "state": "NJ", "street": "600 RIVER AVE", "postcode": "08701"}}},
{"geometry": {"type": "Point", "coordinates": [-74.1783708122, 40.0486188455]}, "type": "Feature", "properties": {"collection_times": [{"days": "Mon-Sat", "time": "11:00am"}, {"days": "Sun", "time": "Closed"}], "id": "0870100068", "name": "USPS COLLECTION BOX - BLUE BOX", "address": {"city": "LAKEWOOD", "state": "NJ", "street": "19 BUCKINGHAM DR", "postcode": "08701"}}},
{"geometry": {"type": "Point", "coordinates": [-74.182679507, 40.0368818269]}, "type": "Feature", "properties": {"collection_times": [{"days": "Mon-Sat", "time": "11:00am"}, {"days": "Sun", "time": "Closed"}], "id": "0870100070", "name": "USPS COLLECTION BOX - BLUE BOX", "address": {"city": "LAKEWOOD", "state": "NJ", "street": "368 DORCHESTER DR", "postcode": "08701"}}},
{"geometry": {"type": "Point", "coordinates": [-74.1601005468, 40.0353193969]}, "type": "Feature", "properties": {"collection_times": [{"days": "Mon-Sat", "time": "11:00am"}, {"days": "Sun", "time": "Closed"}], "id": "0870100071", "name": "USPS COLLECTION BOX - BLUE BOX", "address": {"city": "LAKEWOOD", "state": "NJ", "street": "1 DUMBARTON DR", "postcode": "08701"}}},
{"geometry": {"type": "Point", "coordinates": [-74.1601005468, 40.0353193969]}, "type": "Feature", "properties": {"collection_times": [{"days": "Mon-Sat", "time": "11:00am"}, {"days": "Sun", "time": "Closed"}], "id": "0870100072", "name": "USPS COLLECTION BOX - BLUE BOX", "address": {"city": "LAKEWOOD", "state": "NJ", "street": "1 DUMBARTON DR", "postcode": "08701"}}},
{"geometry": {"type": "Point", "coordinates": [-74.1767996316, 40.0798040246]}, "type": "Feature", "properties": {"collection_times": [{"days": "Mon-Fri", "time": "5:00pm"}, {"days": "Sat", "time": "4:00pm"}, {"days": "Sun", "time": "Closed"}], "id": "0870100073", "name": "USPS COLLECTION BOX - BLUE BOX", "address": {"city": "LAKEWOOD", "state": "NJ", "street": "1820 SWARTHMORE AVE", "postcode": "08701"}}},
{"geometry": {"type": "Point", "coordinates": [-74.2126649916, 40.106506282]}, "type": "Feature", "properties": {"collection_times": [{"days": "Mon-Sat", "time": "3:00pm"}, {"days": "Sun", "time": "Closed"}], "id": "0870100075", "name": "USPS COLLECTION BOX - BLUE BOX", "address": {"city": "LAKEWOOD", "state": "NJ", "street": "199 E KENNEDY BLVD", "postcode": "08701"}}},
{"geometry": {"type": "Point", "coordinates": [-74.1783708122, 40.0486188455]}, "type": "Feature", "properties": {"collection_times": [{"days": "Mon-Sat", "time": "11:00am"}, {"days": "Sun", "time": "Closed"}], "id": "0870100077", "name": "USPS COLLECTION BOX - BLUE BOX", "address": {"city": "LAKEWOOD", "state": "NJ", "street": "19 BUCKINGHAM DR", "postcode": "08701"}}},
{"geometry": {"type": "Point", "coordinates": [-74.1889292568, 40.04655869]}, "type": "Feature", "properties": {"collection_times": [{"days": "Mon-Sat", "time": "11:00am"}, {"days": "Sun", "time": "Closed"}], "id": "0870100078", "name": "USPS COLLECTION BOX - BLUE BOX", "address": {"city": "LAKEWOOD", "state": "NJ", "street": "213A HUNTINGTON DR", "postcode": "08701"}}},
{"geometry": {"type": "Point", "coordinates": [-74.2263663591, 40.0734023948]}, "type": "Feature", "properties": {"collection_times": [{"days": "Mon-Sat", "time": "11:00am"}, {"days": "Sun", "time": "Closed"}], "id": "0870100079", "name": "USPS COLLECTION BOX - BLUE BOX", "address": {"city": "LAKEWOOD", "state": "NJ", "street": "501 PROSPECT ST", "postcode": "08701"}}},
{"geometry": {"type": "Point", "coordinates": [-74.1767996316, 40.0798040246]}, "type": "Feature", "properties": {"collection_times": [{"days": "Mon-Fri", "time": "5:00pm"}, {"days": "Sat", "time": "4:00pm"}, {"days": "Sun", "time": "Closed"}], "id": "0870100080", "name": "USPS COLLECTION BOX - PO LOBBY", "address": {"city": "LAKEWOOD", "state": "NJ", "street": "1820 SWARTHMORE AVE", "postcode": "08701"}}},
{"geometry": {"type": "Point", "coordinates": [-74.1767996316, 40.0798040246]}, "type": "Feature", "properties": {"collection_times": [{"days": "Mon-Fri", "time": "5:00pm"}, {"days": "Sat", "time": "4:00pm"}, {"days": "Sun", "time": "Closed"}], "id": "0870100086", "name": "USPS COLLECTION BOX - APC", "address": {"city": "LAKEWOOD", "state": "NJ", "street": "1820 SWARTHMORE AVE", "postcode": "08701"}}},
{"geometry": {"type": "Point", "coordinates": [-74.1011936528, 40.1421158382]}, "type": "Feature", "properties": {"collection_times": [{"days": "Mon-Fri", "time": "4:30pm"}, {"days": "Sat", "time": "12:00pm"}, {"days": "Sun", "time": "Closed"}], "id": "0872000001", "name": "USPS COLLECTION BOX - BLUE BOX", "address": {"city": "ALLENWOOD", "state": "NJ", "street": "3212 ALLENWOOD LAKEWOOD RD", "postcode": "08720"}}},
{"geometry": {"type": "Point", "coordinates": [-74.1011936528, 40.1421158382]}, "type": "Feature", "properties": {"collection_times": [{"days": "Mon-Fri", "time": "4:30pm"}, {"days": "Sat", "time": "12:00pm"}, {"days": "Sun", "time": "Closed"}], "id": "0872000002", "name": "USPS COLLECTION BOX - PO LOBBY", "address": {"city": "ALLENWOOD", "state": "NJ", "street": "3212 ALLENWOOD LAKEWOOD RD", "postcode": "08720"}}},
{"geometry": {"type": "Point", "coordinates": [-74.1610072136, 39.8900151294]}, "type": "Feature", "properties": {"collection_times": [{"days": "Mon-Fri", "time": "5:00pm"}, {"days": "Sat", "time": "2:00pm"}, {"days": "Sun", "time": "Closed"}], "id": "0872100004", "name": "USPS COLLECTION BOX - BLUE BOX", "address": {"city": "BAYVILLE", "state": "NJ", "street": "801 ATLANTIC CITY BLVD", "postcode": "08721"}}},
{"geometry": {"type": "Point", "coordinates": [-74.1679138379, 39.9235302589]}, "type": "Feature", "properties": {"collection_times": [{"days": "Mon-Sat", "time": "11:00am"}, {"days": "Sun", "time": "Closed"}], "id": "0872100005", "name": "USPS COLLECTION BOX - BLUE BOX", "address": {"city": "BAYVILLE", "state": "NJ", "street": "3 SYLVAN LAKE BLVD", "postcode": "08721"}}},
{"geometry": {"type": "Point", "coordinates": [-74.1600842973, 39.9196154168]}, "type": "Feature", "properties": {"collection_times": [{"days": "Mon-Sat", "time": "11:00am"}, {"days": "Sun", "time": "Closed"}], "id": "0872100007", "name": "USPS COLLECTION BOX - BLUE BOX", "address": {"city": "BAYVILLE", "state": "NJ", "street": "333 US HIGHWAY 9", "postcode": "08721"}}},
{"geometry": {"type": "Point", "coordinates": [-74.1610072136, 39.8900151294]}, "type": "Feature", "properties": {"collection_times": [{"days": "Mon-Fri", "time": "5:00pm"}, {"days": "Sat", "time": "3:00pm"}, {"days": "Sun", "time": "Closed"}], "id": "0872100010", "name": "USPS COLLECTION BOX - PO LOBBY", "address": {"city": "BAYVILLE", "state": "NJ", "street": "801 ATLANTIC CITY BLVD", "postcode": "08721"}}},
{"geometry": {"type": "Point", "coordinates": [-74.1927324699, 39.9397694354]}, "type": "Feature", "properties": {"collection_times": [{"days": "Mon-Fri", "time": "4:30pm"}, {"days": "Sat", "time": "12:15pm"}, {"days": "Sun", "time": "Closed"}], "id": "0872200001", "name": "USPS COLLECTION BOX - BLUE BOX", "address": {"city": "BEACHWOOD", "state": "NJ", "street": "74 LOCKER ST", "postcode": "08722"}}},
{"geometry": {"type": "Point", "coordinates": [-74.2062312146, 39.9202707227]}, "type": "Feature", "properties": {"collection_times": [{"days": "Mon-Sat", "time": "9:30am"}, {"days": "Sun", "time": "Closed"}], "id": "0872200006", "name": "USPS COLLECTION BOX - BLUE BOX", "address": {"city": "BEACHWOOD", "state": "NJ", "street": "1600 PINEWALD RD", "postcode": "08722"}}},
{"geometry": {"type": "Point", "coordinates": [-74.1927324699, 39.9397694354]}, "type": "Feature", "properties": {"collection_times": [{"days": "Mon-Fri", "time": "4:30pm"}, {"days": "Sat", "time": "12:15pm"}, {"days": "Sun", "time": "Closed"}], "id": "0872200007", "name": "USPS COLLECTION BOX - PO LOBBY", "address": {"city": "BEACHWOOD", "state": "NJ", "street": "74 LOCKER ST", "postcode": "08722"}}},
{"geometry": {"type": "Point", "coordinates": [-74.144911205, 40.0654323755]}, "type": "Feature", "properties": {"collection_times": [{"days": "Mon-Fri", "time": "5:00pm"}, {"days": "Sat", "time": "3:00pm"}, {"days": "Sun", "time": "Closed"}], "id": "0872300001", "name": "USPS COLLECTION BOX - BLUE BOX", "address": {"city": "BRICK", "state": "NJ", "street": "160 CHAMBERSBRIDGE RD", "postcode": "08723"}}},
{"geometry": {"type": "Point", "coordinates": [-74.144911205, 40.0654323755]}, "type": "Feature", "properties": {"collection_times": [{"days": "Mon-Fri", "time": "5:00pm"}, {"days": "Sat", "time": "3:00pm"}, {"days": "Sun", "time": "Closed"}], "id": "0872300004", "name": "USPS COLLECTION BOX - BLUE BOX", "address": {"city": "BRICK", "state": "NJ", "street": "160 CHAMBERSBRIDGE RD", "postcode": "08723"}}},
{"geometry": {"type": "Point", "coordinates": [-74.1279067225, 40.0440670811]}, "type": "Feature", "properties": {"collection_times": [{"days": "Mon-Fri", "time": "5:00pm"}, {"days": "Sat", "time": "11:00am"}, {"days": "Sun", "time": "Closed"}], "id": "0872300010", "name": "USPS COLLECTION BOX - BLUE BOX", "address": {"city": "BRICK", "state": "NJ", "street": "2532 HOOPER AVE", "postcode": "08723"}}},
{"geometry": {"type": "Point", "coordinates": [-74.1279067225, 40.0440670811]}, "type": "Feature", "properties": {"collection_times": [{"days": "Mon-Fri", "time": "5:00pm"}, {"days": "Sat", "time": "11:00am"}, {"days": "Sun", "time": "Closed"}], "id": "0872300011", "name": "USPS COLLECTION BOX - BLUE BOX", "address": {"city": "BRICK", "state": "NJ", "street": "2532 HOOPER AVE", "postcode": "08723"}}},
{"geometry": {"type": "Point", "coordinates": [-74.1420722522, 40.0474281648]}, "type": "Feature", "properties": {"collection_times": [{"days": "Mon-Sat", "time": "11:00am"}, {"days": "Sun", "time": "Closed"}], "id": "0872300030", "name": "USPS COLLECTION BOX - BLUE BOX", "address": {"city": "BRICK", "state": "NJ", "street": "445 BRICK BLVD", "postcode": "08723"}}},
{"geometry": {"type": "Point", "coordinates": [-74.1264685131, 40.0443303972]}, "type": "Feature", "properties": {"collection_times": [{"days": "Mon-Sat", "time": "11:00am"}, {"days": "Sun", "time": "Closed"}], "id": "0872300039", "name": "USPS COLLECTION BOX - BLUE BOX", "address": {"city": "BRICK", "state": "NJ", "street": "668 ROUTE 70", "postcode": "08723"}}},
{"geometry": {"type": "Point", "coordinates": [-74.1464693107, 40.0324128667]}, "type": "Feature", "properties": {"collection_times": [{"days": "Mon-Sat", "time": "11:00am"}, {"days": "Sun", "time": "Closed"}], "id": "0872300041", "name": "USPS COLLECTION BOX - BLUE BOX", "address": {"city": "BRICK", "state": "NJ", "street": "35 BEAVERSON BLVD", "postcode": "08723"}}},
{"geometry": {"type": "Point", "coordinates": [-74.144911205, 40.0654323755]}, "type": "Feature", "properties": {"collection_times": [{"days": "Mon-Fri", "time": "5:00pm"}, {"days": "Sat", "time": "3:00pm"}, {"days": "Sun", "time": "Closed"}], "id": "0872300056", "name": "USPS COLLECTION BOX - PO LOBBY", "address": {"city": "BRICK", "state": "NJ", "street": "160 CHAMBERSBRIDGE RD", "postcode": "08723"}}},
{"geometry": {"type": "Point", "coordinates": [-74.1279067225, 40.0440670811]}, "type": "Feature", "properties": {"collection_times": [{"days": "Mon-Fri", "time": "4:00pm"}, {"days": "Sat", "time": "11:00am"}, {"days": "Sun", "time": "Closed"}], "id": "0872300057", "name": "USPS COLLECTION BOX - PO LOBBY", "address": {"city": "BRICK", "state": "NJ", "street": "2532 HOOPER AVE", "postcode": "08723"}}},
{"geometry": {"type": "Point", "coordinates": [-74.1174158385, 40.0723329999]}, "type": "Feature", "properties": {"collection_times": [{"days": "Mon-Sat", "time": "11:00am"}, {"days": "Sun", "time": "Closed"}], "id": "0872400001", "name": "USPS COLLECTION BOX - BLUE BOX", "address": {"city": "BRICK", "state": "NJ", "street": "1930 STATE ROUTE 88", "postcode": "08724"}}},
{"geometry": {"type": "Point", "coordinates": [-74.1151073564, 40.092756428]}, "type": "Feature", "properties": {"collection_times": [{"days": "Mon-Sat", "time": "11:00am"}, {"days": "Sun", "time": "Closed"}], "id": "0872400002", "name": "USPS COLLECTION BOX - BLUE BOX", "address": {"city": "BRICK", "state": "NJ", "street": "1820 LANES MILL RD", "postcode": "08724"}}},
{"geometry": {"type": "Point", "coordinates": [-74.1032806618, 40.0761563233]}, "type": "Feature", "properties": {"collection_times": [{"days": "Mon-Sat", "time": "11:00am"}, {"days": "Sun", "time": "Closed"}], "id": "0872400003", "name": "USPS COLLECTION BOX - BLUE BOX", "address": {"city": "BRICK", "state": "NJ", "street": "2108 STATE ROUTE 88", "postcode": "08724"}}},
{"geometry": {"type": "Point", "coordinates": [-74.1387173806, 40.0922836029]}, "type": "Feature", "properties": {"collection_times": [{"days": "Mon-Sat", "time": "11:00am"}, {"days": "Sun", "time": "Closed"}], "id": "0872400004", "name": "USPS COLLECTION BOX - BLUE BOX", "address": {"city": "BRICK", "state": "NJ", "street": "1 DARLEY CIR", "postcode": "08724"}}},
{"geometry": {"type": "Point", "coordinates": [-74.1297860404, 40.0783471633]}, "type": "Feature", "properties": {"collection_times": [{"days": "Mon-Sat", "time": "11:00am"}, {"days": "Sun", "time": "Closed"}], "id": "0872400005", "name": "USPS COLLECTION BOX - BLUE BOX", "address": {"city": "BRICK", "state": "NJ", "street": "425 JACK MARTIN BLVD", "postcode": "08724"}}},
{"geometry": {"type": "Point", "coordinates": [-74.1178567122, 40.0879325274]}, "type": "Feature", "properties": {"collection_times": [{"days": "Mon-Sat", "time": "11:00am"}, {"days": "Sun", "time": "Closed"}], "id": "0872400006", "name": "USPS COLLECTION BOX - BLUE BOX", "address": {"city": "BRICK", "state": "NJ", "street": "1523 STATE ROUTE 88", "postcode": "08724"}}},
{"geometry": {"type": "Point", "coordinates": [-74.1461258748, 40.0949302389]}, "type": "Feature", "properties": {"collection_times": [{"days": "Mon-Sat", "time": "11:00am"}, {"days": "Sun", "time": "Closed"}], "id": "0872400007", "name": "USPS COLLECTION BOX - BLUE BOX", "address": {"city": "BRICK", "state": "NJ", "street": "34 LANES MILL RD", "postcode": "08724"}}},
{"geometry": {"type": "Point", "coordinates": [-74.1178567122, 40.0879325274]}, "type": "Feature", "properties": {"collection_times": [{"days": "Mon-Sat", "time": "11:00am"}, {"days": "Sun", "time": "Closed"}], "id": "0872400008", "name": "USPS COLLECTION BOX - BLUE BOX", "address": {"city": "BRICK", "state": "NJ", "street": "1288 ELENA CT", "postcode": "08724"}}},
{"geometry": {"type": "Point", "coordinates": [-74.0591085307, 40.1081331738]}, "type": "Feature", "properties": {"collection_times": [{"days": "Mon-Sat", "time": "9:30am"}, {"days": "Sun", "time": "Closed"}], "id": "0873000004", "name": "USPS COLLECTION BOX - BLUE BOX", "address": {"city": "BRIELLE", "state": "NJ", "street": "602 HIGGINS AVE", "postcode": "08730"}}},
{"geometry": {"type": "Point", "coordinates": [-74.0571523599, 40.1067985094]}, "type": "Feature", "properties": {"collection_times": [{"days": "Mon-Fri", "time": "5:00pm"}, {"days": "Sat", "time": "12:00pm"}, {"days": "Sun", "time": "Closed"}], "id": "0873000007", "name": "USPS COLLECTION BOX - BLUE BOX", "address": {"city": "BRIELLE", "state": "NJ", "street": "412 HIGGINS AVE", "postcode": "08730"}}},
{"geometry": {"type": "Point", "coordinates": [-74.0571523599, 40.1067985094]}, "type": "Feature", "properties": {"collection_times": [{"days": "Mon-Fri", "time": "5:00pm"}, {"days": "Sat", "time": "12:00pm"}, {"days": "Sun", "time": "Closed"}], "id": "0873000008", "name": "USPS COLLECTION BOX - BLUE BOX", "address": {"city": "BRIELLE", "state": "NJ", "street": "412 HIGGINS AVE", "postcode": "08730"}}},
{"geometry": {"type": "Point", "coordinates": [-74.0571523599, 40.1067985094]}, "type": "Feature", "properties": {"collection_times": [{"days": "Mon-Fri", "time": "5:00pm"}, {"days": "Sat", "time": "12:00pm"}, {"days": "Sun", "time": "Closed"}], "id": "0873000009", "name": "USPS COLLECTION BOX - PO LOBBY", "address": {"city": "BRIELLE", "state": "NJ", "street": "412 HIGGINS AVE", "postcode": "08730"}}},
{"geometry": {"type": "Point", "coordinates": [-74.1839324381, 39.8298216803]}, "type": "Feature", "properties": {"collection_times": [{"days": "Mon-Sat", "time": "11:00am"}, {"days": "Sun", "time": "Closed"}], "id": "0873100005", "name": "USPS COLLECTION BOX - BLUE BOX", "address": {"city": "FORKED RIVER", "state": "NJ", "street": "818 LACEY RD", "postcode": "08731"}}},
{"geometry": {"type": "Point", "coordinates": [-74.2011977242, 39.8539765194]}, "type": "Feature", "properties": {"collection_times": [{"days": "Mon-Fri", "time": "5:00pm"}, {"days": "Sat", "time": "3:00pm"}, {"days": "Sun", "time": "Closed"}], "id": "0873100010", "name": "USPS COLLECTION BOX - PO LOBBY", "address": {"city": "FORKED RIVER", "state": "NJ", "street": "610 LACEY RD", "postcode": "08731"}}},
{"geometry": {"type": "Point", "coordinates": [-74.2011977242, 39.8539765194]}, "type": "Feature", "properties": {"collection_times": [{"days": "Mon-Fri", "time": "5:00pm"}, {"days": "Sat", "time": "3:00pm"}, {"days": "Sun", "time": "Closed"}], "id": "0873100011", "name": "USPS COLLECTION BOX - BLUE BOX", "address": {"city": "FORKED RIVER", "state": "NJ", "street": "610 LACEY RD", "postcode": "08731"}}},
{"geometry": {"type": "Point", "coordinates": [-74.1416390957, 39.9419784601]}, "type": "Feature", "properties": {"collection_times": [{"days": "Mon-Fri", "time": "4:00pm"}, {"days": "Sat", "time": "2:00pm"}, {"days": "Sun", "time": "Closed"}], "id": "0873200001", "name": "USPS COLLECTION BOX - BLUE BOX", "address": {"city": "ISLAND HEIGHTS", "state": "NJ", "street": "5 WANAMAKER MUNICIPAL COMPLEX", "postcode": "08732"}}},
{"geometry": {"type": "Point", "coordinates": [-74.1416390957, 39.9419784601]}, "type": "Feature", "properties": {"collection_times": [{"days": "Mon-Fri", "time": "4:15pm"}, {"days": "Sat", "time": "1:00pm"}, {"days": "Sun", "time": "Closed"}], "id": "0873200002", "name": "USPS COLLECTION BOX - PO LOBBY", "address": {"city": "ISLAND HEIGHTS", "state": "NJ", "street": "5 WANAMAKER MUNICIPAL COMPLEX", "postcode": "08732"}}},
{"geometry": {"type": "Point", "coordinates": [-74.4712754265, 40.0145422131]}, "type": "Feature", "properties": {"collection_times": [{"days": "Mon-Sat", "time": "11:00am"}, {"days": "Sun", "time": "Closed"}], "id": "0873300001", "name": "USPS COLLECTION BOX - BLUE BOX", "address": {"city": "MANCHESTER", "state": "NJ", "street": "1000 BUCKINGHAM", "postcode": "08733"}}},
{"geometry": {"type": "Point", "coordinates": [-74.4712754265, 40.0145422131]}, "type": "Feature", "properties": {"collection_times": [{"days": "Mon-Fri", "time": "3:00pm"}, {"days": "Sat", "time": "12:00pm"}, {"days": "Sun", "time": "Closed"}], "id": "0873300002", "name": "USPS COLLECTION BOX - BLUE BOX", "address": {"city": "MANCHESTER", "state": "NJ", "street": "550 STATE RT 530", "postcode": "08733"}}},
{"geometry": {"type": "Point", "coordinates": [-74.3227575942, 40.0348567794]}, "type": "Feature", "properties": {"collection_times": [{"days": "Mon-Fri", "time": "11:00am"}, {"days": "Sat", "time": "10:30am"}, {"days": "Sun", "time": "Closed"}], "id": "0873300006", "name": "USPS COLLECTION BOX - BLUE BOX", "address": {"city": "MANCHESTER", "state": "NJ", "street": "38 LANSDOWNE RD", "postcode": "08733"}}},
{"geometry": {"type": "Point", "coordinates": [-74.4712754265, 40.0145422131]}, "type": "Feature", "properties": {"collection_times": [{"days": "Mon-Sat", "time": "11:00am"}, {"days": "Sun", "time": "Closed"}], "id": "0873300009", "name": "USPS COLLECTION BOX - BLUE BOX", "address": {"city": "MANCHESTER", "state": "NJ", "street": "3 BUCKINGHAM DR", "postcode": "08733"}}},
{"geometry": {"type": "Point", "coordinates": [-74.4712754265, 40.0145422131]}, "type": "Feature", "properties": {"collection_times": [{"days": "Mon-Sat", "time": "11:00am"}, {"days": "Sun", "time": "Closed"}], "id": "0873300011", "name": "USPS COLLECTION BOX - BLUE BOX", "address": {"city": "MANCHESTER", "state": "NJ", "street": "2100 STATE ROUTE 70", "postcode": "08733"}}},
{"geometry": {"type": "Point", "coordinates": [-74.4712754265, 40.0145422131]}, "type": "Feature", "properties": {"collection_times": [{"days": "Mon-Sat", "time": "11:00am"}, {"days": "Sun", "time": "Closed"}], "id": "0873300015", "name": "USPS COLLECTION BOX - BLUE BOX", "address": {"city": "MANCHESTER", "state": "NJ", "street": "1 COLONIAL DR", "postcode": "08733"}}},
{"geometry": {"type": "Point", "coordinates": [-74.4712754265, 40.0145422131]}, "type": "Feature", "properties": {"collection_times": [{"days": "Mon-Sat", "time": "11:00am"}, {"days": "Sun", "time": "Closed"}], "id": "0873300016", "name": "USPS COLLECTION BOX - BLUE BOX", "address": {"city": "MANCHESTER", "state": "NJ", "street": "250 SCHOOLHOUSE RD", "postcode": "08733"}}},
{"geometry": {"type": "Point", "coordinates": [-74.4712754265, 40.0145422131]}, "type": "Feature", "properties": {"collection_times": [{"days": "Mon-Sat", "time": "11:00am"}, {"days": "Sun", "time": "Closed"}], "id": "0873300017", "name": "USPS COLLECTION BOX - BLUE BOX", "address": {"city": "MANCHESTER", "state": "NJ", "street": "6 CONGASIA ROAD RD", "postcode": "08733"}}},
{"geometry": {"type": "Point", "coordinates": [-74.4712754265, 40.0145422131]}, "type": "Feature", "properties": {"collection_times": [{"days": "Mon-Fri", "time": "4:00pm"}, {"days": "Sat", "time": "12:00pm"}, {"days": "Sun", "time": "Closed"}], "id": "0873300019", "name": "USPS COLLECTION BOX - BLUE BOX", "address": {"city": "MANCHESTER", "state": "NJ", "street": "108 LACEY RD", "postcode": "08733"}}},
{"geometry": {"type": "Point", "coordinates": [-74.3081312999, 40.0121203886]}, "type": "Feature", "properties": {"collection_times": [{"days": "Mon-Fri", "time": "4:30pm"}, {"days": "Sat", "time": "3:00pm"}, {"days": "Sun", "time": "Closed"}], "id": "0873300021", "name": "USPS COLLECTION BOX - BLUE BOX", "address": {"city": "MANCHESTER", "state": "NJ", "street": "1 BROWN AVE", "postcode": "08733"}}},
{"geometry": {"type": "Point", "coordinates": [-74.4712754265, 40.0145422131]}, "type": "Feature", "properties": {"collection_times": [{"days": "Mon-Fri", "time": "4:00pm"}, {"days": "Sat", "time": "12:00pm"}, {"days": "Sun", "time": "Closed"}], "id": "0873300023", "name": "USPS COLLECTION BOX - BLUE BOX", "address": {"city": "MANCHESTER", "state": "NJ", "street": "108 LACEY RD", "postcode": "08733"}}},
{"geometry": {"type": "Point", "coordinates": [-74.4712754265, 40.0145422131]}, "type": "Feature", "properties": {"collection_times": [{"days": "Mon-Sat", "time": "10:30am"}, {"days": "Sun", "time": "Closed"}], "id": "0873300024", "name": "USPS COLLECTION BOX - BLUE BOX", "address": {"city": "MANCHESTER", "state": "NJ", "street": "1001 STATE ROUTE 70", "postcode": "08733"}}},
{"geometry": {"type": "Point", "coordinates": [-74.3081312999, 40.0121203886]}, "type": "Feature", "properties": {"collection_times": [{"days": "Mon-Fri", "time": "4:30pm"}, {"days": "Sat", "time": "3:00pm"}, {"days": "Sun", "time": "Closed"}], "id": "0873300025", "name": "USPS COLLECTION BOX - APC", "address": {"city": "MANCHESTER", "state": "NJ", "street": "1 BROWN AVE", "postcode": "08733"}}},
{"geometry": {"type": "Point", "coordinates": [-74.3081312999, 40.0121203886]}, "type": "Feature", "properties": {"collection_times": [{"days": "Mon-Sat", "time": "4:30pm"}, {"days": "Sun", "time": "Closed"}], "id": "0873300026", "name": "USPS COLLECTION BOX - PO LOBBY", "address": {"city": "MANCHESTER", "state": "NJ", "street": "1 BROWN AVE", "postcode": "08733"}}},
{"geometry": {"type": "Point", "coordinates": [-74.4712754265, 40.0145422131]}, "type": "Feature", "properties": {"collection_times": [{"days": "Mon-Fri", "time": "1:00pm"}, {"days": "Sat-Sun", "time": "Closed"}], "id": "0873300027", "name": "USPS COLLECTION BOX - PO LOBBY", "address": {"city": "MANCHESTER", "state": "NJ", "street": "38 LANDSDOWNE RD", "postcode": "08733"}}},
{"geometry": {"type": "Point", "coordinates": [-74.181716756, 39.8528136707]}, "type": "Feature", "properties": {"collection_times": [{"days": "Mon-Fri", "time": "4:30pm"}, {"days": "Sat", "time": "12:00pm"}, {"days": "Sun", "time": "Closed"}], "id": "0873400001", "name": "USPS COLLECTION BOX - BLUE BOX", "address": {"city": "LANOKA HARBOR", "state": "NJ", "street": "402 US HIGHWAY 9", "postcode": "08734"}}},
{"geometry": {"type": "Point", "coordinates": [-74.181716756, 39.8528136707]}, "type": "Feature", "properties": {"collection_times": [{"days": "Mon-Fri", "time": "4:30pm"}, {"days": "Sat", "time": "12:00pm"}, {"days": "Sun", "time": "Closed"}], "id": "0873400002", "name": "USPS COLLECTION BOX - BLUE BOX", "address": {"city": "LANOKA HARBOR", "state": "NJ", "street": "402 US HIGHWAY 9", "postcode": "08734"}}},
{"geometry": {"type": "Point", "coordinates": [-74.181716756, 39.8528136707]}, "type": "Feature", "properties": {"collection_times": [{"days": "Mon-Fri", "time": "4:30pm"}, {"days": "Sat", "time": "12:00pm"}, {"days": "Sun", "time": "Closed"}], "id": "0873400003", "name": "USPS COLLECTION BOX - PO LOBBY", "address": {"city": "LANOKA HARBOR", "state": "NJ", "street": "402 US HIGHWAY 9", "postcode": "08734"}}},
{"geometry": {"type": "Point", "coordinates": [-74.0769432634, 39.9677582445]}, "type": "Feature", "properties": {"collection_times": [{"days": "Mon-Sat", "time": "11:00am"}, {"days": "Sun", "time": "Closed"}], "id": "0873500002", "name": "USPS COLLECTION BOX - BLUE BOX", "address": {"city": "LAVALLETTE", "state": "NJ", "street": "10 PERSHING BLVD", "postcode": "08735"}}},
{"geometry": {"type": "Point", "coordinates": [-74.0692401132, 39.9687242234]}, "type": "Feature", "properties": {"collection_times": [{"days": "Mon-Fri", "time": "4:00pm"}, {"days": "Sat", "time": "2:00pm"}, {"days": "Sun", "time": "Closed"}], "id": "0873500014", "name": "USPS COLLECTION BOX - BLUE BOX", "address": {"city": "LAVALLETTE", "state": "NJ", "street": "1302 GRAND CENTRAL AVE", "postcode": "08735"}}},
{"geometry": {"type": "Point", "coordinates": [-74.0676762437, 39.9815016177]}, "type": "Feature", "properties": {"collection_times": [{"days": "Mon-Sat", "time": "11:00am"}, {"days": "Sun", "time": "Closed"}], "id": "0873500015", "name": "USPS COLLECTION BOX - BLUE BOX", "address": {"city": "LAVALLETTE", "state": "NJ", "street": "702 GRAND CENTRAL AVE", "postcode": "08735"}}},
{"geometry": {"type": "Point", "coordinates": [-74.0717377713, 39.9637186103]}, "type": "Feature", "properties": {"collection_times": [{"days": "Mon-Sat", "time": "11:00am"}, {"days": "Sun", "time": "Closed"}], "id": "0873500023", "name": "USPS COLLECTION BOX - BLUE BOX", "address": {"city": "LAVALLETTE", "state": "NJ", "street": "112 JERSEY CITY AVE", "postcode": "08735"}}},
{"geometry": {"type": "Point", "coordinates": [-74.0692401132, 39.9687242234]}, "type": "Feature", "properties": {"collection_times": [{"days": "Mon-Fri", "time": "4:00pm"}, {"days": "Sat", "time": "2:00pm"}, {"days": "Sun", "time": "Closed"}], "id": "0873500024", "name": "USPS COLLECTION BOX - PO LOBBY", "address": {"city": "LAVALLETTE", "state": "NJ", "street": "1302 GRAND CENTRAL AVE", "postcode": "08735"}}},
{"geometry": {"type": "Point", "coordinates": [-74.0514691955, 40.1237615655]}, "type": "Feature", "properties": {"collection_times": [{"days": "Mon-Sat", "time": "11:00am"}, {"days": "Sun", "time": "Closed"}], "id": "0873600003", "name": "USPS COLLECTION BOX - BLUE BOX", "address": {"city": "MANASQUAN", "state": "NJ", "street": "107 MAIN ST", "postcode": "08736"}}},
{"geometry": {"type": "Point", "coordinates": [-74.0709243682, 40.1204581365]}, "type": "Feature", "properties": {"collection_times": [{"days": "Mon-Sat", "time": "10:45am"}, {"days": "Sun", "time": "Closed"}], "id": "0873600004", "name": "USPS COLLECTION BOX - BLUE BOX", "address": {"city": "MANASQUAN", "state": "NJ", "street": "2517 STATE ROUTE 35", "postcode": "08736"}}},
{"geometry": {"type": "Point", "coordinates": [-74.0709243682, 40.1204581365]}, "type": "Feature", "properties": {"collection_times": [{"days": "Mon-Sat", "time": "10:45am"}, {"days": "Sun", "time": "Closed"}], "id": "0873600005", "name": "USPS COLLECTION BOX - BLUE BOX", "address": {"city": "MANASQUAN", "state": "NJ", "street": "2517 STATE ROUTE 35", "postcode": "08736"}}},
{"geometry": {"type": "Point", "coordinates": [-74.0697662514, 40.1227554429]}, "type": "Feature", "properties": {"collection_times": [{"days": "Mon-Sat", "time": "11:00am"}, {"days": "Sun", "time": "Closed"}], "id": "0873600014", "name": "USPS COLLECTION BOX - BLUE BOX", "address": {"city": "MANASQUAN", "state": "NJ", "street": "2500 STATE ROUTE 35", "postcode": "08736"}}},
{"geometry": {"type": "Point", "coordinates": [-74.0515273998, 40.1222486291]}, "type": "Feature", "properties": {"collection_times": [{"days": "Mon-Fri", "time": "5:00pm"}, {"days": "Sat", "time": "4:00pm"}, {"days": "Sun", "time": "Closed"}], "id": "0873600018", "name": "USPS COLLECTION BOX - BLUE BOX", "address": {"city": "MANASQUAN", "state": "NJ", "street": "43 ABE VOORHEES DR", "postcode": "08736"}}},
{"geometry": {"type": "Point", "coordinates": [-74.0515273998, 40.1222486291]}, "type": "Feature", "properties": {"collection_times": [{"days": "Mon-Fri", "time": "5:00pm"}, {"days": "Sat", "time": "4:00pm"}, {"days": "Sun", "time": "Closed"}], "id": "0873600019", "name": "USPS COLLECTION BOX - BLUE BOX", "address": {"city": "MANASQUAN", "state": "NJ", "street": "43 ABE VOORHEES DR", "postcode": "08736"}}},
{"geometry": {"type": "Point", "coordinates": [-74.0515273998, 40.1222486291]}, "type": "Feature", "properties": {"collection_times": [{"days": "Mon-Fri", "time": "5:00pm"}, {"days": "Sat", "time": "4:00pm"}, {"days": "Sun", "time": "Closed"}], "id": "0873600020", "name": "USPS COLLECTION BOX - BLUE BOX", "address": {"city": "MANASQUAN", "state": "NJ", "street": "43 ABE VOORHEES DR", "postcode": "08736"}}},
{"geometry": {"type": "Point", "coordinates": [-74.0515273998, 40.1222486291]}, "type": "Feature", "properties": {"collection_times": [{"days": "Mon-Fri", "time": "5:00pm"}, {"days": "Sat", "time": "4:00pm"}, {"days": "Sun", "time": "Closed"}], "id": "0873600021", "name": "USPS COLLECTION BOX - BLUE BOX", "address": {"city": "MANASQUAN", "state": "NJ", "street": "43 ABE VOORHEES DR", "postcode": "08736"}}},
{"geometry": {"type": "Point", "coordinates": [-74.0515273998, 40.1222486291]}, "type": "Feature", "properties": {"collection_times": [{"days": "Mon-Fri", "time": "5:00pm"}, {"days": "Sat", "time": "4:00pm"}, {"days": "Sun", "time": "Closed"}], "id": "0873600022", "name": "USPS COLLECTION BOX - BLUE BOX", "address": {"city": "MANASQUAN", "state": "NJ", "street": "43 ABE VOORHEES DR", "postcode": "08736"}}},
{"geometry": {"type": "Point", "coordinates": [-74.0709243682, 40.1204581365]}, "type": "Feature", "properties": {"collection_times": [{"days": "Mon-Sat", "time": "10:45am"}, {"days": "Sun", "time": "Closed"}], "id": "0873600024", "name": "USPS COLLECTION BOX - BLUE BOX", "address": {"city": "MANASQUAN", "state": "NJ", "street": "2517 STATE ROUTE 35", "postcode": "08736"}}},
{"geometry": {"type": "Point", "coordinates": [-74.0739672825, 40.1134904312]}, "type": "Feature", "properties": {"collection_times": [{"days": "Mon-Sat", "time": "11:00am"}, {"days": "Sun", "time": "Closed"}], "id": "0873600027", "name": "USPS COLLECTION BOX - BLUE BOX", "address": {"city": "MANASQUAN", "state": "NJ", "street": "2640 HIGHWAY 70", "postcode": "08736"}}},
{"geometry": {"type": "Point", "coordinates": [-74.0739672825, 40.1134904312]}, "type": "Feature", "properties": {"collection_times": [{"days": "Mon-Sat", "time": "11:00am"}, {"days": "Sun", "time": "Closed"}], "id": "0873600028", "name": "USPS COLLECTION BOX - BLUE BOX", "address": {"city": "MANASQUAN", "state": "NJ", "street": "2640 HIGHWAY 70", "postcode": "08736"}}},
{"geometry": {"type": "Point", "coordinates": [-74.0787778699, 40.13588209]}, "type": "Feature", "properties": {"collection_times": [{"days": "Mon-Sat", "time": "11:00am"}, {"days": "Sun", "time": "Closed"}], "id": "0873600029", "name": "USPS COLLECTION BOX - BLUE BOX", "address": {"city": "MANASQUAN", "state": "NJ", "street": "1904 ATLANTIC AVE", "postcode": "08736"}}},
{"geometry": {"type": "Point", "coordinates": [-74.0515273998, 40.1222486291]}, "type": "Feature", "properties": {"collection_times": [{"days": "Mon-Fri", "time": "5:00pm"}, {"days": "Sat", "time": "4:00pm"}, {"days": "Sun", "time": "Closed"}], "id": "0873600032", "name": "USPS COLLECTION BOX - PO LOBBY", "address": {"city": "MANASQUAN", "state": "NJ", "street": "43 ABE VOORHEES DR", "postcode": "08736"}}},
{"geometry": {"type": "Point", "coordinates": [-74.0521460776, 40.0370796398]}, "type": "Feature", "properties": {"collection_times": [{"days": "Mon-Fri", "time": "4:00pm"}, {"days": "Sat", "time": "12:00pm"}, {"days": "Sun", "time": "Closed"}], "id": "0873800001", "name": "USPS COLLECTION BOX - BLUE BOX", "address": {"city": "MANTOLOKING", "state": "NJ", "street": "207 DOWNER AVE", "postcode": "08738"}}},
{"geometry": {"type": "Point", "coordinates": [-74.0521460776, 40.0370796398]}, "type": "Feature", "properties": {"collection_times": [{"days": "Mon-Fri", "time": "4:00pm"}, {"days": "Sat", "time": "12:00pm"}, {"days": "Sun", "time": "Closed"}], "id": "0873800002", "name": "USPS COLLECTION BOX - PO LOBBY", "address": {"city": "MANTOLOKING", "state": "NJ", "street": "207 DOWNER AVE", "postcode": "08738"}}},
{"geometry": {"type": "Point", "coordinates": [-74.0615849642, 40.0020677207]}, "type": "Feature", "properties": {"collection_times": [{"days": "Mon-Fri", "time": "4:00pm"}, {"days": "Sat", "time": "11:00am"}, {"days": "Sun", "time": "Closed"}], "id": "0873900001", "name": "USPS COLLECTION BOX - BLUE BOX", "address": {"city": "NORMANDY BEACH", "state": "NJ", "street": "551 STATE ROUTE 35 N", "postcode": "08739"}}},
{"geometry": {"type": "Point", "coordinates": [-74.0615849642, 40.0020677207]}, "type": "Feature", "properties": {"collection_times": [{"days": "Mon-Fri", "time": "4:00pm"}, {"days": "Sat", "time": "12:00pm"}, {"days": "Sun", "time": "Closed"}], "id": "0873900002", "name": "USPS COLLECTION BOX - PO LOBBY", "address": {"city": "NORMANDY BEACH", "state": "NJ", "street": "551 STATE ROUTE 35 N", "postcode": "08739"}}},
{"geometry": {"type": "Point", "coordinates": [-74.1406422067, 39.9269288831]}, "type": "Feature", "properties": {"collection_times": [{"days": "Mon-Fri", "time": "4:45pm"}, {"days": "Sat", "time": "12:00pm"}, {"days": "Sun", "time": "Closed"}], "id": "0874000001", "name": "USPS COLLECTION BOX - BLUE BOX", "address": {"city": "OCEAN GATE", "state": "NJ", "street": "450 OCEAN GATE AVE", "postcode": "08740"}}},
{"geometry": {"type": "Point", "coordinates": [-74.1406422067, 39.9269288831]}, "type": "Feature", "properties": {"collection_times": [{"days": "Mon-Fri", "time": "4:45pm"}, {"days": "Sat", "time": "12:00pm"}, {"days": "Sun", "time": "Closed"}], "id": "0874000002", "name": "USPS COLLECTION BOX - PO LOBBY", "address": {"city": "OCEAN GATE", "state": "NJ", "street": "450 OCEAN GATE AVE", "postcode": "08740"}}},
{"geometry": {"type": "Point", "coordinates": [-74.1690626439, 39.9337292469]}, "type": "Feature", "properties": {"collection_times": [{"days": "Mon-Fri", "time": "4:30pm"}, {"days": "Sat", "time": "12:00pm"}, {"days": "Sun", "time": "Closed"}], "id": "0874100001", "name": "USPS COLLECTION BOX - BLUE BOX", "address": {"city": "PINE BEACH", "state": "NJ", "street": "601 PENNSYLVANIA AVE", "postcode": "08741"}}},
{"geometry": {"type": "Point", "coordinates": [-74.1690626439, 39.9337292469]}, "type": "Feature", "properties": {"collection_times": [{"days": "Mon-Fri", "time": "4:30pm"}, {"days": "Sat", "time": "12:00pm"}, {"days": "Sun", "time": "Closed"}], "id": "0874100005", "name": "USPS COLLECTION BOX - PO LOBBY", "address": {"city": "PINE BEACH", "state": "NJ", "street": "601 PENNSYLVANIA AVE", "postcode": "08741"}}},
{"geometry": {"type": "Point", "coordinates": [-74.0471220509, 40.0919440937]}, "type": "Feature", "properties": {"collection_times": [{"days": "Mon-Fri", "time": "5:00pm"}, {"days": "Sat", "time": "3:00pm"}, {"days": "Sun", "time": "Closed"}], "id": "0874200004", "name": "USPS COLLECTION BOX - BLUE BOX", "address": {"city": "PT PLEASANT BEAC", "state": "NJ", "street": "410 ARNOLD AVE", "postcode": "08742"}}},
{"geometry": {"type": "Point", "coordinates": [-74.046407339, 40.070693198]}, "type": "Feature", "properties": {"collection_times": [{"days": "Mon-Fri", "time": "4:30pm"}, {"days": "Sat", "time": "12:00pm"}, {"days": "Sun", "time": "Closed"}], "id": "0874200006", "name": "USPS COLLECTION BOX - BLUE BOX", "address": {"city": "PT PLEASANT BEAC", "state": "NJ", "street": "82 BRIDGE AVE", "postcode": "08742"}}},
{"geometry": {"type": "Point", "coordinates": [-74.0460124353, 40.0705739399]}, "type": "Feature", "properties": {"collection_times": [{"days": "Mon-Fri", "time": "4:30pm"}, {"days": "Sat", "time": "12:00pm"}, {"days": "Sun", "time": "Closed"}], "id": "0874200008", "name": "USPS COLLECTION BOX - BLUE BOX", "address": {"city": "PT PLEASANT BEAC", "state": "NJ", "street": "83 BRIDGE AVE", "postcode": "08742"}}},
{"geometry": {"type": "Point", "coordinates": [-74.0685856583, 40.0720112351]}, "type": "Feature", "properties": {"collection_times": [{"days": "Mon-Fri", "time": "5:00pm"}, {"days": "Sat", "time": "1:00pm"}, {"days": "Sun", "time": "Closed"}], "id": "0874200010", "name": "USPS COLLECTION BOX - BLUE BOX", "address": {"city": "PT PLEASANT BEAC", "state": "NJ", "street": "2229 BRIDGE AVE", "postcode": "08742"}}},
{"geometry": {"type": "Point", "coordinates": [-74.0468913739, 40.0872891501]}, "type": "Feature", "properties": {"collection_times": [{"days": "Mon-Sat", "time": "11:00am"}, {"days": "Sun", "time": "Closed"}], "id": "0874200011", "name": "USPS COLLECTION BOX - BLUE BOX", "address": {"city": "PT PLEASANT BEAC", "state": "NJ", "street": "416 NEW JERSEY AVE", "postcode": "08742"}}},
{"geometry": {"type": "Point", "coordinates": [-74.0687465407, 40.0720384431]}, "type": "Feature", "properties": {"collection_times": [{"days": "Mon-Fri", "time": "5:00pm"}, {"days": "Sat", "time": "11:00am"}, {"days": "Sun", "time": "Closed"}], "id": "0874200012", "name": "USPS COLLECTION BOX - BLUE BOX", "address": {"city": "PT PLEASANT BEAC", "state": "NJ", "street": "2232 BRIDGE AVE", "postcode": "08742"}}},
{"geometry": {"type": "Point", "coordinates": [-74.0520963933, 40.0915537172]}, "type": "Feature", "properties": {"collection_times": [{"days": "Mon-Sat", "time": "11:00am"}, {"days": "Sun", "time": "Closed"}], "id": "0874200013", "name": "USPS COLLECTION BOX - BLUE BOX", "address": {"city": "PT PLEASANT BEAC", "state": "NJ", "street": "701 ARNOLD AVE", "postcode": "08742"}}},
{"geometry": {"type": "Point", "coordinates": [-74.0472526884, 40.0919889538]}, "type": "Feature", "properties": {"collection_times": [{"days": "Mon-Sat", "time": "11:00am"}, {"days": "Sun", "time": "Closed"}], "id": "0874200014", "name": "USPS COLLECTION BOX - BLUE BOX", "address": {"city": "PT PLEASANT BEAC", "state": "NJ", "street": "415 ARNOLD AVE", "postcode": "08742"}}},
{"geometry": {"type": "Point", "coordinates": [-74.0728383958, 40.0724193559]}, "type": "Feature", "properties": {"collection_times": [{"days": "Mon-Sat", "time": "11:00am"}, {"days": "Sun", "time": "Closed"}], "id": "0874200018", "name": "USPS COLLECTION BOX - BLUE BOX", "address": {"city": "PT PLEASANT BEAC", "state": "NJ", "street": "2301 BRIDGE AVE", "postcode": "08742"}}},
{"geometry": {"type": "Point", "coordinates": [-74.0777095265, 40.0815223127]}, "type": "Feature", "properties": {"collection_times": [{"days": "Mon-Sat", "time": "11:00am"}, {"days": "Sun", "time": "Closed"}], "id": "0874200019", "name": "USPS COLLECTION BOX - BLUE BOX", "address": {"city": "PT PLEASANT BEAC", "state": "NJ", "street": "2701 LAKEWOOD RD", "postcode": "08742"}}},
{"geometry": {"type": "Point", "coordinates": [-74.0778257508, 40.0738483704]}, "type": "Feature", "properties": {"collection_times": [{"days": "Mon-Sat", "time": "11:00am"}, {"days": "Sun", "time": "Closed"}], "id": "0874200022", "name": "USPS COLLECTION BOX - BLUE BOX", "address": {"city": "PT PLEASANT BEAC", "state": "NJ", "street": "2500 BRIDGE AVE", "postcode": "08742"}}},
{"geometry": {"type": "Point", "coordinates": [-74.0628719665, 40.0855170776]}, "type": "Feature", "properties": {"collection_times": [{"days": "Mon-Sat", "time": "11:00am"}, {"days": "Sun", "time": "Closed"}], "id": "0874200032", "name": "USPS COLLECTION BOX - BLUE BOX", "address": {"city": "PT PLEASANT BEAC", "state": "NJ", "street": "1115 ARNOLD AVE", "postcode": "08742"}}},
{"geometry": {"type": "Point", "coordinates": [-74.0685856583, 40.0720112351]}, "type": "Feature", "properties": {"collection_times": [{"days": "Mon-Fri", "time": "5:00pm"}, {"days": "Sat", "time": "1:00pm"}, {"days": "Sun", "time": "Closed"}], "id": "0874200039", "name": "USPS COLLECTION BOX - BLUE BOX", "address": {"city": "PT PLEASANT BEAC", "state": "NJ", "street": "2229 BRIDGE AVE", "postcode": "08742"}}},
{"geometry": {"type": "Point", "coordinates": [-74.0471220509, 40.0919440937]}, "type": "Feature", "properties": {"collection_times": [{"days": "Mon-Sat", "time": "5:00pm"}, {"days": "Sun", "time": "Closed"}], "id": "0874200041", "name": "USPS COLLECTION BOX - PO LOBBY", "address": {"city": "PT PLEASANT BEAC", "state": "NJ", "street": "410 ARNOLD AVE", "postcode": "08742"}}},
{"geometry": {"type": "Point", "coordinates": [-74.0685856583, 40.0720112351]}, "type": "Feature", "properties": {"collection_times": [{"days": "Mon-Sat", "time": "4:30pm"}, {"days": "Sun", "time": "Closed"}], "id": "0874200042", "name": "USPS COLLECTION BOX - PO LOBBY", "address": {"city": "PT PLEASANT BEAC", "state": "NJ", "street": "2229 BRIDGE AVE", "postcode": "08742"}}},
{"geometry": {"type": "Point", "coordinates": [-74.046407339, 40.070693198]}, "type": "Feature", "properties": {"collection_times": [{"days": "Mon-Fri", "time": "4:30pm"}, {"days": "Sat", "time": "12:00pm"}, {"days": "Sun", "time": "Closed"}], "id": "0874200043", "name": "USPS COLLECTION BOX - PO LOBBY", "address": {"city": "PT PLEASANT BEAC", "state": "NJ", "street": "82 BRIDGE AVE", "postcode": "08742"}}},
{"geometry": {"type": "Point", "coordinates": [-74.0426421853, 40.1383988922]}, "type": "Feature", "properties": {"collection_times": [{"days": "Mon-Sat", "time": "11:00am"}, {"days": "Sun", "time": "Closed"}], "id": "0875000001", "name": "USPS COLLECTION BOX - BLUE BOX", "address": {"city": "SEA GIRT", "state": "NJ", "street": "2137 8TH AVE", "postcode": "08750"}}},
{"geometry": {"type": "Point", "coordinates": [-74.0407825668, 40.1299299928]}, "type": "Feature", "properties": {"collection_times": [{"days": "Mon-Sat", "time": "11:00am"}, {"days": "Sun", "time": "Closed"}], "id": "0875000005", "name": "USPS COLLECTION BOX - BLUE BOX", "address": {"city": "SEA GIRT", "state": "NJ", "street": "529 WASHINGTON BLVD", "postcode": "08750"}}},
{"geometry": {"type": "Point", "coordinates": [-74.0350700649, 40.1312112335]}, "type": "Feature", "properties": {"collection_times": [{"days": "Mon-Sat", "time": "11:00am"}, {"days": "Sun", "time": "Closed"}], "id": "0875000008", "name": "USPS COLLECTION BOX - BLUE BOX", "address": {"city": "SEA GIRT", "state": "NJ", "street": "301 BOSTON BLVD", "postcode": "08750"}}},
{"geometry": {"type": "Point", "coordinates": [-74.0368409545, 40.1336067254]}, "type": "Feature", "properties": {"collection_times": [{"days": "Mon-Sat", "time": "11:00am"}, {"days": "Sun", "time": "Closed"}], "id": "0875000009", "name": "USPS COLLECTION BOX - BLUE BOX", "address": {"city": "SEA GIRT", "state": "NJ", "street": "403 BALTIMORE BLVD", "postcode": "08750"}}},
{"geometry": {"type": "Point", "coordinates": [-74.0434962881, 40.1347238916]}, "type": "Feature", "properties": {"collection_times": [{"days": "Mon-Sat", "time": "10:00am"}, {"days": "Sun", "time": "Closed"}], "id": "0875000010", "name": "USPS COLLECTION BOX - BLUE BOX", "address": {"city": "SEA GIRT", "state": "NJ", "street": "2 CAMP DR", "postcode": "08750"}}},
{"geometry": {"type": "Point", "coordinates": [-74.0434962881, 40.1347238916]}, "type": "Feature", "properties": {"collection_times": [{"days": "Mon-Sat", "time": "11:00am"}, {"days": "Sun", "time": "Closed"}], "id": "0875000011", "name": "USPS COLLECTION BOX - BLUE BOX", "address": {"city": "SEA GIRT", "state": "NJ", "street": "2130 HIGHWAY 35", "postcode": "08750"}}},
{"geometry": {"type": "Point", "coordinates": [-74.0349367205, 40.1294141021]}, "type": "Feature", "properties": {"collection_times": [{"days": "Mon-Sat", "time": "11:00am"}, {"days": "Sun", "time": "Closed"}], "id": "0875000014", "name": "USPS COLLECTION BOX - BLUE BOX", "address": {"city": "SEA GIRT", "state": "NJ", "street": "2204 HIGHWAY 35 STE 19", "postcode": "08750"}}},
{"geometry": {"type": "Point", "coordinates": [-74.0416737936, 40.1308468866]}, "type": "Feature", "properties": {"collection_times": [{"days": "Mon-Fri", "time": "4:30pm"}, {"days": "Sat", "time": "3:00pm"}, {"days": "Sun", "time": "Closed"}], "id": "0875000015", "name": "USPS COLLECTION BOX - BLUE BOX", "address": {"city": "SEA GIRT", "state": "NJ", "street": "800 THE PLZ", "postcode": "08750"}}},
{"geometry": {"type": "Point", "coordinates": [-74.0416737936, 40.1308468866]}, "type": "Feature", "properties": {"collection_times": [{"days": "Mon-Fri", "time": "4:30pm"}, {"days": "Sat", "time": "3:00pm"}, {"days": "Sun", "time": "Closed"}], "id": "0875000016", "name": "USPS COLLECTION BOX - BLUE BOX", "address": {"city": "SEA GIRT", "state": "NJ", "street": "800 THE PLZ", "postcode": "08750"}}},
{"geometry": {"type": "Point", "coordinates": [-74.0434962881, 40.1347238916]}, "type": "Feature", "properties": {"collection_times": [{"days": "Mon-Sat", "time": "11:00am"}, {"days": "Sun", "time": "Closed"}], "id": "0875000018", "name": "USPS COLLECTION BOX - BLUE BOX", "address": {"city": "SEA GIRT", "state": "NJ", "street": "2150 HIGHWAY 35", "postcode": "08750"}}},
{"geometry": {"type": "Point", "coordinates": [-74.0611038461, 40.1363029682]}, "type": "Feature", "properties": {"collection_times": [{"days": "Mon-Sat", "time": "11:00am"}, {"days": "Sun", "time": "Closed"}], "id": "0875000021", "name": "USPS COLLECTION BOX - BLUE BOX", "address": {"city": "SEA GIRT", "state": "NJ", "street": "1330 LAUREL AVE", "postcode": "08750"}}},
{"geometry": {"type": "Point", "coordinates": [-74.0416737936, 40.1308468866]}, "type": "Feature", "properties": {"collection_times": [{"days": "Mon-Fri", "time": "4:30pm"}, {"days": "Sat", "time": "3:30pm"}, {"days": "Sun", "time": "Closed"}], "id": "0875000023", "name": "USPS COLLECTION BOX - PO LOBBY", "address": {"city": "SEA GIRT", "state": "NJ", "street": "800 THE PLZ", "postcode": "08750"}}},
{"geometry": {"type": "Point", "coordinates": [-74.0728147366, 39.9411759736]}, "type": "Feature", "properties": {"collection_times": [{"days": "Mon-Fri", "time": "4:00pm"}, {"days": "Sat", "time": "12:30pm"}, {"days": "Sun", "time": "Closed"}], "id": "0875100001", "name": "USPS COLLECTION BOX - BLUE BOX", "address": {"city": "SEASIDE HEIGHTS", "state": "NJ", "street": "55 SUMNER AVE", "postcode": "08751"}}},
{"geometry": {"type": "Point", "coordinates": [-74.073295018, 39.9437240672]}, "type": "Feature", "properties": {"collection_times": [{"days": "Mon-Sat", "time": "10:00am"}, {"days": "Sun", "time": "Closed"}], "id": "0875100004", "name": "USPS COLLECTION BOX - BLUE BOX", "address": {"city": "SEASIDE HEIGHTS", "state": "NJ", "street": "901 BOULEVARD", "postcode": "08751"}}},
{"geometry": {"type": "Point", "coordinates": [-74.0784716464, 39.9530339542]}, "type": "Feature", "properties": {"collection_times": [{"days": "Mon-Sat", "time": "10:15am"}, {"days": "Sun", "time": "Closed"}], "id": "0875100014", "name": "USPS COLLECTION BOX - BLUE BOX", "address": {"city": "SEASIDE HEIGHTS", "state": "NJ", "street": "1801 BAY BLVD", "postcode": "08751"}}},
{"geometry": {"type": "Point", "coordinates": [-74.0777417607, 39.9459243708]}, "type": "Feature", "properties": {"collection_times": [{"days": "Mon-Sat", "time": "10:15am"}, {"days": "Sun", "time": "Closed"}], "id": "0875100015", "name": "USPS COLLECTION BOX - BLUE BOX", "address": {"city": "SEASIDE HEIGHTS", "state": "NJ", "street": "201 FREMONT AVE", "postcode": "08751"}}},
{"geometry": {"type": "Point", "coordinates": [-74.0739354451, 39.9514312903]}, "type": "Feature", "properties": {"collection_times": [{"days": "Mon-Sat", "time": "10:00am"}, {"days": "Sun", "time": "Closed"}], "id": "0875100016", "name": "USPS COLLECTION BOX - BLUE BOX", "address": {"city": "SEASIDE HEIGHTS", "state": "NJ", "street": "4030 ROUTE 37 E STE 5", "postcode": "08751"}}},
{"geometry": {"type": "Point", "coordinates": [-74.0728147366, 39.9411759736]}, "type": "Feature", "properties": {"collection_times": [{"days": "Mon-Fri", "time": "4:15pm"}, {"days": "Sat", "time": "12:30pm"}, {"days": "Sun", "time": "Closed"}], "id": "0875100017", "name": "USPS COLLECTION BOX - PO LOBBY", "address": {"city": "SEASIDE HEIGHTS", "state": "NJ", "street": "55 SUMNER AVE", "postcode": "08751"}}},
{"geometry": {"type": "Point", "coordinates": [-74.0794617833, 39.9157979546]}, "type": "Feature", "properties": {"collection_times": [{"days": "Mon-Sat", "time": "11:00am"}, {"days": "Sun", "time": "Closed"}], "id": "0875200003", "name": "USPS COLLECTION BOX - BLUE BOX", "address": {"city": "SEASIDE PARK", "state": "NJ", "street": "1000 NE CENTRAL AVE", "postcode": "08752"}}},
{"geometry": {"type": "Point", "coordinates": [-74.0793340235, 39.9164781563]}, "type": "Feature", "properties": {"collection_times": [{"days": "Mon-Fri", "time": "4:00pm"}, {"days": "Sat", "time": "12:00pm"}, {"days": "Sun", "time": "Closed"}], "id": "0875200008", "name": "USPS COLLECTION BOX - BLUE BOX", "address": {"city": "SEASIDE PARK", "state": "NJ", "street": "900 SE CENTRAL AVE", "postcode": "08752"}}},
{"geometry": {"type": "Point", "coordinates": [-74.0793340235, 39.9164781563]}, "type": "Feature", "properties": {"collection_times": [{"days": "Mon-Fri", "time": "4:00pm"}, {"days": "Sat", "time": "12:00pm"}, {"days": "Sun", "time": "Closed"}], "id": "0875200010", "name": "USPS COLLECTION BOX - PO LOBBY", "address": {"city": "SEASIDE PARK", "state": "NJ", "street": "900 SE CENTRAL AVE", "postcode": "08752"}}},
{"geometry": {"type": "Point", "coordinates": [-74.1470253627, 40.0112540147]}, "type": "Feature", "properties": {"collection_times": [{"days": "Mon-Sat", "time": "11:00am"}, {"days": "Sun", "time": "Closed"}], "id": "0875300001", "name": "USPS COLLECTION BOX - BLUE BOX", "address": {"city": "TOMS RIVER", "state": "NJ", "street": "1824 HOOPER AVE STE 1", "postcode": "08753"}}},
{"geometry": {"type": "Point", "coordinates": [-74.1464749715, 40.0123153712]}, "type": "Feature", "properties": {"collection_times": [{"days": "Mon-Sat", "time": "11:00am"}, {"days": "Sun", "time": "Closed"}], "id": "0875300002", "name": "USPS COLLECTION BOX - BLUE BOX", "address": {"city": "TOMS RIVER", "state": "NJ", "street": "1843 HOOPER AVE", "postcode": "08753"}}},
{"geometry": {"type": "Point", "coordinates": [-74.1590623809, 40.0197434756]}, "type": "Feature", "properties": {"collection_times": [{"days": "Mon-Sat", "time": "11:00am"}, {"days": "Sun", "time": "Closed"}], "id": "0875300006", "name": "USPS COLLECTION BOX - BLUE BOX", "address": {"city": "TOMS RIVER", "state": "NJ", "street": "2100 HOVSONS BLVD", "postcode": "08753"}}},
{"geometry": {"type": "Point", "coordinates": [-74.1594970051, 40.0225314358]}, "type": "Feature", "properties": {"collection_times": [{"days": "Mon-Sat", "time": "11:00am"}, {"days": "Sun", "time": "Closed"}], "id": "0875300008", "name": "USPS COLLECTION BOX - BLUE BOX", "address": {"city": "TOMS RIVER", "state": "NJ", "street": "1999 YORKTOWNE BLVD", "postcode": "08753"}}},
{"geometry": {"type": "Point", "coordinates": [-74.1392617623, 39.9776604382]}, "type": "Feature", "properties": {"collection_times": [{"days": "Mon-Sat", "time": "11:00am"}, {"days": "Sun", "time": "Closed"}], "id": "0875300012", "name": "USPS COLLECTION BOX - BLUE BOX", "address": {"city": "TOMS RIVER", "state": "NJ", "street": "953 FISCHER BLVD", "postcode": "08753"}}},
{"geometry": {"type": "Point", "coordinates": [-74.1348195308, 39.9715070414]}, "type": "Feature", "properties": {"collection_times": [{"days": "Mon-Sat", "time": "11:00am"}, {"days": "Sun", "time": "Closed"}], "id": "0875300013", "name": "USPS COLLECTION BOX - BLUE BOX", "address": {"city": "TOMS RIVER", "state": "NJ", "street": "860 FISCHER BLVD", "postcode": "08753"}}},
{"geometry": {"type": "Point", "coordinates": [-74.1738950313, 39.9927683629]}, "type": "Feature", "properties": {"collection_times": [{"days": "Mon-Sat", "time": "11:00am"}, {"days": "Sun", "time": "Closed"}], "id": "0875300014", "name": "USPS COLLECTION BOX - BLUE BOX", "address": {"city": "TOMS RIVER", "state": "NJ", "street": "1415 HOOPER AVE", "postcode": "08753"}}},
{"geometry": {"type": "Point", "coordinates": [-74.2578851178, 39.9723102706]}, "type": "Feature", "properties": {"collection_times": [{"days": "Mon-Sat", "time": "11:00am"}, {"days": "Sun", "time": "Closed"}], "id": "0875300015", "name": "USPS COLLECTION BOX - BLUE BOX", "address": {"city": "TOMS RIVER", "state": "NJ", "street": "98 BANANIER DR", "postcode": "08753"}}},
{"geometry": {"type": "Point", "coordinates": [-74.1608375302, 39.9538561107]}, "type": "Feature", "properties": {"collection_times": [{"days": "Mon-Sat", "time": "11:00am"}, {"days": "Sun", "time": "Closed"}], "id": "0875300016", "name": "USPS COLLECTION BOX - BLUE BOX", "address": {"city": "TOMS RIVER", "state": "NJ", "street": "1214 STATE ROUTE 37 E", "postcode": "08753"}}},
{"geometry": {"type": "Point", "coordinates": [-74.1516748066, 39.9554891285]}, "type": "Feature", "properties": {"collection_times": [{"days": "Mon-Sat", "time": "11:00am"}, {"days": "Sun", "time": "Closed"}], "id": "0875300017", "name": "USPS COLLECTION BOX - BLUE BOX", "address": {"city": "TOMS RIVER", "state": "NJ", "street": "541 VAUGHN AVE", "postcode": "08753"}}},
{"geometry": {"type": "Point", "coordinates": [-74.2000384244, 39.9606924306]}, "type": "Feature", "properties": {"collection_times": [{"days": "Mon-Sat", "time": "10:00am"}, {"days": "Sun", "time": "Closed"}], "id": "0875300024", "name": "USPS COLLECTION BOX - BLUE BOX", "address": {"city": "TOMS RIVER", "state": "NJ", "street": "801 MAIN ST", "postcode": "08753"}}},
{"geometry": {"type": "Point", "coordinates": [-74.147813152, 39.9513884583]}, "type": "Feature", "properties": {"collection_times": [{"days": "Mon-Sat", "time": "10:00am"}, {"days": "Sun", "time": "Closed"}], "id": "0875300025", "name": "USPS COLLECTION BOX - BLUE BOX", "address": {"city": "TOMS RIVER", "state": "NJ", "street": "1 ROUTE 37 W", "postcode": "08753"}}},
{"geometry": {"type": "Point", "coordinates": [-74.1855885807, 39.9621545678]}, "type": "Feature", "properties": {"collection_times": [{"days": "Mon-Sat", "time": "11:00am"}, {"days": "Sun", "time": "Closed"}], "id": "0875300026", "name": "USPS COLLECTION BOX - BLUE BOX", "address": {"city": "TOMS RIVER", "state": "NJ", "street": "821 CONIFER ST", "postcode": "08753"}}},
{"geometry": {"type": "Point", "coordinates": [-74.1962352114, 39.9530067462]}, "type": "Feature", "properties": {"collection_times": [{"days": "Mon-Fri", "time": "5:00pm"}, {"days": "Sat", "time": "10:00am"}, {"days": "Sun", "time": "Closed"}], "id": "0875300030", "name": "USPS COLLECTION BOX - BLUE BOX", "address": {"city": "TOMS RIVER", "state": "NJ", "street": "56 WASHINGTON ST", "postcode": "08753"}}},
{"geometry": {"type": "Point", "coordinates": [-74.7285647002, 39.6133451272]}, "type": "Feature", "properties": {"collection_times": [{"days": "Mon-Sat", "time": "11:00am"}, {"days": "Sun", "time": "Closed"}], "id": "0875300031", "name": "USPS COLLECTION BOX - BLUE BOX", "address": {"city": "TOMS RIVER", "state": "NJ", "street": "424 DOVER RD", "postcode": "08753"}}},
{"geometry": {"type": "Point", "coordinates": [-74.2177342562, 39.9612753563]}, "type": "Feature", "properties": {"collection_times": [{"days": "Mon-Sat", "time": "11:00am"}, {"days": "Sun", "time": "Closed"}], "id": "0875300032", "name": "USPS COLLECTION BOX - BLUE BOX", "address": {"city": "TOMS RIVER", "state": "NJ", "street": "9 HOSPITAL DR", "postcode": "08753"}}},
{"geometry": {"type": "Point", "coordinates": [-74.2351131577, 39.95998857]}, "type": "Feature", "properties": {"collection_times": [{"days": "Mon-Sat", "time": "11:00am"}, {"days": "Sun", "time": "Closed"}], "id": "0875300033", "name": "USPS COLLECTION BOX - BLUE BOX", "address": {"city": "TOMS RIVER", "state": "NJ", "street": "979 EDGEBROOK DR N", "postcode": "08753"}}},
{"geometry": {"type": "Point", "coordinates": [-74.2397649674, 39.9601374245]}, "type": "Feature", "properties": {"collection_times": [{"days": "Mon-Sat", "time": "11:00am"}, {"days": "Sun", "time": "Closed"}], "id": "0875300034", "name": "USPS COLLECTION BOX - BLUE BOX", "address": {"city": "TOMS RIVER", "state": "NJ", "street": "49 EDINBURGH DR", "postcode": "08753"}}},
{"geometry": {"type": "Point", "coordinates": [-74.2692036924, 39.9672302787]}, "type": "Feature", "properties": {"collection_times": [{"days": "Mon-Sat", "time": "11:00am"}, {"days": "Sun", "time": "Closed"}], "id": "0875300035", "name": "USPS COLLECTION BOX - BLUE BOX", "address": {"city": "TOMS RIVER", "state": "NJ", "street": "451 JAMAICA BLVD", "postcode": "08753"}}},
{"geometry": {"type": "Point", "coordinates": [-74.2526224244, 39.9672627712]}, "type": "Feature", "properties": {"collection_times": [{"days": "Mon-Sat", "time": "11:00am"}, {"days": "Sun", "time": "Closed"}], "id": "0875300036", "name": "USPS COLLECTION BOX - BLUE BOX", "address": {"city": "TOMS RIVER", "state": "NJ", "street": "630 JAMAICA BLVD", "postcode": "08753"}}},
{"geometry": {"type": "Point", "coordinates": [-74.2437298308, 39.9693138355]}, "type": "Feature", "properties": {"collection_times": [{"days": "Mon-Fri", "time": "4:00pm"}, {"days": "Sat", "time": "11:00am"}, {"days": "Sun", "time": "Closed"}], "id": "0875300038", "name": "USPS COLLECTION BOX - BLUE BOX", "address": {"city": "TOMS RIVER", "state": "NJ", "street": "730 JAMAICA BLVD STE 23", "postcode": "08753"}}},
{"geometry": {"type": "Point", "coordinates": [-74.2437298308, 39.9693138355]}, "type": "Feature", "properties": {"collection_times": [{"days": "Mon-Fri", "time": "4:00pm"}, {"days": "Sat", "time": "11:00am"}, {"days": "Sun", "time": "Closed"}], "id": "0875300039", "name": "USPS COLLECTION BOX - BLUE BOX", "address": {"city": "TOMS RIVER", "state": "NJ", "street": "730 JAMAICA BLVD STE 23", "postcode": "08753"}}},
{"geometry": {"type": "Point", "coordinates": [-74.1883587406, 39.9635117749]}, "type": "Feature", "properties": {"collection_times": [{"days": "Mon-Sat", "time": "11:00am"}, {"days": "Sun", "time": "Closed"}], "id": "0875300040", "name": "USPS COLLECTION BOX - BLUE BOX", "address": {"city": "TOMS RIVER", "state": "NJ", "street": "150 STATE ROUTE 37 W", "postcode": "08753"}}},
{"geometry": {"type": "Point", "coordinates": [-74.2300717639, 39.9678362351]}, "type": "Feature", "properties": {"collection_times": [{"days": "Mon-Sat", "time": "11:00am"}, {"days": "Sun", "time": "Closed"}], "id": "0875300041", "name": "USPS COLLECTION BOX - BLUE BOX", "address": {"city": "TOMS RIVER", "state": "NJ", "street": "601 STATE ROUTE 37 W", "postcode": "08753"}}},
{"geometry": {"type": "Point", "coordinates": [-74.2446101436, 39.9760641699]}, "type": "Feature", "properties": {"collection_times": [{"days": "Mon-Sat", "time": "11:00am"}, {"days": "Sun", "time": "Closed"}], "id": "0875300042", "name": "USPS COLLECTION BOX - BLUE BOX", "address": {"city": "TOMS RIVER", "state": "NJ", "street": "1071 STATE ROUTE 37 W", "postcode": "08753"}}},
{"geometry": {"type": "Point", "coordinates": [-74.2490268885, 39.978835352]}, "type": "Feature", "properties": {"collection_times": [{"days": "Mon-Sat", "time": "11:00am"}, {"days": "Sun", "time": "Closed"}], "id": "0875300043", "name": "USPS COLLECTION BOX - BLUE BOX", "address": {"city": "TOMS RIVER", "state": "NJ", "street": "1163 STATE ROUTE 37 W", "postcode": "08753"}}},
{"geometry": {"type": "Point", "coordinates": [-74.1518559622, 39.9521971719]}, "type": "Feature", "properties": {"collection_times": [{"days": "Mon-Sat", "time": "11:00am"}, {"days": "Sun", "time": "Closed"}], "id": "0875300044", "name": "USPS COLLECTION BOX - BLUE BOX", "address": {"city": "TOMS RIVER", "state": "NJ", "street": "1700 STATE ROUTE 37 W", "postcode": "08753"}}},
{"geometry": {"type": "Point", "coordinates": [-74.2174861349, 39.9945603724]}, "type": "Feature", "properties": {"collection_times": [{"days": "Mon-Sat", "time": "10:00am"}, {"days": "Sun", "time": "Closed"}], "id": "0875300045", "name": "USPS COLLECTION BOX - BLUE BOX", "address": {"city": "TOMS RIVER", "state": "NJ", "street": "49 COLUMBINE CIR", "postcode": "08753"}}},
{"geometry": {"type": "Point", "coordinates": [-74.2507141128, 40.0331042376]}, "type": "Feature", "properties": {"collection_times": [{"days": "Mon-Sat", "time": "10:00am"}, {"days": "Sun", "time": "Closed"}], "id": "0875300047", "name": "USPS COLLECTION BOX - BLUE BOX", "address": {"city": "TOMS RIVER", "state": "NJ", "street": "100 FIRESIDE BLVD", "postcode": "08753"}}},
{"geometry": {"type": "Point", "coordinates": [-74.2010451225, 39.9530931022]}, "type": "Feature", "properties": {"collection_times": [{"days": "Mon-Fri", "time": "5:00pm"}, {"days": "Sat", "time": "3:00pm"}, {"days": "Sun", "time": "Closed"}], "id": "0875300048", "name": "USPS COLLECTION BOX - BLUE BOX", "address": {"city": "TOMS RIVER", "state": "NJ", "street": "130 W WATER ST", "postcode": "08753"}}},
{"geometry": {"type": "Point", "coordinates": [-74.2010451225, 39.9530931022]}, "type": "Feature", "properties": {"collection_times": [{"days": "Mon-Fri", "time": "5:00pm"}, {"days": "Sat", "time": "3:00pm"}, {"days": "Sun", "time": "Closed"}], "id": "0875300049", "name": "USPS COLLECTION BOX - BLUE BOX", "address": {"city": "TOMS RIVER", "state": "NJ", "street": "130 W WATER ST", "postcode": "08753"}}},
{"geometry": {"type": "Point", "coordinates": [-74.1723, 39.99497]}, "type": "Feature", "properties": {"collection_times": [{"days": "Mon-Sat", "time": "11:00am"}, {"days": "Sun", "time": "Closed"}], "id": "0875300052", "name": "USPS COLLECTION BOX - BLUE BOX", "address": {"city": "TOMS RIVER", "state": "NJ", "street": "1433 HOOPER AVE", "postcode": "08753"}}},
{"geometry": {"type": "Point", "coordinates": [-74.2201292334, 40.0202602846]}, "type": "Feature", "properties": {"collection_times": [{"days": "Mon-Sat", "time": "10:00am"}, {"days": "Sun", "time": "Closed"}], "id": "0875300054", "name": "USPS COLLECTION BOX - BLUE BOX", "address": {"city": "TOMS RIVER", "state": "NJ", "street": "1889 LAKEWOOD RD", "postcode": "08753"}}},
{"geometry": {"type": "Point", "coordinates": [-74.1862048592, 39.9812574826]}, "type": "Feature", "properties": {"collection_times": [{"days": "Mon-Sat", "time": "10:00am"}, {"days": "Sun", "time": "Closed"}], "id": "0875300055", "name": "USPS COLLECTION BOX - BLUE BOX", "address": {"city": "TOMS RIVER", "state": "NJ", "street": "200 CAMINO HERMOSA", "postcode": "08753"}}},
{"geometry": {"type": "Point", "coordinates": [-74.1585259637, 39.9760529808]}, "type": "Feature", "properties": {"collection_times": [{"days": "Mon-Fri", "time": "5:00pm"}, {"days": "Sat", "time": "3:00pm"}, {"days": "Sun", "time": "Closed"}], "id": "0875300062", "name": "USPS COLLECTION BOX - EXPRESS", "address": {"city": "TOMS RIVER", "state": "NJ", "street": "130 W WATER ST", "postcode": "08753"}}},
{"geometry": {"type": "Point", "coordinates": [-74.2102707808, 39.9854170922]}, "type": "Feature", "properties": {"collection_times": [{"days": "Mon-Sat", "time": "10:00am"}, {"days": "Sun", "time": "Closed"}], "id": "0875300064", "name": "USPS COLLECTION BOX - BLUE BOX", "address": {"city": "TOMS RIVER", "state": "NJ", "street": "1241 LAKEWOOD RD", "postcode": "08753"}}},
{"geometry": {"type": "Point", "coordinates": [-74.211278093, 39.9912871634]}, "type": "Feature", "properties": {"collection_times": [{"days": "Mon-Sat", "time": "10:00am"}, {"days": "Sun", "time": "Closed"}], "id": "0875300065", "name": "USPS COLLECTION BOX - BLUE BOX", "address": {"city": "TOMS RIVER", "state": "NJ", "street": "1334 LAKEWOOD RD", "postcode": "08753"}}},
{"geometry": {"type": "Point", "coordinates": [-74.2454463043, 39.9572523859]}, "type": "Feature", "properties": {"collection_times": [{"days": "Mon-Sat", "time": "11:00am"}, {"days": "Sun", "time": "Closed"}], "id": "0875300066", "name": "USPS COLLECTION BOX - BLUE BOX", "address": {"city": "TOMS RIVER", "state": "NJ", "street": "600 MULE RD", "postcode": "08753"}}},
{"geometry": {"type": "Point", "coordinates": [-74.1733922737, 39.9529428664]}, "type": "Feature", "properties": {"collection_times": [{"days": "Mon-Sat", "time": "11:00am"}, {"days": "Sun", "time": "Closed"}], "id": "0875300067", "name": "USPS COLLECTION BOX - BLUE BOX", "address": {"city": "TOMS RIVER", "state": "NJ", "street": "650 WASHINGTON ST", "postcode": "08753"}}},
{"geometry": {"type": "Point", "coordinates": [-74.1494894049, 39.9447828154]}, "type": "Feature", "properties": {"collection_times": [{"days": "Mon-Sat", "time": "11:00am"}, {"days": "Sun", "time": "Closed"}], "id": "0875300068", "name": "USPS COLLECTION BOX - BLUE BOX", "address": {"city": "TOMS RIVER", "state": "NJ", "street": "135 CENTRAL AVE", "postcode": "08753"}}},
{"geometry": {"type": "Point", "coordinates": [-74.1839395359, 39.9698414352]}, "type": "Feature", "properties": {"collection_times": [{"days": "Mon-Sat", "time": "10:30am"}, {"days": "Sun", "time": "Closed"}], "id": "0875300070", "name": "USPS COLLECTION BOX - BLUE BOX", "address": {"city": "TOMS RIVER", "state": "NJ", "street": "1027 HOOPER AVE", "postcode": "08753"}}},
{"geometry": {"type": "Point", "coordinates": [-74.2010451225, 39.9530931022]}, "type": "Feature", "properties": {"collection_times": [{"days": "Mon-Fri", "time": "5:00pm"}, {"days": "Sat", "time": "3:00pm"}, {"days": "Sun", "time": "Closed"}], "id": "0875300073", "name": "USPS COLLECTION BOX - BLUE BOX", "address": {"city": "TOMS RIVER", "state": "NJ", "street": "130 W WATER ST", "postcode": "08753"}}},
{"geometry": {"type": "Point", "coordinates": [-74.2010451225, 39.9530931022]}, "type": "Feature", "properties": {"collection_times": [{"days": "Mon-Fri", "time": "5:00pm"}, {"days": "Sat", "time": "3:00pm"}, {"days": "Sun", "time": "Closed"}], "id": "0875300074", "name": "USPS COLLECTION BOX - BLUE BOX", "address": {"city": "TOMS RIVER", "state": "NJ", "street": "130 W WATER ST", "postcode": "08753"}}},
{"geometry": {"type": "Point", "coordinates": [-74.2010451225, 39.9530931022]}, "type": "Feature", "properties": {"collection_times": [{"days": "Mon-Fri", "time": "5:00pm"}, {"days": "Sat", "time": "3:00pm"}, {"days": "Sun", "time": "Closed"}], "id": "0875300075", "name": "USPS COLLECTION BOX - BLUE BOX", "address": {"city": "TOMS RIVER", "state": "NJ", "street": "130 W WATER ST", "postcode": "08753"}}},
{"geometry": {"type": "Point", "coordinates": [-74.1862048592, 39.9812574826]}, "type": "Feature", "properties": {"collection_times": [{"days": "Mon-Fri", "time": "5:00pm"}, {"days": "Sat", "time": "3:00pm"}, {"days": "Sun", "time": "Closed"}], "id": "0875300076", "name": "USPS COLLECTION BOX - BLUE BOX", "address": {"city": "TOMS RIVER", "state": "NJ", "street": "355 IRONS ST", "postcode": "08753"}}},
{"geometry": {"type": "Point", "coordinates": [-74.1862048592, 39.9812574826]}, "type": "Feature", "properties": {"collection_times": [{"days": "Mon-Fri", "time": "5:00pm"}, {"days": "Sat", "time": "3:00pm"}, {"days": "Sun", "time": "Closed"}], "id": "0875300077", "name": "USPS COLLECTION BOX - BLUE BOX", "address": {"city": "TOMS RIVER", "state": "NJ", "street": "355 IRONS", "postcode": "08753"}}},
{"geometry": {"type": "Point", "coordinates": [-74.167945791, 40.0227715159]}, "type": "Feature", "properties": {"collection_times": [{"days": "Mon-Sat", "time": "11:00am"}, {"days": "Sun", "time": "Closed"}], "id": "0875300078", "name": "USPS COLLECTION BOX - BLUE BOX", "address": {"city": "TOMS RIVER", "state": "NJ", "street": "2099 MOUNT CARMEL BLVD", "postcode": "08753"}}},
{"geometry": {"type": "Point", "coordinates": [-74.2010451225, 39.9530931022]}, "type": "Feature", "properties": {"collection_times": [{"days": "Mon-Fri", "time": "5:00pm"}, {"days": "Sat", "time": "3:00pm"}, {"days": "Sun", "time": "Closed"}], "id": "0875300080", "name": "USPS COLLECTION BOX - APC", "address": {"city": "TOMS RIVER", "state": "NJ", "street": "130 W WATER ST", "postcode": "08753"}}},
{"geometry": {"type": "Point", "coordinates": [-74.2010451225, 39.9530931022]}, "type": "Feature", "properties": {"collection_times": [{"days": "Mon-Fri", "time": "5:30pm"}, {"days": "Sat", "time": "12:30pm"}, {"days": "Sun", "time": "Closed"}], "id": "0875300081", "name": "USPS COLLECTION BOX - PO LOBBY", "address": {"city": "TOMS RIVER", "state": "NJ", "street": "130 W WATER ST", "postcode": "08753"}}},
{"geometry": {"type": "Point", "coordinates": [-74.1976452984, 39.8008368197]}, "type": "Feature", "properties": {"collection_times": [{"days": "Mon-Fri", "time": "4:30pm"}, {"days": "Sat", "time": "12:00pm"}, {"days": "Sun", "time": "Closed"}], "id": "0875800001", "name": "USPS COLLECTION BOX - BLUE BOX", "address": {"city": "WARETOWN", "state": "NJ", "street": "529 ROUTE 9 STE 17", "postcode": "08758"}}},
{"geometry": {"type": "Point", "coordinates": [-74.1976452984, 39.8008368197]}, "type": "Feature", "properties": {"collection_times": [{"days": "Mon-Fri", "time": "4:30pm"}, {"days": "Sat", "time": "12:00pm"}, {"days": "Sun", "time": "Closed"}], "id": "0875800002", "name": "USPS COLLECTION BOX - BLUE BOX", "address": {"city": "WARETOWN", "state": "NJ", "street": "529 ROUTE 9 STE 17", "postcode": "08758"}}},
{"geometry": {"type": "Point", "coordinates": [-74.1976452984, 39.8008368197]}, "type": "Feature", "properties": {"collection_times": [{"days": "Mon-Fri", "time": "4:30pm"}, {"days": "Sat", "time": "12:00pm"}, {"days": "Sun", "time": "Closed"}], "id": "0875800003", "name": "USPS COLLECTION BOX - PO LOBBY", "address": {"city": "WARETOWN", "state": "NJ", "street": "529 ROUTE 9 STE 17", "postcode": "08758"}}},
{"geometry": {"type": "Point", "coordinates": [-74.3789136495, 39.9543695149]}, "type": "Feature", "properties": {"collection_times": [{"days": "Mon-Fri", "time": "4:00pm"}, {"days": "Sat", "time": "12:00pm"}, {"days": "Sun", "time": "Closed"}], "id": "0875900001", "name": "USPS COLLECTION BOX - PO LOBBY", "address": {"city": "WHITING", "state": "NJ", "street": "108 LACEY RD", "postcode": "08759"}}}
]}
