{"type": "FeatureCollection", "features": [
{"geometry": {"type": "Point", "coordinates": [-74.8811740857, 40.6407675729]}, "type": "Feature", "properties": {"collection_times": [{"days": "Mon-Fri", "time": "4:00pm"}, {"days": "Sat", "time": "12:00pm"}, {"days": "Sun", "time": "Closed"}], "id": "0880100001", "name": "USPS COLLECTION BOX - BLUE BOX", "address": {"city": "ANNANDALE", "state": "NJ", "street": "10 LOWER WEST ST", "postcode": "08801"}}},
{"geometry": {"type": "Point", "coordinates": [-74.8852482791, 40.6403459033]}, "type": "Feature", "properties": {"collection_times": [{"days": "Mon-Sat", "time": "11:00am"}, {"days": "Sun", "time": "Closed"}], "id": "0880100002", "name": "USPS COLLECTION BOX - BLUE BOX", "address": {"city": "ANNANDALE", "state": "NJ", "street": "67 BEAVER AVE", "postcode": "08801"}}},
{"geometry": {"type": "Point", "coordinates": [-74.8829230987, 40.6320889022]}, "type": "Feature", "properties": {"collection_times": [{"days": "Mon-Sat", "time": "11:00am"}, {"days": "Sun", "time": "Closed"}], "id": "0880100003", "name": "USPS COLLECTION BOX - BLUE BOX", "address": {"city": "ANNANDALE", "state": "NJ", "street": "1465 STATE ROUTE 31", "postcode": "08801"}}},
{"geometry": {"type": "Point", "coordinates": [-74.8811740857, 40.6407675729]}, "type": "Feature", "properties": {"collection_times": [{"days": "Mon-Fri", "time": "5:00pm"}, {"days": "Sat", "time": "12:00pm"}, {"days": "Sun", "time": "Closed"}], "id": "0880100004", "name": "USPS COLLECTION BOX - PO LOBBY", "address": {"city": "ANNANDALE", "state": "NJ", "street": "10 LOWER WEST ST", "postcode": "08801"}}},
{"geometry": {"type": "Point", "coordinates": [-75.0119454035, 40.7020311558]}, "type": "Feature", "properties": {"collection_times": [{"days": "Mon-Fri", "time": "4:30pm"}, {"days": "Sat", "time": "12:00pm"}, {"days": "Sun", "time": "Closed"}], "id": "0880200001", "name": "USPS COLLECTION BOX - BLUE BOX", "address": {"city": "ASBURY", "state": "NJ", "street": "285 ASBURY ANDERSON RD", "postcode": "08802"}}},
{"geometry": {"type": "Point", "coordinates": [-75.0119454035, 40.7020311558]}, "type": "Feature", "properties": {"collection_times": [{"days": "Mon-Fri", "time": "4:30pm"}, {"days": "Sat", "time": "12:00pm"}, {"days": "Sun", "time": "Closed"}], "id": "0880200002", "name": "USPS COLLECTION BOX - PO LOBBY", "address": {"city": "ASBURY", "state": "NJ", "street": "285 ASBURY ANDERSON RD", "postcode": "08802"}}},
{"geometry": {"type": "Point", "coordinates": [-75.0064950862, 40.5219741595]}, "type": "Feature", "properties": {"collection_times": [{"days": "Mon-Fri", "time": "4:30pm"}, {"days": "Sat", "time": "11:00am"}, {"days": "Sun", "time": "Closed"}], "id": "0880300001", "name": "USPS COLLECTION BOX - BLUE BOX", "address": {"city": "BAPTISTOWN", "state": "NJ", "street": "1031 COUNTY ROAD 519", "postcode": "08803"}}},
{"geometry": {"type": "Point", "coordinates": [-75.0064950862, 40.5219741595]}, "type": "Feature", "properties": {"collection_times": [{"days": "Mon-Fri", "time": "4:30pm"}, {"days": "Sat", "time": "12:00pm"}, {"days": "Sun", "time": "Closed"}], "id": "0880300002", "name": "USPS COLLECTION BOX - PO LOBBY", "address": {"city": "BAPTISTOWN", "state": "NJ", "street": "1031 COUNTY ROAD 519", "postcode": "08803"}}},
{"geometry": {"type": "Point", "coordinates": [-75.0840731226, 40.6547060643]}, "type": "Feature", "properties": {"collection_times": [{"days": "Mon-Fri", "time": "4:30pm"}, {"days": "Sat", "time": "1:00pm"}, {"days": "Sun", "time": "Closed"}], "id": "0880400001", "name": "USPS COLLECTION BOX - BLUE BOX", "address": {"city": "BLOOMSBURY", "state": "NJ", "street": "53 CENTER ST", "postcode": "08804"}}},
{"geometry": {"type": "Point", "coordinates": [-75.074901462, 40.6584740445]}, "type": "Feature", "properties": {"collection_times": [{"days": "Mon-Sat", "time": "11:00am"}, {"days": "Sun", "time": "Closed"}], "id": "0880400002", "name": "USPS COLLECTION BOX - BLUE BOX", "address": {"city": "BLOOMSBURY", "state": "NJ", "street": "979 STATE ROUTE 173", "postcode": "08804"}}},
{"geometry": {"type": "Point", "coordinates": [-75.0840731226, 40.6547060643]}, "type": "Feature", "properties": {"collection_times": [{"days": "Mon-Fri", "time": "4:30pm"}, {"days": "Sat", "time": "12:00pm"}, {"days": "Sun", "time": "Closed"}], "id": "0880400003", "name": "USPS COLLECTION BOX - PO LOBBY", "address": {"city": "BLOOMSBURY", "state": "NJ", "street": "53 CENTER ST", "postcode": "08804"}}},
{"geometry": {"type": "Point", "coordinates": [-74.5428055164, 40.568895404]}, "type": "Feature", "properties": {"collection_times": [{"days": "Mon-Sat", "time": "11:00am"}, {"days": "Sun", "time": "Closed"}], "id": "0880500001", "name": "USPS COLLECTION BOX - BLUE BOX", "address": {"city": "BOUND BROOK", "state": "NJ", "street": "317 W MAPLE AVE", "postcode": "08805"}}},
{"geometry": {"type": "Point", "coordinates": [-74.5319968203, 40.562466022]}, "type": "Feature", "properties": {"collection_times": [{"days": "Mon-Fri", "time": "4:00pm"}, {"days": "Sat", "time": "3:00pm"}, {"days": "Sun", "time": "Closed"}], "id": "0880500004", "name": "USPS COLLECTION BOX - BLUE BOX", "address": {"city": "BOUND BROOK", "state": "NJ", "street": "24 MOUNTAIN AVE", "postcode": "08805"}}},
{"geometry": {"type": "Point", "coordinates": [-74.5297397346, 40.5645468468]}, "type": "Feature", "properties": {"collection_times": [{"days": "Mon-Sat", "time": "11:00am"}, {"days": "Sun", "time": "Closed"}], "id": "0880500008", "name": "USPS COLLECTION BOX - BLUE BOX", "address": {"city": "BOUND BROOK", "state": "NJ", "street": "230 HAMILTON ST", "postcode": "08805"}}},
{"geometry": {"type": "Point", "coordinates": [-74.5301632339, 40.5636063944]}, "type": "Feature", "properties": {"collection_times": [{"days": "Mon-Sat", "time": "11:00am"}, {"days": "Sun", "time": "Closed"}], "id": "0880500012", "name": "USPS COLLECTION BOX - BLUE BOX", "address": {"city": "BOUND BROOK", "state": "NJ", "street": "312 E HIGH ST", "postcode": "08805"}}},
{"geometry": {"type": "Point", "coordinates": [-74.548351228, 40.5679206458]}, "type": "Feature", "properties": {"collection_times": [{"days": "Mon-Sat", "time": "11:00am"}, {"days": "Sun", "time": "Closed"}], "id": "0880500018", "name": "USPS COLLECTION BOX - BLUE BOX", "address": {"city": "BOUND BROOK", "state": "NJ", "street": "500 W UNION AVE", "postcode": "08805"}}},
{"geometry": {"type": "Point", "coordinates": [-74.536012966, 40.5669754616]}, "type": "Feature", "properties": {"collection_times": [{"days": "Mon-Sat", "time": "11:00am"}, {"days": "Sun", "time": "Closed"}], "id": "0880500019", "name": "USPS COLLECTION BOX - BLUE BOX", "address": {"city": "BOUND BROOK", "state": "NJ", "street": "60 W UNION AVE", "postcode": "08805"}}},
{"geometry": {"type": "Point", "coordinates": [-74.5319968203, 40.562466022]}, "type": "Feature", "properties": {"collection_times": [{"days": "Mon-Fri", "time": "4:00pm"}, {"days": "Sat", "time": "3:00pm"}, {"days": "Sun", "time": "Closed"}], "id": "0880500033", "name": "USPS COLLECTION BOX - BLUE BOX", "address": {"city": "BOUND BROOK", "state": "NJ", "street": "24 MOUNTAIN AVE", "postcode": "08805"}}},
{"geometry": {"type": "Point", "coordinates": [-74.5217975105, 40.5800986243]}, "type": "Feature", "properties": {"collection_times": [{"days": "Mon-Sat", "time": "10:00am"}, {"days": "Sun", "time": "Closed"}], "id": "0880500035", "name": "USPS COLLECTION BOX - BLUE BOX", "address": {"city": "BOUND BROOK", "state": "NJ", "street": "1952 US HIGHWAY 22", "postcode": "08805"}}},
{"geometry": {"type": "Point", "coordinates": [-74.5327385356, 40.5682932778]}, "type": "Feature", "properties": {"collection_times": [{"days": "Mon-Sat", "time": "11:00am"}, {"days": "Sun", "time": "Closed"}], "id": "0880500036", "name": "USPS COLLECTION BOX - BLUE BOX", "address": {"city": "BOUND BROOK", "state": "NJ", "street": "515 CHURCH ST", "postcode": "08805"}}},
{"geometry": {"type": "Point", "coordinates": [-74.5319968203, 40.562466022]}, "type": "Feature", "properties": {"collection_times": [{"days": "Mon-Fri", "time": "5:00pm"}, {"days": "Sat", "time": "2:00pm"}, {"days": "Sun", "time": "Closed"}], "id": "0880500037", "name": "USPS COLLECTION BOX - PO LOBBY", "address": {"city": "BOUND BROOK", "state": "NJ", "street": "24 MOUNTAIN AVE", "postcode": "08805"}}},
{"geometry": {"type": "Point", "coordinates": [-74.623272529, 40.5802541167]}, "type": "Feature", "properties": {"collection_times": [{"days": "Mon-Sat", "time": "11:00am"}, {"days": "Sun", "time": "Closed"}], "id": "0880700000", "name": "USPS COLLECTION BOX - BLUE BOX", "address": {"city": "BRIDGEWATER", "state": "NJ", "street": "341 US HIGHWAY 202/206", "postcode": "08807"}}},
{"geometry": {"type": "Point", "coordinates": [-74.6086206213, 40.588064071]}, "type": "Feature", "properties": {"collection_times": [{"days": "Mon-Fri", "time": "5:00pm"}, {"days": "Sat", "time": "3:00pm"}, {"days": "Sun", "time": "Closed"}], "id": "0880700002", "name": "USPS COLLECTION BOX - BLUE BOX", "address": {"city": "BRIDGEWATER", "state": "NJ", "street": "495 N BRIDGE ST", "postcode": "08807"}}},
{"geometry": {"type": "Point", "coordinates": [-74.6086206213, 40.588064071]}, "type": "Feature", "properties": {"collection_times": [{"days": "Mon-Fri", "time": "5:00pm"}, {"days": "Sat", "time": "3:00pm"}, {"days": "Sun", "time": "Closed"}], "id": "0880700003", "name": "USPS COLLECTION BOX - BLUE BOX", "address": {"city": "BRIDGEWATER", "state": "NJ", "street": "495 N BRIDGE ST", "postcode": "08807"}}},
{"geometry": {"type": "Point", "coordinates": [-74.6086206213, 40.588064071]}, "type": "Feature", "properties": {"collection_times": [{"days": "Mon-Fri", "time": "5:00pm"}, {"days": "Sat", "time": "3:00pm"}, {"days": "Sun", "time": "Closed"}], "id": "0880700004", "name": "USPS COLLECTION BOX - BLUE BOX", "address": {"city": "BRIDGEWATER", "state": "NJ", "street": "495 N BRIDGE ST", "postcode": "08807"}}},
{"geometry": {"type": "Point", "coordinates": [-74.5773501306, 40.5631804918]}, "type": "Feature", "properties": {"collection_times": [{"days": "Mon-Sat", "time": "11:00am"}, {"days": "Sun", "time": "Closed"}], "id": "0880700007", "name": "USPS COLLECTION BOX - BLUE BOX", "address": {"city": "BRIDGEWATER", "state": "NJ", "street": "619 E MAIN ST", "postcode": "08807"}}},
{"geometry": {"type": "Point", "coordinates": [-74.610834491, 40.5888845988]}, "type": "Feature", "properties": {"collection_times": [{"days": "Mon-Sat", "time": "1:00pm"}, {"days": "Sun", "time": "Closed"}], "id": "0880700008", "name": "USPS COLLECTION BOX - BLUE BOX", "address": {"city": "BRIDGEWATER", "state": "NJ", "street": "1335 PRINCE RODGERS AVE", "postcode": "08807"}}},
{"geometry": {"type": "Point", "coordinates": [-74.6031932056, 40.5810325629]}, "type": "Feature", "properties": {"collection_times": [{"days": "Mon-Fri", "time": "5:00pm"}, {"days": "Sat", "time": "3:00pm"}, {"days": "Sun", "time": "Closed"}], "id": "0880700009", "name": "USPS COLLECTION BOX - BLUE BOX", "address": {"city": "BRIDGEWATER", "state": "NJ", "street": "1011 US HIGHWAY 22", "postcode": "08807"}}},
{"geometry": {"type": "Point", "coordinates": [-74.5889929662, 40.5784336021]}, "type": "Feature", "properties": {"collection_times": [{"days": "Mon-Fri", "time": "5:00pm"}, {"days": "Sat", "time": "11:00am"}, {"days": "Sun", "time": "Closed"}], "id": "0880700010", "name": "USPS COLLECTION BOX - BLUE BOX", "address": {"city": "BRIDGEWATER", "state": "NJ", "street": "1170 US HIGHWAY 22", "postcode": "08807"}}},
{"geometry": {"type": "Point", "coordinates": [-74.6086206213, 40.588064071]}, "type": "Feature", "properties": {"collection_times": [{"days": "Mon-Fri", "time": "5:00pm"}, {"days": "Sat", "time": "3:00pm"}, {"days": "Sun", "time": "Closed"}], "id": "0880700012", "name": "USPS COLLECTION BOX - BLUE BOX", "address": {"city": "BRIDGEWATER", "state": "NJ", "street": "495 N BRIDGE ST", "postcode": "08807"}}},
{"geometry": {"type": "Point", "coordinates": [-74.6518061083, 40.5880741054]}, "type": "Feature", "properties": {"collection_times": [{"days": "Mon-Sat", "time": "11:00am"}, {"days": "Sun", "time": "Closed"}], "id": "0880700013", "name": "USPS COLLECTION BOX - BLUE BOX", "address": {"city": "BRIDGEWATER", "state": "NJ", "street": "478 STATE ROUTE 28", "postcode": "08807"}}},
{"geometry": {"type": "Point", "coordinates": [-74.6086206213, 40.588064071]}, "type": "Feature", "properties": {"collection_times": [{"days": "Mon-Fri", "time": "5:00pm"}, {"days": "Sat", "time": "3:00pm"}, {"days": "Sun", "time": "Closed"}], "id": "0880700014", "name": "USPS COLLECTION BOX - APC", "address": {"city": "BRIDGEWATER", "state": "NJ", "street": "495 N BRIDGE ST", "postcode": "08807"}}},
{"geometry": {"type": "Point", "coordinates": [-74.6086206213, 40.588064071]}, "type": "Feature", "properties": {"collection_times": [{"days": "Mon-Fri", "time": "5:00pm"}, {"days": "Sat", "time": "3:00pm"}, {"days": "Sun", "time": "Closed"}], "id": "0880700015", "name": "USPS COLLECTION BOX - PO LOBBY", "address": {"city": "BRIDGEWATER", "state": "NJ", "street": "495 N BRIDGE ST", "postcode": "08807"}}},
{"geometry": {"type": "Point", "coordinates": [-75.0519744144, 40.7323625834]}, "type": "Feature", "properties": {"collection_times": [{"days": "Mon-Fri", "time": "4:15pm"}, {"days": "Sat", "time": "11:45am"}, {"days": "Sun", "time": "Closed"}], "id": "0880800001", "name": "USPS COLLECTION BOX - BLUE BOX", "address": {"city": "BROADWAY", "state": "NJ", "street": "12 ASBURY RD", "postcode": "08808"}}},
{"geometry": {"type": "Point", "coordinates": [-75.0519744144, 40.7323625834]}, "type": "Feature", "properties": {"collection_times": [{"days": "Mon-Fri", "time": "4:30pm"}, {"days": "Sat", "time": "12:00pm"}, {"days": "Sun", "time": "Closed"}], "id": "0880800002", "name": "USPS COLLECTION BOX - PO LOBBY", "address": {"city": "BROADWAY", "state": "NJ", "street": "12 ASBURY RD", "postcode": "08808"}}},
{"geometry": {"type": "Point", "coordinates": [-74.9057408757, 40.6377164077]}, "type": "Feature", "properties": {"collection_times": [{"days": "Mon-Sat", "time": "9:30am"}, {"days": "Sun", "time": "Closed"}], "id": "0880900003", "name": "USPS COLLECTION BOX - BLUE BOX", "address": {"city": "CLINTON", "state": "NJ", "street": "37 ROUTE 22", "postcode": "08809"}}},
{"geometry": {"type": "Point", "coordinates": [-74.9106761805, 40.6378015807]}, "type": "Feature", "properties": {"collection_times": [{"days": "Mon-Sat", "time": "11:00am"}, {"days": "Sun", "time": "Closed"}], "id": "0880900004", "name": "USPS COLLECTION BOX - BLUE BOX", "address": {"city": "CLINTON", "state": "NJ", "street": "27 CENTER ST", "postcode": "08809"}}},
{"geometry": {"type": "Point", "coordinates": [-74.9191870338, 40.627781972]}, "type": "Feature", "properties": {"collection_times": [{"days": "Mon-Sat", "time": "11:00am"}, {"days": "Sun", "time": "Closed"}], "id": "0880900007", "name": "USPS COLLECTION BOX - BLUE BOX", "address": {"city": "CLINTON", "state": "NJ", "street": "50 WALMART PLZ", "postcode": "08809"}}},
{"geometry": {"type": "Point", "coordinates": [-74.911123339, 40.6364766667]}, "type": "Feature", "properties": {"collection_times": [{"days": "Mon-Sat", "time": "11:00am"}, {"days": "Sun", "time": "Closed"}], "id": "0880900009", "name": "USPS COLLECTION BOX - BLUE BOX", "address": {"city": "CLINTON", "state": "NJ", "street": "30 MAIN ST", "postcode": "08809"}}},
{"geometry": {"type": "Point", "coordinates": [-74.9136584201, 40.634161616]}, "type": "Feature", "properties": {"collection_times": [{"days": "Mon-Fri", "time": "5:00pm"}, {"days": "Sat", "time": "4:00pm"}, {"days": "Sun", "time": "Closed"}], "id": "0880900010", "name": "USPS COLLECTION BOX - BLUE BOX", "address": {"city": "CLINTON", "state": "NJ", "street": "19 E MAIN ST", "postcode": "08809"}}},
{"geometry": {"type": "Point", "coordinates": [-74.9136584201, 40.634161616]}, "type": "Feature", "properties": {"collection_times": [{"days": "Mon-Fri", "time": "5:00pm"}, {"days": "Sat", "time": "4:00pm"}, {"days": "Sun", "time": "Closed"}], "id": "0880900011", "name": "USPS COLLECTION BOX - BLUE BOX", "address": {"city": "CLINTON", "state": "NJ", "street": "19 E MAIN ST", "postcode": "08809"}}},
{"geometry": {"type": "Point", "coordinates": [-74.9124115813, 40.6586334881]}, "type": "Feature", "properties": {"collection_times": [{"days": "Mon-Sat", "time": "11:00am"}, {"days": "Sun", "time": "Closed"}], "id": "0880900013", "name": "USPS COLLECTION BOX - BLUE BOX", "address": {"city": "CLINTON", "state": "NJ", "street": "1802 STATE ROUTE 31", "postcode": "08809"}}},
{"geometry": {"type": "Point", "coordinates": [-74.8962961313, 40.6394695528]}, "type": "Feature", "properties": {"collection_times": [{"days": "Mon-Sat", "time": "11:00am"}, {"days": "Sun", "time": "Closed"}], "id": "0880900014", "name": "USPS COLLECTION BOX - BLUE BOX", "address": {"city": "CLINTON", "state": "NJ", "street": "186 CENTER ST", "postcode": "08809"}}},
{"geometry": {"type": "Point", "coordinates": [-74.9136584201, 40.634161616]}, "type": "Feature", "properties": {"collection_times": [{"days": "Mon-Fri", "time": "5:00pm"}, {"days": "Sat", "time": "4:00pm"}, {"days": "Sun", "time": "Closed"}], "id": "0880900015", "name": "USPS COLLECTION BOX - PO LOBBY", "address": {"city": "CLINTON", "state": "NJ", "street": "24 E MAIN ST", "postcode": "08809"}}},
{"geometry": {"type": "Point", "coordinates": [-74.5106680702, 40.3732280764]}, "type": "Feature", "properties": {"collection_times": [{"days": "Mon-Fri", "time": "5:00pm"}, {"days": "Sat", "time": "3:00pm"}, {"days": "Sun", "time": "Closed"}], "id": "0881000000", "name": "USPS COLLECTION BOX - BLUE BOX", "address": {"city": "DAYTON", "state": "NJ", "street": "347 GEORGES RD", "postcode": "08810"}}},
{"geometry": {"type": "Point", "coordinates": [-74.5113399909, 40.3742276767]}, "type": "Feature", "properties": {"collection_times": [{"days": "Mon-Sat", "time": "11:00am"}, {"days": "Sun", "time": "Closed"}], "id": "0881000001", "name": "USPS COLLECTION BOX - BLUE BOX", "address": {"city": "DAYTON", "state": "NJ", "street": "365 GEORGES RD", "postcode": "08810"}}},
{"geometry": {"type": "Point", "coordinates": [-74.4974661774, 40.3641391525]}, "type": "Feature", "properties": {"collection_times": [{"days": "Mon-Sat", "time": "11:00am"}, {"days": "Sun", "time": "Closed"}], "id": "0881000003", "name": "USPS COLLECTION BOX - BLUE BOX", "address": {"city": "DAYTON", "state": "NJ", "street": "B1 GEORGES RD", "postcode": "08810"}}},
{"geometry": {"type": "Point", "coordinates": [-74.5106680702, 40.3732280764]}, "type": "Feature", "properties": {"collection_times": [{"days": "Mon-Fri", "time": "4:30pm"}, {"days": "Sat", "time": "12:00pm"}, {"days": "Sun", "time": "Closed"}], "id": "0881000005", "name": "USPS COLLECTION BOX - PO LOBBY", "address": {"city": "DAYTON", "state": "NJ", "street": "347 GEORGES RD", "postcode": "08810"}}},
{"geometry": {"type": "Point", "coordinates": [-74.4597499674, 40.5817198621]}, "type": "Feature", "properties": {"collection_times": [{"days": "Mon-Sat", "time": "10:00am"}, {"days": "Sun", "time": "Closed"}], "id": "0881200002", "name": "USPS COLLECTION BOX - BLUE BOX", "address": {"city": "GREEN BROOK", "state": "NJ", "street": "422 NEW MARKET RD", "postcode": "08812"}}},
{"geometry": {"type": "Point", "coordinates": [-74.4675295002, 40.5890723552]}, "type": "Feature", "properties": {"collection_times": [{"days": "Mon-Sat", "time": "11:00am"}, {"days": "Sun", "time": "Closed"}], "id": "0881200004", "name": "USPS COLLECTION BOX - BLUE BOX", "address": {"city": "GREEN BROOK", "state": "NJ", "street": "500 NORTH AVE", "postcode": "08812"}}},
{"geometry": {"type": "Point", "coordinates": [-74.4704036959, 40.5881102064]}, "type": "Feature", "properties": {"collection_times": [{"days": "Mon-Sat", "time": "3:00pm"}, {"days": "Sun", "time": "Closed"}], "id": "0881200005", "name": "USPS COLLECTION BOX - BLUE BOX", "address": {"city": "GREEN BROOK", "state": "NJ", "street": "302 SANFORD AVE", "postcode": "08812"}}},
{"geometry": {"type": "Point", "coordinates": [-74.4732333337, 40.5942154576]}, "type": "Feature", "properties": {"collection_times": [{"days": "Mon-Sat", "time": "11:00am"}, {"days": "Sun", "time": "Closed"}], "id": "0881200007", "name": "USPS COLLECTION BOX - BLUE BOX", "address": {"city": "GREEN BROOK", "state": "NJ", "street": "715 MADISON AVE", "postcode": "08812"}}},
{"geometry": {"type": "Point", "coordinates": [-74.466536603, 40.5951369827]}, "type": "Feature", "properties": {"collection_times": [{"days": "Mon-Sat", "time": "11:00am"}, {"days": "Sun", "time": "Closed"}], "id": "0881200008", "name": "USPS COLLECTION BOX - BLUE BOX", "address": {"city": "GREEN BROOK", "state": "NJ", "street": "602 N WASHINGTON AVE", "postcode": "08812"}}},
{"geometry": {"type": "Point", "coordinates": [-74.4676000831, 40.592936679]}, "type": "Feature", "properties": {"collection_times": [{"days": "Mon-Sat", "time": "11:00am"}, {"days": "Sun", "time": "Closed"}], "id": "0881200009", "name": "USPS COLLECTION BOX - BLUE BOX", "address": {"city": "GREEN BROOK", "state": "NJ", "street": "356 1ST ST", "postcode": "08812"}}},
{"geometry": {"type": "Point", "coordinates": [-74.4733945635, 40.5875746502]}, "type": "Feature", "properties": {"collection_times": [{"days": "Mon-Sat", "time": "1:00pm"}, {"days": "Sun", "time": "Closed"}], "id": "0881200010", "name": "USPS COLLECTION BOX - BLUE BOX", "address": {"city": "GREEN BROOK", "state": "NJ", "street": "741 BOUND BROOK RD", "postcode": "08812"}}},
{"geometry": {"type": "Point", "coordinates": [-74.4631881557, 40.591718253]}, "type": "Feature", "properties": {"collection_times": [{"days": "Mon-Fri", "time": "5:00pm"}, {"days": "Sat", "time": "3:00pm"}, {"days": "Sun", "time": "Closed"}], "id": "0881200011", "name": "USPS COLLECTION BOX - BLUE BOX", "address": {"city": "GREEN BROOK", "state": "NJ", "street": "311 NORTH AVE", "postcode": "08812"}}},
{"geometry": {"type": "Point", "coordinates": [-74.4631881557, 40.591718253]}, "type": "Feature", "properties": {"collection_times": [{"days": "Mon-Fri", "time": "5:00pm"}, {"days": "Sat", "time": "3:00pm"}, {"days": "Sun", "time": "Closed"}], "id": "0881200013", "name": "USPS COLLECTION BOX - BLUE BOX", "address": {"city": "GREEN BROOK", "state": "NJ", "street": "311 NORTH AVE", "postcode": "08812"}}},
{"geometry": {"type": "Point", "coordinates": [-74.5015706895, 40.5896550368]}, "type": "Feature", "properties": {"collection_times": [{"days": "Mon-Sat", "time": "11:00am"}, {"days": "Sun", "time": "Closed"}], "id": "0881200016", "name": "USPS COLLECTION BOX - BLUE BOX", "address": {"city": "GREEN BROOK", "state": "NJ", "street": "299 US HIGHWAY 22", "postcode": "08812"}}},
{"geometry": {"type": "Point", "coordinates": [-74.4740968938, 40.6019744855]}, "type": "Feature", "properties": {"collection_times": [{"days": "Mon-Fri", "time": "5:00pm"}, {"days": "Sat", "time": "11:00am"}, {"days": "Sun", "time": "Closed"}], "id": "0881200017", "name": "USPS COLLECTION BOX - BLUE BOX", "address": {"city": "GREEN BROOK", "state": "NJ", "street": "1003 N WASHINGTON AVE", "postcode": "08812"}}},
{"geometry": {"type": "Point", "coordinates": [-74.5025939273, 40.5893525247]}, "type": "Feature", "properties": {"collection_times": [{"days": "Mon-Sat", "time": "11:00am"}, {"days": "Sun", "time": "Closed"}], "id": "0881200018", "name": "USPS COLLECTION BOX - BLUE BOX", "address": {"city": "GREEN BROOK", "state": "NJ", "street": "326 US HIGHWAY 22", "postcode": "08812"}}},
{"geometry": {"type": "Point", "coordinates": [-74.4631881557, 40.591718253]}, "type": "Feature", "properties": {"collection_times": [{"days": "Mon-Fri", "time": "5:00pm"}, {"days": "Sat", "time": "4:00pm"}, {"days": "Sun", "time": "Closed"}], "id": "0881200019", "name": "USPS COLLECTION BOX - PO LOBBY", "address": {"city": "GREEN BROOK", "state": "NJ", "street": "311 NORTH AVE", "postcode": "08812"}}},
{"geometry": {"type": "Point", "coordinates": [-74.4740968938, 40.6019744855]}, "type": "Feature", "properties": {"collection_times": [{"days": "Mon-Fri", "time": "5:00pm"}, {"days": "Sat-Sun", "time": "Closed"}], "id": "0881200020", "name": "USPS COLLECTION BOX - PO LOBBY", "address": {"city": "GREEN BROOK", "state": "NJ", "street": "1003 N WASHINGTON AVE", "postcode": "08812"}}},
{"geometry": {"type": "Point", "coordinates": [-74.4000756024, 40.4550734583]}, "type": "Feature", "properties": {"collection_times": [{"days": "Mon-Sat", "time": "11:00am"}, {"days": "Sun", "time": "Closed"}], "id": "0881600010", "name": "USPS COLLECTION BOX - BLUE BOX", "address": {"city": "EAST BRUNSWICK", "state": "NJ", "street": "300 STATE ROUTE 18 STE 25", "postcode": "08816"}}},
{"geometry": {"type": "Point", "coordinates": [-74.3954322066, 40.4588404632]}, "type": "Feature", "properties": {"collection_times": [{"days": "Mon-Sat", "time": "11:00am"}, {"days": "Sun", "time": "Closed"}], "id": "0881600014", "name": "USPS COLLECTION BOX - BLUE BOX", "address": {"city": "EAST BRUNSWICK", "state": "NJ", "street": "551 OLD BRIDGE TPKE", "postcode": "08816"}}},
{"geometry": {"type": "Point", "coordinates": [-74.4046612678, 40.463490901]}, "type": "Feature", "properties": {"collection_times": [{"days": "Mon-Sat", "time": "11:00am"}, {"days": "Sun", "time": "Closed"}], "id": "0881600015", "name": "USPS COLLECTION BOX - BLUE BOX", "address": {"city": "EAST BRUNSWICK", "state": "NJ", "street": "251 STATE ROUTE 18", "postcode": "08816"}}},
{"geometry": {"type": "Point", "coordinates": [-74.408369336, 40.468841868]}, "type": "Feature", "properties": {"collection_times": [{"days": "Mon-Fri", "time": "4:00pm"}, {"days": "Sat", "time": "11:00am"}, {"days": "Sun", "time": "Closed"}], "id": "0881600016", "name": "USPS COLLECTION BOX - BLUE BOX", "address": {"city": "EAST BRUNSWICK", "state": "NJ", "street": "197 STATE ROUTE 18", "postcode": "08816"}}},
{"geometry": {"type": "Point", "coordinates": [-74.4034095539, 40.4611529393]}, "type": "Feature", "properties": {"collection_times": [{"days": "Mon-Sat", "time": "11:00am"}, {"days": "Sun", "time": "Closed"}], "id": "0881600017", "name": "USPS COLLECTION BOX - BLUE BOX", "address": {"city": "EAST BRUNSWICK", "state": "NJ", "street": "269 STATE ROUTE 18", "postcode": "08816"}}},
{"geometry": {"type": "Point", "coordinates": [-74.4036576022, 40.4158500879]}, "type": "Feature", "properties": {"collection_times": [{"days": "Mon-Sat", "time": "10:30am"}, {"days": "Sun", "time": "Closed"}], "id": "0881600018", "name": "USPS COLLECTION BOX - BLUE BOX", "address": {"city": "EAST BRUNSWICK", "state": "NJ", "street": "32 ROLLING RD", "postcode": "08816"}}},
{"geometry": {"type": "Point", "coordinates": [-74.3899163509, 40.4130701343]}, "type": "Feature", "properties": {"collection_times": [{"days": "Mon-Sat", "time": "9:30am"}, {"days": "Sun", "time": "Closed"}], "id": "0881600021", "name": "USPS COLLECTION BOX - BLUE BOX", "address": {"city": "EAST BRUNSWICK", "state": "NJ", "street": "16 FROST AVE", "postcode": "08816"}}},
{"geometry": {"type": "Point", "coordinates": [-74.3732922285, 40.4213603107]}, "type": "Feature", "properties": {"collection_times": [{"days": "Mon-Sat", "time": "10:00am"}, {"days": "Sun", "time": "Closed"}], "id": "0881600025", "name": "USPS COLLECTION BOX - BLUE BOX", "address": {"city": "EAST BRUNSWICK", "state": "NJ", "street": "6 RUES LN", "postcode": "08816"}}},
{"geometry": {"type": "Point", "coordinates": [-74.3836659046, 40.4289947973]}, "type": "Feature", "properties": {"collection_times": [{"days": "Mon-Fri", "time": "4:00pm"}, {"days": "Sat", "time": "11:00am"}, {"days": "Sun", "time": "Closed"}], "id": "0881600026", "name": "USPS COLLECTION BOX - BLUE BOX", "address": {"city": "EAST BRUNSWICK", "state": "NJ", "street": "716 STATE ROUTE 18", "postcode": "08816"}}},
{"geometry": {"type": "Point", "coordinates": [-74.4130772308, 40.4322444821]}, "type": "Feature", "properties": {"collection_times": [{"days": "Mon-Sat", "time": "11:00am"}, {"days": "Sun", "time": "Closed"}], "id": "0881600027", "name": "USPS COLLECTION BOX - BLUE BOX", "address": {"city": "EAST BRUNSWICK", "state": "NJ", "street": "100 VILLAGE DR", "postcode": "08816"}}},
{"geometry": {"type": "Point", "coordinates": [-74.4041148723, 40.4631107282]}, "type": "Feature", "properties": {"collection_times": [{"days": "Mon-Sat", "time": "11:00am"}, {"days": "Sun", "time": "Closed"}], "id": "0881600029", "name": "USPS COLLECTION BOX - BLUE BOX", "address": {"city": "EAST BRUNSWICK", "state": "NJ", "street": "206 STATE ROUTE 18", "postcode": "08816"}}},
{"geometry": {"type": "Point", "coordinates": [-74.4194915079, 40.4582437883]}, "type": "Feature", "properties": {"collection_times": [{"days": "Mon-Fri", "time": "4:00pm"}, {"days": "Sat", "time": "11:00am"}, {"days": "Sun", "time": "Closed"}], "id": "0881600030", "name": "USPS COLLECTION BOX - BLUE BOX", "address": {"city": "EAST BRUNSWICK", "state": "NJ", "street": "3 JEAN WALLING DR", "postcode": "08816"}}},
{"geometry": {"type": "Point", "coordinates": [-74.4199531256, 40.4101167969]}, "type": "Feature", "properties": {"collection_times": [{"days": "Mon-Fri", "time": "4:00pm"}, {"days": "Sat", "time": "11:00am"}, {"days": "Sun", "time": "Closed"}], "id": "0881600031", "name": "USPS COLLECTION BOX - BLUE BOX", "address": {"city": "EAST BRUNSWICK", "state": "NJ", "street": "4 CORNWALL DR", "postcode": "08816"}}},
{"geometry": {"type": "Point", "coordinates": [-74.4051989977, 40.4741924411]}, "type": "Feature", "properties": {"collection_times": [{"days": "Mon-Sat", "time": "11:00am"}, {"days": "Sun", "time": "Closed"}], "id": "0881600032", "name": "USPS COLLECTION BOX - BLUE BOX", "address": {"city": "EAST BRUNSWICK", "state": "NJ", "street": "25 KENNEDY BLVD", "postcode": "08816"}}},
{"geometry": {"type": "Point", "coordinates": [-74.3928051366, 40.4149581368]}, "type": "Feature", "properties": {"collection_times": [{"days": "Mon-Fri", "time": "1:30pm"}, {"days": "Sat", "time": "11:00am"}, {"days": "Sun", "time": "Closed"}], "id": "0881600033", "name": "USPS COLLECTION BOX - BLUE BOX", "address": {"city": "EAST BRUNSWICK", "state": "NJ", "street": "28 CLEARVIEW RD", "postcode": "08816"}}},
{"geometry": {"type": "Point", "coordinates": [-74.4094358689, 40.4649973033]}, "type": "Feature", "properties": {"collection_times": [{"days": "Mon-Sat", "time": "11:00am"}, {"days": "Sun", "time": "Closed"}], "id": "0881600035", "name": "USPS COLLECTION BOX - BLUE BOX", "address": {"city": "EAST BRUNSWICK", "state": "NJ", "street": "64 TAYLOR AVE", "postcode": "08816"}}},
{"geometry": {"type": "Point", "coordinates": [-74.3982964322, 40.4410908833]}, "type": "Feature", "properties": {"collection_times": [{"days": "Mon-Sat", "time": "11:00am"}, {"days": "Sun", "time": "Closed"}], "id": "0881600037", "name": "USPS COLLECTION BOX - BLUE BOX", "address": {"city": "EAST BRUNSWICK", "state": "NJ", "street": "77 MILLTOWN RD", "postcode": "08816"}}},
{"geometry": {"type": "Point", "coordinates": [-74.4106311453, 40.4739203605]}, "type": "Feature", "properties": {"collection_times": [{"days": "Mon-Sat", "time": "11:00am"}, {"days": "Sun", "time": "Closed"}], "id": "0881600038", "name": "USPS COLLECTION BOX - BLUE BOX", "address": {"city": "EAST BRUNSWICK", "state": "NJ", "street": "12 MYRON PL", "postcode": "08816"}}},
{"geometry": {"type": "Point", "coordinates": [-74.4240802058, 40.4649748248]}, "type": "Feature", "properties": {"collection_times": [{"days": "Mon-Sat", "time": "1:00pm"}, {"days": "Sun", "time": "Closed"}], "id": "0881600039", "name": "USPS COLLECTION BOX - BLUE BOX", "address": {"city": "EAST BRUNSWICK", "state": "NJ", "street": "6 WHITEHALL RD", "postcode": "08816"}}},
{"geometry": {"type": "Point", "coordinates": [-74.4058454372, 40.4651822767]}, "type": "Feature", "properties": {"collection_times": [{"days": "Mon-Sat", "time": "11:00am"}, {"days": "Sun", "time": "Closed"}], "id": "0881600043", "name": "USPS COLLECTION BOX - BLUE BOX", "address": {"city": "EAST BRUNSWICK", "state": "NJ", "street": "233 STATE ROUTE 18", "postcode": "08816"}}},
{"geometry": {"type": "Point", "coordinates": [-74.3778442546, 40.42706099]}, "type": "Feature", "properties": {"collection_times": [{"days": "Mon-Sat", "time": "3:00pm"}, {"days": "Sun", "time": "Closed"}], "id": "0881600044", "name": "USPS COLLECTION BOX - BLUE BOX", "address": {"city": "EAST BRUNSWICK", "state": "NJ", "street": "3 WINDSOR DR", "postcode": "08816"}}},
{"geometry": {"type": "Point", "coordinates": [-74.3874191245, 40.412301211]}, "type": "Feature", "properties": {"collection_times": [{"days": "Mon-Sat", "time": "11:00am"}, {"days": "Sun", "time": "Closed"}], "id": "0881600045", "name": "USPS COLLECTION BOX - BLUE BOX", "address": {"city": "EAST BRUNSWICK", "state": "NJ", "street": "92 CENTRAL AVE", "postcode": "08816"}}},
{"geometry": {"type": "Point", "coordinates": [-74.4168748027, 40.4271852007]}, "type": "Feature", "properties": {"collection_times": [{"days": "Mon-Sat", "time": "11:00am"}, {"days": "Sun", "time": "Closed"}], "id": "0881600047", "name": "USPS COLLECTION BOX - BLUE BOX", "address": {"city": "EAST BRUNSWICK", "state": "NJ", "street": "78 JENSEN ST", "postcode": "08816"}}},
{"geometry": {"type": "Point", "coordinates": [-74.3711002056, 40.4153757213]}, "type": "Feature", "properties": {"collection_times": [{"days": "Mon-Sat", "time": "11:00am"}, {"days": "Sun", "time": "Closed"}], "id": "0881600048", "name": "USPS COLLECTION BOX - BLUE BOX", "address": {"city": "EAST BRUNSWICK", "state": "NJ", "street": "7 HILLSDALE RD", "postcode": "08816"}}},
{"geometry": {"type": "Point", "coordinates": [-74.3897507366, 40.4213189072]}, "type": "Feature", "properties": {"collection_times": [{"days": "Mon-Fri", "time": "4:00pm"}, {"days": "Sat", "time": "11:00am"}, {"days": "Sun", "time": "Closed"}], "id": "0881600050", "name": "USPS COLLECTION BOX - BLUE BOX", "address": {"city": "EAST BRUNSWICK", "state": "NJ", "street": "1 BRUNSWICK WOODS DR", "postcode": "08816"}}},
{"geometry": {"type": "Point", "coordinates": [-74.4232817085, 40.4553360752]}, "type": "Feature", "properties": {"collection_times": [{"days": "Mon-Fri", "time": "4:00pm"}, {"days": "Sat", "time": "11:00am"}, {"days": "Sun", "time": "Closed"}], "id": "0881600051", "name": "USPS COLLECTION BOX - BLUE BOX", "address": {"city": "EAST BRUNSWICK", "state": "NJ", "street": "1200 TICES LN", "postcode": "08816"}}},
{"geometry": {"type": "Point", "coordinates": [-74.4089028252, 40.4177385039]}, "type": "Feature", "properties": {"collection_times": [{"days": "Mon-Fri", "time": "4:00pm"}, {"days": "Sat", "time": "11:00am"}, {"days": "Sun", "time": "Closed"}], "id": "0881600054", "name": "USPS COLLECTION BOX - BLUE BOX", "address": {"city": "EAST BRUNSWICK", "state": "NJ", "street": "316 RUES LN", "postcode": "08816"}}},
{"geometry": {"type": "Point", "coordinates": [-74.3910283323, 40.4239687352]}, "type": "Feature", "properties": {"collection_times": [{"days": "Mon-Sat", "time": "10:00am"}, {"days": "Sun", "time": "Closed"}], "id": "0881600055", "name": "USPS COLLECTION BOX - BLUE BOX", "address": {"city": "EAST BRUNSWICK", "state": "NJ", "street": "3 AUER CT", "postcode": "08816"}}},
{"geometry": {"type": "Point", "coordinates": [-74.4077612868, 40.4380767039]}, "type": "Feature", "properties": {"collection_times": [{"days": "Mon-Sat", "time": "11:00am"}, {"days": "Sun", "time": "Closed"}], "id": "0881600058", "name": "USPS COLLECTION BOX - BLUE BOX", "address": {"city": "EAST BRUNSWICK", "state": "NJ", "street": "24 SHERWOOD AVE", "postcode": "08816"}}},
{"geometry": {"type": "Point", "coordinates": [-74.4221259576, 40.4073457959]}, "type": "Feature", "properties": {"collection_times": [{"days": "Mon-Fri", "time": "5:00pm"}, {"days": "Sat", "time": "3:00pm"}, {"days": "Sun", "time": "Closed"}], "id": "0881600061", "name": "USPS COLLECTION BOX - BLUE BOX", "address": {"city": "EAST BRUNSWICK", "state": "NJ", "street": "614 CRANBURY RD", "postcode": "08816"}}},
{"geometry": {"type": "Point", "coordinates": [-74.4231291068, 40.4312001634]}, "type": "Feature", "properties": {"collection_times": [{"days": "Mon-Sat", "time": "11:00am"}, {"days": "Sun", "time": "Closed"}], "id": "0881600063", "name": "USPS COLLECTION BOX - BLUE BOX", "address": {"city": "EAST BRUNSWICK", "state": "NJ", "street": "483 RYDERS LN", "postcode": "08816"}}},
{"geometry": {"type": "Point", "coordinates": [-74.3781328966, 40.4101222006]}, "type": "Feature", "properties": {"collection_times": [{"days": "Mon-Sat", "time": "11:00am"}, {"days": "Sun", "time": "Closed"}], "id": "0881600064", "name": "USPS COLLECTION BOX - BLUE BOX", "address": {"city": "EAST BRUNSWICK", "state": "NJ", "street": "69 OLD STAGE RD", "postcode": "08816"}}},
{"geometry": {"type": "Point", "coordinates": [-74.3910283323, 40.4239687352]}, "type": "Feature", "properties": {"collection_times": [{"days": "Mon-Fri", "time": "4:00pm"}, {"days": "Sat", "time": "11:00am"}, {"days": "Sun", "time": "Closed"}], "id": "0881600067", "name": "USPS COLLECTION BOX - BLUE BOX", "address": {"city": "EAST BRUNSWICK", "state": "NJ", "street": "3 AUER CT", "postcode": "08816"}}},
{"geometry": {"type": "Point", "coordinates": [-74.4221259576, 40.4073457959]}, "type": "Feature", "properties": {"collection_times": [{"days": "Mon-Fri", "time": "5:00pm"}, {"days": "Sat", "time": "2:00pm"}, {"days": "Sun", "time": "Closed"}], "id": "0881600071", "name": "USPS COLLECTION BOX - PO LOBBY", "address": {"city": "EAST BRUNSWICK", "state": "NJ", "street": "614 CRANBURY RD", "postcode": "08816"}}},
{"geometry": {"type": "Point", "coordinates": [-74.3812587833, 40.522997415]}, "type": "Feature", "properties": {"collection_times": [{"days": "Mon-Sat", "time": "10:00am"}, {"days": "Sun", "time": "Closed"}], "id": "0881700012", "name": "USPS COLLECTION BOX - BLUE BOX", "address": {"city": "EDISON", "state": "NJ", "street": "80 IDLEWILD RD", "postcode": "08817"}}},
{"geometry": {"type": "Point", "coordinates": [-74.3920799828, 40.5232639448]}, "type": "Feature", "properties": {"collection_times": [{"days": "Mon-Sat", "time": "10:00am"}, {"days": "Sun", "time": "Closed"}], "id": "0881700019", "name": "USPS COLLECTION BOX - BLUE BOX", "address": {"city": "EDISON", "state": "NJ", "street": "100 MUNICIPAL BLVD", "postcode": "08817"}}},
{"geometry": {"type": "Point", "coordinates": [-74.4049529423, 40.5325170499]}, "type": "Feature", "properties": {"collection_times": [{"days": "Mon-Sat", "time": "10:00am"}, {"days": "Sun", "time": "Closed"}], "id": "0881700021", "name": "USPS COLLECTION BOX - BLUE BOX", "address": {"city": "EDISON", "state": "NJ", "street": "40 BRUNSWICK AVE", "postcode": "08817"}}},
{"geometry": {"type": "Point", "coordinates": [-74.4098456605, 40.5352780761]}, "type": "Feature", "properties": {"collection_times": [{"days": "Mon-Sat", "time": "10:00am"}, {"days": "Sun", "time": "Closed"}], "id": "0881700023", "name": "USPS COLLECTION BOX - BLUE BOX", "address": {"city": "EDISON", "state": "NJ", "street": "6701 VICTORIA CT", "postcode": "08817"}}},
{"geometry": {"type": "Point", "coordinates": [-74.3896419044, 40.5245344428]}, "type": "Feature", "properties": {"collection_times": [{"days": "Mon-Sat", "time": "10:00am"}, {"days": "Sun", "time": "Closed"}], "id": "0881700025", "name": "USPS COLLECTION BOX - BLUE BOX", "address": {"city": "EDISON", "state": "NJ", "street": "2055 STATE ROUTE 27", "postcode": "08817"}}},
{"geometry": {"type": "Point", "coordinates": [-74.3896419044, 40.5245344428]}, "type": "Feature", "properties": {"collection_times": [{"days": "Mon-Sat", "time": "10:00am"}, {"days": "Sun", "time": "Closed"}], "id": "0881700026", "name": "USPS COLLECTION BOX - BLUE BOX", "address": {"city": "EDISON", "state": "NJ", "street": "2055 STATE ROUTE 27", "postcode": "08817"}}},
{"geometry": {"type": "Point", "coordinates": [-74.3968413926, 40.5406498927]}, "type": "Feature", "properties": {"collection_times": [{"days": "Mon-Sat", "time": "10:00am"}, {"days": "Sun", "time": "Closed"}], "id": "0881700027", "name": "USPS COLLECTION BOX - BLUE BOX", "address": {"city": "EDISON", "state": "NJ", "street": "1 ETHEL RD", "postcode": "08817"}}},
{"geometry": {"type": "Point", "coordinates": [-74.3947720668, 40.516277872]}, "type": "Feature", "properties": {"collection_times": [{"days": "Mon-Sat", "time": "10:00am"}, {"days": "Sun", "time": "Closed"}], "id": "0881700039", "name": "USPS COLLECTION BOX - BLUE BOX", "address": {"city": "EDISON", "state": "NJ", "street": "153 WINTHROP RD", "postcode": "08817"}}},
{"geometry": {"type": "Point", "coordinates": [-74.3837554614, 40.5116260376]}, "type": "Feature", "properties": {"collection_times": [{"days": "Mon-Sat", "time": "10:00am"}, {"days": "Sun", "time": "Closed"}], "id": "0881700045", "name": "USPS COLLECTION BOX - BLUE BOX", "address": {"city": "EDISON", "state": "NJ", "street": "775 US HIGHWAY 1", "postcode": "08817"}}},
{"geometry": {"type": "Point", "coordinates": [-74.3723407932, 40.5032920254]}, "type": "Feature", "properties": {"collection_times": [{"days": "Mon-Sat", "time": "10:00am"}, {"days": "Sun", "time": "Closed"}], "id": "0881700046", "name": "USPS COLLECTION BOX - BLUE BOX", "address": {"city": "EDISON", "state": "NJ", "street": "148 HORIZON DR", "postcode": "08817"}}},
{"geometry": {"type": "Point", "coordinates": [-74.4112314687, 40.5206504428]}, "type": "Feature", "properties": {"collection_times": [{"days": "Mon-Sat", "time": "10:00am"}, {"days": "Sun", "time": "Closed"}], "id": "0881700094", "name": "USPS COLLECTION BOX - BLUE BOX", "address": {"city": "EDISON", "state": "NJ", "street": "100 METROPLEX DR", "postcode": "08817"}}},
{"geometry": {"type": "Point", "coordinates": [-74.3953839872, 40.5060235009]}, "type": "Feature", "properties": {"collection_times": [{"days": "Mon-Sat", "time": "10:00am"}, {"days": "Sun", "time": "Closed"}], "id": "0881700096", "name": "USPS COLLECTION BOX - BLUE BOX", "address": {"city": "EDISON", "state": "NJ", "street": "561 US HIGHWAY 1", "postcode": "08817"}}},
{"geometry": {"type": "Point", "coordinates": [-74.3988950094, 40.5004872529]}, "type": "Feature", "properties": {"collection_times": [{"days": "Mon-Fri", "time": "5:00pm"}, {"days": "Sat", "time": "2:00pm"}, {"days": "Sun", "time": "Closed"}], "id": "0881700122", "name": "USPS COLLECTION BOX - BLUE BOX", "address": {"city": "EDISON", "state": "NJ", "street": "2079 WOODBRIDGE AVE", "postcode": "08817"}}},
{"geometry": {"type": "Point", "coordinates": [-74.3644718396, 40.5179927587]}, "type": "Feature", "properties": {"collection_times": [{"days": "Mon-Sat", "time": "10:00am"}, {"days": "Sun", "time": "Closed"}], "id": "0881700128", "name": "USPS COLLECTION BOX - BLUE BOX", "address": {"city": "EDISON", "state": "NJ", "street": "1901 FOREST HAVEN BLVD", "postcode": "08817"}}},
{"geometry": {"type": "Point", "coordinates": [-74.3877979307, 40.5259022215]}, "type": "Feature", "properties": {"collection_times": [{"days": "Mon-Fri", "time": "5:00pm"}, {"days": "Sat", "time": "2:00pm"}, {"days": "Sun", "time": "Closed"}], "id": "0881700131", "name": "USPS COLLECTION BOX - BLUE BOX", "address": {"city": "EDISON", "state": "NJ", "street": "2101 LINCOLN HWY", "postcode": "08817"}}},
{"geometry": {"type": "Point", "coordinates": [-74.3877979307, 40.5259022215]}, "type": "Feature", "properties": {"collection_times": [{"days": "Mon-Fri", "time": "4:00pm"}, {"days": "Sat", "time": "2:00pm"}, {"days": "Sun", "time": "Closed"}], "id": "0881700139", "name": "USPS COLLECTION BOX - APC", "address": {"city": "EDISON", "state": "NJ", "street": "2101 LINCOLN HWY", "postcode": "08817"}}},
{"geometry": {"type": "Point", "coordinates": [-74.3898619347, 40.5021161874]}, "type": "Feature", "properties": {"collection_times": [{"days": "Mon-Sat", "time": "10:00am"}, {"days": "Sun", "time": "Closed"}], "id": "0881700140", "name": "USPS COLLECTION BOX - BLUE BOX", "address": {"city": "EDISON", "state": "NJ", "street": "2279 WOODBRIDGE AVE", "postcode": "08817"}}},
{"geometry": {"type": "Point", "coordinates": [-74.398163436, 40.5447696471]}, "type": "Feature", "properties": {"collection_times": [{"days": "Mon-Sat", "time": "10:00am"}, {"days": "Sun", "time": "Closed"}], "id": "0881700141", "name": "USPS COLLECTION BOX - BLUE BOX", "address": {"city": "EDISON", "state": "NJ", "street": "118 WATERFORD DR", "postcode": "08817"}}},
{"geometry": {"type": "Point", "coordinates": [-74.3877515359, 40.5258617227]}, "type": "Feature", "properties": {"collection_times": [{"days": "Mon-Fri", "time": "5:00pm"}, {"days": "Sat", "time": "2:00pm"}, {"days": "Sun", "time": "Closed"}], "id": "0881700142", "name": "USPS COLLECTION BOX - PO LOBBY", "address": {"city": "EDISON", "state": "NJ", "street": "2101 STATE ROUTE 27", "postcode": "08817"}}},
{"geometry": {"type": "Point", "coordinates": [-74.3988950094, 40.5004872529]}, "type": "Feature", "properties": {"collection_times": [{"days": "Mon-Fri", "time": "5:00pm"}, {"days": "Sat", "time": "2:00pm"}, {"days": "Sun", "time": "Closed"}], "id": "0881700143", "name": "USPS COLLECTION BOX - PO LOBBY", "address": {"city": "EDISON", "state": "NJ", "street": "2079 WOODBRIDGE AVE", "postcode": "08817"}}},
{"geometry": {"type": "Point", "coordinates": [-74.3850248155, 40.5672570058]}, "type": "Feature", "properties": {"collection_times": [{"days": "Mon-Sat", "time": "10:00am"}, {"days": "Sun", "time": "Closed"}], "id": "0882000002", "name": "USPS COLLECTION BOX - BLUE BOX", "address": {"city": "EDISON", "state": "NJ", "street": "3840 PARK AVE", "postcode": "08820"}}},
{"geometry": {"type": "Point", "coordinates": [-74.3628203845, 40.5969358963]}, "type": "Feature", "properties": {"collection_times": [{"days": "Mon-Sat", "time": "10:00am"}, {"days": "Sun", "time": "Closed"}], "id": "0882000003", "name": "USPS COLLECTION BOX - BLUE BOX", "address": {"city": "EDISON", "state": "NJ", "street": "1081 INMAN AVE", "postcode": "08820"}}},
{"geometry": {"type": "Point", "coordinates": [-74.3594267665, 40.5973905195]}, "type": "Feature", "properties": {"collection_times": [{"days": "Mon-Sat", "time": "9:30am"}, {"days": "Sun", "time": "Closed"}], "id": "0882000004", "name": "USPS COLLECTION BOX - BLUE BOX", "address": {"city": "EDISON", "state": "NJ", "street": "3 PROGRESS ST", "postcode": "08820"}}},
{"geometry": {"type": "Point", "coordinates": [-74.3463838566, 40.5549822245]}, "type": "Feature", "properties": {"collection_times": [{"days": "Mon-Sat", "time": "10:00am"}, {"days": "Sun", "time": "Closed"}], "id": "0882000009", "name": "USPS COLLECTION BOX - BLUE BOX", "address": {"city": "EDISON", "state": "NJ", "street": "1 LINCOLN HWY", "postcode": "08820"}}},
{"geometry": {"type": "Point", "coordinates": [-74.3465253931, 40.5551487195]}, "type": "Feature", "properties": {"collection_times": [{"days": "Mon-Fri", "time": "3:00pm"}, {"days": "Sat", "time": "10:00am"}, {"days": "Sun", "time": "Closed"}], "id": "0882000011", "name": "USPS COLLECTION BOX - BLUE BOX", "address": {"city": "EDISON", "state": "NJ", "street": "2 LINCOLN HWY", "postcode": "08820"}}},
{"geometry": {"type": "Point", "coordinates": [-74.3480017488, 40.5576253539]}, "type": "Feature", "properties": {"collection_times": [{"days": "Mon-Fri", "time": "3:00pm"}, {"days": "Sat", "time": "10:00am"}, {"days": "Sun", "time": "Closed"}], "id": "0882000012", "name": "USPS COLLECTION BOX - BLUE BOX", "address": {"city": "EDISON", "state": "NJ", "street": "98 JAMES ST", "postcode": "08820"}}},
{"geometry": {"type": "Point", "coordinates": [-74.3405928768, 40.5728878905]}, "type": "Feature", "properties": {"collection_times": [{"days": "Mon-Sat", "time": "10:00am"}, {"days": "Sun", "time": "Closed"}], "id": "0882000015", "name": "USPS COLLECTION BOX - BLUE BOX", "address": {"city": "EDISON", "state": "NJ", "street": "1665 OAK TREE RD", "postcode": "08820"}}},
{"geometry": {"type": "Point", "coordinates": [-74.4008820288, 40.5525930386]}, "type": "Feature", "properties": {"collection_times": [{"days": "Mon-Sat", "time": "10:00am"}, {"days": "Sun", "time": "Closed"}], "id": "0882000019", "name": "USPS COLLECTION BOX - BLUE BOX", "address": {"city": "EDISON", "state": "NJ", "street": "310 MICHELLE CIR", "postcode": "08820"}}},
{"geometry": {"type": "Point", "coordinates": [-74.3662358783, 40.5742743184]}, "type": "Feature", "properties": {"collection_times": [{"days": "Mon-Sat", "time": "10:00am"}, {"days": "Sun", "time": "Closed"}], "id": "0882000023", "name": "USPS COLLECTION BOX - BLUE BOX", "address": {"city": "EDISON", "state": "NJ", "street": "1943 OAK TREE RD", "postcode": "08820"}}},
{"geometry": {"type": "Point", "coordinates": [-74.6832054021, 40.5223222518]}, "type": "Feature", "properties": {"collection_times": [{"days": "Mon-Fri", "time": "4:45pm"}, {"days": "Sat", "time": "12:00pm"}, {"days": "Sun", "time": "Closed"}], "id": "0882100001", "name": "USPS COLLECTION BOX - BLUE BOX", "address": {"city": "FLAGTOWN", "state": "NJ", "street": "223 S BRANCH RD", "postcode": "08821"}}},
{"geometry": {"type": "Point", "coordinates": [-74.6832054021, 40.5223222518]}, "type": "Feature", "properties": {"collection_times": [{"days": "Mon-Fri", "time": "4:45pm"}, {"days": "Sat", "time": "12:00pm"}, {"days": "Sun", "time": "Closed"}], "id": "0882100002", "name": "USPS COLLECTION BOX - PO LOBBY", "address": {"city": "FLAGTOWN", "state": "NJ", "street": "223 S BRANCH RD", "postcode": "08821"}}},
{"geometry": {"type": "Point", "coordinates": [-74.860452157, 40.532612075]}, "type": "Feature", "properties": {"collection_times": [{"days": "Mon-Sat", "time": "11:00am"}, {"days": "Sun", "time": "Closed"}], "id": "0882200002", "name": "USPS COLLECTION BOX - BLUE BOX", "address": {"city": "FLEMINGTON", "state": "NJ", "street": "2100 WESCOTT DR", "postcode": "08822"}}},
{"geometry": {"type": "Point", "coordinates": [-74.8427459449, 40.5040089218]}, "type": "Feature", "properties": {"collection_times": [{"days": "Mon-Sat", "time": "11:00am"}, {"days": "Sun", "time": "Closed"}], "id": "0882200004", "name": "USPS COLLECTION BOX - BLUE BOX", "address": {"city": "FLEMINGTON", "state": "NJ", "street": "8 READING RD", "postcode": "08822"}}},
{"geometry": {"type": "Point", "coordinates": [-74.8388346632, 40.4962982946]}, "type": "Feature", "properties": {"collection_times": [{"days": "Mon-Sat", "time": "11:00am"}, {"days": "Sun", "time": "Closed"}], "id": "0882200006", "name": "USPS COLLECTION BOX - BLUE BOX", "address": {"city": "FLEMINGTON", "state": "NJ", "street": "1 SUNRIDGE DR", "postcode": "08822"}}},
{"geometry": {"type": "Point", "coordinates": [-74.8575176092, 40.5013336761]}, "type": "Feature", "properties": {"collection_times": [{"days": "Mon-Sat", "time": "11:00am"}, {"days": "Sun", "time": "Closed"}], "id": "0882200008", "name": "USPS COLLECTION BOX - BLUE BOX", "address": {"city": "FLEMINGTON", "state": "NJ", "street": "10 REAVILLE AVE", "postcode": "08822"}}},
{"geometry": {"type": "Point", "coordinates": [-74.8620012018, 40.504750089]}, "type": "Feature", "properties": {"collection_times": [{"days": "Mon-Sat", "time": "11:00am"}, {"days": "Sun", "time": "Closed"}], "id": "0882200009", "name": "USPS COLLECTION BOX - BLUE BOX", "address": {"city": "FLEMINGTON", "state": "NJ", "street": "1 CHURCH ST", "postcode": "08822"}}},
{"geometry": {"type": "Point", "coordinates": [-74.8557466639, 40.5027549853]}, "type": "Feature", "properties": {"collection_times": [{"days": "Mon-Sat", "time": "11:00am"}, {"days": "Sun", "time": "Closed"}], "id": "0882200011", "name": "USPS COLLECTION BOX - BLUE BOX", "address": {"city": "FLEMINGTON", "state": "NJ", "street": "155 BROAD ST", "postcode": "08822"}}},
{"geometry": {"type": "Point", "coordinates": [-74.8568054122, 40.5130857659]}, "type": "Feature", "properties": {"collection_times": [{"days": "Mon-Sat", "time": "11:00am"}, {"days": "Sun", "time": "Closed"}], "id": "0882200013", "name": "USPS COLLECTION BOX - BLUE BOX", "address": {"city": "FLEMINGTON", "state": "NJ", "street": "31 BROAD ST", "postcode": "08822"}}},
{"geometry": {"type": "Point", "coordinates": [-74.858252171, 40.5055775254]}, "type": "Feature", "properties": {"collection_times": [{"days": "Mon-Sat", "time": "11:00am"}, {"days": "Sun", "time": "Closed"}], "id": "0882200016", "name": "USPS COLLECTION BOX - BLUE BOX", "address": {"city": "FLEMINGTON", "state": "NJ", "street": "171 MAIN ST", "postcode": "08822"}}},
{"geometry": {"type": "Point", "coordinates": [-74.8586512115, 40.5088735412]}, "type": "Feature", "properties": {"collection_times": [{"days": "Mon-Sat", "time": "11:00am"}, {"days": "Sun", "time": "Closed"}], "id": "0882200018", "name": "USPS COLLECTION BOX - BLUE BOX", "address": {"city": "FLEMINGTON", "state": "NJ", "street": "124 MAIN ST", "postcode": "08822"}}},
{"geometry": {"type": "Point", "coordinates": [-74.8651381752, 40.5166535701]}, "type": "Feature", "properties": {"collection_times": [{"days": "Mon-Sat", "time": "11:00am"}, {"days": "Sun", "time": "Closed"}], "id": "0882200020", "name": "USPS COLLECTION BOX - BLUE BOX", "address": {"city": "FLEMINGTON", "state": "NJ", "street": "76 MAIN ST", "postcode": "08822"}}},
{"geometry": {"type": "Point", "coordinates": [-74.8590672297, 40.5115680296]}, "type": "Feature", "properties": {"collection_times": [{"days": "Mon-Sat", "time": "11:30am"}, {"days": "Sun", "time": "Closed"}], "id": "0882200021", "name": "USPS COLLECTION BOX - BLUE BOX", "address": {"city": "FLEMINGTON", "state": "NJ", "street": "38 N MAIN ST", "postcode": "08822"}}},
{"geometry": {"type": "Point", "coordinates": [-74.8642462241, 40.5162312538]}, "type": "Feature", "properties": {"collection_times": [{"days": "Mon-Sat", "time": "11:00am"}, {"days": "Sun", "time": "Closed"}], "id": "0882200023", "name": "USPS COLLECTION BOX - BLUE BOX", "address": {"city": "FLEMINGTON", "state": "NJ", "street": "65 N MAIN ST", "postcode": "08822"}}},
{"geometry": {"type": "Point", "coordinates": [-74.8614934786, 40.5141456971]}, "type": "Feature", "properties": {"collection_times": [{"days": "Mon-Sat", "time": "11:00am"}, {"days": "Sun", "time": "Closed"}], "id": "0882200024", "name": "USPS COLLECTION BOX - BLUE BOX", "address": {"city": "FLEMINGTON", "state": "NJ", "street": "84 PARK AVE", "postcode": "08822"}}},
{"geometry": {"type": "Point", "coordinates": [-74.8607655922, 40.5157811105]}, "type": "Feature", "properties": {"collection_times": [{"days": "Mon-Sat", "time": "11:00am"}, {"days": "Sun", "time": "Closed"}], "id": "0882200025", "name": "USPS COLLECTION BOX - BLUE BOX", "address": {"city": "FLEMINGTON", "state": "NJ", "street": "4 WALTER E FORAN BLVD", "postcode": "08822"}}},
{"geometry": {"type": "Point", "coordinates": [-74.8591062674, 40.5119087217]}, "type": "Feature", "properties": {"collection_times": [{"days": "Mon-Fri", "time": "5:00pm"}, {"days": "Sat", "time": "3:00pm"}, {"days": "Sun", "time": "Closed"}], "id": "0882200027", "name": "USPS COLLECTION BOX - BLUE BOX", "address": {"city": "FLEMINGTON", "state": "NJ", "street": "15 MAIN ST", "postcode": "08822"}}},
{"geometry": {"type": "Point", "coordinates": [-74.8591062674, 40.5119087217]}, "type": "Feature", "properties": {"collection_times": [{"days": "Mon-Fri", "time": "5:00pm"}, {"days": "Sat", "time": "3:00pm"}, {"days": "Sun", "time": "Closed"}], "id": "0882200028", "name": "USPS COLLECTION BOX - BLUE BOX", "address": {"city": "FLEMINGTON", "state": "NJ", "street": "15 MAIN ST", "postcode": "08822"}}},
{"geometry": {"type": "Point", "coordinates": [-74.8537789837, 40.5135431961]}, "type": "Feature", "properties": {"collection_times": [{"days": "Mon-Fri", "time": "5:00pm"}, {"days": "Sat", "time": "3:00pm"}, {"days": "Sun", "time": "Closed"}], "id": "0882200030", "name": "USPS COLLECTION BOX - EXPRESS", "address": {"city": "FLEMINGTON", "state": "NJ", "street": "15 MAIN ST", "postcode": "08822"}}},
{"geometry": {"type": "Point", "coordinates": [-74.8591062674, 40.5119087217]}, "type": "Feature", "properties": {"collection_times": [{"days": "Mon-Fri", "time": "5:00pm"}, {"days": "Sat", "time": "3:00pm"}, {"days": "Sun", "time": "Closed"}], "id": "0882200031", "name": "USPS COLLECTION BOX - BLUE BOX", "address": {"city": "FLEMINGTON", "state": "NJ", "street": "15 MAIN ST", "postcode": "08822"}}},
{"geometry": {"type": "Point", "coordinates": [-74.8522829601, 40.5136133656]}, "type": "Feature", "properties": {"collection_times": [{"days": "Mon-Sat", "time": "11:00am"}, {"days": "Sun", "time": "Closed"}], "id": "0882200034", "name": "USPS COLLECTION BOX - BLUE BOX", "address": {"city": "FLEMINGTON", "state": "NJ", "street": "62 PENNSYLVANIA AVE", "postcode": "08822"}}},
{"geometry": {"type": "Point", "coordinates": [-74.8573401097, 40.5415193676]}, "type": "Feature", "properties": {"collection_times": [{"days": "Mon-Sat", "time": "11:00am"}, {"days": "Sun", "time": "Closed"}], "id": "0882200037", "name": "USPS COLLECTION BOX - BLUE BOX", "address": {"city": "FLEMINGTON", "state": "NJ", "street": "334 STATE ROUTE 31", "postcode": "08822"}}},
{"geometry": {"type": "Point", "coordinates": [-74.8680964181, 40.532928412]}, "type": "Feature", "properties": {"collection_times": [{"days": "Mon-Sat", "time": "11:00am"}, {"days": "Sun", "time": "Closed"}], "id": "0882200038", "name": "USPS COLLECTION BOX - BLUE BOX", "address": {"city": "FLEMINGTON", "state": "NJ", "street": "1100 WESTCOTT DR", "postcode": "08822"}}},
{"geometry": {"type": "Point", "coordinates": [-74.8680964181, 40.532928412]}, "type": "Feature", "properties": {"collection_times": [{"days": "Mon-Sat", "time": "11:00am"}, {"days": "Sun", "time": "Closed"}], "id": "0882200039", "name": "USPS COLLECTION BOX - BLUE BOX", "address": {"city": "FLEMINGTON", "state": "NJ", "street": "260 ROUTE 202 & 31", "postcode": "08822"}}},
{"geometry": {"type": "Point", "coordinates": [-74.8591062674, 40.5119087217]}, "type": "Feature", "properties": {"collection_times": [{"days": "Mon-Fri", "time": "5:00pm"}, {"days": "Sat", "time": "3:00pm"}, {"days": "Sun", "time": "Closed"}], "id": "0882200040", "name": "USPS COLLECTION BOX - APC", "address": {"city": "FLEMINGTON", "state": "NJ", "street": "15 MAIN ST", "postcode": "08822"}}},
{"geometry": {"type": "Point", "coordinates": [-74.5376400221, 40.4375634916]}, "type": "Feature", "properties": {"collection_times": [{"days": "Mon-Sat", "time": "11:00am"}, {"days": "Sun", "time": "Closed"}], "id": "0882400001", "name": "USPS COLLECTION BOX - BLUE BOX", "address": {"city": "KENDALL PARK", "state": "NJ", "street": "3084 STATE ROUTE 27", "postcode": "08824"}}},
{"geometry": {"type": "Point", "coordinates": [-74.5401706703, 40.4364192693]}, "type": "Feature", "properties": {"collection_times": [{"days": "Mon-Fri", "time": "5:00pm"}, {"days": "Sat", "time": "3:00pm"}, {"days": "Sun", "time": "Closed"}], "id": "0882400004", "name": "USPS COLLECTION BOX - BLUE BOX", "address": {"city": "KENDALL PARK", "state": "NJ", "street": "3124 STATE ROUTE 27", "postcode": "08824"}}},
{"geometry": {"type": "Point", "coordinates": [-74.5401706703, 40.4364192693]}, "type": "Feature", "properties": {"collection_times": [{"days": "Mon-Fri", "time": "5:00pm"}, {"days": "Sat", "time": "3:00pm"}, {"days": "Sun", "time": "Closed"}], "id": "0882400005", "name": "USPS COLLECTION BOX - BLUE BOX", "address": {"city": "KENDALL PARK", "state": "NJ", "street": "3124 STATE ROUTE 27", "postcode": "08824"}}},
{"geometry": {"type": "Point", "coordinates": [-74.5449724822, 40.4342422131]}, "type": "Feature", "properties": {"collection_times": [{"days": "Mon-Sat", "time": "11:00am"}, {"days": "Sun", "time": "Closed"}], "id": "0882400006", "name": "USPS COLLECTION BOX - BLUE BOX", "address": {"city": "KENDALL PARK", "state": "NJ", "street": "3176 STATE ROUTE 27", "postcode": "08824"}}},
{"geometry": {"type": "Point", "coordinates": [-74.5536745433, 40.4292187071]}, "type": "Feature", "properties": {"collection_times": [{"days": "Mon-Sat", "time": "10:00am"}, {"days": "Sun", "time": "Closed"}], "id": "0882400007", "name": "USPS COLLECTION BOX - BLUE BOX", "address": {"city": "KENDALL PARK", "state": "NJ", "street": "12 STILLWELL RD", "postcode": "08824"}}},
{"geometry": {"type": "Point", "coordinates": [-74.5542577421, 40.4198035367]}, "type": "Feature", "properties": {"collection_times": [{"days": "Mon-Sat", "time": "2:30pm"}, {"days": "Sun", "time": "Closed"}], "id": "0882400008", "name": "USPS COLLECTION BOX - BLUE BOX", "address": {"city": "KENDALL PARK", "state": "NJ", "street": "107 STILLWELL RD", "postcode": "08824"}}},
{"geometry": {"type": "Point", "coordinates": [-74.563918968, 40.4144234393]}, "type": "Feature", "properties": {"collection_times": [{"days": "Mon-Sat", "time": "11:00am"}, {"days": "Sun", "time": "Closed"}], "id": "0882400009", "name": "USPS COLLECTION BOX - BLUE BOX", "address": {"city": "KENDALL PARK", "state": "NJ", "street": "100 KENDALL RD", "postcode": "08824"}}},
{"geometry": {"type": "Point", "coordinates": [-74.5732518271, 40.4232479059]}, "type": "Feature", "properties": {"collection_times": [{"days": "Mon-Sat", "time": "11:00am"}, {"days": "Sun", "time": "Closed"}], "id": "0882400015", "name": "USPS COLLECTION BOX - BLUE BOX", "address": {"city": "KENDALL PARK", "state": "NJ", "street": "3530 STATE ROUTE 27", "postcode": "08824"}}},
{"geometry": {"type": "Point", "coordinates": [-74.5669948695, 40.4254592667]}, "type": "Feature", "properties": {"collection_times": [{"days": "Mon-Sat", "time": "10:30am"}, {"days": "Sun", "time": "Closed"}], "id": "0882400016", "name": "USPS COLLECTION BOX - BLUE BOX", "address": {"city": "KENDALL PARK", "state": "NJ", "street": "3500 BARRETT DR", "postcode": "08824"}}},
{"geometry": {"type": "Point", "coordinates": [-74.5651066588, 40.4256639154]}, "type": "Feature", "properties": {"collection_times": [{"days": "Mon-Sat", "time": "11:00am"}, {"days": "Sun", "time": "Closed"}], "id": "0882400017", "name": "USPS COLLECTION BOX - BLUE BOX", "address": {"city": "KENDALL PARK", "state": "NJ", "street": "4 STANWORTH RD", "postcode": "08824"}}},
{"geometry": {"type": "Point", "coordinates": [-74.5344230517, 40.4394338029]}, "type": "Feature", "properties": {"collection_times": [{"days": "Mon-Sat", "time": "10:00am"}, {"days": "Sun", "time": "Closed"}], "id": "0882400023", "name": "USPS COLLECTION BOX - BLUE BOX", "address": {"city": "KENDALL PARK", "state": "NJ", "street": "3035 STATE ROUTE 27", "postcode": "08824"}}},
{"geometry": {"type": "Point", "coordinates": [-74.5641296619, 40.426546614]}, "type": "Feature", "properties": {"collection_times": [{"days": "Mon-Sat", "time": "11:00am"}, {"days": "Sun", "time": "Closed"}], "id": "0882400024", "name": "USPS COLLECTION BOX - BLUE BOX", "address": {"city": "KENDALL PARK", "state": "NJ", "street": "3391 STATE ROUTE 27", "postcode": "08824"}}},
{"geometry": {"type": "Point", "coordinates": [-74.5401706703, 40.4364192693]}, "type": "Feature", "properties": {"collection_times": [{"days": "Mon-Fri", "time": "5:00pm"}, {"days": "Sat", "time": "3:00pm"}, {"days": "Sun", "time": "Closed"}], "id": "0882400026", "name": "USPS COLLECTION BOX - APC", "address": {"city": "KENDALL PARK", "state": "NJ", "street": "3124 STATE ROUTE 27", "postcode": "08824"}}},
{"geometry": {"type": "Point", "coordinates": [-74.5401706703, 40.4364192693]}, "type": "Feature", "properties": {"collection_times": [{"days": "Mon-Fri", "time": "5:00pm"}, {"days": "Sat", "time": "2:00pm"}, {"days": "Sun", "time": "Closed"}], "id": "0882400027", "name": "USPS COLLECTION BOX - PO LOBBY", "address": {"city": "KENDALL PARK", "state": "NJ", "street": "3124 STATE ROUTE 27", "postcode": "08824"}}},
{"geometry": {"type": "Point", "coordinates": [-75.0612417964, 40.5253564362]}, "type": "Feature", "properties": {"collection_times": [{"days": "Mon-Fri", "time": "4:30pm"}, {"days": "Sat", "time": "3:00pm"}, {"days": "Sun", "time": "Closed"}], "id": "0882500003", "name": "USPS COLLECTION BOX - BLUE BOX", "address": {"city": "FRENCHTOWN", "state": "NJ", "street": "16 TRENTON AVE", "postcode": "08825"}}},
{"geometry": {"type": "Point", "coordinates": [-75.0615637795, 40.5263987861]}, "type": "Feature", "properties": {"collection_times": [{"days": "Mon-Fri", "time": "4:00pm"}, {"days": "Sat", "time": "12:00pm"}, {"days": "Sun", "time": "Closed"}], "id": "0882500004", "name": "USPS COLLECTION BOX - BLUE BOX", "address": {"city": "FRENCHTOWN", "state": "NJ", "street": "29 BRIDGE ST", "postcode": "08825"}}},
{"geometry": {"type": "Point", "coordinates": [-75.0612417964, 40.5253564362]}, "type": "Feature", "properties": {"collection_times": [{"days": "Mon-Fri", "time": "4:30pm"}, {"days": "Sat", "time": "12:00pm"}, {"days": "Sun", "time": "Closed"}], "id": "0882500005", "name": "USPS COLLECTION BOX - PO LOBBY", "address": {"city": "FRENCHTOWN", "state": "NJ", "street": "16 TRENTON AVE", "postcode": "08825"}}},
{"geometry": {"type": "Point", "coordinates": [-74.9392174315, 40.6941837709]}, "type": "Feature", "properties": {"collection_times": [{"days": "Mon-Fri", "time": "5:00pm"}, {"days": "Sat", "time": "3:00pm"}, {"days": "Sun", "time": "Closed"}], "id": "0882600001", "name": "USPS COLLECTION BOX - BLUE BOX", "address": {"city": "GLEN GARDNER", "state": "NJ", "street": "64 MAIN ST", "postcode": "08826"}}},
{"geometry": {"type": "Point", "coordinates": [-74.9472572271, 40.7015275563]}, "type": "Feature", "properties": {"collection_times": [{"days": "Mon-Sat", "time": "11:00am"}, {"days": "Sun", "time": "Closed"}], "id": "0882600004", "name": "USPS COLLECTION BOX - BLUE BOX", "address": {"city": "GLEN GARDNER", "state": "NJ", "street": "100 SPRUCE HILLS DR", "postcode": "08826"}}},
{"geometry": {"type": "Point", "coordinates": [-74.9392174315, 40.6941837709]}, "type": "Feature", "properties": {"collection_times": [{"days": "Mon-Fri", "time": "4:30pm"}, {"days": "Sat", "time": "12:30pm"}, {"days": "Sun", "time": "Closed"}], "id": "0882600005", "name": "USPS COLLECTION BOX - PO LOBBY", "address": {"city": "GLEN GARDNER", "state": "NJ", "street": "64 MAIN ST", "postcode": "08826"}}},
{"geometry": {"type": "Point", "coordinates": [-74.9588510014, 40.7031636124]}, "type": "Feature", "properties": {"collection_times": [{"days": "Mon-Fri", "time": "4:45pm"}, {"days": "Sat", "time": "3:00pm"}, {"days": "Sun", "time": "Closed"}], "id": "0882700001", "name": "USPS COLLECTION BOX - BLUE BOX", "address": {"city": "HAMPTON", "state": "NJ", "street": "77 FOSS AVE", "postcode": "08827"}}},
{"geometry": {"type": "Point", "coordinates": [-74.9590063495, 40.7114505308]}, "type": "Feature", "properties": {"collection_times": [{"days": "Mon-Sat", "time": "10:00am"}, {"days": "Sun", "time": "Closed"}], "id": "0882700002", "name": "USPS COLLECTION BOX - BLUE BOX", "address": {"city": "HAMPTON", "state": "NJ", "street": "401 MANOR DR", "postcode": "08827"}}},
{"geometry": {"type": "Point", "coordinates": [-74.9588510014, 40.7031636124]}, "type": "Feature", "properties": {"collection_times": [{"days": "Mon-Fri", "time": "5:00pm"}, {"days": "Sat", "time": "12:00pm"}, {"days": "Sun", "time": "Closed"}], "id": "0882700003", "name": "USPS COLLECTION BOX - PO LOBBY", "address": {"city": "HAMPTON", "state": "NJ", "street": "77 FOSS AVE", "postcode": "08827"}}},
{"geometry": {"type": "Point", "coordinates": [-74.4215080649, 40.3774912141]}, "type": "Feature", "properties": {"collection_times": [{"days": "Mon-Fri", "time": "4:45pm"}, {"days": "Sat", "time": "11:45am"}, {"days": "Sun", "time": "Closed"}], "id": "0882800001", "name": "USPS COLLECTION BOX - BLUE BOX", "address": {"city": "HELMETTA", "state": "NJ", "street": "68 MAIN ST", "postcode": "08828"}}},
{"geometry": {"type": "Point", "coordinates": [-74.4215080649, 40.3774912141]}, "type": "Feature", "properties": {"collection_times": [{"days": "Mon-Fri", "time": "5:00pm"}, {"days": "Sat", "time": "11:30am"}, {"days": "Sun", "time": "Closed"}], "id": "0882800002", "name": "USPS COLLECTION BOX - PO LOBBY", "address": {"city": "HELMETTA", "state": "NJ", "street": "68 MAIN ST", "postcode": "08828"}}},
{"geometry": {"type": "Point", "coordinates": [-74.8947535528, 40.6679268137]}, "type": "Feature", "properties": {"collection_times": [{"days": "Mon-Fri", "time": "5:00pm"}, {"days": "Sat", "time": "12:30pm"}, {"days": "Sun", "time": "Closed"}], "id": "0882900001", "name": "USPS COLLECTION BOX - BLUE BOX", "address": {"city": "HIGHBRIDGE", "state": "NJ", "street": "10 MCDONALD ST", "postcode": "08829"}}},
{"geometry": {"type": "Point", "coordinates": [-74.8955780752, 40.6680723177]}, "type": "Feature", "properties": {"collection_times": [{"days": "Mon-Sat", "time": "11:00am"}, {"days": "Sun", "time": "Closed"}], "id": "0882900002", "name": "USPS COLLECTION BOX - BLUE BOX", "address": {"city": "HIGHBRIDGE", "state": "NJ", "street": "37 MAIN ST", "postcode": "08829"}}},
{"geometry": {"type": "Point", "coordinates": [-74.892931796, 40.6770320489]}, "type": "Feature", "properties": {"collection_times": [{"days": "Mon-Sat", "time": "11:00am"}, {"days": "Sun", "time": "Closed"}], "id": "0882900003", "name": "USPS COLLECTION BOX - BLUE BOX", "address": {"city": "HIGHBRIDGE", "state": "NJ", "street": "115 FAIRVIEW AVE", "postcode": "08829"}}},
{"geometry": {"type": "Point", "coordinates": [-74.9008422426, 40.6619244799]}, "type": "Feature", "properties": {"collection_times": [{"days": "Mon-Sat", "time": "11:00am"}, {"days": "Sun", "time": "Closed"}], "id": "0882900006", "name": "USPS COLLECTION BOX - BLUE BOX", "address": {"city": "HIGHBRIDGE", "state": "NJ", "street": "112 W MAIN ST", "postcode": "08829"}}},
{"geometry": {"type": "Point", "coordinates": [-74.8947535528, 40.6679268137]}, "type": "Feature", "properties": {"collection_times": [{"days": "Mon-Fri", "time": "4:30pm"}, {"days": "Sat", "time": "12:00pm"}, {"days": "Sun", "time": "Closed"}], "id": "0882900007", "name": "USPS COLLECTION BOX - PO LOBBY", "address": {"city": "HIGHBRIDGE", "state": "NJ", "street": "10 MCDONALD ST", "postcode": "08829"}}},
{"geometry": {"type": "Point", "coordinates": [-74.3226438404, 40.5715665253]}, "type": "Feature", "properties": {"collection_times": [{"days": "Mon-Fri", "time": "5:00pm"}, {"days": "Sat", "time": "3:00pm"}, {"days": "Sun", "time": "Closed"}], "id": "0883000001", "name": "USPS COLLECTION BOX - BLUE BOX", "address": {"city": "ISELIN", "state": "NJ", "street": "250 MIDDLESEX TPKE", "postcode": "08830"}}},
{"geometry": {"type": "Point", "coordinates": [-74.3245424896, 40.5702676364]}, "type": "Feature", "properties": {"collection_times": [{"days": "Mon-Sat", "time": "10:30am"}, {"days": "Sun", "time": "Closed"}], "id": "0883000004", "name": "USPS COLLECTION BOX - BLUE BOX", "address": {"city": "ISELIN", "state": "NJ", "street": "190 MIDDLESEX TPKE", "postcode": "08830"}}},
{"geometry": {"type": "Point", "coordinates": [-74.3328208364, 40.5762380303]}, "type": "Feature", "properties": {"collection_times": [{"days": "Mon-Sat", "time": "11:00am"}, {"days": "Sun", "time": "Closed"}], "id": "0883000005", "name": "USPS COLLECTION BOX - BLUE BOX", "address": {"city": "ISELIN", "state": "NJ", "street": "2 SEMEL AVE", "postcode": "08830"}}},
{"geometry": {"type": "Point", "coordinates": [-74.3189518255, 40.5785542639]}, "type": "Feature", "properties": {"collection_times": [{"days": "Mon-Sat", "time": "2:30pm"}, {"days": "Sun", "time": "Closed"}], "id": "0883000006", "name": "USPS COLLECTION BOX - BLUE BOX", "address": {"city": "ISELIN", "state": "NJ", "street": "89 WARWICK ST", "postcode": "08830"}}},
{"geometry": {"type": "Point", "coordinates": [-74.323780664, 40.5707763087]}, "type": "Feature", "properties": {"collection_times": [{"days": "Mon-Fri", "time": "5:00pm"}, {"days": "Sat", "time": "11:00am"}, {"days": "Sun", "time": "Closed"}], "id": "0883000007", "name": "USPS COLLECTION BOX - BLUE BOX", "address": {"city": "ISELIN", "state": "NJ", "street": "200 MIDDLESEX TPKE", "postcode": "08830"}}},
{"geometry": {"type": "Point", "coordinates": [-74.3269533599, 40.5759221802]}, "type": "Feature", "properties": {"collection_times": [{"days": "Mon-Sat", "time": "11:00am"}, {"days": "Sun", "time": "Closed"}], "id": "0883000008", "name": "USPS COLLECTION BOX - BLUE BOX", "address": {"city": "ISELIN", "state": "NJ", "street": "154 CORREJA AVE", "postcode": "08830"}}},
{"geometry": {"type": "Point", "coordinates": [-74.325856757, 40.5727151785]}, "type": "Feature", "properties": {"collection_times": [{"days": "Mon-Sat", "time": "2:00pm"}, {"days": "Sun", "time": "Closed"}], "id": "0883000010", "name": "USPS COLLECTION BOX - BLUE BOX", "address": {"city": "ISELIN", "state": "NJ", "street": "47 CORREJA AVE", "postcode": "08830"}}},
{"geometry": {"type": "Point", "coordinates": [-74.3278696379, 40.5616931634]}, "type": "Feature", "properties": {"collection_times": [{"days": "Mon-Fri", "time": "3:00pm"}, {"days": "Sat", "time": "11:00am"}, {"days": "Sun", "time": "Closed"}], "id": "0883000011", "name": "USPS COLLECTION BOX - BLUE BOX", "address": {"city": "ISELIN", "state": "NJ", "street": "200 WOOD AVE S", "postcode": "08830"}}},
{"geometry": {"type": "Point", "coordinates": [-74.3273662126, 40.5736071295]}, "type": "Feature", "properties": {"collection_times": [{"days": "Mon-Sat", "time": "3:00pm"}, {"days": "Sun", "time": "Closed"}], "id": "0883000012", "name": "USPS COLLECTION BOX - BLUE BOX", "address": {"city": "ISELIN", "state": "NJ", "street": "1422 OAK TREE RD", "postcode": "08830"}}},
{"geometry": {"type": "Point", "coordinates": [-74.3166885089, 40.5711536241]}, "type": "Feature", "properties": {"collection_times": [{"days": "Mon-Sat", "time": "9:30am"}, {"days": "Sun", "time": "Closed"}], "id": "0883000013", "name": "USPS COLLECTION BOX - BLUE BOX", "address": {"city": "ISELIN", "state": "NJ", "street": "800 GREEN ST", "postcode": "08830"}}},
{"geometry": {"type": "Point", "coordinates": [-74.3189100554, 40.572783335]}, "type": "Feature", "properties": {"collection_times": [{"days": "Mon-Sat", "time": "10:00am"}, {"days": "Sun", "time": "Closed"}], "id": "0883000015", "name": "USPS COLLECTION BOX - BLUE BOX", "address": {"city": "ISELIN", "state": "NJ", "street": "1215 GREEN ST", "postcode": "08830"}}},
{"geometry": {"type": "Point", "coordinates": [-74.3280741766, 40.5619494066]}, "type": "Feature", "properties": {"collection_times": [{"days": "Mon-Fri", "time": "5:00pm"}, {"days": "Sat", "time": "11:00am"}, {"days": "Sun", "time": "Closed"}], "id": "0883000016", "name": "USPS COLLECTION BOX - BLUE BOX", "address": {"city": "ISELIN", "state": "NJ", "street": "170 WOOD AVE S", "postcode": "08830"}}},
{"geometry": {"type": "Point", "coordinates": [-74.3166885089, 40.5711536241]}, "type": "Feature", "properties": {"collection_times": [{"days": "Mon-Sat", "time": "11:00am"}, {"days": "Sun", "time": "Closed"}], "id": "0883000017", "name": "USPS COLLECTION BOX - EXPRESS", "address": {"city": "ISELIN", "state": "NJ", "street": "70 WOOD AVE S", "postcode": "08830"}}},
{"geometry": {"type": "Point", "coordinates": [-74.3353204287, 40.5691935096]}, "type": "Feature", "properties": {"collection_times": [{"days": "Mon-Sat", "time": "11:00am"}, {"days": "Sun", "time": "Closed"}], "id": "0883000018", "name": "USPS COLLECTION BOX - BLUE BOX", "address": {"city": "ISELIN", "state": "NJ", "street": "70 WOOD AVE S", "postcode": "08830"}}},
{"geometry": {"type": "Point", "coordinates": [-74.3290649417, 40.5642842299]}, "type": "Feature", "properties": {"collection_times": [{"days": "Mon-Sat", "time": "11:30am"}, {"days": "Sun", "time": "Closed"}], "id": "0883000019", "name": "USPS COLLECTION BOX - BLUE BOX", "address": {"city": "ISELIN", "state": "NJ", "street": "33 WOOD AVE S", "postcode": "08830"}}},
{"geometry": {"type": "Point", "coordinates": [-74.3239805841, 40.5691367276]}, "type": "Feature", "properties": {"collection_times": [{"days": "Mon-Sat", "time": "10:00am"}, {"days": "Sun", "time": "Closed"}], "id": "0883000020", "name": "USPS COLLECTION BOX - BLUE BOX", "address": {"city": "ISELIN", "state": "NJ", "street": "37 GILL LN", "postcode": "08830"}}},
{"geometry": {"type": "Point", "coordinates": [-74.3324101843, 40.5732598118]}, "type": "Feature", "properties": {"collection_times": [{"days": "Mon-Sat", "time": "2:30pm"}, {"days": "Sun", "time": "Closed"}], "id": "0883000021", "name": "USPS COLLECTION BOX - BLUE BOX", "address": {"city": "ISELIN", "state": "NJ", "street": "1546 OAK TREE RD", "postcode": "08830"}}},
{"geometry": {"type": "Point", "coordinates": [-74.3283669959, 40.5810574051]}, "type": "Feature", "properties": {"collection_times": [{"days": "Mon-Sat", "time": "2:00pm"}, {"days": "Sun", "time": "Closed"}], "id": "0883000022", "name": "USPS COLLECTION BOX - BLUE BOX", "address": {"city": "ISELIN", "state": "NJ", "street": "214 E HENRY PL", "postcode": "08830"}}},
{"geometry": {"type": "Point", "coordinates": [-74.3152811038, 40.5758606663]}, "type": "Feature", "properties": {"collection_times": [{"days": "Mon-Sat", "time": "11:00am"}, {"days": "Sun", "time": "Closed"}], "id": "0883000023", "name": "USPS COLLECTION BOX - BLUE BOX", "address": {"city": "ISELIN", "state": "NJ", "street": "325 BENJAMIN AVE", "postcode": "08830"}}},
{"geometry": {"type": "Point", "coordinates": [-74.3064668766, 40.5751177681]}, "type": "Feature", "properties": {"collection_times": [{"days": "Mon-Sat", "time": "11:00am"}, {"days": "Sun", "time": "Closed"}], "id": "0883000024", "name": "USPS COLLECTION BOX - BLUE BOX", "address": {"city": "ISELIN", "state": "NJ", "street": "52 GRAND AVE", "postcode": "08830"}}},
{"geometry": {"type": "Point", "coordinates": [-74.3063814037, 40.5659735481]}, "type": "Feature", "properties": {"collection_times": [{"days": "Mon-Sat", "time": "11:00am"}, {"days": "Sun", "time": "Closed"}], "id": "0883000025", "name": "USPS COLLECTION BOX - BLUE BOX", "address": {"city": "ISELIN", "state": "NJ", "street": "3601 GREEN HOLLOW DR", "postcode": "08830"}}},
{"geometry": {"type": "Point", "coordinates": [-74.3166885089, 40.5711536241]}, "type": "Feature", "properties": {"collection_times": [{"days": "Mon-Fri", "time": "5:00pm"}, {"days": "Sat", "time": "11:00am"}, {"days": "Sun", "time": "Closed"}], "id": "0883000026", "name": "USPS COLLECTION BOX - EXPRESS", "address": {"city": "ISELIN", "state": "NJ", "street": "517 US HIGHWAY 1 S", "postcode": "08830"}}},
{"geometry": {"type": "Point", "coordinates": [-74.3104462026, 40.5562675834]}, "type": "Feature", "properties": {"collection_times": [{"days": "Mon-Fri", "time": "5:00pm"}, {"days": "Sat", "time": "11:00am"}, {"days": "Sun", "time": "Closed"}], "id": "0883000027", "name": "USPS COLLECTION BOX - BLUE BOX", "address": {"city": "ISELIN", "state": "NJ", "street": "517 US HIGHWAY 1 S", "postcode": "08830"}}},
{"geometry": {"type": "Point", "coordinates": [-74.3127945241, 40.5607140598]}, "type": "Feature", "properties": {"collection_times": [{"days": "Mon-Sat", "time": "11:00am"}, {"days": "Sun", "time": "Closed"}], "id": "0883000028", "name": "USPS COLLECTION BOX - BLUE BOX", "address": {"city": "ISELIN", "state": "NJ", "street": "400 GILL LN STE 1", "postcode": "08830"}}},
{"geometry": {"type": "Point", "coordinates": [-74.3108047286, 40.55609372]}, "type": "Feature", "properties": {"collection_times": [{"days": "Mon-Fri", "time": "5:00pm"}, {"days": "Sat", "time": "11:00am"}, {"days": "Sun", "time": "Closed"}], "id": "0883000029", "name": "USPS COLLECTION BOX - BLUE BOX", "address": {"city": "ISELIN", "state": "NJ", "street": "485A US HIGHWAY 1 S", "postcode": "08830"}}},
{"geometry": {"type": "Point", "coordinates": [-74.3166885089, 40.5711536241]}, "type": "Feature", "properties": {"collection_times": [{"days": "Mon-Fri", "time": "5:00pm"}, {"days": "Sat", "time": "11:00am"}, {"days": "Sun", "time": "Closed"}], "id": "0883000030", "name": "USPS COLLECTION BOX - EXPRESS", "address": {"city": "ISELIN", "state": "NJ", "street": "555 US HIGHWAY 1 S", "postcode": "08830"}}},
{"geometry": {"type": "Point", "coordinates": [-74.3098896726, 40.5565394452]}, "type": "Feature", "properties": {"collection_times": [{"days": "Mon-Fri", "time": "5:00pm"}, {"days": "Sat", "time": "11:00am"}, {"days": "Sun", "time": "Closed"}], "id": "0883000031", "name": "USPS COLLECTION BOX - BLUE BOX", "address": {"city": "ISELIN", "state": "NJ", "street": "555 US HIGHWAY 1 S", "postcode": "08830"}}},
{"geometry": {"type": "Point", "coordinates": [-74.3166885089, 40.5711536241]}, "type": "Feature", "properties": {"collection_times": [{"days": "Mon-Fri", "time": "5:00pm"}, {"days": "Sat", "time": "11:00am"}, {"days": "Sun", "time": "Closed"}], "id": "0883000035", "name": "USPS COLLECTION BOX - EXPRESS", "address": {"city": "ISELIN", "state": "NJ", "street": "99 WOOD AVE S", "postcode": "08830"}}},
{"geometry": {"type": "Point", "coordinates": [-74.328681663, 40.5637566302]}, "type": "Feature", "properties": {"collection_times": [{"days": "Mon-Fri", "time": "5:00pm"}, {"days": "Sat", "time": "11:00am"}, {"days": "Sun", "time": "Closed"}], "id": "0883000036", "name": "USPS COLLECTION BOX - BLUE BOX", "address": {"city": "ISELIN", "state": "NJ", "street": "99 WOOD AVE S", "postcode": "08830"}}},
{"geometry": {"type": "Point", "coordinates": [-74.3166885089, 40.5711536241]}, "type": "Feature", "properties": {"collection_times": [{"days": "Mon-Fri", "time": "5:00pm"}, {"days": "Sat", "time": "11:00am"}, {"days": "Sun", "time": "Closed"}], "id": "0883000037", "name": "USPS COLLECTION BOX - EXPRESS", "address": {"city": "ISELIN", "state": "NJ", "street": "120 WOOD AVE S", "postcode": "08830"}}},
{"geometry": {"type": "Point", "coordinates": [-74.3291884764, 40.5670212818]}, "type": "Feature", "properties": {"collection_times": [{"days": "Mon-Sat", "time": "11:00am"}, {"days": "Sun", "time": "Closed"}], "id": "0883000038", "name": "USPS COLLECTION BOX - BLUE BOX", "address": {"city": "ISELIN", "state": "NJ", "street": "100 MIDDLESEX TPKE", "postcode": "08830"}}},
{"geometry": {"type": "Point", "coordinates": [-74.3230448635, 40.5758157139]}, "type": "Feature", "properties": {"collection_times": [{"days": "Mon-Sat", "time": "11:00am"}, {"days": "Sun", "time": "Closed"}], "id": "0883000039", "name": "USPS COLLECTION BOX - BLUE BOX", "address": {"city": "ISELIN", "state": "NJ", "street": "133 MIDDLESEX AVE", "postcode": "08830"}}},
{"geometry": {"type": "Point", "coordinates": [-74.3014262884, 40.5688788425]}, "type": "Feature", "properties": {"collection_times": [{"days": "Mon-Sat", "time": "11:00am"}, {"days": "Sun", "time": "Closed"}], "id": "0883000040", "name": "USPS COLLECTION BOX - BLUE BOX", "address": {"city": "ISELIN", "state": "NJ", "street": "222 REGINA ST", "postcode": "08830"}}},
{"geometry": {"type": "Point", "coordinates": [-74.3186761961, 40.5792072573]}, "type": "Feature", "properties": {"collection_times": [{"days": "Mon-Sat", "time": "3:00pm"}, {"days": "Sun", "time": "Closed"}], "id": "0883000041", "name": "USPS COLLECTION BOX - BLUE BOX", "address": {"city": "ISELIN", "state": "NJ", "street": "100 MCLEAN ST", "postcode": "08830"}}},
{"geometry": {"type": "Point", "coordinates": [-74.3204092309, 40.576474622]}, "type": "Feature", "properties": {"collection_times": [{"days": "Mon-Sat", "time": "11:00am"}, {"days": "Sun", "time": "Closed"}], "id": "0883000042", "name": "USPS COLLECTION BOX - BLUE BOX", "address": {"city": "ISELIN", "state": "NJ", "street": "114 AUTH AVE", "postcode": "08830"}}},
{"geometry": {"type": "Point", "coordinates": [-74.3284710963, 40.5631793462]}, "type": "Feature", "properties": {"collection_times": [{"days": "Mon-Sat", "time": "11:00am"}, {"days": "Sun", "time": "Closed"}], "id": "0883000043", "name": "USPS COLLECTION BOX - BLUE BOX", "address": {"city": "ISELIN", "state": "NJ", "street": "120 WOOD AVE S", "postcode": "08830"}}},
{"geometry": {"type": "Point", "coordinates": [-74.3166885089, 40.5711536241]}, "type": "Feature", "properties": {"collection_times": [{"days": "Mon-Sat", "time": "11:30am"}, {"days": "Sun", "time": "Closed"}], "id": "0883000044", "name": "USPS COLLECTION BOX - EXPRESS", "address": {"city": "ISELIN", "state": "NJ", "street": "33 WOOD AVE S", "postcode": "08830"}}},
{"geometry": {"type": "Point", "coordinates": [-74.3134557982, 40.5547720569]}, "type": "Feature", "properties": {"collection_times": [{"days": "Mon-Fri", "time": "5:00pm"}, {"days": "Sat", "time": "11:00am"}, {"days": "Sun", "time": "Closed"}], "id": "0883000045", "name": "USPS COLLECTION BOX - BLUE BOX", "address": {"city": "ISELIN", "state": "NJ", "street": "485 US HIGHWAY 1 S", "postcode": "08830"}}},
{"geometry": {"type": "Point", "coordinates": [-74.3227408431, 40.5714990966]}, "type": "Feature", "properties": {"collection_times": [{"days": "Mon-Fri", "time": "5:00pm"}, {"days": "Sat", "time": "4:00pm"}, {"days": "Sun", "time": "Closed"}], "id": "0883000046", "name": "USPS COLLECTION BOX - PO LOBBY", "address": {"city": "ISELIN", "state": "NJ", "street": "240 MIDDLESEX TPKE", "postcode": "08830"}}},
{"geometry": {"type": "Point", "coordinates": [-74.4380533214, 40.3189310585]}, "type": "Feature", "properties": {"collection_times": [{"days": "Mon-Fri", "time": "5:00pm"}, {"days": "Sat", "time": "3:00pm"}, {"days": "Sun", "time": "Closed"}], "id": "0883100001", "name": "USPS COLLECTION BOX - BLUE BOX", "address": {"city": "JAMESBURG", "state": "NJ", "street": "1601 PERRINEVILLE RD", "postcode": "08831"}}},
{"geometry": {"type": "Point", "coordinates": [-74.440777521, 40.3361713816]}, "type": "Feature", "properties": {"collection_times": [{"days": "Mon-Fri", "time": "5:00pm"}, {"days": "Sat", "time": "3:00pm"}, {"days": "Sun", "time": "Closed"}], "id": "0883100002", "name": "USPS COLLECTION BOX - EXPRESS", "address": {"city": "JAMESBURG", "state": "NJ", "street": "1601 PERRINEVILLE RD", "postcode": "08831"}}},
{"geometry": {"type": "Point", "coordinates": [-74.4380533214, 40.3189310585]}, "type": "Feature", "properties": {"collection_times": [{"days": "Mon-Fri", "time": "5:00pm"}, {"days": "Sat", "time": "3:00pm"}, {"days": "Sun", "time": "Closed"}], "id": "0883100003", "name": "USPS COLLECTION BOX - BLUE BOX", "address": {"city": "JAMESBURG", "state": "NJ", "street": "1601 PERRINEVILLE RD", "postcode": "08831"}}},
{"geometry": {"type": "Point", "coordinates": [-74.4355241508, 40.3482865695]}, "type": "Feature", "properties": {"collection_times": [{"days": "Mon-Fri", "time": "5:00pm"}, {"days": "Sat", "time": "12:00pm"}, {"days": "Sun", "time": "Closed"}], "id": "0883100004", "name": "USPS COLLECTION BOX - BLUE BOX", "address": {"city": "JAMESBURG", "state": "NJ", "street": "13 E RAILROAD AVE", "postcode": "08831"}}},
{"geometry": {"type": "Point", "coordinates": [-74.4399897448, 40.3550069567]}, "type": "Feature", "properties": {"collection_times": [{"days": "Mon-Sat", "time": "11:00am"}, {"days": "Sun", "time": "Closed"}], "id": "0883100007", "name": "USPS COLLECTION BOX - BLUE BOX", "address": {"city": "JAMESBURG", "state": "NJ", "street": "36 LINCOLN AVE", "postcode": "08831"}}},
{"geometry": {"type": "Point", "coordinates": [-74.4363782472, 40.3486367254]}, "type": "Feature", "properties": {"collection_times": [{"days": "Mon-Sat", "time": "11:00am"}, {"days": "Sun", "time": "Closed"}], "id": "0883100008", "name": "USPS COLLECTION BOX - BLUE BOX", "address": {"city": "JAMESBURG", "state": "NJ", "street": "24 W RAILROAD AVE", "postcode": "08831"}}},
{"geometry": {"type": "Point", "coordinates": [-74.4705117204, 40.3285304448]}, "type": "Feature", "properties": {"collection_times": [{"days": "Mon-Sat", "time": "11:00am"}, {"days": "Sun", "time": "Closed"}], "id": "0883100010", "name": "USPS COLLECTION BOX - BLUE BOX", "address": {"city": "JAMESBURG", "state": "NJ", "street": "361C OLD NASSAU RD", "postcode": "08831"}}},
{"geometry": {"type": "Point", "coordinates": [-74.4691769869, 40.3393461933]}, "type": "Feature", "properties": {"collection_times": [{"days": "Mon-Sat", "time": "11:00am"}, {"days": "Sun", "time": "Closed"}], "id": "0883100011", "name": "USPS COLLECTION BOX - BLUE BOX", "address": {"city": "JAMESBURG", "state": "NJ", "street": "1 ROSSMOOR DR", "postcode": "08831"}}},
{"geometry": {"type": "Point", "coordinates": [-74.4658426181, 40.3353118307]}, "type": "Feature", "properties": {"collection_times": [{"days": "Mon-Sat", "time": "11:00am"}, {"days": "Sun", "time": "Closed"}], "id": "0883100012", "name": "USPS COLLECTION BOX - BLUE BOX", "address": {"city": "JAMESBURG", "state": "NJ", "street": "211A ROSSMOOR DR", "postcode": "08831"}}},
{"geometry": {"type": "Point", "coordinates": [-74.4690492079, 40.3397325933]}, "type": "Feature", "properties": {"collection_times": [{"days": "Mon-Sat", "time": "11:00am"}, {"days": "Sun", "time": "Closed"}], "id": "0883100013", "name": "USPS COLLECTION BOX - BLUE BOX", "address": {"city": "JAMESBURG", "state": "NJ", "street": "2 ROSSMOOR DR", "postcode": "08831"}}},
{"geometry": {"type": "Point", "coordinates": [-74.4316639403, 40.3283652066]}, "type": "Feature", "properties": {"collection_times": [{"days": "Mon-Sat", "time": "11:00am"}, {"days": "Sun", "time": "Closed"}], "id": "0883100014", "name": "USPS COLLECTION BOX - BLUE BOX", "address": {"city": "JAMESBURG", "state": "NJ", "street": "888 GLOUCESTER WAY", "postcode": "08831"}}},
{"geometry": {"type": "Point", "coordinates": [-74.4505144483, 40.3319970944]}, "type": "Feature", "properties": {"collection_times": [{"days": "Mon-Sat", "time": "11:00am"}, {"days": "Sun", "time": "Closed"}], "id": "0883100017", "name": "USPS COLLECTION BOX - BLUE BOX", "address": {"city": "JAMESBURG", "state": "NJ", "street": "100 WHITTINGHAM DR", "postcode": "08831"}}},
{"geometry": {"type": "Point", "coordinates": [-74.4622365472, 40.3414076632]}, "type": "Feature", "properties": {"collection_times": [{"days": "Mon-Fri", "time": "4:00pm"}, {"days": "Sat", "time": "11:00am"}, {"days": "Sun", "time": "Closed"}], "id": "0883100018", "name": "USPS COLLECTION BOX - BLUE BOX", "address": {"city": "JAMESBURG", "state": "NJ", "street": "1 CENTRE DR", "postcode": "08831"}}},
{"geometry": {"type": "Point", "coordinates": [-74.4392637114, 40.3455695563]}, "type": "Feature", "properties": {"collection_times": [{"days": "Mon-Sat", "time": "10:30am"}, {"days": "Sun", "time": "Closed"}], "id": "0883100019", "name": "USPS COLLECTION BOX - BLUE BOX", "address": {"city": "JAMESBURG", "state": "NJ", "street": "131 PERRINEVILLE RD", "postcode": "08831"}}},
{"geometry": {"type": "Point", "coordinates": [-74.4404263327, 40.3469072394]}, "type": "Feature", "properties": {"collection_times": [{"days": "Mon-Fri", "time": "4:00pm"}, {"days": "Sat", "time": "11:00am"}, {"days": "Sun", "time": "Closed"}], "id": "0883100020", "name": "USPS COLLECTION BOX - BLUE BOX", "address": {"city": "JAMESBURG", "state": "NJ", "street": "241 FORSGATE DR", "postcode": "08831"}}},
{"geometry": {"type": "Point", "coordinates": [-74.4648990619, 40.3148216701]}, "type": "Feature", "properties": {"collection_times": [{"days": "Mon-Sat", "time": "11:00am"}, {"days": "Sun", "time": "Closed"}], "id": "0883100022", "name": "USPS COLLECTION BOX - BLUE BOX", "address": {"city": "JAMESBURG", "state": "NJ", "street": "1 CLEARBROOK DR", "postcode": "08831"}}},
{"geometry": {"type": "Point", "coordinates": [-74.4694296767, 40.3120875495]}, "type": "Feature", "properties": {"collection_times": [{"days": "Mon-Sat", "time": "11:00am"}, {"days": "Sun", "time": "Closed"}], "id": "0883100023", "name": "USPS COLLECTION BOX - BLUE BOX", "address": {"city": "JAMESBURG", "state": "NJ", "street": "1A BELMAR RD", "postcode": "08831"}}},
{"geometry": {"type": "Point", "coordinates": [-74.465181846, 40.3164855425]}, "type": "Feature", "properties": {"collection_times": [{"days": "Mon-Sat", "time": "11:00am"}, {"days": "Sun", "time": "Closed"}], "id": "0883100024", "name": "USPS COLLECTION BOX - BLUE BOX", "address": {"city": "JAMESBURG", "state": "NJ", "street": "195A NEWPORT RD", "postcode": "08831"}}},
{"geometry": {"type": "Point", "coordinates": [-74.4700736503, 40.3258363743]}, "type": "Feature", "properties": {"collection_times": [{"days": "Mon-Sat", "time": "9:30am"}, {"days": "Sun", "time": "Closed"}], "id": "0883100026", "name": "USPS COLLECTION BOX - BLUE BOX", "address": {"city": "JAMESBURG", "state": "NJ", "street": "355 APPLEGARTH RD", "postcode": "08831"}}},
{"geometry": {"type": "Point", "coordinates": [-74.440777521, 40.3361713816]}, "type": "Feature", "properties": {"collection_times": [{"days": "Mon-Fri", "time": "4:00pm"}, {"days": "Sat-Sun", "time": "Closed"}], "id": "0883100028", "name": "USPS COLLECTION BOX - EXPRESS", "address": {"city": "JAMESBURG", "state": "NJ", "street": "2 S MIDDLESEX AVE", "postcode": "08831"}}},
{"geometry": {"type": "Point", "coordinates": [-74.4509597158, 40.3065131123]}, "type": "Feature", "properties": {"collection_times": [{"days": "Mon-Sat", "time": "11:00am"}, {"days": "Sun", "time": "Closed"}], "id": "0883100029", "name": "USPS COLLECTION BOX - BLUE BOX", "address": {"city": "JAMESBURG", "state": "NJ", "street": "100 WATERSIDE BLVD", "postcode": "08831"}}},
{"geometry": {"type": "Point", "coordinates": [-74.4316639403, 40.3283652066]}, "type": "Feature", "properties": {"collection_times": [{"days": "Mon-Sat", "time": "11:00am"}, {"days": "Sun", "time": "Closed"}], "id": "0883100030", "name": "USPS COLLECTION BOX - BLUE BOX", "address": {"city": "JAMESBURG", "state": "NJ", "street": "365 ENGLISHTOWN RD", "postcode": "08831"}}},
{"geometry": {"type": "Point", "coordinates": [-74.476575882, 40.3553081951]}, "type": "Feature", "properties": {"collection_times": [{"days": "Mon-Fri", "time": "4:00pm"}, {"days": "Sat", "time": "11:00am"}, {"days": "Sun", "time": "Closed"}], "id": "0883100033", "name": "USPS COLLECTION BOX - BLUE BOX", "address": {"city": "JAMESBURG", "state": "NJ", "street": "1085 CRANBURY SOUTH RIVER RD", "postcode": "08831"}}},
{"geometry": {"type": "Point", "coordinates": [-74.4355241508, 40.3482865695]}, "type": "Feature", "properties": {"collection_times": [{"days": "Mon-Fri", "time": "4:00pm"}, {"days": "Sat", "time": "12:00pm"}, {"days": "Sun", "time": "Closed"}], "id": "0883100034", "name": "USPS COLLECTION BOX - PO LOBBY", "address": {"city": "JAMESBURG", "state": "NJ", "street": "13 E RAILROAD AVE", "postcode": "08831"}}},
{"geometry": {"type": "Point", "coordinates": [-74.4380533214, 40.3189310585]}, "type": "Feature", "properties": {"collection_times": [{"days": "Mon-Fri", "time": "5:00pm"}, {"days": "Sat", "time": "4:00pm"}, {"days": "Sun", "time": "Closed"}], "id": "0883100035", "name": "USPS COLLECTION BOX - PO LOBBY", "address": {"city": "JAMESBURG", "state": "NJ", "street": "1601 PERRINEVILLE RD", "postcode": "08831"}}},
{"geometry": {"type": "Point", "coordinates": [-74.3031226516, 40.5158124863]}, "type": "Feature", "properties": {"collection_times": [{"days": "Mon-Fri", "time": "5:00pm"}, {"days": "Sat", "time": "1:00pm"}, {"days": "Sun", "time": "Closed"}], "id": "0883200004", "name": "USPS COLLECTION BOX - BLUE BOX", "address": {"city": "KEASBEY", "state": "NJ", "street": "140 SMITH ST", "postcode": "08832"}}},
{"geometry": {"type": "Point", "coordinates": [-74.3031226516, 40.5158124863]}, "type": "Feature", "properties": {"collection_times": [{"days": "Mon-Fri", "time": "4:30pm"}, {"days": "Sat", "time": "12:00pm"}, {"days": "Sun", "time": "Closed"}], "id": "0883200006", "name": "USPS COLLECTION BOX - PO LOBBY", "address": {"city": "KEASBEY", "state": "NJ", "street": "140 SMITH ST", "postcode": "08832"}}},
{"geometry": {"type": "Point", "coordinates": [-74.8252974729, 40.6443322528]}, "type": "Feature", "properties": {"collection_times": [{"days": "Mon-Sat", "time": "10:00am"}, {"days": "Sun", "time": "Closed"}], "id": "0883300001", "name": "USPS COLLECTION BOX - BLUE BOX", "address": {"city": "LEBANON", "state": "NJ", "street": "1220 STATE ROUTE 31", "postcode": "08833"}}},
{"geometry": {"type": "Point", "coordinates": [-74.8310843354, 40.6437696087]}, "type": "Feature", "properties": {"collection_times": [{"days": "Mon-Fri", "time": "4:30pm"}, {"days": "Sat", "time": "11:00am"}, {"days": "Sun", "time": "Closed"}], "id": "0883300003", "name": "USPS COLLECTION BOX - BLUE BOX", "address": {"city": "LEBANON", "state": "NJ", "street": "1271 US HIGHWAY 22", "postcode": "08833"}}},
{"geometry": {"type": "Point", "coordinates": [-74.8358753192, 40.6418390197]}, "type": "Feature", "properties": {"collection_times": [{"days": "Mon-Sat", "time": "10:00am"}, {"days": "Sun", "time": "Closed"}], "id": "0883300004", "name": "USPS COLLECTION BOX - BLUE BOX", "address": {"city": "LEBANON", "state": "NJ", "street": "68 MAIN ST", "postcode": "08833"}}},
{"geometry": {"type": "Point", "coordinates": [-74.8310843354, 40.6437696087]}, "type": "Feature", "properties": {"collection_times": [{"days": "Mon-Fri", "time": "4:30pm"}, {"days": "Sat", "time": "12:00pm"}, {"days": "Sun", "time": "Closed"}], "id": "0883300005", "name": "USPS COLLECTION BOX - PO LOBBY", "address": {"city": "LEBANON", "state": "NJ", "street": "1271 US HIGHWAY 22", "postcode": "08833"}}},
{"geometry": {"type": "Point", "coordinates": [-74.5875521222, 40.5454810972]}, "type": "Feature", "properties": {"collection_times": [{"days": "Mon-Fri", "time": "5:00pm"}, {"days": "Sat", "time": "3:00pm"}, {"days": "Sun", "time": "Closed"}], "id": "0883500001", "name": "USPS COLLECTION BOX - BLUE BOX", "address": {"city": "MANVILLE", "state": "NJ", "street": "101 BROOKS BLVD", "postcode": "08835"}}},
{"geometry": {"type": "Point", "coordinates": [-74.5875521222, 40.5454810972]}, "type": "Feature", "properties": {"collection_times": [{"days": "Mon-Fri", "time": "5:00pm"}, {"days": "Sat", "time": "3:00pm"}, {"days": "Sun", "time": "Closed"}], "id": "0883500002", "name": "USPS COLLECTION BOX - BLUE BOX", "address": {"city": "MANVILLE", "state": "NJ", "street": "101 BROOKS BLVD", "postcode": "08835"}}},
{"geometry": {"type": "Point", "coordinates": [-74.5972335448, 40.5437172701]}, "type": "Feature", "properties": {"collection_times": [{"days": "Mon-Sat", "time": "11:00am"}, {"days": "Sun", "time": "Closed"}], "id": "0883500005", "name": "USPS COLLECTION BOX - BLUE BOX", "address": {"city": "MANVILLE", "state": "NJ", "street": "1100 BROOKS BLVD", "postcode": "08835"}}},
{"geometry": {"type": "Point", "coordinates": [-74.5918278517, 40.5396955431]}, "type": "Feature", "properties": {"collection_times": [{"days": "Mon-Sat", "time": "11:00am"}, {"days": "Sun", "time": "Closed"}], "id": "0883500006", "name": "USPS COLLECTION BOX - BLUE BOX", "address": {"city": "MANVILLE", "state": "NJ", "street": "701 W CAMPLAIN RD STE 1", "postcode": "08835"}}},
{"geometry": {"type": "Point", "coordinates": [-74.5941861561, 40.5317694198]}, "type": "Feature", "properties": {"collection_times": [{"days": "Mon-Sat", "time": "11:00am"}, {"days": "Sun", "time": "Closed"}], "id": "0883500007", "name": "USPS COLLECTION BOX - BLUE BOX", "address": {"city": "MANVILLE", "state": "NJ", "street": "836 KENNEDY BLVD", "postcode": "08835"}}},
{"geometry": {"type": "Point", "coordinates": [-74.5882879227, 40.5395615705]}, "type": "Feature", "properties": {"collection_times": [{"days": "Mon-Sat", "time": "11:00am"}, {"days": "Sun", "time": "Closed"}], "id": "0883500011", "name": "USPS COLLECTION BOX - BLUE BOX", "address": {"city": "MANVILLE", "state": "NJ", "street": "243 S MAIN ST STE 1", "postcode": "08835"}}},
{"geometry": {"type": "Point", "coordinates": [-74.5872055152, 40.5428927829]}, "type": "Feature", "properties": {"collection_times": [{"days": "Mon-Fri", "time": "4:00pm"}, {"days": "Sat", "time": "3:00pm"}, {"days": "Sun", "time": "Closed"}], "id": "0883500014", "name": "USPS COLLECTION BOX - BLUE BOX", "address": {"city": "MANVILLE", "state": "NJ", "street": "69 S MAIN ST", "postcode": "08835"}}},
{"geometry": {"type": "Point", "coordinates": [-74.5863265767, 40.5485071062]}, "type": "Feature", "properties": {"collection_times": [{"days": "Mon-Sat", "time": "11:00am"},