{"type": "FeatureCollection", "features": [
{"geometry": {"type": "Point", "coordinates": [-74.4478685699, 40.4883943043]}, "type": "Feature", "properties": {"collection_times": [{"days": "Mon-Sat", "time": "3:00pm"}, {"days": "Sun", "time": "Closed"}], "id": "0890100001", "name": "USPS COLLECTION BOX - EXPRESS", "address": {"city": "NEW BRUNSWICK", "state": "NJ", "street": "333 HANDY ST", "postcode": "08901"}}},
{"geometry": {"type": "Point", "coordinates": [-74.4533572572, 40.4907609643]}, "type": "Feature", "properties": {"collection_times": [{"days": "Mon-Fri", "time": "5:00pm"}, {"days": "Sat", "time": "3:00pm"}, {"days": "Sun", "time": "Closed"}], "id": "0890100003", "name": "USPS COLLECTION BOX - BLUE BOX", "address": {"city": "NEW BRUNSWICK", "state": "NJ", "street": "333 HANDY ST", "postcode": "08901"}}},
{"geometry": {"type": "Point", "coordinates": [-74.4622625723, 40.5030637376]}, "type": "Feature", "properties": {"collection_times": [{"days": "Mon-Sat", "time": "11:00am"}, {"days": "Sun", "time": "Closed"}], "id": "0890100004", "name": "USPS COLLECTION BOX - BLUE BOX", "address": {"city": "NEW BRUNSWICK", "state": "NJ", "street": "276 EASTON AVE", "postcode": "08901"}}},
{"geometry": {"type": "Point", "coordinates": [-74.4451676323, 40.4822412939]}, "type": "Feature", "properties": {"collection_times": [{"days": "Mon-Sat", "time": "11:00am"}, {"days": "Sun", "time": "Closed"}], "id": "0890100006", "name": "USPS COLLECTION BOX - BLUE BOX", "address": {"city": "NEW BRUNSWICK", "state": "NJ", "street": "234 COMMERCIAL AVE", "postcode": "08901"}}},
{"geometry": {"type": "Point", "coordinates": [-74.4434479312, 40.4854486184]}, "type": "Feature", "properties": {"collection_times": [{"days": "Mon-Sat", "time": "11:00am"}, {"days": "Sun", "time": "Closed"}], "id": "0890100007", "name": "USPS COLLECTION BOX - BLUE BOX", "address": {"city": "NEW BRUNSWICK", "state": "NJ", "street": "1 PENN PLZ", "postcode": "08901"}}},
{"geometry": {"type": "Point", "coordinates": [-74.4434092599, 40.4960837216]}, "type": "Feature", "properties": {"collection_times": [{"days": "Mon-Fri", "time": "4:00pm"}, {"days": "Sat", "time": "3:00pm"}, {"days": "Sun", "time": "Closed"}], "id": "0890100009", "name": "USPS COLLECTION BOX - BLUE BOX", "address": {"city": "NEW BRUNSWICK", "state": "NJ", "street": "61 CHURCH ST", "postcode": "08901"}}},
{"geometry": {"type": "Point", "coordinates": [-74.4450469705, 40.4873209196]}, "type": "Feature", "properties": {"collection_times": [{"days": "Mon-Sat", "time": "11:00am"}, {"days": "Sun", "time": "Closed"}], "id": "0890100011", "name": "USPS COLLECTION BOX - BLUE BOX", "address": {"city": "NEW BRUNSWICK", "state": "NJ", "street": "83 REMSEN AVE", "postcode": "08901"}}},
{"geometry": {"type": "Point", "coordinates": [-74.4434479312, 40.4854486184]}, "type": "Feature", "properties": {"collection_times": [{"days": "Mon-Fri", "time": "4:00pm"}, {"days": "Sat", "time": "11:00am"}, {"days": "Sun", "time": "Closed"}], "id": "0890100014", "name": "USPS COLLECTION BOX - BLUE BOX", "address": {"city": "NEW BRUNSWICK", "state": "NJ", "street": "1 LITTLE ALBANY ST", "postcode": "08901"}}},
{"geometry": {"type": "Point", "coordinates": [-74.4467117538, 40.4783937245]}, "type": "Feature", "properties": {"collection_times": [{"days": "Mon-Sat", "time": "11:00am"}, {"days": "Sun", "time": "Closed"}], "id": "0890100017", "name": "USPS COLLECTION BOX - BLUE BOX", "address": {"city": "NEW BRUNSWICK", "state": "NJ", "street": "56 GEORGES RD", "postcode": "08901"}}},
{"geometry": {"type": "Point", "coordinates": [-74.4592022574, 40.5018736808]}, "type": "Feature", "properties": {"collection_times": [{"days": "Mon-Fri", "time": "4:00pm"}, {"days": "Sat", "time": "3:00pm"}, {"days": "Sun", "time": "Closed"}], "id": "0890100019", "name": "USPS COLLECTION BOX - BLUE BOX", "address": {"city": "NEW BRUNSWICK", "state": "NJ", "street": "254 EASTON AVE", "postcode": "08901"}}},
{"geometry": {"type": "Point", "coordinates": [-74.4257930162, 40.4831744299]}, "type": "Feature", "properties": {"collection_times": [{"days": "Mon-Sat", "time": "11:00am"}, {"days": "Sun", "time": "Closed"}], "id": "0890100023", "name": "USPS COLLECTION BOX - BLUE BOX", "address": {"city": "NEW BRUNSWICK", "state": "NJ", "street": "51 PHELPS AVE", "postcode": "08901"}}},
{"geometry": {"type": "Point", "coordinates": [-74.4190574507, 40.4859930536]}, "type": "Feature", "properties": {"collection_times": [{"days": "Mon-Sat", "time": "11:00am"}, {"days": "Sun", "time": "Closed"}], "id": "0890100025", "name": "USPS COLLECTION BOX - BLUE BOX", "address": {"city": "NEW BRUNSWICK", "state": "NJ", "street": "100 CHESTER CIR", "postcode": "08901"}}},
{"geometry": {"type": "Point", "coordinates": [-74.4151566667, 40.4840586474]}, "type": "Feature", "properties": {"collection_times": [{"days": "Mon-Sat", "time": "11:00am"}, {"days": "Sun", "time": "Closed"}], "id": "0890100026", "name": "USPS COLLECTION BOX - BLUE BOX", "address": {"city": "NEW BRUNSWICK", "state": "NJ", "street": "10 TUNISON RD", "postcode": "08901"}}},
{"geometry": {"type": "Point", "coordinates": [-74.438610379, 40.4837284599]}, "type": "Feature", "properties": {"collection_times": [{"days": "Mon-Sat", "time": "11:00am"}, {"days": "Sun", "time": "Closed"}], "id": "0890100028", "name": "USPS COLLECTION BOX - BLUE BOX", "address": {"city": "NEW BRUNSWICK", "state": "NJ", "street": "1 SUYDAM ST", "postcode": "08901"}}},
{"geometry": {"type": "Point", "coordinates": [-74.4407327191, 40.4816013131]}, "type": "Feature", "properties": {"collection_times": [{"days": "Mon-Sat", "time": "11:00am"}, {"days": "Sun", "time": "Closed"}], "id": "0890100029", "name": "USPS COLLECTION BOX - BLUE BOX", "address": {"city": "NEW BRUNSWICK", "state": "NJ", "street": "109 NICHOL AVE", "postcode": "08901"}}},
{"geometry": {"type": "Point", "coordinates": [-74.4427506109, 40.4915594828]}, "type": "Feature", "properties": {"collection_times": [{"days": "Mon-Sat", "time": "11:00am"}, {"days": "Sun", "time": "Closed"}], "id": "0890100032", "name": "USPS COLLECTION BOX - BLUE BOX", "address": {"city": "NEW BRUNSWICK", "state": "NJ", "street": "279 GEORGE ST", "postcode": "08901"}}},
{"geometry": {"type": "Point", "coordinates": [-74.4439799415, 40.4953070756]}, "type": "Feature", "properties": {"collection_times": [{"days": "Mon-Sat", "time": "11:00am"}, {"days": "Sun", "time": "Closed"}], "id": "0890100034", "name": "USPS COLLECTION BOX - BLUE BOX", "address": {"city": "NEW BRUNSWICK", "state": "NJ", "street": "366 GEORGE ST", "postcode": "08901"}}},
{"geometry": {"type": "Point", "coordinates": [-74.4198282573, 40.4863374351]}, "type": "Feature", "properties": {"collection_times": [{"days": "Mon-Sat", "time": "11:00am"}, {"days": "Sun", "time": "Closed"}], "id": "0890100035", "name": "USPS COLLECTION BOX - BLUE BOX", "address": {"city": "NEW BRUNSWICK", "state": "NJ", "street": "1 PAULUS BLVD", "postcode": "08901"}}},
{"geometry": {"type": "Point", "coordinates": [-74.4503682265, 40.4821585781]}, "type": "Feature", "properties": {"collection_times": [{"days": "Mon-Sat", "time": "11:00am"}, {"days": "Sun", "time": "Closed"}], "id": "0890100039", "name": "USPS COLLECTION BOX - BLUE BOX", "address": {"city": "NEW BRUNSWICK", "state": "NJ", "street": "260 REMSEN AVE", "postcode": "08901"}}},
{"geometry": {"type": "Point", "coordinates": [-74.4541628522, 40.4836478321]}, "type": "Feature", "properties": {"collection_times": [{"days": "Mon-Sat", "time": "11:00am"}, {"days": "Sun", "time": "Closed"}], "id": "0890100043", "name": "USPS COLLECTION BOX - BLUE BOX", "address": {"city": "NEW BRUNSWICK", "state": "NJ", "street": "257 LIVINGSTON AVE", "postcode": "08901"}}},
{"geometry": {"type": "Point", "coordinates": [-74.460022572, 40.478167473]}, "type": "Feature", "properties": {"collection_times": [{"days": "Mon-Sat", "time": "11:00am"}, {"days": "Sun", "time": "Closed"}], "id": "0890100045", "name": "USPS COLLECTION BOX - BLUE BOX", "address": {"city": "NEW BRUNSWICK", "state": "NJ", "street": "2 ELIZABETH ST", "postcode": "08901"}}},
{"geometry": {"type": "Point", "coordinates": [-74.4573340544, 40.48895353]}, "type": "Feature", "properties": {"collection_times": [{"days": "Mon-Sat", "time": "11:00am"}, {"days": "Sun", "time": "Closed"}], "id": "0890100047", "name": "USPS COLLECTION BOX - BLUE BOX", "address": {"city": "NEW BRUNSWICK", "state": "NJ", "street": "89 JERSEY AVE", "postcode": "08901"}}},
{"geometry": {"type": "Point", "coordinates": [-74.45102761, 40.5022812842]}, "type": "Feature", "properties": {"collection_times": [{"days": "Mon-Sat", "time": "12:00pm"}, {"days": "Sun", "time": "Closed"}], "id": "0890100051", "name": "USPS COLLECTION BOX - BLUE BOX", "address": {"city": "NEW BRUNSWICK", "state": "NJ", "street": "1 BARTLETT ST", "postcode": "08901"}}},
{"geometry": {"type": "Point", "coordinates": [-74.4441644831, 40.4960405102]}, "type": "Feature", "properties": {"collection_times": [{"days": "Mon-Fri", "time": "5:00pm"}, {"days": "Sat", "time": "3:00pm"}, {"days": "Sun", "time": "Closed"}], "id": "0890100055", "name": "USPS COLLECTION BOX - BLUE BOX", "address": {"city": "NEW BRUNSWICK", "state": "NJ", "street": "390 GEORGE ST", "postcode": "08901"}}},
{"geometry": {"type": "Point", "coordinates": [-74.4398454999, 40.4870358265]}, "type": "Feature", "properties": {"collection_times": [{"days": "Mon-Sat", "time": "11:00am"}, {"days": "Sun", "time": "Closed"}], "id": "0890100058", "name": "USPS COLLECTION BOX - BLUE BOX", "address": {"city": "NEW BRUNSWICK", "state": "NJ", "street": "161 GEORGE ST", "postcode": "08901"}}},
{"geometry": {"type": "Point", "coordinates": [-74.4478685699, 40.4883943043]}, "type": "Feature", "properties": {"collection_times": [{"days": "Mon-Fri", "time": "5:00pm"}, {"days": "Sat", "time": "3:00pm"}, {"days": "Sun", "time": "Closed"}], "id": "0890100062", "name": "USPS COLLECTION BOX - EXPRESS", "address": {"city": "NEW BRUNSWICK", "state": "NJ", "street": "86 BAYARD ST", "postcode": "08901"}}},
{"geometry": {"type": "Point", "coordinates": [-74.4464560723, 40.4939632304]}, "type": "Feature", "properties": {"collection_times": [{"days": "Mon-Fri", "time": "5:00pm"}, {"days": "Sat", "time": "3:00pm"}, {"days": "Sun", "time": "Closed"}], "id": "0890100063", "name": "USPS COLLECTION BOX - BLUE BOX", "address": {"city": "NEW BRUNSWICK", "state": "NJ", "street": "86 BAYARD ST", "postcode": "08901"}}},
{"geometry": {"type": "Point", "coordinates": [-74.4464560723, 40.4939632304]}, "type": "Feature", "properties": {"collection_times": [{"days": "Mon-Fri", "time": "5:00pm"}, {"days": "Sat", "time": "3:00pm"}, {"days": "Sun", "time": "Closed"}], "id": "0890100064", "name": "USPS COLLECTION BOX - BLUE BOX", "address": {"city": "NEW BRUNSWICK", "state": "NJ", "street": "86 BAYARD ST", "postcode": "08901"}}},
{"geometry": {"type": "Point", "coordinates": [-74.4469030331, 40.4939537706]}, "type": "Feature", "properties": {"collection_times": [{"days": "Mon-Fri", "time": "5:00pm"}, {"days": "Sat", "time": "3:00pm"}, {"days": "Sun", "time": "Closed"}], "id": "0890100065", "name": "USPS COLLECTION BOX - BLUE BOX", "address": {"city": "NEW BRUNSWICK", "state": "NJ", "street": "92 BAYARD ST", "postcode": "08901"}}},
{"geometry": {"type": "Point", "coordinates": [-74.4460879743, 40.4948291602]}, "type": "Feature", "properties": {"collection_times": [{"days": "Mon-Fri", "time": "5:00pm"}, {"days": "Sat", "time": "11:00am"}, {"days": "Sun", "time": "Closed"}], "id": "0890100068", "name": "USPS COLLECTION BOX - BLUE BOX", "address": {"city": "NEW BRUNSWICK", "state": "NJ", "street": "67 PATERSON ST", "postcode": "08901"}}},
{"geometry": {"type": "Point", "coordinates": [-74.446992938, 40.4927270421]}, "type": "Feature", "properties": {"collection_times": [{"days": "Mon-Sat", "time": "11:00am"}, {"days": "Sun", "time": "Closed"}], "id": "0890100071", "name": "USPS COLLECTION BOX - BLUE BOX", "address": {"city": "NEW BRUNSWICK", "state": "NJ", "street": "167 NEW ST", "postcode": "08901"}}},
{"geometry": {"type": "Point", "coordinates": [-74.4454218052, 40.4921057431]}, "type": "Feature", "properties": {"collection_times": [{"days": "Mon-Sat", "time": "3:00pm"}, {"days": "Sun", "time": "Closed"}], "id": "0890100072", "name": "USPS COLLECTION BOX - BLUE BOX", "address": {"city": "NEW BRUNSWICK", "state": "NJ", "street": "51 LIVINGSTON AVE", "postcode": "08901"}}},
{"geometry": {"type": "Point", "coordinates": [-74.4475306916, 40.4910113665]}, "type": "Feature", "properties": {"collection_times": [{"days": "Mon-Sat", "time": "11:00am"}, {"days": "Sun", "time": "Closed"}], "id": "0890100073", "name": "USPS COLLECTION BOX - BLUE BOX", "address": {"city": "NEW BRUNSWICK", "state": "NJ", "street": "253 REDMOND ST", "postcode": "08901"}}},
{"geometry": {"type": "Point", "coordinates": [-74.4523720004, 40.5037750743]}, "type": "Feature", "properties": {"collection_times": [{"days": "Mon-Sat", "time": "11:00am"}, {"days": "Sun", "time": "Closed"}], "id": "0890100074", "name": "USPS COLLECTION BOX - BLUE BOX", "address": {"city": "NEW BRUNSWICK", "state": "NJ", "street": "155 COLLEGE AVE", "postcode": "08901"}}},
{"geometry": {"type": "Point", "coordinates": [-74.4575618875, 40.4885765338]}, "type": "Feature", "properties": {"collection_times": [{"days": "Mon-Sat", "time": "11:00am"}, {"days": "Sun", "time": "Closed"}], "id": "0890100078", "name": "USPS COLLECTION BOX - BLUE BOX", "address": {"city": "NEW BRUNSWICK", "state": "NJ", "street": "100 JERSEY AVE", "postcode": "08901"}}},
{"geometry": {"type": "Point", "coordinates": [-74.4781887488, 40.4747614443]}, "type": "Feature", "properties": {"collection_times": [{"days": "Mon-Sat", "time": "3:00pm"}, {"days": "Sun", "time": "Closed"}], "id": "0890100079", "name": "USPS COLLECTION BOX - BLUE BOX", "address": {"city": "NEW BRUNSWICK", "state": "NJ", "street": "14 HOME NEWS ROW", "postcode": "08901"}}},
{"geometry": {"type": "Point", "coordinates": [-74.4644417989, 40.4830873533]}, "type": "Feature", "properties": {"collection_times": [{"days": "Mon-Sat", "time": "11:00am"}, {"days": "Sun", "time": "Closed"}], "id": "0890100081", "name": "USPS COLLECTION BOX - BLUE BOX", "address": {"city": "NEW BRUNSWICK", "state": "NJ", "street": "422 JERSEY AVE", "postcode": "08901"}}},
{"geometry": {"type": "Point", "coordinates": [-74.4433659858, 40.4927554331]}, "type": "Feature", "properties": {"collection_times": [{"days": "Mon-Fri", "time": "4:00pm"}, {"days": "Sat", "time": "3:00pm"}, {"days": "Sun", "time": "Closed"}], "id": "0890100090", "name": "USPS COLLECTION BOX - BLUE BOX", "address": {"city": "NEW BRUNSWICK", "state": "NJ", "street": "303 GEORGE ST", "postcode": "08901"}}},
{"geometry": {"type": "Point", "coordinates": [-74.4474980187, 40.4988471348]}, "type": "Feature", "properties": {"collection_times": [{"days": "Mon-Sat", "time": "11:00am"}, {"days": "Sun", "time": "Closed"}], "id": "0890100096", "name": "USPS COLLECTION BOX - BLUE BOX", "address": {"city": "NEW BRUNSWICK", "state": "NJ", "street": "29 COLLEGE AVE", "postcode": "08901"}}},
{"geometry": {"type": "Point", "coordinates": [-74.4452232313, 40.4965267063]}, "type": "Feature", "properties": {"collection_times": [{"days": "Mon-Fri", "time": "5:00pm"}, {"days": "Sat", "time": "11:00am"}, {"days": "Sun", "time": "Closed"}], "id": "0890100101", "name": "USPS COLLECTION BOX - BLUE BOX", "address": {"city": "NEW BRUNSWICK", "state": "NJ", "street": "120 ALBANY ST", "postcode": "08901"}}},
{"geometry": {"type": "Point", "coordinates": [-74.4133082063, 40.4887727899]}, "type": "Feature", "properties": {"collection_times": [{"days": "Mon-Sat", "time": "11:00am"}, {"days": "Sun", "time": "Closed"}], "id": "0890100102", "name": "USPS COLLECTION BOX - BLUE BOX", "address": {"city": "NEW BRUNSWICK", "state": "NJ", "street": "50 REGENCY MANOR DR BLDG 8", "postcode": "08901"}}},
{"geometry": {"type": "Point", "coordinates": [-74.4433659858, 40.4927554331]}, "type": "Feature", "properties": {"collection_times": [{"days": "Mon-Sat", "time": "12:00pm"}, {"days": "Sun", "time": "Closed"}], "id": "0890100104", "name": "USPS COLLECTION BOX - BLUE BOX", "address": {"city": "NEW BRUNSWICK", "state": "NJ", "street": "303 GEORGE ST", "postcode": "08901"}}},
{"geometry": {"type": "Point", "coordinates": [-74.4478685699, 40.4883943043]}, "type": "Feature", "properties": {"collection_times": [{"days": "Mon-Sat", "time": "11:00am"}, {"days": "Sun", "time": "Closed"}], "id": "0890100105", "name": "USPS COLLECTION BOX - BLUE BOX", "address": {"city": "NEW BRUNSWICK", "state": "NJ", "street": "245 EASTON AVE", "postcode": "08901"}}},
{"geometry": {"type": "Point", "coordinates": [-74.4533572572, 40.4907609643]}, "type": "Feature", "properties": {"collection_times": [{"days": "Mon-Fri", "time": "4:00pm"}, {"days": "Sat", "time": "1:00pm"}, {"days": "Sun", "time": "Closed"}], "id": "0890100106", "name": "USPS COLLECTION BOX - PO LOBBY", "address": {"city": "NEW BRUNSWICK", "state": "NJ", "street": "333 HANDY ST", "postcode": "08901"}}},
{"geometry": {"type": "Point", "coordinates": [-74.4462489353, 40.4940298795]}, "type": "Feature", "properties": {"collection_times": [{"days": "Mon-Fri", "time": "5:00pm"}, {"days": "Sat", "time": "12:00pm"}, {"days": "Sun", "time": "Closed"}], "id": "0890100108", "name": "USPS COLLECTION BOX - PO LOBBY", "address": {"city": "NEW BRUNSWICK", "state": "NJ", "street": "86 BAYARD ST", "postcode": "08901"}}},
{"geometry": {"type": "Point", "coordinates": [-74.4720799487, 40.4676435802]}, "type": "Feature", "properties": {"collection_times": [{"days": "Mon-Fri", "time": "5:00pm"}, {"days": "Sat", "time": "3:00pm"}, {"days": "Sun", "time": "Closed"}], "id": "0890200001", "name": "USPS COLLECTION BOX - BLUE BOX", "address": {"city": "NEW BRUNSWICK", "state": "NJ", "street": "1062 LIVINGSTON AVE", "postcode": "08902"}}},
{"geometry": {"type": "Point", "coordinates": [-74.4720799487, 40.4676435802]}, "type": "Feature", "properties": {"collection_times": [{"days": "Mon-Fri", "time": "5:00pm"}, {"days": "Sat", "time": "3:00pm"}, {"days": "Sun", "time": "Closed"}], "id": "0890200002", "name": "USPS COLLECTION BOX - BLUE BOX", "address": {"city": "NEW BRUNSWICK", "state": "NJ", "street": "1062 LIVINGSTON AVE", "postcode": "08902"}}},
{"geometry": {"type": "Point", "coordinates": [-74.4723816033, 40.4673880611]}, "type": "Feature", "properties": {"collection_times": [{"days": "Mon-Fri", "time": "4:00pm"}, {"days": "Sat", "time": "3:00pm"}, {"days": "Sun", "time": "Closed"}], "id": "0890200003", "name": "USPS COLLECTION BOX - BLUE BOX", "address": {"city": "NEW BRUNSWICK", "state": "NJ", "street": "1072 LIVINGSTON AVE", "postcode": "08902"}}},
{"geometry": {"type": "Point", "coordinates": [-74.4620614693, 40.4760366741]}, "type": "Feature", "properties": {"collection_times": [{"days": "Mon-Sat", "time": "11:00am"}, {"days": "Sun", "time": "Closed"}], "id": "0890200005", "name": "USPS COLLECTION BOX - BLUE BOX", "address": {"city": "NEW BRUNSWICK", "state": "NJ", "street": "648 LIVINGSTON AVE", "postcode": "08902"}}},
{"geometry": {"type": "Point", "coordinates": [-74.4527314719, 40.4683592704]}, "type": "Feature", "properties": {"collection_times": [{"days": "Mon-Sat", "time": "11:00am"}, {"days": "Sun", "time": "Closed"}], "id": "0890200007", "name": "USPS COLLECTION BOX - BLUE BOX", "address": {"city": "NEW BRUNSWICK", "state": "NJ", "street": "663 GEORGES RD", "postcode": "08902"}}},
{"geometry": {"type": "Point", "coordinates": [-74.4523703512, 40.4667147907]}, "type": "Feature", "properties": {"collection_times": [{"days": "Mon-Sat", "time": "11:00am"}, {"days": "Sun", "time": "Closed"}], "id": "0890200008", "name": "USPS COLLECTION BOX - BLUE BOX", "address": {"city": "NEW BRUNSWICK", "state": "NJ", "street": "560 MILLTOWN RD", "postcode": "08902"}}},
{"geometry": {"type": "Point", "coordinates": [-74.4556594038, 40.4649353507]}, "type": "Feature", "properties": {"collection_times": [{"days": "Mon-Sat", "time": "11:00am"}, {"days": "Sun", "time": "Closed"}], "id": "0890200009", "name": "USPS COLLECTION BOX - BLUE BOX", "address": {"city": "NEW BRUNSWICK", "state": "NJ", "street": "9 PARDUN RD", "postcode": "08902"}}},
{"geometry": {"type": "Point", "coordinates": [-74.4590848821, 40.4618219535]}, "type": "Feature", "properties": {"collection_times": [{"days": "Mon-Sat", "time": "11:00am"}, {"days": "Sun", "time": "Closed"}], "id": "0890200011", "name": "USPS COLLECTION BOX - BLUE BOX", "address": {"city": "NEW BRUNSWICK", "state": "NJ", "street": "869 US HIGHWAY 1", "postcode": "08902"}}},
{"geometry": {"type": "Point", "coordinates": [-74.4847714633, 40.4419242903]}, "type": "Feature", "properties": {"collection_times": [{"days": "Mon-Sat", "time": "11:00am"}, {"days": "Sun", "time": "Closed"}], "id": "0890200012", "name": "USPS COLLECTION BOX - BLUE BOX", "address": {"city": "NEW BRUNSWICK", "state": "NJ", "street": "222 BIRCHWOOD APTS", "postcode": "08902"}}},
{"geometry": {"type": "Point", "coordinates": [-74.4847714633, 40.4419242903]}, "type": "Feature", "properties": {"collection_times": [{"days": "Mon-Fri", "time": "3:00pm"}, {"days": "Sat", "time": "11:00am"}, {"days": "Sun", "time": "Closed"}], "id": "0890200013", "name": "USPS COLLECTION BOX - BLUE BOX", "address": {"city": "NEW BRUNSWICK", "state": "NJ", "street": "850 CAROLIER LN", "postcode": "08902"}}},
{"geometry": {"type": "Point", "coordinates": [-74.461627196, 40.4643329711]}, "type": "Feature", "properties": {"collection_times": [{"days": "Mon-Sat", "time": "11:00am"}, {"days": "Sun", "time": "Closed"}], "id": "0890200015", "name": "USPS COLLECTION BOX - BLUE BOX", "address": {"city": "NEW BRUNSWICK", "state": "NJ", "street": "962 VILLAGE DR W", "postcode": "08902"}}},
{"geometry": {"type": "Point", "coordinates": [-74.4618698299, 40.466295007]}, "type": "Feature", "properties": {"collection_times": [{"days": "Mon-Sat", "time": "11:00am"}, {"days": "Sun", "time": "Closed"}], "id": "0890200016", "name": "USPS COLLECTION BOX - BLUE BOX", "address": {"city": "NEW BRUNSWICK", "state": "NJ", "street": "771 CRANBURY CROSS RD", "postcode": "08902"}}},
{"geometry": {"type": "Point", "coordinates": [-74.4607188108, 40.4724180026]}, "type": "Feature", "properties": {"collection_times": [{"days": "Mon-Sat", "time": "11:00am"}, {"days": "Sun", "time": "Closed"}], "id": "0890200017", "name": "USPS COLLECTION BOX - BLUE BOX", "address": {"city": "NEW BRUNSWICK", "state": "NJ", "street": "30 CLEREMONT AVE", "postcode": "08902"}}},
{"geometry": {"type": "Point", "coordinates": [-74.4587692945, 40.4708340206]}, "type": "Feature", "properties": {"collection_times": [{"days": "Mon-Sat", "time": "11:00am"}, {"days": "Sun", "time": "Closed"}], "id": "0890200018", "name": "USPS COLLECTION BOX - BLUE BOX", "address": {"city": "NEW BRUNSWICK", "state": "NJ", "street": "19 ROSELAND PL", "postcode": "08902"}}},
{"geometry": {"type": "Point", "coordinates": [-74.4791871662, 40.4411050788]}, "type": "Feature", "properties": {"collection_times": [{"days": "Mon-Sat", "time": "11:00am"}, {"days": "Sun", "time": "Closed"}], "id": "0890200019", "name": "USPS COLLECTION BOX - BLUE BOX", "address": {"city": "NEW BRUNSWICK", "state": "NJ", "street": "500 ADAMS LN", "postcode": "08902"}}},
{"geometry": {"type": "Point", "coordinates": [-74.4970510295, 40.466872291]}, "type": "Feature", "properties": {"collection_times": [{"days": "Mon-Sat", "time": "11:00am"}, {"days": "Sun", "time": "Closed"}], "id": "0890200020", "name": "USPS COLLECTION BOX - BLUE BOX", "address": {"city": "NEW BRUNSWICK", "state": "NJ", "street": "1499 SENECA RD", "postcode": "08902"}}},
{"geometry": {"type": "Point", "coordinates": [-74.4999801868, 40.4539611859]}, "type": "Feature", "properties": {"collection_times": [{"days": "Mon-Sat", "time": "11:00am"}, {"days": "Sun", "time": "Closed"}], "id": "0890200021", "name": "USPS COLLECTION BOX - BLUE BOX", "address": {"city": "NEW BRUNSWICK", "state": "NJ", "street": "19 WILLOWBROOK DR", "postcode": "08902"}}},
{"geometry": {"type": "Point", "coordinates": [-74.5096530914, 40.4554721154]}, "type": "Feature", "properties": {"collection_times": [{"days": "Mon-Sat", "time": "11:00am"}, {"days": "Sun", "time": "Closed"}], "id": "0890200022", "name": "USPS COLLECTION BOX - BLUE BOX", "address": {"city": "NEW BRUNSWICK", "state": "NJ", "street": "999 HIDDEN LAKE DR", "postcode": "08902"}}},
{"geometry": {"type": "Point", "coordinates": [-74.5226040067, 40.4358190474]}, "type": "Feature", "properties": {"collection_times": [{"days": "Mon-Sat", "time": "3:30pm"}, {"days": "Sun", "time": "Closed"}], "id": "0890200023", "name": "USPS COLLECTION BOX - BLUE BOX", "address": {"city": "NEW BRUNSWICK", "state": "NJ", "street": "1 PETUNIA DR", "postcode": "08902"}}},
{"geometry": {"type": "Point", "coordinates": [-74.4906644796, 40.4715048176]}, "type": "Feature", "properties": {"collection_times": [{"days": "Mon-Sat", "time": "11:00am"}, {"days": "Sun", "time": "Closed"}], "id": "0890200024", "name": "USPS COLLECTION BOX - BLUE BOX", "address": {"city": "NEW BRUNSWICK", "state": "NJ", "street": "1405 OAK TREE DR", "postcode": "08902"}}},
{"geometry": {"type": "Point", "coordinates": [-74.4558899887, 40.4649506677]}, "type": "Feature", "properties": {"collection_times": [{"days": "Mon-Sat", "time": "11:00am"}, {"days": "Sun", "time": "Closed"}], "id": "0890200025", "name": "USPS COLLECTION BOX - BLUE BOX", "address": {"city": "NEW BRUNSWICK", "state": "NJ", "street": "825 GEORGES RD", "postcode": "08902"}}},
{"geometry": {"type": "Point", "coordinates": [-74.4788612793, 40.4618601177]}, "type": "Feature", "properties": {"collection_times": [{"days": "Mon-Sat", "time": "11:00am"}, {"days": "Sun", "time": "Closed"}], "id": "0890200026", "name": "USPS COLLECTION BOX - BLUE BOX", "address": {"city": "NEW BRUNSWICK", "state": "NJ", "street": "100 N OAKS BLVD", "postcode": "08902"}}},
{"geometry": {"type": "Point", "coordinates": [-74.4731844655, 40.4579396164]}, "type": "Feature", "properties": {"collection_times": [{"days": "Mon-Sat", "time": "11:00am"}, {"days": "Sun", "time": "Closed"}], "id": "0890200027", "name": "USPS COLLECTION BOX - BLUE BOX", "address": {"city": "NEW BRUNSWICK", "state": "NJ", "street": "1345 US HIGHWAY 1", "postcode": "08902"}}},
{"geometry": {"type": "Point", "coordinates": [-74.5001224267, 40.4464568766]}, "type": "Feature", "properties": {"collection_times": [{"days": "Mon-Fri", "time": "3:00pm"}, {"days": "Sat", "time": "11:00am"}, {"days": "Sun", "time": "Closed"}], "id": "0890200028", "name": "USPS COLLECTION BOX - BLUE BOX", "address": {"city": "NEW BRUNSWICK", "state": "NJ", "street": "215 N CENTER DR", "postcode": "08902"}}},
{"geometry": {"type": "Point", "coordinates": [-74.4718634214, 40.4560379784]}, "type": "Feature", "properties": {"collection_times": [{"days": "Mon-Sat", "time": "11:00am"}, {"days": "Sun", "time": "Closed"}], "id": "0890200031", "name": "USPS COLLECTION BOX - BLUE BOX", "address": {"city": "NEW BRUNSWICK", "state": "NJ", "street": "1 SOCIETY HILL WAY", "postcode": "08902"}}},
{"geometry": {"type": "Point", "coordinates": [-74.5258418848, 40.4389698379]}, "type": "Feature", "properties": {"collection_times": [{"days": "Mon-Sat", "time": "11:00am"}, {"days": "Sun", "time": "Closed"}], "id": "0890200032", "name": "USPS COLLECTION BOX - BLUE BOX", "address": {"city": "NEW BRUNSWICK", "state": "NJ", "street": "1 ASPEN DR", "postcode": "08902"}}},
{"geometry": {"type": "Point", "coordinates": [-74.4711584237, 40.4684148695]}, "type": "Feature", "properties": {"collection_times": [{"days": "Mon-Sat", "time": "11:00am"}, {"days": "Sun", "time": "Closed"}], "id": "0890200033", "name": "USPS COLLECTION BOX - BLUE BOX", "address": {"city": "NEW BRUNSWICK", "state": "NJ", "street": "1026 LIVINGSTON AVE", "postcode": "08902"}}},
{"geometry": {"type": "Point", "coordinates": [-74.4857449616, 40.4352963953]}, "type": "Feature", "properties": {"collection_times": [{"days": "Mon-Sat", "time": "11:00am"}, {"days": "Sun", "time": "Closed"}], "id": "0890200037", "name": "USPS COLLECTION BOX - BLUE BOX", "address": {"city": "NEW BRUNSWICK", "state": "NJ", "street": "2200 US HIGHWAY 130", "postcode": "08902"}}},
{"geometry": {"type": "Point", "coordinates": [-74.4592223677, 40.4675619561]}, "type": "Feature", "properties": {"collection_times": [{"days": "Mon-Sat", "time": "11:00am"}, {"days": "Sun", "time": "Closed"}], "id": "0890200038", "name": "USPS COLLECTION BOX - BLUE BOX", "address": {"city": "NEW BRUNSWICK", "state": "NJ", "street": "710 HERMANN RD", "postcode": "08902"}}},
{"geometry": {"type": "Point", "coordinates": [-74.4686312503, 40.444661699]}, "type": "Feature", "properties": {"collection_times": [{"days": "Mon-Fri", "time": "3:00pm"}, {"days": "Sat", "time": "11:00am"}, {"days": "Sun", "time": "Closed"}], "id": "0890200039", "name": "USPS COLLECTION BOX - BLUE BOX", "address": {"city": "NEW BRUNSWICK", "state": "NJ", "street": "1582 US HIGHWAY 130", "postcode": "08902"}}},
{"geometry": {"type": "Point", "coordinates": [-74.4720799487, 40.4676435802]}, "type": "Feature", "properties": {"collection_times": [{"days": "Mon-Fri", "time": "5:00pm"}, {"days": "Sat", "time": "3:00pm"}, {"days": "Sun", "time": "Closed"}], "id": "0890200040", "name": "USPS COLLECTION BOX - APC", "address": {"city": "NEW BRUNSWICK", "state": "NJ", "street": "1062 LIVINGSTON AVE", "postcode": "08902"}}},
{"geometry": {"type": "Point", "coordinates": [-74.4720799487, 40.4676435802]}, "type": "Feature", "properties": {"collection_times": [{"days": "Mon-Fri", "time": "5:00pm"}, {"days": "Sat", "time": "1:00pm"}, {"days": "Sun", "time": "Closed"}], "id": "0890200041", "name": "USPS COLLECTION BOX - PO LOBBY", "address": {"city": "NEW BRUNSWICK", "state": "NJ", "street": "1062 LIVINGSTON AVE", "postcode": "08902"}}},
{"geometry": {"type": "Point", "coordinates": [-74.4255979421, 40.4999584703]}, "type": "Feature", "properties": {"collection_times": [{"days": "Mon-Fri", "time": "5:00pm"}, {"days": "Sat", "time": "3:00pm"}, {"days": "Sun", "time": "Closed"}], "id": "0890400001", "name": "USPS COLLECTION BOX - BLUE BOX", "address": {"city": "NEW BRUNSWICK", "state": "NJ", "street": "406 RARITAN AVE", "postcode": "08904"}}},
{"geometry": {"type": "Point", "coordinates": [-74.4255979421, 40.4999584703]}, "type": "Feature", "properties": {"collection_times": [{"days": "Mon-Fri", "time": "5:00pm"}, {"days": "Sat", "time": "3:00pm"}, {"days": "Sun", "time": "Closed"}], "id": "0890400002", "name": "USPS COLLECTION BOX - BLUE BOX", "address": {"city": "NEW BRUNSWICK", "state": "NJ", "street": "406 RARITAN AVE", "postcode": "08904"}}},
{"geometry": {"type": "Point", "coordinates": [-74.432515264, 40.4981392413]}, "type": "Feature", "properties": {"collection_times": [{"days": "Mon-Sat", "time": "11:00am"}, {"days": "Sun", "time": "Closed"}], "id": "0890400003", "name": "USPS COLLECTION BOX - BLUE BOX", "address": {"city": "NEW BRUNSWICK", "state": "NJ", "street": "104 RARITAN AVE", "postcode": "08904"}}},
{"geometry": {"type": "Point", "coordinates": [-74.4331570499, 40.4940590539]}, "type": "Feature", "properties": {"collection_times": [{"days": "Mon-Sat", "time": "11:00am"}, {"days": "Sun", "time": "Closed"}], "id": "0890400011", "name": "USPS COLLECTION BOX - BLUE BOX", "address": {"city": "NEW BRUNSWICK", "state": "NJ", "street": "107 S ADELAIDE AVE", "postcode": "08904"}}},
{"geometry": {"type": "Point", "coordinates": [-74.4319184812, 40.4965320941]}, "type": "Feature", "properties": {"collection_times": [{"days": "Mon-Sat", "time": "11:00am"}, {"days": "Sun", "time": "Closed"}], "id": "0890400013", "name": "USPS COLLECTION BOX - BLUE BOX", "address": {"city": "NEW BRUNSWICK", "state": "NJ", "street": "119 S 1ST AVE", "postcode": "08904"}}},
{"geometry": {"type": "Point", "coordinates": [-74.4265312967, 40.4955980835]}, "type": "Feature", "properties": {"collection_times": [{"days": "Mon-Sat", "time": "11:00am"}, {"days": "Sun", "time": "Closed"}], "id": "0890400015", "name": "USPS COLLECTION BOX - BLUE BOX", "address": {"city": "NEW BRUNSWICK", "state": "NJ", "street": "236 S 3RD AVE", "postcode": "08904"}}},
{"geometry": {"type": "Point", "coordinates": [-74.4210127932, 40.4969809626]}, "type": "Feature", "properties": {"collection_times": [{"days": "Mon-Sat", "time": "11:00am"}, {"days": "Sun", "time": "Closed"}], "id": "0890400016", "name": "USPS COLLECTION BOX - BLUE BOX", "address": {"city": "NEW BRUNSWICK", "state": "NJ", "street": "242 S 6TH AVE", "postcode": "08904"}}},
{"geometry": {"type": "Point", "coordinates": [-74.4213203625, 40.5009367773]}, "type": "Feature", "properties": {"collection_times": [{"days": "Mon-Fri", "time": "4:00pm"}, {"days": "Sat", "time": "11:00am"}, {"days": "Sun", "time": "Closed"}], "id": "0890400017", "name": "USPS COLLECTION BOX - BLUE BOX", "address": {"city": "NEW BRUNSWICK", "state": "NJ", "street": "44 WOODBRIDGE AVE", "postcode": "08904"}}},
{"geometry": {"type": "Point", "coordinates": [-74.4168166986, 40.4991086764]}, "type": "Feature", "properties": {"collection_times": [{"days": "Mon-Sat", "time": "11:00am"}, {"days": "Sun", "time": "Closed"}], "id": "0890400020", "name": "USPS COLLECTION BOX - BLUE BOX", "address": {"city": "NEW BRUNSWICK", "state": "NJ", "street": "261 S 11TH AVE", "postcode": "08904"}}},
{"geometry": {"type": "Point", "coordinates": [-74.4140936662, 40.5042526113]}, "type": "Feature", "properties": {"collection_times": [{"days": "Mon-Sat", "time": "11:00am"}, {"days": "Sun", "time": "Closed"}], "id": "0890400021", "name": "USPS COLLECTION BOX - BLUE BOX", "address": {"city": "NEW BRUNSWICK", "state": "NJ", "street": "1503 PARKER RD", "postcode": "08904"}}},
{"geometry": {"type": "Point", "coordinates": [-74.4200877193, 40.503599618]}, "type": "Feature", "properties": {"collection_times": [{"days": "Mon-Sat", "time": "11:00am"}, {"days": "Sun", "time": "Closed"}], "id": "0890400022", "name": "USPS COLLECTION BOX - BLUE BOX", "address": {"city": "NEW BRUNSWICK", "state": "NJ", "street": "23 N 10TH AVE", "postcode": "08904"}}},
{"geometry": {"type": "Point", "coordinates": [-74.4227860487, 40.5034316378]}, "type": "Feature", "properties": {"collection_times": [{"days": "Mon-Sat", "time": "11:00am"}, {"days": "Sun", "time": "Closed"}], "id": "0890400023", "name": "USPS COLLECTION BOX - BLUE BOX", "address": {"city": "NEW BRUNSWICK", "state": "NJ", "street": "702 ABBOTT ST", "postcode": "08904"}}},
{"geometry": {"type": "Point", "coordinates": [-74.4247213695, 40.5032896827]}, "type": "Feature", "properties": {"collection_times": [{"days": "Mon-Sat", "time": "11:00am"}, {"days": "Sun", "time": "Closed"}], "id": "0890400024", "name": "USPS COLLECTION BOX - BLUE BOX", "address": {"city": "NEW BRUNSWICK", "state": "NJ", "street": "101 N 5TH AVE", "postcode": "08904"}}},
{"geometry": {"type": "Point", "coordinates": [-74.4293869597, 40.501522342]}, "type": "Feature", "properties": {"collection_times": [{"days": "Mon-Sat", "time": "11:00am"}, {"days": "Sun", "time": "Closed"}], "id": "0890400025", "name": "USPS COLLECTION BOX - BLUE BOX", "address": {"city": "NEW BRUNSWICK", "state": "NJ", "street": "217 N 3RD AVE", "postcode": "08904"}}},
{"geometry": {"type": "Point", "coordinates": [-74.4305178685, 40.5039131021]}, "type": "Feature", "properties": {"collection_times": [{"days": "Mon-Sat", "time": "11:00am"}, {"days": "Sun", "time": "Closed"}], "id": "0890400026", "name": "USPS COLLECTION BOX - BLUE BOX", "address": {"city": "NEW BRUNSWICK", "state": "NJ", "street": "324 LINCOLN AVE", "postcode": "08904"}}},
{"geometry": {"type": "Point", "coordinates": [-74.4340513669, 40.5018074351]}, "type": "Feature", "properties": {"collection_times": [{"days": "Mon-Sat", "time": "11:00am"}, {"days": "Sun", "time": "Closed"}], "id": "0890400028", "name": "USPS COLLECTION BOX - BLUE BOX", "address": {"city": "NEW BRUNSWICK", "state": "NJ", "street": "70 GRANT AVE", "postcode": "08904"}}},
{"geometry": {"type": "Point", "coordinates": [-74.4362969131, 40.507584589]}, "type": "Feature", "properties": {"collection_times": [{"days": "Mon-Sat", "time": "11:00am"}, {"days": "Sun", "time": "Closed"}], "id": "0890400030", "name": "USPS COLLECTION BOX - BLUE BOX", "address": {"city": "NEW BRUNSWICK", "state": "NJ", "street": "100 CEDAR LN", "postcode": "08904"}}},
{"geometry": {"type": "Point", "coordinates": [-74.4170751153, 40.4956139618]}, "type": "Feature", "properties": {"collection_times": [{"days": "Mon-Sat", "time": "11:00am"}, {"days": "Sun", "time": "Closed"}], "id": "0890400032", "name": "USPS COLLECTION BOX - BLUE BOX", "address": {"city": "NEW BRUNSWICK", "state": "NJ", "street": "919 GRAHAM ST", "postcode": "08904"}}},
{"geometry": {"type": "Point", "coordinates": [-74.4332493207, 40.5046985868]}, "type": "Feature", "properties": {"collection_times": [{"days": "Mon-Fri", "time": "5:00pm"}, {"days": "Sat", "time": "11:00am"}, {"days": "Sun", "time": "Closed"}], "id": "0890400033", "name": "USPS COLLECTION BOX - BLUE BOX", "address": {"city": "NEW BRUNSWICK", "state": "NJ", "street": "271 CLEVELAND AVE", "postcode": "08904"}}},
{"geometry": {"type": "Point", "coordinates": [-74.4255979421, 40.4999584703]}, "type": "Feature", "properties": {"collection_times": [{"days": "Mon-Fri", "time": "5:00pm"}, {"days": "Sat", "time": "12:00pm"}, {"days": "Sun", "time": "Closed"}], "id": "0890400034", "name": "USPS COLLECTION BOX - PO LOBBY", "address": {"city": "NEW BRUNSWICK", "state": "NJ", "street": "406 RARITAN AVE", "postcode": "08904"}}}
]}
