{"type": "FeatureCollection", "features": [
{"geometry": {"type": "Point", "coordinates": [-84.271033573, 33.7764168792]}, "type": "Feature", "properties": {"collection_times": [{"days": "Mon-Fri", "time": "5:00pm"}, {"days": "Sat", "time": "9:00am"}, {"days": "Sun", "time": "Closed"}], "id": "3000200012", "name": "USPS COLLECTION BOX - BLUE BOX", "address": {"city": "AVONDALE EST", "state": "GA", "street": "15 FRANKLIN ST", "postcode": "30002"}}},
{"geometry": {"type": "Point", "coordinates": [-84.2593404307, 33.7681617814]}, "type": "Feature", "properties": {"collection_times": [{"days": "Mon-Fri", "time": "5:00pm"}, {"days": "Sat", "time": "9:00am"}, {"days": "Sun", "time": "Closed"}], "id": "3000200013", "name": "USPS COLLECTION BOX - BLUE BOX", "address": {"city": "AVONDALE EST", "state": "GA", "street": "15 FRANKLIN ST", "postcode": "30002"}}},
{"geometry": {"type": "Point", "coordinates": [-84.2593404307, 33.7681617814]}, "type": "Feature", "properties": {"collection_times": [{"days": "Mon-Fri", "time": "5:00pm"}, {"days": "Sat", "time": "9:00am"}, {"days": "Sun", "time": "Closed"}], "id": "3000200017", "name": "USPS COLLECTION BOX - PO LOBBY", "address": {"city": "AVONDALE EST", "state": "GA", "street": "15 FRANKLIN ST", "postcode": "30002"}}},
{"geometry": {"type": "Point", "coordinates": [-84.3535197664, 34.0777387058]}, "type": "Feature", "properties": {"collection_times": [{"days": "Mon-Sat", "time": "12:00pm"}, {"days": "Sun", "time": "Closed"}], "id": "3000400000", "name": "USPS COLLECTION BOX - BLUE BOX", "address": {"city": "ALPHARETTA", "state": "GA", "street": "270 RUCKER RD", "postcode": "30004"}}},
{"geometry": {"type": "Point", "coordinates": [-84.2508326046, 34.1363521325]}, "type": "Feature", "properties": {"collection_times": [{"days": "Mon-Sat", "time": "11:00am"}, {"days": "Sun", "time": "Closed"}], "id": "3000400002", "name": "USPS COLLECTION BOX - BLUE BOX", "address": {"city": "ALPHARETTA", "state": "GA", "street": "4016 NINE MCFARLAND DR", "postcode": "30004"}}},
{"geometry": {"type": "Point", "coordinates": [-84.3138460351, 34.0663229776]}, "type": "Feature", "properties": {"collection_times": [{"days": "Mon-Sat", "time": "12:00pm"}, {"days": "Sun", "time": "Closed"}], "id": "3000400004", "name": "USPS COLLECTION BOX - BLUE BOX", "address": {"city": "ALPHARETTA", "state": "GA", "street": "11940 HWY 9", "postcode": "30004"}}},
{"geometry": {"type": "Point", "coordinates": [-84.3155210349, 34.0671166622]}, "type": "Feature", "properties": {"collection_times": [{"days": "Mon-Sat", "time": "12:00pm"}, {"days": "Sun", "time": "Closed"}], "id": "3000400011", "name": "USPS COLLECTION BOX - BLUE BOX", "address": {"city": "ALPHARETTA", "state": "GA", "street": "1031 CAMBRIDGE SQ", "postcode": "30004"}}},
{"geometry": {"type": "Point", "coordinates": [-84.2328222388, 34.1326830241]}, "type": "Feature", "properties": {"collection_times": [{"days": "Mon-Sat", "time": "11:00am"}, {"days": "Sun", "time": "Closed"}], "id": "3000400013", "name": "USPS COLLECTION BOX - BLUE BOX", "address": {"city": "ALPHARETTA", "state": "GA", "street": "1150 ALPHA DR", "postcode": "30004"}}},
{"geometry": {"type": "Point", "coordinates": [-84.2736426038, 34.083389124]}, "type": "Feature", "properties": {"collection_times": [{"days": "Mon-Sat", "time": "11:00am"}, {"days": "Sun", "time": "Closed"}], "id": "3000400014", "name": "USPS COLLECTION BOX - BLUE BOX", "address": {"city": "ALPHARETTA", "state": "GA", "street": "2001 WESTSIDE PKWY", "postcode": "30004"}}},
{"geometry": {"type": "Point", "coordinates": [-84.3041014313, 34.0666478888]}, "type": "Feature", "properties": {"collection_times": [{"days": "Mon-Fri", "time": "12:00pm"}, {"days": "Sat", "time": "11:00am"}, {"days": "Sun", "time": "Closed"}], "id": "3000400015", "name": "USPS COLLECTION BOX - BLUE BOX", "address": {"city": "ALPHARETTA", "state": "GA", "street": "401 S MAIN ST", "postcode": "30004"}}},
{"geometry": {"type": "Point", "coordinates": [-84.2869733684, 34.0921927047]}, "type": "Feature", "properties": {"collection_times": [{"days": "Mon-Sat", "time": "11:00am"}, {"days": "Sun", "time": "Closed"}], "id": "3000400022", "name": "USPS COLLECTION BOX - BLUE BOX", "address": {"city": "ALPHARETTA", "state": "GA", "street": "700 N MAIN ST", "postcode": "30004"}}},
{"geometry": {"type": "Point", "coordinates": [-84.2208637067, 34.123692536]}, "type": "Feature", "properties": {"collection_times": [{"days": "Mon-Sat", "time": "11:00am"}, {"days": "Sun", "time": "Closed"}], "id": "3000400024", "name": "USPS COLLECTION BOX - BLUE BOX", "address": {"city": "ALPHARETTA", "state": "GA", "street": "900 MCFARLAND 400 BLVD", "postcode": "30004"}}},
{"geometry": {"type": "Point", "coordinates": [-84.234316316, 34.1262252511]}, "type": "Feature", "properties": {"collection_times": [{"days": "Mon-Sat", "time": "11:00am"}, {"days": "Sun", "time": "Closed"}], "id": "3000400027", "name": "USPS COLLECTION BOX - BLUE BOX", "address": {"city": "ALPHARETTA", "state": "GA", "street": "1000 UNION CENTER DR", "postcode": "30004"}}},
{"geometry": {"type": "Point", "coordinates": [-84.2894895221, 34.0705729466]}, "type": "Feature", "properties": {"collection_times": [{"days": "Mon-Fri", "time": "5:00pm"}, {"days": "Sat", "time": "2:00pm"}, {"days": "Sun", "time": "Closed"}], "id": "3000400028", "name": "USPS COLLECTION BOX - PO LOBBY", "address": {"city": "ALPHARETTA", "state": "GA", "street": "2400 OLD MILTON PKWY", "postcode": "30004"}}},
{"geometry": {"type": "Point", "coordinates": [-84.300558781, 34.0681845199]}, "type": "Feature", "properties": {"collection_times": [{"days": "Mon-Sat", "time": "12:00pm"}, {"days": "Sun", "time": "Closed"}], "id": "3000400030", "name": "USPS COLLECTION BOX - BLUE BOX", "address": {"city": "ALPHARETTA", "state": "GA", "street": "282 S MAIN ST", "postcode": "30004"}}},
{"geometry": {"type": "Point", "coordinates": [-84.2518205598, 34.144332804]}, "type": "Feature", "properties": {"collection_times": [{"days": "Mon-Sat", "time": "11:00am"}, {"days": "Sun", "time": "Closed"}], "id": "3000400031", "name": "USPS COLLECTION BOX - BLUE BOX", "address": {"city": "ALPHARETTA", "state": "GA", "street": "5665 HIGHWAY 9 N", "postcode": "30004"}}},
{"geometry": {"type": "Point", "coordinates": [-84.2722431233, 34.0812914799]}, "type": "Feature", "properties": {"collection_times": [{"days": "Mon-Sat", "time": "11:00am"}, {"days": "Sun", "time": "Closed"}], "id": "3000400039", "name": "USPS COLLECTION BOX - BLUE BOX", "address": {"city": "ALPHARETTA", "state": "GA", "street": "2575 WESTSIDE PKWY", "postcode": "30004"}}},
{"geometry": {"type": "Point", "coordinates": [-84.2894895221, 34.0705729466]}, "type": "Feature", "properties": {"collection_times": [{"days": "Mon-Fri", "time": "5:00pm"}, {"days": "Sat", "time": "2:00pm"}, {"days": "Sun", "time": "Closed"}], "id": "3000400044", "name": "USPS COLLECTION BOX - BLUE BOX", "address": {"city": "ALPHARETTA", "state": "GA", "street": "2400 OLD MILTON PKWY", "postcode": "30004"}}},
{"geometry": {"type": "Point", "coordinates": [-84.289551036, 34.0574290895]}, "type": "Feature", "properties": {"collection_times": [{"days": "Mon-Sat", "time": "11:00am"}, {"days": "Sun", "time": "Closed"}], "id": "3000400045", "name": "USPS COLLECTION BOX - BLUE BOX", "address": {"city": "ALPHARETTA", "state": "GA", "street": "2400 LAKEVIEW PKWY", "postcode": "30004"}}},
{"geometry": {"type": "Point", "coordinates": [-84.3555033642, 34.0869036951]}, "type": "Feature", "properties": {"collection_times": [{"days": "Mon-Sat", "time": "12:00pm"}, {"days": "Sun", "time": "Closed"}], "id": "3000400047", "name": "USPS COLLECTION BOX - BLUE BOX", "address": {"city": "ALPHARETTA", "state": "GA", "street": "1602 ABBEY CT", "postcode": "30004"}}},
{"geometry": {"type": "Point", "coordinates": [-84.2921866686, 34.0582737223]}, "type": "Feature", "properties": {"collection_times": [{"days": "Mon-Sat", "time": "11:00am"}, {"days": "Sun", "time": "Closed"}], "id": "3000400049", "name": "USPS COLLECTION BOX - BLUE BOX", "address": {"city": "ALPHARETTA", "state": "GA", "street": "2325 LAKEVIEW PKWY", "postcode": "30004"}}},
{"geometry": {"type": "Point", "coordinates": [-84.2367934321, 34.1088854386]}, "type": "Feature", "properties": {"collection_times": [{"days": "Mon-Sat", "time": "11:00am"}, {"days": "Sun", "time": "Closed"}], "id": "3000400057", "name": "USPS COLLECTION BOX - BLUE BOX", "address": {"city": "ALPHARETTA", "state": "GA", "street": "1360 UNION HILL RD", "postcode": "30004"}}},
{"geometry": {"type": "Point", "coordinates": [-84.2387630588, 34.1580929827]}, "type": "Feature", "properties": {"collection_times": [{"days": "Mon-Sat", "time": "11:00am"}, {"days": "Sun", "time": "Closed"}], "id": "3000400058", "name": "USPS COLLECTION BOX - BLUE BOX", "address": {"city": "ALPHARETTA", "state": "GA", "street": "4900 HIGHWAY 9 N", "postcode": "30004"}}},
{"geometry": {"type": "Point", "coordinates": [-84.2941184111, 34.0915113068]}, "type": "Feature", "properties": {"collection_times": [{"days": "Mon-Fri", "time": "10:30am"}, {"days": "Sat", "time": "9:30am"}, {"days": "Sun", "time": "Closed"}], "id": "3000400061", "name": "USPS COLLECTION BOX - BLUE BOX", "address": {"city": "ALPHARETTA", "state": "GA", "street": "12725 CENTURY DR", "postcode": "30004"}}},
{"geometry": {"type": "Point", "coordinates": [-84.2894895221, 34.0705729466]}, "type": "Feature", "properties": {"collection_times": [{"days": "Mon-Fri", "time": "5:00pm"}, {"days": "Sat", "time": "2:00pm"}, {"days": "Sun", "time": "Closed"}], "id": "3000400062", "name": "USPS COLLECTION BOX - BLUE BOX", "address": {"city": "ALPHARETTA", "state": "GA", "street": "2400 OLD MILTON PKWY", "postcode": "30004"}}},
{"geometry": {"type": "Point", "coordinates": [-84.2894895221, 34.0705729466]}, "type": "Feature", "properties": {"collection_times": [{"days": "Mon-Fri", "time": "5:00pm"}, {"days": "Sat", "time": "2:00pm"}, {"days": "Sun", "time": "Closed"}], "id": "3000400064", "name": "USPS COLLECTION BOX - APC", "address": {"city": "ALPHARETTA", "state": "GA", "street": "2400 OLD MILTON PKWY", "postcode": "30004"}}},
{"geometry": {"type": "Point", "coordinates": [-84.2633130062, 34.0683903873]}, "type": "Feature", "properties": {"collection_times": [{"days": "Mon-Sat", "time": "11:30am"}, {"days": "Sun", "time": "Closed"}], "id": "3000500002", "name": "USPS COLLECTION BOX - BLUE BOX", "address": {"city": "ALPHARETTA", "state": "GA", "street": "3400 OLD MILTON PKWY", "postcode": "30005"}}},
{"geometry": {"type": "Point", "coordinates": [-84.2536293041, 34.0893441395]}, "type": "Feature", "properties": {"collection_times": [{"days": "Mon-Sat", "time": "11:00am"}, {"days": "Sun", "time": "Closed"}], "id": "3000500003", "name": "USPS COLLECTION BOX - BLUE BOX", "address": {"city": "ALPHARETTA", "state": "GA", "street": "5895 WINDWARD PKWY", "postcode": "30005"}}},
{"geometry": {"type": "Point", "coordinates": [-84.2089845522, 34.1242433414]}, "type": "Feature", "properties": {"collection_times": [{"days": "Mon-Sat", "time": "11:00am"}, {"days": "Sun", "time": "Closed"}], "id": "3000500004", "name": "USPS COLLECTION BOX - BLUE BOX", "address": {"city": "ALPHARETTA", "state": "GA", "street": "5800 SHILOH RD", "postcode": "30005"}}},
{"geometry": {"type": "Point", "coordinates": [-84.2002632846, 34.076194362]}, "type": "Feature", "properties": {"collection_times": [{"days": "Mon-Fri", "time": "10:00am"}, {"days": "Sat", "time": "10:30am"}, {"days": "Sun", "time": "Closed"}], "id": "3000500009", "name": "USPS COLLECTION BOX - BLUE BOX", "address": {"city": "ALPHARETTA", "state": "GA", "street": "11950 JONES BRIDGE RD", "postcode": "30005"}}},
{"geometry": {"type": "Point", "coordinates": [-84.2265453131, 34.0647157655]}, "type": "Feature", "properties": {"collection_times": [{"days": "Mon-Fri", "time": "5:00pm"}, {"days": "Sat", "time": "2:00pm"}, {"days": "Sun", "time": "Closed"}], "id": "3000500010", "name": "USPS COLLECTION BOX - PO LOBBY", "address": {"city": "ALPHARETTA", "state": "GA", "street": "4575 WEBB BRIDGE RD", "postcode": "30005"}}},
{"geometry": {"type": "Point", "coordinates": [-84.2265453131, 34.0647157655]}, "type": "Feature", "properties": {"collection_times": [{"days": "Mon-Fri", "time": "5:00pm"}, {"days": "Sat", "time": "2:00pm"}, {"days": "Sun", "time": "Closed"}], "id": "3000500011", "name": "USPS COLLECTION BOX - BLUE BOX", "address": {"city": "ALPHARETTA", "state": "GA", "street": "4575 WEBB BRIDGE RD", "postcode": "30005"}}},
{"geometry": {"type": "Point", "coordinates": [-84.2133625639, 34.09927508]}, "type": "Feature", "properties": {"collection_times": [{"days": "Mon-Sat", "time": "11:00am"}, {"days": "Sun", "time": "Closed"}], "id": "3000500013", "name": "USPS COLLECTION BOX - BLUE BOX", "address": {"city": "ALPHARETTA", "state": "GA", "street": "1290 OLD ALPHARETTA RD", "postcode": "30005"}}},
{"geometry": {"type": "Point", "coordinates": [-84.2426833848, 34.0922459378]}, "type": "Feature", "properties": {"collection_times": [{"days": "Mon-Sat", "time": "11:00am"}, {"days": "Sun", "time": "Closed"}], "id": "3000500014", "name": "USPS COLLECTION BOX - BLUE BOX", "address": {"city": "ALPHARETTA", "state": "GA", "street": "3015 WINDWARD PLZ", "postcode": "30005"}}},
{"geometry": {"type": "Point", "coordinates": [-84.2580098011, 34.0717357953]}, "type": "Feature", "properties": {"collection_times": [{"days": "Mon-Sat", "time": "11:30am"}, {"days": "Sun", "time": "Closed"}], "id": "3000500016", "name": "USPS COLLECTION BOX - BLUE BOX", "address": {"city": "ALPHARETTA", "state": "GA", "street": "3480 PRESTON RIDGE RD", "postcode": "30005"}}},
{"geometry": {"type": "Point", "coordinates": [-84.2197928798, 34.0858123697]}, "type": "Feature", "properties": {"collection_times": [{"days": "Mon-Sat", "time": "11:00am"}, {"days": "Sun", "time": "Closed"}], "id": "3000500017", "name": "USPS COLLECTION BOX - BLUE BOX", "address": {"city": "ALPHARETTA", "state": "GA", "street": "1 LAKE WINDWARD DR & SIGNAL POINT", "postcode": "30005"}}},
{"geometry": {"type": "Point", "coordinates": [-84.2197928798, 34.0858123697]}, "type": "Feature", "properties": {"collection_times": [{"days": "Mon-Sat", "time": "11:30am"}, {"days": "Sun", "time": "Closed"}], "id": "3000500018", "name": "USPS COLLECTION BOX - BLUE BOX", "address": {"city": "ALPHARETTA", "state": "GA", "street": "1 WINDWORD PKWY & CLUBHOUSE DR", "postcode": "30005"}}},
{"geometry": {"type": "Point", "coordinates": [-84.2902073537, 34.0344137665]}, "type": "Feature", "properties": {"collection_times": [{"days": "Mon-Sat", "time": "11:30am"}, {"days": "Sun", "time": "Closed"}], "id": "3000500021", "name": "USPS COLLECTION BOX - BLUE BOX", "address": {"city": "ALPHARETTA", "state": "GA", "street": "10425 OLD ALABAMA CONNECTOR", "postcode": "30005"}}},
{"geometry": {"type": "Point", "coordinates": [-84.1977948239, 34.0911552496]}, "type": "Feature", "properties": {"collection_times": [{"days": "Mon-Sat", "time": "11:15am"}, {"days": "Sun", "time": "Closed"}], "id": "3000500022", "name": "USPS COLLECTION BOX - BLUE BOX", "address": {"city": "ALPHARETTA", "state": "GA", "street": "5470 MCGINNIS VILLAGE PL", "postcode": "30005"}}},
{"geometry": {"type": "Point", "coordinates": [-84.2265453131, 34.0647157655]}, "type": "Feature", "properties": {"collection_times": [{"days": "Mon-Fri", "time": "5:00pm"}, {"days": "Sat", "time": "2:00pm"}, {"days": "Sun", "time": "Closed"}], "id": "3000500024", "name": "USPS COLLECTION BOX - APC", "address": {"city": "ALPHARETTA", "state": "GA", "street": "4575 WEBB BRIDGE RD", "postcode": "30005"}}},
{"geometry": {"type": "Point", "coordinates": [-83.8228079975, 34.0102668283]}, "type": "Feature", "properties": {"collection_times": [{"days": "Mon-Fri", "time": "5:00pm"}, {"days": "Sat", "time": "2:00pm"}, {"days": "Sun", "time": "Closed"}], "id": "3001100000", "name": "USPS COLLECTION BOX - BLUE BOX", "address": {"city": "AUBURN", "state": "GA", "street": "19 COLLEGE ST", "postcode": "30011"}}},
{"geometry": {"type": "Point", "coordinates": [-84.0171675266, 33.6674090939]}, "type": "Feature", "properties": {"collection_times": [{"days": "Mon-Sat", "time": "1:30pm"}, {"days": "Sun", "time": "Closed"}], "id": "3001200000", "name": "USPS COLLECTION BOX - BLUE BOX", "address": {"city": "CONYERS", "state": "GA", "street": "924 S MAIN ST NE", "postcode": "30012"}}},
{"geometry": {"type": "Point", "coordinates": [-84.0143119736, 33.6623018679]}, "type": "Feature", "properties": {"collection_times": [{"days": "Mon-Fri", "time": "5:00pm"}, {"days": "Sat", "time": "2:00pm"}, {"days": "Sun", "time": "Closed"}], "id": "3001200001", "name": "USPS COLLECTION BOX - BLUE BOX", "address": {"city": "CONYERS", "state": "GA", "street": "1007 GREEN ST SE", "postcode": "30012"}}},
{"geometry": {"type": "Point", "coordinates": [-84.0265984805, 33.6663815859]}, "type": "Feature", "properties": {"collection_times": [{"days": "Mon-Sat", "time": "1:30pm"}, {"days": "Sun", "time": "Closed"}], "id": "3001200009", "name": "USPS COLLECTION BOX - BLUE BOX", "address": {"city": "CONYERS", "state": "GA", "street": "1183 WEST AVE SW", "postcode": "30012"}}},
{"geometry": {"type": "Point", "coordinates": [-83.9993946069, 33.6848463929]}, "type": "Feature", "properties": {"collection_times": [{"days": "Mon-Sat", "time": "1:00pm"}, {"days": "Sun", "time": "Closed"}], "id": "3001200011", "name": "USPS COLLECTION BOX - BLUE BOX", "address": {"city": "CONYERS", "state": "GA", "street": "1590 HWY 20 NW", "postcode": "30012"}}},
{"geometry": {"type": "Point", "coordinates": [-84.0143119736, 33.6623018679]}, "type": "Feature", "properties": {"collection_times": [{"days": "Mon-Fri", "time": "5:00pm"}, {"days": "Sat", "time": "2:00pm"}, {"days": "Sun", "time": "Closed"}], "id": "3001200012", "name": "USPS COLLECTION BOX - PO LOBBY", "address": {"city": "CONYERS", "state": "GA", "street": "1007 GREEN ST SE", "postcode": "30012"}}},
{"geometry": {"type": "Point", "coordinates": [-84.0143119736, 33.6623018679]}, "type": "Feature", "properties": {"collection_times": [{"days": "Mon-Fri", "time": "5:00pm"}, {"days": "Sat", "time": "2:00pm"}, {"days": "Sun", "time": "Closed"}], "id": "3001200013", "name": "USPS COLLECTION BOX - PO LOBBY", "address": {"city": "CONYERS", "state": "GA", "street": "1007 GREEN ST SE", "postcode": "30012"}}},
{"geometry": {"type": "Point", "coordinates": [-84.0143167054, 33.6449029074]}, "type": "Feature", "properties": {"collection_times": [{"days": "Mon-Sat", "time": "1:00pm"}, {"days": "Sun", "time": "Closed"}], "id": "3001300001", "name": "USPS COLLECTION BOX - BLUE BOX", "address": {"city": "CONYERS", "state": "GA", "street": "1745 HIGHWAY 138 SE", "postcode": "30013"}}},
{"geometry": {"type": "Point", "coordinates": [-84.0001590526, 33.6299609528]}, "type": "Feature", "properties": {"collection_times": [{"days": "Mon-Sat", "time": "12:30pm"}, {"days": "Sun", "time": "Closed"}], "id": "3001300003", "name": "USPS COLLECTION BOX - BLUE BOX", "address": {"city": "CONYERS", "state": "GA", "street": "2274 SALEM RD SE", "postcode": "30013"}}},
{"geometry": {"type": "Point", "coordinates": [-83.9784635853, 33.6259566371]}, "type": "Feature", "properties": {"collection_times": [{"days": "Mon-Sat", "time": "12:30pm"}, {"days": "Sun", "time": "Closed"}], "id": "3001300006", "name": "USPS COLLECTION BOX - BLUE BOX", "address": {"city": "CONYERS", "state": "GA", "street": "2375 WALL ST SE", "postcode": "30013"}}},
{"geometry": {"type": "Point", "coordinates": [-84.0141712015, 33.645290918]}, "type": "Feature", "properties": {"collection_times": [{"days": "Mon-Fri", "time": "5:15pm"}, {"days": "Sat", "time": "3:00pm"}, {"days": "Sun", "time": "Closed"}], "id": "3001300007", "name": "USPS COLLECTION BOX - BLUE BOX", "address": {"city": "CONYERS", "state": "GA", "street": "1705 HIGHWAY 138 SE", "postcode": "30013"}}},
{"geometry": {"type": "Point", "coordinates": [-84.0141712015, 33.645290918]}, "type": "Feature", "properties": {"collection_times": [{"days": "Mon-Fri", "time": "5:15pm"}, {"days": "Sat", "time": "3:00pm"}, {"days": "Sun", "time": "Closed"}], "id": "3001300008", "name": "USPS COLLECTION BOX - BLUE BOX", "address": {"city": "CONYERS", "state": "GA", "street": "1705 HIGHWAY 138 SE", "postcode": "30013"}}},
{"geometry": {"type": "Point", "coordinates": [-84.0123263472, 33.5963498842]}, "type": "Feature", "properties": {"collection_times": [{"days": "Mon-Sat", "time": "12:30pm"}, {"days": "Sun", "time": "Closed"}], "id": "3001300013", "name": "USPS COLLECTION BOX - BLUE BOX", "address": {"city": "CONYERS", "state": "GA", "street": "1041 HONEY CREEK RD SE", "postcode": "30013"}}},
{"geometry": {"type": "Point", "coordinates": [-84.0143865, 33.6411612082]}, "type": "Feature", "properties": {"collection_times": [{"days": "Mon-Sat", "time": "12:30pm"}, {"days": "Sun", "time": "Closed"}], "id": "3001300014", "name": "USPS COLLECTION BOX - BLUE BOX", "address": {"city": "CONYERS", "state": "GA", "street": "1820 HIGHWAY 20 SE", "postcode": "30013"}}},
{"geometry": {"type": "Point", "coordinates": [-84.0141712015, 33.645290918]}, "type": "Feature", "properties": {"collection_times": [{"days": "Mon-Fri", "time": "5:15pm"}, {"days": "Sat", "time": "3:00pm"}, {"days": "Sun", "time": "Closed"}], "id": "3001300018", "name": "USPS COLLECTION BOX - PO LOBBY", "address": {"city": "CONYERS", "state": "GA", "street": "1705 HIGHWAY 138 SE", "postcode": "30013"}}},
{"geometry": {"type": "Point", "coordinates": [-84.0141712015, 33.645290918]}, "type": "Feature", "properties": {"collection_times": [{"days": "Mon-Fri", "time": "5:15pm"}, {"days": "Sat", "time": "3:00pm"}, {"days": "Sun", "time": "Closed"}], "id": "3001300019", "name": "USPS COLLECTION BOX - APC", "address": {"city": "CONYERS", "state": "GA", "street": "1705 HIGHWAY 138 SE", "postcode": "30013"}}},
{"geometry": {"type": "Point", "coordinates": [-84.0141712015, 33.645290918]}, "type": "Feature", "properties": {"collection_times": [{"days": "Mon-Fri", "time": "5:15pm"}, {"days": "Sat", "time": "3:00pm"}, {"days": "Sun", "time": "Closed"}], "id": "3001300020", "name": "USPS COLLECTION BOX - PO LOBBY", "address": {"city": "CONYERS", "state": "GA", "street": "1705 HIGHWAY 138 SE", "postcode": "30013"}}},
{"geometry": {"type": "Point", "coordinates": [-84.0141712015, 33.645290918]}, "type": "Feature", "properties": {"collection_times": [{"days": "Mon-Fri", "time": "5:15pm"}, {"days": "Sat", "time": "3:00pm"}, {"days": "Sun", "time": "Closed"}], "id": "3001300021", "name": "USPS COLLECTION BOX - PO LOBBY", "address": {"city": "CONYERS", "state": "GA", "street": "1705 HIGHWAY 138 SE", "postcode": "30013"}}},
{"geometry": {"type": "Point", "coordinates": [-84.0141712015, 33.645290918]}, "type": "Feature", "properties": {"collection_times": [{"days": "Mon-Fri", "time": "5:15pm"}, {"days": "Sat", "time": "3:00pm"}, {"days": "Sun", "time": "Closed"}], "id": "3001300022", "name": "USPS COLLECTION BOX - PO LOBBY", "address": {"city": "CONYERS", "state": "GA", "street": "1705 HIGHWAY 138 SE", "postcode": "30013"}}},
{"geometry": {"type": "Point", "coordinates": [-83.858768647, 33.5975328668]}, "type": "Feature", "properties": {"collection_times": [{"days": "Mon-Fri", "time": "1:30pm"}, {"days": "Sat", "time": "10:00am"}, {"days": "Sun", "time": "Closed"}], "id": "3001400003", "name": "USPS COLLECTION BOX - BLUE BOX", "address": {"city": "COVINGTON", "state": "GA", "street": "1132 USHER ST SW", "postcode": "30014"}}},
{"geometry": {"type": "Point", "coordinates": [-83.8491659907, 33.6007290423]}, "type": "Feature", "properties": {"collection_times": [{"days": "Mon-Fri", "time": "1:30pm"}, {"days": "Sat", "time": "10:00am"}, {"days": "Sun", "time": "Closed"}], "id": "3001400007", "name": "USPS COLLECTION BOX - BLUE BOX", "address": {"city": "COVINGTON", "state": "GA", "street": "4151 HOSPITAL DR NE", "postcode": "30014"}}},
{"geometry": {"type": "Point", "coordinates": [-83.8629354732, 33.5987707097]}, "type": "Feature", "properties": {"collection_times": [{"days": "Mon-Fri", "time": "5:00pm"}, {"days": "Sat", "time": "12:00pm"}, {"days": "Sun", "time": "Closed"}], "id": "3001400008", "name": "USPS COLLECTION BOX - BLUE BOX", "address": {"city": "COVINGTON", "state": "GA", "street": "2131 STALLINGS ST NW", "postcode": "30014"}}},
{"geometry": {"type": "Point", "coordinates": [-83.8629354732, 33.5987707097]}, "type": "Feature", "properties": {"collection_times": [{"days": "Mon-Fri", "time": "5:00pm"}, {"days": "Sat", "time": "12:00pm"}, {"days": "Sun", "time": "Closed"}], "id": "3001400009", "name": "USPS COLLECTION BOX - BLUE BOX", "address": {"city": "COVINGTON", "state": "GA", "street": "2131 STALLINGS ST NW", "postcode": "30014"}}},
{"geometry": {"type": "Point", "coordinates": [-83.8598625272, 33.602847322]}, "type": "Feature", "properties": {"collection_times": [{"days": "Mon-Fri", "time": "1:30pm"}, {"days": "Sat", "time": "10:00am"}, {"days": "Sun", "time": "Closed"}], "id": "3001400014", "name": "USPS COLLECTION BOX - BLUE BOX", "address": {"city": "COVINGTON", "state": "GA", "street": "3111 HIGHWAY 278 NE", "postcode": "30014"}}},
{"geometry": {"type": "Point", "coordinates": [-83.8629354732, 33.5987707097]}, "type": "Feature", "properties": {"collection_times": [{"days": "Mon-Fri", "time": "5:00pm"}, {"days": "Sat", "time": "12:00pm"}, {"days": "Sun", "time": "Closed"}], "id": "3001400023", "name": "USPS COLLECTION BOX - PO LOBBY", "address": {"city": "COVINGTON", "state": "GA", "street": "2131 STALLINGS ST NW", "postcode": "30014"}}},
{"geometry": {"type": "Point", "coordinates": [-83.8629354732, 33.5987707097]}, "type": "Feature", "properties": {"collection_times": [{"days": "Mon-Fri", "time": "5:00pm"}, {"days": "Sat", "time": "12:00pm"}, {"days": "Sun", "time": "Closed"}], "id": "3001400025", "name": "USPS COLLECTION BOX - BLUE BOX", "address": {"city": "COVINGTON", "state": "GA", "street": "2131 STALLINGS ST NW", "postcode": "30014"}}},
{"geometry": {"type": "Point", "coordinates": [-83.9638526677, 33.8890762691]}, "type": "Feature", "properties": {"collection_times": [{"days": "Mon-Fri", "time": "4:30pm"}, {"days": "Sat", "time": "1:00pm"}, {"days": "Sun", "time": "Closed"}], "id": "3001700000", "name": "USPS COLLECTION BOX - BLUE BOX", "address": {"city": "GRAYSON", "state": "GA", "street": "516 SOSEBEE FARM RD", "postcode": "30017"}}},
{"geometry": {"type": "Point", "coordinates": [-83.9638526677, 33.8890762691]}, "type": "Feature", "properties": {"collection_times": [{"days": "Mon-Fri", "time": "4:30pm"}, {"days": "Sat", "time": "1:00pm"}, {"days": "Sun", "time": "Closed"}], "id": "3001700002", "name": "USPS COLLECTION BOX - BLUE BOX", "address": {"city": "GRAYSON", "state": "GA", "street": "516 SOSEBEE FARM RD", "postcode": "30017"}}},
{"geometry": {"type": "Point", "coordinates": [-83.9638526677, 33.8890762691]}, "type": "Feature", "properties": {"collection_times": [{"days": "Mon-Fri", "time": "4:30pm"}, {"days": "Sat", "time": "1:00pm"}, {"days": "Sun", "time": "Closed"}], "id": "3001700003", "name": "USPS COLLECTION BOX - PO LOBBY", "address": {"city": "GRAYSON", "state": "GA", "street": "516 SOSEBEE FARM RD", "postcode": "30017"}}},
{"geometry": {"type": "Point", "coordinates": [-83.7999537502, 33.7177310173]}, "type": "Feature", "properties": {"collection_times": [{"days": "Mon-Fri", "time": "3:45pm"}, {"days": "Sat", "time": "9:00am"}, {"days": "Sun", "time": "Closed"}], "id": "3001800001", "name": "USPS COLLECTION BOX - BLUE BOX", "address": {"city": "JERSEY", "state": "GA", "street": "133 MAIN ST", "postcode": "30018"}}},
{"geometry": {"type": "Point", "coordinates": [-83.8809697532, 33.9749840348]}, "type": "Feature", "properties": {"collection_times": [{"days": "Mon-Sat", "time": "11:00am"}, {"days": "Sun", "time": "Closed"}], "id": "3001900002", "name": "USPS COLLECTION BOX - BLUE BOX", "address": {"city": "DACULA", "state": "GA", "street": "2700 BRASELTON HWY", "postcode": "30019"}}},
{"geometry": {"type": "Point", "coordinates": [-83.9176012429, 34.073424881]}, "type": "Feature", "properties": {"collection_times": [{"days": "Mon-Sat", "time": "11:00am"}, {"days": "Sun", "time": "Closed"}], "id": "3001900003", "name": "USPS COLLECTION BOX - BLUE BOX", "address": {"city": "DACULA", "state": "GA", "street": "2463 HAMILTON MILL PKWY", "postcode": "30019"}}},
{"geometry": {"type": "Point", "coordinates": [-83.9050845871, 33.9985232639]}, "type": "Feature", "properties": {"collection_times": [{"days": "Mon-Fri", "time": "5:00pm"}, {"days": "Sat", "time": "4:00pm"}, {"days": "Sun", "time": "Closed"}], "id": "3001900005", "name": "USPS COLLECTION BOX - BLUE BOX", "address": {"city": "DACULA", "state": "GA", "street": "470 DACULA RD", "postcode": "30019"}}},
{"geometry": {"type": "Point", "coordinates": [-83.9050845871, 33.9985232639]}, "type": "Feature", "properties": {"collection_times": [{"days": "Mon-Fri", "time": "5:00pm"}, {"days": "Sat", "time": "4:00pm"}, {"days": "Sun", "time": "Closed"}], "id": "3001900006", "name": "USPS COLLECTION BOX - BLUE BOX", "address": {"city": "DACULA", "state": "GA", "street": "470 DACULA RD", "postcode": "30019"}}},
{"geometry": {"type": "Point", "coordinates": [-83.9051426055, 34.0691865187]}, "type": "Feature", "properties": {"collection_times": [{"days": "Mon-Sat", "time": "10:00am"}, {"days": "Sun", "time": "Closed"}], "id": "3001900007", "name": "USPS COLLECTION BOX - BLUE BOX", "address": {"city": "DACULA", "state": "GA", "street": "3617 BRASELTON HWY", "postcode": "30019"}}},
{"geometry": {"type": "Point", "coordinates": [-84.243084157, 33.813297843]}, "type": "Feature", "properties": {"collection_times": [{"days": "Mon-Fri", "time": "5:00pm"}, {"days": "Sat", "time": "3:00pm"}, {"days": "Sun", "time": "Closed"}], "id": "3002100008", "name": "USPS COLLECTION BOX - PO LOBBY", "address": {"city": "CLARKSTON", "state": "GA", "street": "977 MONTREAL RD", "postcode": "30021"}}},
{"geometry": {"type": "Point", "coordinates": [-84.2430841565, 33.8132978434]}, "type": "Feature", "properties": {"collection_times": [{"days": "Mon-Fri", "time": "5:00pm"}, {"days": "Sat", "time": "3:00pm"}, {"days": "Sun", "time": "Closed"}], "id": "3002100014", "name": "USPS COLLECTION BOX - BLUE BOX", "address": {"city": "CLARKSTON", "state": "GA", "street": "977 MONTREAL RD", "postcode": "30021"}}},
{"geometry": {"type": "Point", "coordinates": [-84.2908735841, 34.046719762]}, "type": "Feature", "properties": {"collection_times": [{"days": "Mon-Sat", "time": "11:30am"}, {"days": "Sun", "time": "Closed"}], "id": "3002200002", "name": "USPS COLLECTION BOX - BLUE BOX", "address": {"city": "ALPHARETTA", "state": "GA", "street": "6301 N POINT PKWY", "postcode": "30022"}}},
{"geometry": {"type": "Point", "coordinates": [-84.2224654331, 34.0474295374]}, "type": "Feature", "properties": {"collection_times": [{"days": "Mon-Sat", "time": "10:30am"}, {"days": "Sun", "time": "Closed"}], "id": "3002200003", "name": "USPS COLLECTION BOX - BLUE BOX", "address": {"city": "ALPHARETTA", "state": "GA", "street": "10955 JONES BRIDGE RD", "postcode": "30022"}}},
{"geometry": {"type": "Point", "coordinates": [-84.3039831965, 34.0417725384]}, "type": "Feature", "properties": {"collection_times": [{"days": "Mon-Sat", "time": "11:30am"}, {"days": "Sun", "time": "Closed"}], "id": "3002200005", "name": "USPS COLLECTION BOX - BLUE BOX", "address": {"city": "ALPHARETTA", "state": "GA", "street": "7501 N POINT PKWY", "postcode": "30022"}}},
{"geometry": {"type": "Point", "coordinates": [-84.2721320546, 34.0218455146]}, "type": "Feature", "properties": {"collection_times": [{"days": "Mon-Sat", "time": "10:30am"}, {"days": "Sun", "time": "Closed"}], "id": "3002200008", "name": "USPS COLLECTION BOX - BLUE BOX", "address": {"city": "ALPHARETTA", "state": "GA", "street": "3000 OLD ALABAMA RD", "postcode": "30022"}}},
{"geometry": {"type": "Point", "coordinates": [-84.2245498068, 34.0488975895]}, "type": "Feature", "properties": {"collection_times": [{"days": "Mon-Sat", "time": "11:30am"}, {"days": "Sun", "time": "Closed"}], "id": "3002200009", "name": "USPS COLLECTION BOX - BLUE BOX", "address": {"city": "ALPHARETTA", "state": "GA", "street": "10945 STATE BRIDGE RD", "postcode": "30022"}}},
{"geometry": {"type": "Point", "coordinates": [-84.2993695954, 34.0475549311]}, "type": "Feature", "properties": {"collection_times": [{"days": "Mon-Sat", "time": "11:30am"}, {"days": "Sun", "time": "Closed"}], "id": "3002200016", "name": "USPS COLLECTION BOX - BLUE BOX", "address": {"city": "ALPHARETTA", "state": "GA", "street": "333 N POINT CTR E", "postcode": "30022"}}},
{"geometry": {"type": "Point", "coordinates": [-84.3000131251, 34.0465375864]}, "type": "Feature", "properties": {"collection_times": [{"days": "Mon-Sat", "time": "11:30am"}, {"days": "Sun", "time": "Closed"}], "id": "3002200017", "name": "USPS COLLECTION BOX - BLUE BOX", "address": {"city": "ALPHARETTA", "state": "GA", "street": "200 N POINT CTR E", "postcode": "30022"}}},
{"geometry": {"type": "Point", "coordinates": [-84.3001905689, 34.0465423182]}, "type": "Feature", "properties": {"collection_times": [{"days": "Mon-Sat", "time": "11:30am"}, {"days": "Sun", "time": "Closed"}], "id": "3002200019", "name": "USPS COLLECTION BOX - BLUE BOX", "address": {"city": "ALPHARETTA", "state": "GA", "street": "555 N POINT CTR E", "postcode": "30022"}}},
{"geometry": {"type": "Point", "coordinates": [-84.295172457, 34.0374524615]}, "type": "Feature", "properties": {"collection_times": [{"days": "Mon-Sat", "time": "11:30am"}, {"days": "Sun", "time": "Closed"}], "id": "3002200020", "name": "USPS COLLECTION BOX - BLUE BOX", "address": {"city": "ALPHARETTA", "state": "GA", "street": "3700 MANSELL RD", "postcode": "30022"}}},
{"geometry": {"type": "Point", "coordinates": [-84.0898308332, 34.0627459251]}, "type": "Feature", "properties": {"collection_times": [{"days": "Mon-Fri", "time": "2:00pm"}, {"days": "Sat", "time": "1:00pm"}, {"days": "Sun", "time": "Closed"}], "id": "3002400001", "name": "USPS COLLECTION BOX - BLUE BOX", "address": {"city": "SUWANEE", "state": "GA", "street": "2510 NORTHBROOK CT", "postcode": "30024"}}},
{"geometry": {"type": "Point", "coordinates": [-84.0442467502, 34.0241560027]}, "type": "Feature", "properties": {"collection_times": [{"days": "Mon-Fri", "time": "2:00pm"}, {"days": "Sat", "time": "1:00pm"}, {"days": "Sun", "time": "Closed"}], "id": "3002400003", "name": "USPS COLLECTION BOX - BLUE BOX", "address": {"city": "SUWANEE", "state": "GA", "street": "2850 LAWRENCEVILLE SUWANEE RD", "postcode": "30024"}}},
{"geometry": {"type": "Point", "coordinates": [-84.1612169196, 34.0837023302]}, "type": "Feature", "properties": {"collection_times": [{"days": "Mon-Fri", "time": "2:00pm"}, {"days": "Sat", "time": "1:00pm"}, {"days": "Sun", "time": "Closed"}], "id": "3002400005", "name": "USPS COLLECTION BOX - BLUE BOX", "address": {"city": "SUWANEE", "state": "GA", "street": "3245 HIGHWAY 141", "postcode": "30024"}}},
{"geometry": {"type": "Point", "coordinates": [-84.1672501476, 34.0699956895]}, "type": "Feature", "properties": {"collection_times": [{"days": "Mon-Fri", "time": "2:00pm"}, {"days": "Sat", "time": "1:00pm"}, {"days": "Sun", "time": "Closed"}], "id": "3002400006", "name": "USPS COLLECTION BOX - BLUE BOX", "address": {"city": "SUWANEE", "state": "GA", "street": "3651 HIGHWAY 141", "postcode": "30024"}}},
{"geometry": {"type": "Point", "coordinates": [-84.0528066881, 34.0367674395]}, "type": "Feature", "properties": {"collection_times": [{"days": "Mon-Fri", "time": "2:00pm"}, {"days": "Sat", "time": "1:00pm"}, {"days": "Sun", "time": "Closed"}], "id": "3002400013", "name": "USPS COLLECTION BOX - BLUE BOX", "address": {"city": "SUWANEE", "state": "GA", "street": "3255 LAWRENCEVILLE SUWANEE RD", "postcode": "30024"}}},
{"geometry": {"type": "Point", "coordinates": [-84.1576558432, 34.0639235343]}, "type": "Feature", "properties": {"collection_times": [{"days": "Mon-Fri", "time": "2:00pm"}, {"days": "Sat", "time": "1:00pm"}, {"days": "Sun", "time": "Closed"}], "id": "3002400017", "name": "USPS COLLECTION BOX - BLUE BOX", "address": {"city": "SUWANEE", "state": "GA", "street": "3851 LAKEFIELD DR", "postcode": "30024"}}},
{"geometry": {"type": "Point", "coordinates": [-84.0879195818, 34.0525377202]}, "type": "Feature", "properties": {"collection_times": [{"days": "Mon-Fri", "time": "5:15pm"}, {"days": "Sat", "time": "4:15pm"}, {"days": "Sun", "time": "Closed"}], "id": "3002400018", "name": "USPS COLLECTION BOX - BLUE BOX", "address": {"city": "SUWANEE", "state": "GA", "street": "990 PEACHTREE INDUSTRIAL BLVD", "postcode": "30024"}}},
{"geometry": {"type": "Point", "coordinates": [-84.0879195818, 34.0525377202]}, "type": "Feature", "properties": {"collection_times": [{"days": "Mon-Fri", "time": "5:15pm"}, {"days": "Sat", "time": "4:15pm"}, {"days": "Sun", "time": "Closed"}], "id": "3002400019", "name": "USPS COLLECTION BOX - BLUE BOX", "address": {"city": "SUWANEE", "state": "GA", "street": "990 PEACHTREE INDUSTRIAL BLVD", "postcode": "30024"}}},
{"geometry": {"type": "Point", "coordinates": [-84.0879195818, 34.0525377202]}, "type": "Feature", "properties": {"collection_times": [{"days": "Mon-Fri", "time": "5:15pm"}, {"days": "Sat", "time": "4:15pm"}, {"days": "Sun", "time": "Closed"}], "id": "3002400020", "name": "USPS COLLECTION BOX - BLUE BOX", "address": {"city": "SUWANEE", "state": "GA", "street": "990 PEACHTREE INDUSTRIAL BLVD", "postcode": "30024"}}},
{"geometry": {"type": "Point", "coordinates": [-84.0879195818, 34.0525377202]}, "type": "Feature", "properties": {"collection_times": [{"days": "Mon-Fri", "time": "5:15pm"}, {"days": "Sat", "time": "4:15pm"}, {"days": "Sun", "time": "Closed"}], "id": "3002400021", "name": "USPS COLLECTION BOX - PO LOBBY", "address": {"city": "SUWANEE", "state": "GA", "street": "990 PEACHTREE INDUSTRIAL BLVD", "postcode": "30024"}}},
{"geometry": {"type": "Point", "coordinates": [-84.0403656323, 34.0034823644]}, "type": "Feature", "properties": {"collection_times": [{"days": "Mon-Fri", "time": "2:00pm"}, {"days": "Sat", "time": "1:00pm"}, {"days": "Sun", "time": "Closed"}], "id": "3002400022", "name": "USPS COLLECTION BOX - BLUE BOX", "address": {"city": "SUWANEE", "state": "GA", "street": "2133 LAWRENCEVILLE SUWANEE RD", "postcode": "30024"}}},
{"geometry": {"type": "Point", "coordinates": [-84.0547112052, 34.0434264043]}, "type": "Feature", "properties": {"collection_times": [{"days": "Mon-Fri", "time": "2:00pm"}, {"days": "Sat", "time": "1:00pm"}, {"days": "Sun", "time": "Closed"}], "id": "3002400023", "name": "USPS COLLECTION BOX - BLUE BOX", "address": {"city": "SUWANEE", "state": "GA", "street": "3455 LAWRENCEVILLE SUWANEE RD", "postcode": "30024"}}},
{"geometry": {"type": "Point", "coordinates": [-84.0879195818, 34.0525377202]}, "type": "Feature", "properties": {"collection_times": [{"days": "Mon-Fri", "time": "5:15pm"}, {"days": "Sat", "time": "4:15pm"}, {"days": "Sun", "time": "Closed"}], "id": "3002400024", "name": "USPS COLLECTION BOX - APC", "address": {"city": "SUWANEE", "state": "GA", "street": "990 PEACHTREE INDUSTRIAL BLVD", "postcode": "30024"}}},
{"geometry": {"type": "Point", "coordinates": [-84.0448169364, 34.0262687675]}, "type": "Feature", "properties": {"collection_times": [{"days": "Mon-Fri", "time": "2:00pm"}, {"days": "Sat", "time": "1:00pm"}, {"days": "Sun", "time": "Closed"}], "id": "3002400025", "name": "USPS COLLECTION BOX - BLUE BOX", "address": {"city": "SUWANEE", "state": "GA", "street": "2855 LAWRENCEVILLE SUWANEE RD", "postcode": "30024"}}},
{"geometry": {"type": "Point", "coordinates": [-83.7192715448, 33.6566383629]}, "type": "Feature", "properties": {"collection_times": [{"days": "Mon-Fri", "time": "4:45pm"}, {"days": "Sat", "time": "12:30pm"}, {"days": "Sun", "time": "Closed"}], "id": "3002500001", "name": "USPS COLLECTION BOX - BLUE BOX", "address": {"city": "SOCIAL CIRCLE", "state": "GA", "street": "125 W HIGHTOWER TRL", "postcode": "30025"}}},
{"geometry": {"type": "Point", "coordinates": [-83.7192715448, 33.6566383629]}, "type": "Feature", "properties": {"collection_times": [{"days": "Mon-Fri", "time": "4:45pm"}, {"days": "Sat", "time": "12:30pm"}, {"days": "Sun", "time": "Closed"}], "id": "3002500003", "name": "USPS COLLECTION BOX - PO LOBBY", "address": {"city": "SOCIAL CIRCLE", "state": "GA", "street": "125 W HIGHTOWER TRL", "postcode": "30025"}}},
{"geometry": {"type": "Point", "coordinates": [-83.7192715448, 33.6566383629]}, "type": "Feature", "properties": {"collection_times": [{"days": "Mon-Fri", "time": "4:45pm"}, {"days": "Sat", "time": "12:30pm"}, {"days": "Sun", "time": "Closed"}], "id": "3002500004", "name": "USPS COLLECTION BOX - PO LOBBY", "address": {"city": "SOCIAL CIRCLE", "state": "GA", "street": "125 W HIGHTOWER TRL", "postcode": "30025"}}},
{"geometry": {"type": "Point", "coordinates": [-84.0937854748, 33.9581360399]}, "type": "Feature", "properties": {"collection_times": [{"days": "Mon-Sat", "time": "7:00pm"}, {"days": "Sun", "time": "Closed"}], "id": "3002600000", "name": "USPS COLLECTION BOX - BLUE BOX", "address": {"city": "DULUTH", "state": "GA", "street": "1605 BOGGS RD", "postcode": "30026"}}},
{"geometry": {"type": "Point", "coordinates": [-84.0937854748, 33.9581360399]}, "type": "Feature", "properties": {"collection_times": [{"days": "Mon-Sat", "time": "7:00pm"}, {"days": "Sun", "time": "Closed"}], "id": "3002600001", "name": "USPS COLLECTION BOX - BLUE BOX", "address": {"city": "DULUTH", "state": "GA", "street": "1605 BOGGS RD", "postcode": "30026"}}},
{"geometry": {"type": "Point", "coordinates": [-84.0939676152, 33.9577815177]}, "type": "Feature", "properties": {"collection_times": [{"days": "Mon-Fri", "time": "5:00pm"}, {"days": "Sat-Sun", "time": "Closed"}], "id": "3002600002", "name": "USPS COLLECTION BOX - EXPRESS", "address": {"city": "DULUTH", "state": "GA", "street": "1605 BOGGS RD", "postcode": "30026"}}},
{"geometry": {"type": "Point", "coordinates": [-84.0937854748, 33.9581360399]}, "type": "Feature", "properties": {"collection_times": [{"days": "Mon-Fri", "time": "7:00pm"}, {"days": "Sat", "time": "2:00pm"}, {"days": "Sun", "time": "Closed"}], "id": "3002600003", "name": "USPS COLLECTION BOX - PO LOBBY", "address": {"city": "DULUTH", "state": "GA", "street": "1605 BOGGS RD", "postcode": "30026"}}},
{"geometry": {"type": "Point", "coordinates": [-84.0937854748, 33.9581360399]}, "type": "Feature", "properties": {"collection_times": [{"days": "Mon-Fri", "time": "7:00pm"}, {"days": "Sat", "time": "2:00pm"}, {"days": "Sun", "time": "Closed"}], "id": "3002600004", "name": "USPS COLLECTION BOX - PO LOBBY", "address": {"city": "DULUTH", "state": "GA", "street": "1605 BOGGS RD", "postcode": "30026"}}},
{"geometry": {"type": "Point", "coordinates": [-84.0937854748, 33.9581360399]}, "type": "Feature", "properties": {"collection_times": [{"days": "Mon-Fri", "time": "7:00pm"}, {"days": "Sat", "time": "2:00pm"}, {"days": "Sun", "time": "Closed"}], "id": "3002600005", "name": "USPS COLLECTION BOX - APC", "address": {"city": "DULUTH", "state": "GA", "street": "1605 BOGGS RD", "postcode": "30026"}}},
{"geometry": {"type": "Point", "coordinates": [-84.2988774845, 33.7740524524]}, "type": "Feature", "properties": {"collection_times": [{"days": "Mon-Sat", "time": "2:00pm"}, {"days": "Sun", "time": "Closed"}], "id": "3003000009", "name": "USPS COLLECTION BOX - BLUE BOX", "address": {"city": "DECATUR", "state": "GA", "street": "1300 COMMERCE DR", "postcode": "30030"}}},
{"geometry": {"type": "Point", "coordinates": [-84.3009027102, 33.7756317027]}, "type": "Feature", "properties": {"collection_times": [{"days": "Mon-Sat", "time": "2:00pm"}, {"days": "Sun", "time": "Closed"}], "id": "3003000015", "name": "USPS COLLECTION BOX - BLUE BOX", "address": {"city": "DECATUR", "state": "GA", "street": "315 W PONCE DE LEON AVE", "postcode": "30030"}}},
{"geometry": {"type": "Point", "coordinates": [-84.2964849148, 33.7730800959]}, "type": "Feature", "properties": {"collection_times": [{"days": "Mon-Sat", "time": "2:00pm"}, {"days": "Sun", "time": "Closed"}], "id": "3003000020", "name": "USPS COLLECTION BOX - BLUE BOX", "address": {"city": "DECATUR", "state": "GA", "street": "545 N MCDONOUGH ST", "postcode": "30030"}}},
{"geometry": {"type": "Point", "coordinates": [-84.2964512356, 33.7775173393]}, "type": "Feature", "properties": {"collection_times": [{"days": "Mon-Sat", "time": "2:00pm"}, {"days": "Sun", "time": "Closed"}], "id": "3003000021", "name": "USPS COLLECTION BOX - BLUE BOX", "address": {"city": "DECATUR", "state": "GA", "street": "160 CLAIREMONT AVE", "postcode": "30030"}}},
{"geometry": {"type": "Point", "coordinates": [-84.3044385746, 33.7752614365]}, "type": "Feature", "properties": {"collection_times": [{"days": "Mon-Sat", "time": "5:15pm"}, {"days": "Sun", "time": "Closed"}], "id": "3003000027", "name": "USPS COLLECTION BOX - BLUE BOX", "address": {"city": "DECATUR", "state": "GA", "street": "520 W PONCE DE LEON AVE", "postcode": "30030"}}},
{"geometry": {"type": "Point", "coordinates": [-84.2964890903, 33.7765567766]}, "type": "Feature", "properties": {"collection_times": [{"days": "Mon-Sat", "time": "2:00pm"}, {"days": "Sun", "time": "Closed"}], "id": "3003000036", "name": "USPS COLLECTION BOX - BLUE BOX", "address": {"city": "DECATUR", "state": "GA", "street": "125 CLAIREMONT AVE", "postcode": "30030"}}},
{"geometry": {"type": "Point", "coordinates": [-84.3044385746, 33.7752614365]}, "type": "Feature", "properties": {"collection_times": [{"days": "Mon-Sat", "time": "5:15pm"}, {"days": "Sun", "time": "Closed"}], "id": "3003000053", "name": "USPS COLLECTION BOX - PO LOBBY", "address": {"city": "DECATUR", "state": "GA", "street": "520 W PONCE DE LEON AVE", "postcode": "30030"}}},
{"geometry": {"type": "Point", "coordinates": [-84.2953865726, 33.7755784695]}, "type": "Feature", "properties": {"collection_times": [{"days": "Mon-Sat", "time": "2:00pm"}, {"days": "Sun", "time": "Closed"}], "id": "3003000054", "name": "USPS COLLECTION BOX - BLUE BOX", "address": {"city": "DECATUR", "state": "GA", "street": "150 E PONCE DE LEON AVE", "postcode": "30030"}}},
{"geometry": {"type": "Point", "coordinates": [-84.3044385746, 33.7752614365]}, "type": "Feature", "properties": {"collection_times": [{"days": "Mon-Sat", "time": "5:15pm"}, {"days": "Sun", "time": "Closed"}], "id": "3003000055", "name": "USPS COLLECTION BOX - APC", "address": {"city": "DECATUR", "state": "GA", "street": "520 W PONCE DE LEON AVE", "postcode": "30030"}}},
{"geometry": {"type": "Point", "coordinates": [-84.3031822266, 33.759673337]}, "type": "Feature", "properties": {"collection_times": [{"days": "Mon-Sat", "time": "2:00pm"}, {"days": "Sun", "time": "Closed"}], "id": "3003000056", "name": "USPS COLLECTION BOX - BLUE BOX", "address": {"city": "DECATUR", "state": "GA", "street": "900 OAKVIEW RD", "postcode": "30030"}}},
{"geometry": {"type": "Point", "coordinates": [-84.2505973802, 33.7700966377]}, "type": "Feature", "properties": {"collection_times": [{"days": "Mon-Sat", "time": "1:30pm"}, {"days": "Sun", "time": "Closed"}], "id": "3003200016", "name": "USPS COLLECTION BOX - BLUE BOX", "address": {"city": "DECATUR", "state": "GA", "street": "4151 MEMORIAL DR", "postcode": "30032"}}},
{"geometry": {"type": "Point", "coordinates": [-84.270293647, 33.7532856078]}, "type": "Feature", "properties": {"collection_times": [{"days": "Mon-Sat", "time": "1:30pm"}, {"days": "Sun", "time": "Closed"}], "id": "3003200017", "name": "USPS COLLECTION BOX - BLUE BOX", "address": {"city": "DECATUR", "state": "GA", "street": "3479 MEMORIAL DR", "postcode": "30032"}}},
{"geometry": {"type": "Point", "coordinates": [-84.2737315559, 33.8083221997]}, "type": "Feature", "properties": {"collection_times": [{"days": "Mon-Fri", "time": "4:30pm"}, {"days": "Sat", "time": "3:30pm"}, {"days": "Sun", "time": "Closed"}], "id": "3003300010", "name": "USPS COLLECTION BOX - BLUE BOX", "address": {"city": "DECATUR", "state": "GA", "street": "2048 LAWRENCEVILLE HWY", "postcode": "30033"}}},
{"geometry": {"type": "Point", "coordinates": [-84.2737315559, 33.8083221997]}, "type": "Feature", "properties": {"collection_times": [{"days": "Mon-Fri", "time": "4:30pm"}, {"days": "Sat", "time": "3:30pm"}, {"days": "Sun", "time": "Closed"}], "id": "3003300011", "name": "USPS COLLECTION BOX - BLUE BOX", "address": {"city": "DECATUR", "state": "GA", "street": "2048 LAWRENCEVILLE HWY", "postcode": "30033"}}},
{"geometry": {"type": "Point", "coordinates": [-84.2737315559, 33.8083221997]}, "type": "Feature", "properties": {"collection_times": [{"days": "Mon-Fri", "time": "4:30pm"}, {"days": "Sat", "time": "3:30pm"}, {"days": "Sun", "time": "Closed"}], "id": "3003300012", "name": "USPS COLLECTION BOX - BLUE BOX", "address": {"city": "DECATUR", "state": "GA", "street": "2048 LAWRENCEVILLE HWY", "postcode": "30033"}}},
{"geometry": {"type": "Point", "coordinates": [-84.2872787166, 33.7924744474]}, "type": "Feature", "properties": {"collection_times": [{"days": "Mon-Sat", "time": "2:00pm"}, {"days": "Sun", "time": "Closed"}], "id": "3003300014", "name": "USPS COLLECTION BOX - BLUE BOX", "address": {"city": "DECATUR", "state": "GA", "street": "2595 N DECATUR RD", "postcode": "30033"}}},
{"geometry": {"type": "Point", "coordinates": [-84.2568055489, 33.8256637691]}, "type": "Feature", "properties": {"collection_times": [{"days": "Mon-Sat", "time": "2:00pm"}, {"days": "Sun", "time": "Closed"}], "id": "3003300018", "name": "USPS COLLECTION BOX - BLUE BOX", "address": {"city": "DECATUR", "state": "GA", "street": "2785 LAWRENCEVILLE HWY", "postcode": "30033"}}},
{"geometry": {"type": "Point", "coordinates": [-84.3058063241, 33.7902066912]}, "type": "Feature", "properties": {"collection_times": [{"days": "Mon-Sat", "time": "1:30pm"}, {"days": "Sun", "time": "Closed"}], "id": "3003300021", "name": "USPS COLLECTION BOX - BLUE BOX", "address": {"city": "DECATUR", "state": "GA", "street": "2105 N DECATUR RD", "postcode": "30033"}}},
{"geometry": {"type": "Point", "coordinates": [-84.3105485576, 33.8030254834]}, "type": "Feature", "properties": {"collection_times": [{"days": "Mon-Sat", "time": "1:30pm"}, {"days": "Sun", "time": "Closed"}], "id": "3003300022", "name": "USPS COLLECTION BOX - BLUE BOX", "address": {"city": "DECATUR", "state": "GA", "street": "1670 CLAIRMONT RD", "postcode": "30033"}}},
{"geometry": {"type": "Point", "coordinates": [-84.2908725364, 33.825126882]}, "type": "Feature", "properties": {"collection_times": [{"days": "Mon-Sat", "time": "1:30pm"}, {"days": "Sun", "time": "Closed"}], "id": "3003300027", "name": "USPS COLLECTION BOX - BLUE BOX", "address": {"city": "DECATUR", "state": "GA", "street": "2840 LAVISTA RD", "postcode": "30033"}}},
{"geometry": {"type": "Point", "coordinates": [-84.3113280544, 33.8034021424]}, "type": "Feature", "properties": {"collection_times": [{"days": "Mon-Sat", "time": "1:30pm"}, {"days": "Sun", "time": "Closed"}], "id": "3003300032", "name": "USPS COLLECTION BOX - BLUE BOX", "address": {"city": "DECATUR", "state": "GA", "street": "1866 SOUTHERN LN", "postcode": "30033"}}},
{"geometry": {"type": "Point", "coordinates": [-84.2737315559, 33.8083221997]}, "type": "Feature", "properties": {"collection_times": [{"days": "Mon-Fri", "time": "2:00pm"}, {"days": "Sat-Sun", "time": "Closed"}], "id": "3003300035", "name": "USPS COLLECTION BOX - PO LOBBY", "address": {"city": "DECATUR", "state": "GA", "street": "2048 LAWRENCEVILLE HWY", "postcode": "30033"}}},
{"geometry": {"type": "Point", "coordinates": [-84.3107047082, 33.8037648328]}, "type": "Feature", "properties": {"collection_times": [{"days": "Mon-Sat", "time": "1:30pm"}, {"days": "Sun", "time": "Closed"}], "id": "3003300037", "name": "USPS COLLECTION BOX - BLUE BOX", "address": {"city": "DECATUR", "state": "GA", "street": "1700 CLAIRMONT RD", "postcode": "30033"}}},
{"geometry": {"type": "Point", "coordinates": [-84.2181903099, 33.7081395886]}, "type": "Feature", "properties": {"collection_times": [{"days": "Mon-Fri", "time": "5:00pm"}, {"days": "Sat", "time": "3:00pm"}, {"days": "Sun", "time": "Closed"}], "id": "3003400014", "name": "USPS COLLECTION BOX - BLUE BOX", "address": {"city": "DECATUR", "state": "GA", "street": "2724 WESLEY CHAPEL RD", "postcode": "30034"}}},
{"geometry": {"type": "Point", "coordinates": [-84.2181903099, 33.7081395886]}, "type": "Feature", "properties": {"collection_times": [{"days": "Mon-Fri", "time": "5:00pm"}, {"days": "Sat", "time": "3:00pm"}, {"days": "Sun", "time": "Closed"}], "id": "3003400019", "name": "USPS COLLECTION BOX - PO LOBBY", "address": {"city": "DECATUR", "state": "GA", "street": "2724 WESLEY CHAPEL RD", "postcode": "30034"}}},
{"geometry": {"type": "Point", "coordinates": [-84.2721328168, 33.7071609447]}, "type": "Feature", "properties": {"collection_times": [{"days": "Mon-Fri", "time": "2:30pm"}, {"days": "Sat", "time": "1:30pm"}, {"days": "Sun", "time": "Closed"}], "id": "3003400020", "name": "USPS COLLECTION BOX - PO LOBBY", "address": {"city": "DECATUR", "state": "GA", "street": "2853 CANDLER RD", "postcode": "30034"}}},
{"geometry": {"type": "Point", "coordinates": [-84.176672946, 33.6809317248]}, "type": "Feature", "properties": {"collection_times": [{"days": "Mon-Sat", "time": "1:00pm"}, {"days": "Sun", "time": "Closed"}], "id": "3003800005", "name": "USPS COLLECTION BOX - BLUE BOX", "address": {"city": "LITHONIA", "state": "GA", "street": "3552 PANOLA RD", "postcode": "30038"}}},
{"geometry": {"type": "Point", "coordinates": [-84.0872958099, 33.6915907489]}, "type": "Feature", "properties": {"collection_times": [{"days": "Mon-Sat", "time": "11:00am"}, {"days": "Sun", "time": "Closed"}], "id": "3003800007", "name": "USPS COLLECTION BOX - BLUE BOX", "address": {"city": "LITHONIA", "state": "GA", "street": "8200 MALL PKWY STE 135", "postcode": "30038"}}},
{"geometry": {"type": "Point", "coordinates": [-84.069278904, 33.837632278]}, "type": "Feature", "properties": {"collection_times": [{"days": "Mon-Sat", "time": "12:00pm"}, {"days": "Sun", "time": "Closed"}], "id": "3003900001", "name": "USPS COLLECTION BOX - BLUE BOX", "address": {"city": "SNELLVILLE", "state": "GA", "street": "4002 HIGHWAY 78 W", "postcode": "30039"}}},
{"geometry": {"type": "Point", "coordinates": [-84.0432944683, 33.8087616514]}, "type": "Feature", "properties": {"collection_times": [{"days": "Mon-Fri", "time": "5:00pm"}, {"days": "Sat", "time": "4:00pm"}, {"days": "Sun", "time": "Closed"}], "id": "3003900006", "name": "USPS COLLECTION BOX - BLUE BOX", "address": {"city": "SNELLVILLE", "state": "GA", "street": "3375 CENTERVILLE HWY", "postcode": "30039"}}},
{"geometry": {"type": "Point", "coordinates": [-84.0432944683, 33.8087616514]}, "type": "Feature", "properties": {"collection_times": [{"days": "Mon-Fri", "time": "5:00pm"}, {"days": "Sat", "time": "4:00pm"}, {"days": "Sun", "time": "Closed"}], "id": "3003900007", "name": "USPS COLLECTION BOX - BLUE BOX", "address": {"city": "SNELLVILLE", "state": "GA", "street": "3375 CENTERVILLE HWY", "postcode": "30039"}}},
{"geometry": {"type": "Point", "coordinates": [-84.0432944683, 33.8087616514]}, "type": "Feature", "properties": {"collection_times": [{"days": "Mon-Fri", "time": "5:00pm"}, {"days": "Sat", "time": "4:00pm"}, {"days": "Sun", "time": "Closed"}], "id": "3003900008", "name": "USPS COLLECTION BOX - BLUE BOX", "address": {"city": "SNELLVILLE", "state": "GA", "street": "3375 CENTERVILLE HWY", "postcode": "30039"}}},
{"geometry": {"type": "Point", "coordinates": [-84.1791064381, 34.1609521945]}, "type": "Feature", "properties": {"collection_times": [{"days": "Mon-Sat", "time": "11:00am"}, {"days": "Sun", "time": "Closed"}], "id": "3004000000", "name": "USPS COLLECTION BOX - BLUE BOX", "address": {"city": "CUMMING", "state": "GA", "street": "2450 ATLANTA HWY", "postcode": "30040"}}},
{"geometry": {"type": "Point", "coordinates": [-84.1946895566, 34.238570864]}, "type": "Feature", "properties": {"collection_times": [{"days": "Mon-Fri", "time": "12:00pm"}, {"days": "Sat", "time": "9:30am"}, {"days": "Sun", "time": "Closed"}], "id": "3004000002", "name": "USPS COLLECTION BOX - BLUE BOX", "address": {"city": "CUMMING", "state": "GA", "street": "2300 BETHELVIEW RD", "postcode": "30040"}}},
{"geometry": {"type": "Point", "coordinates": [-84.1403373538, 34.2068771158]}, "type": "Feature", "properties": {"collection_times": [{"days": "Mon-Fri", "time": "11:00am"}, {"days": "Sat", "time": "9:00am"}, {"days": "Sun", "time": "Closed"}], "id": "3004000003", "name": "USPS COLLECTION BOX - BLUE BOX", "address": {"city": "CUMMING", "state": "GA", "street": "100 W COURTHOUSE SQ", "postcode": "30040"}}},
{"geometry": {"type": "Point", "coordinates": [-84.1714917313, 34.1225982989]}, "type": "Feature", "properties": {"collection_times": [{"days": "Mon-Sat", "time": "11:00am"}, {"days": "Sun", "time": "Closed"}], "id": "3004000004", "name": "USPS COLLECTION BOX - BLUE BOX", "address": {"city": "CUMMING", "state": "GA", "street": "1595 PEACHTREE PKWY", "postcode": "30040"}}},
{"geometry": {"type": "Point", "coordinates": [-84.1349658237, 34.1940057516]}, "type": "Feature", "properties": {"collection_times": [{"days": "Mon-Fri", "time": "12:00pm"}, {"days": "Sat", "time": "10:00am"}, {"days": "Sun", "time": "Closed"}], "id": "3004000005", "name": "USPS COLLECTION BOX - BLUE BOX", "address": {"city": "CUMMING", "state": "GA", "street": "100 COLONY PARK DR", "postcode": "30040"}}},
{"geometry": {"type": "Point", "coordinates": [-84.1389083096, 34.2159763478]}, "type": "Feature", "properties": {"collection_times": [{"days": "Mon-Fri", "time": "5:00pm"}, {"days": "Sat", "time": "3:45pm"}, {"days": "Sun", "time": "Closed"}], "id": "3004000007", "name": "USPS COLLECTION BOX - BLUE BOX", "address": {"city": "CUMMING", "state": "GA", "street": "525 TRIBBLE GAP RD", "postcode": "30040"}}},
{"geometry": {"type": "Point", "coordinates": [-84.1536349657, 34.2986994853]}, "type": "Feature", "properties": {"collection_times": [{"days": "Mon-Sat", "time": "9:30am"}, {"days": "Sun", "time": "Closed"}], "id": "3004000011", "name": "USPS COLLECTION BOX - BLUE BOX", "address": {"city": "CUMMING", "state": "GA", "street": "5410 MATT HWY", "postcode": "30040"}}},
{"geometry": {"type": "Point", "coordinates": [-84.1413703583, 34.1864182137]}, "type": "Feature", "properties": {"collection_times": [{"days": "Mon-Fri", "time": "1:00pm"}, {"days": "Sat", "time": "9:30am"}, {"days": "Sun", "time": "Closed"}], "id": "3004000012", "name": "USPS COLLECTION BOX - BLUE BOX", "address": {"city": "CUMMING", "state": "GA", "street": "500 LAKELAND PLZ", "postcode": "30040"}}},
{"geometry": {"type": "Point", "coordinates": [-84.140352859, 34.1882236045]}, "type": "Feature", "properties": {"collection_times": [{"days": "Mon-Fri", "time": "1:00pm"}, {"days": "Sat", "time": "9:30am"}, {"days": "Sun", "time": "Closed"}], "id": "3004000015", "name": "USPS COLLECTION BOX - BLUE BOX", "address": {"city": "CUMMING", "state": "GA", "street": "580 ATLANTA RD", "postcode": "30040"}}},
{"geometry": {"type": "Point", "coordinates": [-84.1389083096, 34.2159763478]}, "type": "Feature", "properties": {"collection_times": [{"days": "Mon-Fri", "time": "5:00pm"}, {"days": "Sat", "time": "3:45pm"}, {"days": "Sun", "time": "Closed"}], "id": "3004000016", "name": "USPS COLLECTION BOX - PO LOBBY", "address": {"city": "CUMMING", "state": "GA", "street": "525 TRIBBLE GAP RD", "postcode": "30040"}}},
{"geometry": {"type": "Point", "coordinates": [-84.1400166134, 34.1779732479]}, "type": "Feature", "properties": {"collection_times": [{"days": "Mon-Fri", "time": "1:00pm"}, {"days": "Sat", "time": "10:00am"}, {"days": "Sun", "time": "Closed"}], "id": "3004000019", "name": "USPS COLLECTION BOX - BLUE BOX", "address": {"city": "CUMMING", "state": "GA", "street": "1400 BAPTIST MEDICAL CENTER DR", "postcode": "30040"}}},
{"geometry": {"type": "Point", "coordinates": [-84.182770064, 34.1976537244]}, "type": "Feature", "properties": {"collection_times": [{"days": "Mon-Fri", "time": "1:00pm"}, {"days": "Sat", "time": "10:00am"}, {"days": "Sun", "time": "Closed"}], "id": "3004000020", "name": "USPS COLLECTION BOX - BLUE BOX", "address": {"city": "CUMMING", "state": "GA", "street": "1500 MARKET BLVD", "postcode": "30040"}}},
{"geometry": {"type": "Point", "coordinates": [-84.1369162067, 34.2110020053]}, "type": "Feature", "properties": {"collection_times": [{"days": "Mon-Fri", "time": "12:00pm"}, {"days": "Sat", "time": "9:00am"}, {"days": "Sun", "time": "Closed"}], "id": "3004000021", "name": "USPS COLLECTION BOX - BLUE BOX", "address": {"city": "CUMMING", "state": "GA", "street": "327 DAHLONEGA ST", "postcode": "30040"}}},
{"geometry": {"type": "Point", "coordinates": [-84.1160712867, 34.1623007677]}, "type": "Feature", "properties": {"collection_times": [{"days": "Mon-Sat", "time": "11:00am"}, {"days": "Sun", "time": "Closed"}], "id": "3004000022", "name": "USPS COLLECTION BOX - BLUE BOX", "address": {"city": "CUMMING", "state": "GA", "street": "1735 BUFORD HWY", "postcode": "30040"}}},
{"geometry": {"type": "Point", "coordinates": [-84.182770064, 34.1976537244]}, "type": "Feature", "properties": {"collection_times": [{"days": "Mon-Sat", "time": "11:00am"}, {"days": "Sun", "time": "Closed"}], "id": "3004000023", "name": "USPS COLLECTION BOX - BLUE BOX", "address": {"city": "CUMMING", "state": "GA", "street": "1655 FREEDOM PKWY", "postcode": "30040"}}},
{"geometry": {"type": "Point", "coordinates": [-84.1389083096, 34.2159763478]}, "type": "Feature", "properties": {"collection_times": [{"days": "Mon-Fri", "time": "5:00pm"}, {"days": "Sat", "time": "3:45pm"}, {"days": "Sun", "time": "Closed"}], "id": "3004000025", "name": "USPS COLLECTION BOX - APC", "address": {"city": "CUMMING", "state": "GA", "street": "525 TRIBBLE GAP RD", "postcode": "30040"}}},
{"geometry": {"type": "Point", "coordinates": [-84.0695963779, 33.9680861137]}, "type": "Feature", "properties": {"collection_times": [{"days": "Mon-Sat", "time": "1:00pm"}, {"days": "Sun", "time": "Closed"}], "id": "3004300000", "name": "USPS COLLECTION BOX - BLUE BOX", "address": {"city": "LAWRENCEVILLE", "state": "GA", "street": "5435 SUGARLOAF PKWY", "postcode": "30043"}}},
{"geometry": {"type": "Point", "coordinates": [-83.9639496076, 33.9896164812]}, "type": "Feature", "properties": {"collection_times": [{"days": "Mon-Sat", "time": "1:00pm"}, {"days": "Sun", "time": "Closed"}], "id": "3004300005", "name": "USPS COLLECTION BOX - BLUE BOX", "address": {"city": "LAWRENCEVILLE", "state": "GA", "street": "924 PROGRESS CENTER AVE", "postcode": "30043"}}},
{"geometry": {"type": "Point", "coordinates": [-83.9884216485, 34.0365784536]}, "type": "Feature", "properties": {"collection_times": [{"days": "Mon-Sat", "time": "1:00pm"}, {"days": "Sun", "time": "Closed"}], "id": "3004300007", "name": "USPS COLLECTION BOX - BLUE BOX", "address": {"city": "LAWRENCEVILLE", "state": "GA", "street": "2380 BUFORD DR", "postcode": "30043"}}},
{"geometry": {"type": "Point", "coordinates": [-83.9879840389, 34.0052546844]}, "type": "Feature", "properties": {"collection_times": [{"days": "Mon-Sat", "time": "1:00pm"}, {"days": "Sun", "time": "Closed"}], "id": "3004300008", "name": "USPS COLLECTION BOX - BLUE BOX", "address": {"city": "LAWRENCEVILLE", "state": "GA", "street": "1475 BUFORD DR", "postcode": "30043"}}},
{"geometry": {"type": "Point", "coordinates": [-84.02382009, 33.9680139255]}, "type": "Feature", "properties": {"collection_times": [{"days": "Mon-Sat", "time": "1:00pm"}, {"days": "Sun", "time": "Closed"}], "id": "3004300009", "name": "USPS COLLECTION BOX - BLUE BOX", "address": {"city": "LAWRENCEVILLE", "state": "GA", "street": "911 DULUTH HWY", "postcode": "30043"}}},
{"geometry": {"type": "Point", "coordinates": [-83.9881442574, 34.0082470009]}, "type": "Feature", "properties": {"collection_times": [{"days": "Mon-Fri", "time": "5:00pm"}, {"days": "Sat", "time": "3:45pm"}, {"days": "Sun", "time": "Closed"}], "id": "3004300014", "name": "USPS COLLECTION BOX - BLUE BOX", "address": {"city": "LAWRENCEVILLE", "state": "GA", "street": "1557 BUFORD DR", "postcode": "30043"}}},
{"geometry": {"type": "Point", "coordinates": [-83.9881442574, 34.0082470009]}, "type": "Feature", "properties": {"collection_times": [{"days": "Mon-Fri", "time": "5:00pm"}, {"days": "Sat", "time": "3:45pm"}, {"days": "Sun", "time": "Closed"}], "id": "3004300017", "name": "USPS COLLECTION BOX - BLUE BOX", "address": {"city": "LAWRENCEVILLE", "state": "GA", "street": "1557 BUFORD DR", "postcode": "30043"}}},
{"geometry": {"type": "Point", "coordinates": [-84.0783566725, 33.9918170236]}, "type": "Feature", "properties": {"collection_times": [{"days": "Mon-Sat", "time": "1:00pm"}, {"days": "Sun", "time": "Closed"}], "id": "3004300018", "name": "USPS COLLECTION BOX - BLUE BOX", "address": {"city": "LAWRENCEVILLE", "state": "GA", "street": "1735 N BROWN RD", "postcode": "30043"}}},
{"geometry": {"type": "Point", "coordinates": [-83.9881442574, 34.0082470009]}, "type": "Feature", "properties": {"collection_times": [{"days": "Mon-Fri", "time": "5:00pm"}, {"days": "Sat", "time": "3:45pm"}, {"days": "Sun", "time": "Closed"}], "id": "3004300021", "name": "USPS COLLECTION BOX - APC", "address": {"city": "LAWRENCEVILLE", "state": "GA", "street": "1557 BUFORD DR", "postcode": "30043"}}},
{"geometry": {"type": "Point", "coordinates": [-83.9881442574, 34.0082470009]}, "type": "Feature", "properties": {"collection_times": [{"days": "Mon-Fri", "time": "5:00pm"}, {"days": "Sat", "time": "3:45pm"}, {"days": "Sun", "time": "Closed"}], "id": "3004300022", "name": "USPS COLLECTION BOX - PO LOBBY", "address": {"city": "LAWRENCEVILLE", "state": "GA", "street": "1557 BUFORD DR", "postcode": "30043"}}},
{"geometry": {"type": "Point", "coordinates": [-83.9881442574, 34.0082470009]}, "type": "Feature", "properties": {"collection_times": [{"days": "Mon-Fri", "time": "5:00pm"}, {"days": "Sat", "time": "3:45pm"}, {"days": "Sun", "time": "Closed"}], "id": "3004300023", "name": "USPS COLLECTION BOX - PO LOBBY", "address": {"city": "LAWRENCEVILLE", "state": "GA", "street": "1557 BUFORD DR", "postcode": "30043"}}},
{"geometry": {"type": "Point", "coordinates": [-83.9881442574, 34.0082470009]}, "type": "Feature", "properties": {"collection_times": [{"days": "Mon-Fri", "time": "5:00pm"}, {"days": "Sat", "time": "3:45pm"}, {"days": "Sun", "time": "Closed"}], "id": "3004300024", "name": "USPS COLLECTION BOX - PO LOBBY", "address": {"city": "LAWRENCEVILLE", "state": "GA", "street": "1557 BUFORD DR", "postcode": "30043"}}},
{"geometry": {"type": "Point", "coordinates": [-84.0355594393, 33.9665172578]}, "type": "Feature", "properties": {"collection_times": [{"days": "Mon-Sat", "time": "1:00pm"}, {"days": "Sun", "time": "Closed"}], "id": "3004300025", "name": "USPS COLLECTION BOX - BLUE BOX", "address": {"city": "LAWRENCEVILLE", "state": "GA", "street": "2100 RIVERSIDE PKWY", "postcode": "30043"}}},
{"geometry": {"type": "Point", "coordinates": [-84.1262138945, 33.9390054024]}, "type": "Feature", "properties": {"collection_times": [{"days": "Mon-Sat", "time": "12:00pm"}, {"days": "Sun", "time": "Closed"}], "id": "3004400002", "name": "USPS COLLECTION BOX - BLUE BOX", "address": {"city": "LAWRENCEVILLE", "state": "GA", "street": "3664 WOODINGTON PL", "postcode": "30044"}}},
{"geometry": {"type": "Point", "coordinates": [-84.0403985847, 33.9296151052]}, "type": "Feature", "properties": {"collection_times": [{"days": "Mon-Fri", "time": "5:00pm"}, {"days": "Sat", "time": "3:45pm"}, {"days": "Sun", "time": "Closed"}], "id": "3004400005", "name": "USPS COLLECTION BOX - BLUE BOX", "address": {"city": "LAWRENCEVILLE", "state": "GA", "street": "35 PATTERSON RD", "postcode": "30044"}}},
{"geometry": {"type": "Point", "coordinates": [-84.0603894083, 33.887214307]}, "type": "Feature", "properties": {"collection_times": [{"days": "Mon-Sat", "time": "12:00pm"}, {"days": "Sun", "time": "Closed"}], "id": "3004400007", "name": "USPS COLLECTION BOX - BLUE BOX", "address": {"city": "LAWRENCEVILLE", "state": "GA", "street": "875 OAK RD", "postcode": "30044"}}},
{"geometry": {"type": "Point", "coordinates": [-84.0603278944, 33.8888562541]}, "type": "Feature", "properties": {"collection_times": [{"days": "Mon-Sat", "time": "12:00pm"}, {"days": "Sun", "time": "Closed"}], "id": "3004400008", "name": "USPS COLLECTION BOX - BLUE BOX", "address": {"city": "LAWRENCEVILLE", "state": "GA", "street": "850 DOGWOOD RD", "postcode": "30044"}}},
{"geometry": {"type": "Point", "coordinates": [-84.0809728942, 33.9409360225]}, "type": "Feature", "properties": {"collection_times": [{"days": "Mon-Sat", "time": "12:00pm"}, {"days": "Sun", "time": "Closed"}], "id": "3004400011", "name": "USPS COLLECTION BOX - BLUE BOX", "address": {"city": "LAWRENCEVILLE", "state": "GA", "street": "950 HERRINGTON RD", "postcode": "30044"}}},
{"geometry": {"type": "Point", "coordinates": [-84.0558771074, 33.9552635904]}, "type": "Feature", "properties": {"collection_times": [{"days": "Mon-Sat", "time": "12:00pm"}, {"days": "Sun", "time": "Closed"}], "id": "3004400012", "name": "USPS COLLECTION BOX - BLUE BOX", "address": {"city": "LAWRENCEVILLE", "state": "GA", "street": "4850 SUGARLOAF PKWY", "postcode": "30044"}}},
{"geometry": {"type": "Point", "coordinates": [-84.0403985847, 33.9296151052]}, "type": "Feature", "properties": {"collection_times": [{"days": "Mon-Fri", "time": "5:00pm"}, {"days": "Sat", "time": "3:45pm"}, {"days": "Sun", "time": "Closed"}], "id": "3004400014", "name": "USPS COLLECTION BOX - APC", "address": {"city": "LAWRENCEVILLE", "state": "GA", "street": "35 PATTERSON RD", "postcode": "30044"}}},
{"geometry": {"type": "Point", "coordinates": [-84.0463327187, 33.9535155836]}, "type": "Feature", "properties": {"collection_times": [{"days": "Mon-Sat", "time": "12:00pm"}, {"days": "Sun", "time": "Closed"}], "id": "3004400015", "name": "USPS COLLECTION BOX - BLUE BOX", "address": {"city": "LAWRENCEVILLE", "state": "GA", "street": "1585 OLD NORCROSS RD", "postcode": "30044"}}},
{"geometry": {"type": "Point", "coordinates": [-84.0403985847, 33.9296151052]}, "type": "Feature", "properties": {"collection_times": [{"days": "Mon-Fri", "time": "5:00pm"}, {"days": "Sat", "time": "3:45pm"}, {"days": "Sun", "time": "Closed"}], "id": "3004400017", "name": "USPS COLLECTION BOX - PO LOBBY", "address": {"city": "LAWRENCEVILLE", "state": "GA", "street": "35 PATTERSON RD", "postcode": "30044"}}},
{"geometry": {"type": "Point", "coordinates": [-84.0403985847, 33.9296151052]}, "type": "Feature", "properties": {"collection_times": [{"days": "Mon-Fri", "time": "5:00pm"}, {"days": "Sat", "time": "3:45pm"}, {"days": "Sun", "time": "Closed"}], "id": "3004400018", "name": "USPS COLLECTION BOX - PO LOBBY", "address": {"city": "LAWRENCEVILLE", "state": "GA", "street": "35 PATTERSON RD", "postcode": "30044"}}},
{"geometry": {"type": "Point", "coordinates": [-84.0403985847, 33.9296151052]}, "type": "Feature", "properties": {"collection_times": [{"days": "Mon-Fri", "time": "5:00pm"}, {"days": "Sat", "time": "3:45pm"}, {"days": "Sun", "time": "Closed"}], "id": "3004400019", "name": "USPS COLLECTION BOX - PO LOBBY", "address": {"city": "LAWRENCEVILLE", "state": "GA", "street": "35 PATTERSON RD", "postcode": "30044"}}},
{"geometry": {"type": "Point", "coordinates": [-84.0403985847, 33.9296151052]}, "type": "Feature", "properties": {"collection_times": [{"days": "Mon-Fri", "time": "5:00pm"}, {"days": "Sat", "time": "3:45pm"}, {"days": "Sun", "time": "Closed"}], "id": "3004400020", "name": "USPS COLLECTION BOX - PO LOBBY", "address": {"city": "LAWRENCEVILLE", "state": "GA", "street": "35 PATTERSON RD", "postcode": "30044"}}},
{"geometry": {"type": "Point", "coordinates": [-84.0118389868, 33.9637548075]}, "type": "Feature", "properties": {"collection_times": [{"days": "Mon-Sat", "time": "1:00pm"}, {"days": "Sun", "time": "Closed"}], "id": "3004500005", "name": "USPS COLLECTION BOX - BLUE BOX", "address": {"city": "LAWRENCEVILLE", "state": "GA", "street": "601A PROFESSIONAL DR", "postcode": "30045"}}},
{"geometry": {"type": "Point", "coordinates": [-84.0117838574, 33.9637261551]}, "type": "Feature", "properties": {"collection_times": [{"days": "Mon-Sat", "time": "1:00pm"}, {"days": "Sun", "time": "Closed"}], "id": "3004500020", "name": "USPS COLLECTION BOX - BLUE BOX", "address": {"city": "LAWRENCEVILLE", "state": "GA", "street": "600 PROFESSIONAL DR", "postcode": "30045"}}},
{"geometry": {"type": "Point", "coordinates": [-83.9818931077, 33.9399094571]}, "type": "Feature", "properties": {"collection_times": [{"days": "Mon-Sat", "time": "1:00pm"}, {"days": "Sun", "time": "Closed"}], "id": "3004500024", "name": "USPS COLLECTION BOX - BLUE BOX", "address": {"city": "LAWRENCEVILLE", "state": "GA", "street": "455 GRAYSON HWY", "postcode": "30045"}}},
{"geometry": {"type": "Point", "coordinates": [-83.9970302814, 33.9466470744]}, "type": "Feature", "properties": {"collection_times": [{"days": "Mon-Sat", "time": "1:00pm"}, {"days": "Sun", "time": "Closed"}], "id": "3004500031", "name": "USPS COLLECTION BOX - BLUE BOX", "address": {"city": "LAWRENCEVILLE", "state": "GA", "street": "175 GWINNETT DR", "postcode": "30045"}}},
{"geometry": {"type": "Point", "coordinates": [-83.9765484618, 33.9572065936]}, "type": "Feature", "properties": {"collection_times": [{"days": "Mon-Fri", "time": "5:15pm"}, {"days": "Sat", "time": "3:30pm"}, {"days": "Sun", "time": "Closed"}], "id": "3004600001", "name": "USPS COLLECTION BOX - BLUE BOX", "address": {"city": "LAWRENCEVILLE", "state": "GA", "street": "121 E CROGAN ST", "postcode": "30046"}}},
{"geometry": {"type": "Point", "coordinates": [-83.9765484618, 33.9572065936]}, "type": "Feature", "properties": {"collection_times": [{"days": "Mon-Fri", "time": "5:15pm"}, {"days": "Sat", "time": "3:30pm"}, {"days": "Sun", "time": "Closed"}], "id": "3004600004", "name": "USPS COLLECTION BOX - PO LOBBY", "address": {"city": "LAWRENCEVILLE", "state": "GA", "street": "121 E CROGAN ST", "postcode": "30046"}}},
{"geometry": {"type": "Point", "coordinates": [-83.9765484618, 33.9572065936]}, "type": "Feature", "properties": {"collection_times": [{"days": "Mon-Fri", "time": "5:15pm"}, {"days": "Sat", "time": "3:30pm"}, {"days": "Sun", "time": "Closed"}], "id": "3004600005", "name": "USPS COLLECTION BOX - APC", "address": {"city": "LAWRENCEVILLE", "state": "GA", "street": "121 E CROGAN ST", "postcode": "30046"}}},
{"geometry": {"type": "Point", "coordinates": [-84.1633474113, 33.884206937]}, "type": "Feature", "properties": {"collection_times": [{"days": "Mon-Sat", "time": "1:00pm"}, {"days": "Sun", "time": "Closed"}], "id": "3004700000", "name": "USPS COLLECTION BOX - BLUE BOX", "address": {"city": "LILBURN", "state": "GA", "street": "375 ROCKBRIDGE RD NW", "postcode": "30047"}}},
{"geometry": {"type": "Point", "coordinates": [-84.1193850902, 33.9035566606]}, "type": "Feature", "properties": {"collection_times": [{"days": "Mon-Sat", "time": "1:00pm"}, {"days": "Sun", "time": "Closed"}], "id": "3004700002", "name": "USPS COLLECTION BOX - BLUE BOX", "address": {"city": "LILBURN", "state": "GA", "street": "4155 HIGHWAY 29 NW", "postcode": "30047"}}},
{"geometry": {"type": "Point", "coordinates": [-84.0612435046, 33.8853901843]}, "type": "Feature", "properties": {"collection_times": [{"days": "Mon-Sat", "time": "1:00pm"}, {"days": "Sun", "time": "Closed"}], "id": "3004700004", "name": "USPS COLLECTION BOX - BLUE BOX", "address": {"city": "LILBURN", "state": "GA", "street": "3050 FIVE FORKS TRICKUM RD SW", "postcode": "30047"}}},
{"geometry": {"type": "Point", "coordinates": [-84.0920792431, 33.869022951]}, "type": "Feature", "properties": {"collection_times": [{"days": "Mon-Sat", "time": "1:00pm"}, {"days": "Sun", "time": "Closed"}], "id": "3004700012", "name": "USPS COLLECTION BOX - BLUE BOX", "address": {"city": "LILBURN", "state": "GA", "street": "4045 FIVE FORKS TRICKUM RD SW", "postcode": "30047"}}},
{"geometry": {"type": "Point", "coordinates": [-84.1403728128, 33.8589025501]}, "type": "Feature", "properties": {"collection_times": [{"days": "Mon-Sat", "time": "1:00pm"}, {"days": "Sun", "time": "Closed"}], "id": "3004700013", "name": "USPS COLLECTION BOX - BLUE BOX", "address": {"city": "LILBURN", "state": "GA", "street": "5330 LILBURN STONE MOUNTAIN RD SW", "postcode": "30047"}}},
{"geometry": {"type": "Point", "coordinates": [-84.1346159117, 33.8861967877]}, "type": "Feature", "properties": {"collection_times": [{"days": "Mon-Sat", "time": "1:00pm"}, {"days": "Sun", "time": "Closed"}], "id": "3004700014", "name": "USPS COLLECTION BOX - BLUE BOX", "address": {"city": "LILBURN", "state": "GA", "street": "92 MAIN ST NW", "postcode": "30047"}}},
{"geometry": {"type": "Point", "coordinates": [-84.1301876057, 33.9010390077]}, "type": "Feature", "properties": {"collection_times": [{"days": "Mon-Fri", "time": "5:00pm"}, {"days": "Sat", "time": "1:00pm"}, {"days": "Sun", "time": "Closed"}], "id": "3004700020", "name": "USPS COLLECTION BOX - PO LOBBY", "address": {"city": "LILBURN", "state": "GA", "street": "4370 HIGHWAY 29 NW", "postcode": "30047"}}},
{"geometry": {"type": "Point", "coordinates": [-84.1274951215, 33.9089014937]}, "type": "Feature", "properties": {"collection_times": [{"days": "Mon-Sat", "time": "1:00pm"}, {"days": "Sun", "time": "Closed"}], "id": "3004700022", "name": "USPS COLLECTION BOX - BLUE BOX", "address": {"city": "LILBURN", "state": "GA", "street": "645 BEAVER RUIN RD NW", "postcode": "30047"}}},
{"geometry": {"type": "Point", "coordinates": [-84.1301876057, 33.9010390077]}, "type": "Feature", "properties": {"collection_times": [{"days": "Mon-Fri", "time": "5:00pm"}, {"days": "Sat", "time": "1:00pm"}, {"days": "Sun", "time": "Closed"}], "id": "3004700023", "name": "USPS COLLECTION BOX - BLUE BOX", "address": {"city": "LILBURN", "state": "GA", "street": "4370 HIGHWAY 29 NW", "postcode": "30047"}}},
{"geometry": {"type": "Point", "coordinates": [-84.1272048923, 33.9008040305]}, "type": "Feature", "properties": {"collection_times": [{"days": "Mon-Fri", "time": "5:00pm"}, {"days": "Sat", "time": "1:00pm"}, {"days": "Sun", "time": "Closed"}], "id": "3004700024", "name": "USPS COLLECTION BOX - APC", "address": {"city": "LILBURN", "state": "GA", "street": "4370 LAWRENCEVILLE HWY NW", "postcode": "30047"}}},
{"geometry": {"type": "Point", "coordinates": [-83.908441371, 33.844074311]}, "type": "Feature", "properties": {"collection_times": [{"days": "Mon-Fri", "time": "5:00pm"}, {"days": "Sat", "time": "3:15pm"}, {"days": "Sun", "time": "Closed"}], "id": "3005200012", "name": "USPS COLLECTION BOX - BLUE BOX", "address": {"city": "LOGANVILLE", "state": "GA", "street": "4160 LOGAN DR", "postcode": "30052"}}},
{"geometry": {"type": "Point", "coordinates": [-83.908441371, 33.844074311]}, "type": "Feature", "properties": {"collection_times": [{"days": "Mon-Fri", "time": "5:00pm"}, {"days": "Sat", "time": "3:15pm"}, {"days": "Sun", "time": "Closed"}], "id": "3005200013", "name": "USPS COLLECTION BOX - BLUE BOX", "address": {"city": "LOGANVILLE", "state": "GA", "street": "4160 LOGAN DR", "postcode": "30052"}}},
{"geometry": {"type": "Point", "coordinates": [-83.908441371, 33.844074311]}, "type": "Feature", "properties": {"collection_times": [{"days": "Mon-Fri", "time": "5:00pm"}, {"days": "Sat", "time": "3:15pm"}, {"days": "Sun", "time": "Closed"}], "id": "3005200015", "name": "USPS COLLECTION BOX - PO LOBBY", "address": {"city": "LOGANVILLE", "state": "GA", "street": "4160 LOGAN DR", "postcode": "30052"}}},
{"geometry": {"type": "Point", "coordinates": [-83.908441371, 33.844074311]}, "type": "Feature", "properties": {"collection_times": [{"days": "Mon-Fri", "time": "5:00pm"}, {"days": "Sat", "time": "3:15pm"}, {"days": "Sun", "time": "Closed"}], "id": "3005200017", "name": "USPS COLLECTION BOX - APC", "address": {"city": "LOGANVILLE", "state": "GA", "street": "4160 LOGAN DR", "postcode": "30052"}}},
{"geometry": {"type": "Point", "coordinates": [-83.8675371455, 33.6258526673]}, "type": "Feature", "properties": {"collection_times": [{"days": "Mon-Fri", "time": "4:30pm"}, {"days": "Sat", "time": "12:00pm"}, {"days": "Sun", "time": "Closed"}], "id": "3005400000", "name": "USPS COLLECTION BOX - BLUE BOX", "address": {"city": "OXFORD", "state": "GA", "street": "907 EMORY ST", "postcode": "30054"}}},
{"geometry": {"type": "Point", "coordinates": [-83.8675371455, 33.6258526673]}, "type": "Feature", "properties": {"collection_times": [{"days": "Mon-Fri", "time": "4:30pm"}, {"days": "Sat", "time": "12:00pm"}, {"days": "Sun", "time": "Closed"}], "id": "3005400001", "name": "USPS COLLECTION BOX - PO LOBBY", "address": {"city": "OXFORD", "state": "GA", "street": "907 EMORY ST", "postcode": "30054"}}},
{"geometry": {"type": "Point", "coordinates": [-83.7346487527, 33.5183545762]}, "type": "Feature", "properties": {"collection_times": [{"days": "Mon-Fri", "time": "4:15pm"}, {"days": "Sat", "time": "11:30am"}, {"days": "Sun", "time": "Closed"}], "id": "3005500000", "name": "USPS COLLECTION BOX - BLUE BOX", "address": {"city": "MANSFIELD", "state": "GA", "street": "3 W 1ST ST", "postcode": "30055"}}},
{"geometry": {"type": "Point", "coordinates": [-83.7346487527, 33.5183545762]}, "type": "Feature", "properties": {"collection_times": [{"days": "Mon-Fri", "time": "4:15pm"}, {"days": "Sat", "time": "11:30am"}, {"days": "Sun", "time": "Closed"}], "id": "3005500001", "name": "USPS COLLECTION BOX - PO LOBBY", "address": {"city": "MANSFIELD", "state": "GA", "street": "3 W 1ST ST", "postcode": "30055"}}},
{"geometry": {"type": "Point", "coordinates": [-83.694386488, 33.516297338]}, "type": "Feature", "properties": {"collection_times": [{"days": "Mon-Fri", "time": "3:45pm"}, {"days": "Sat", "time": "11:30am"}, {"days": "Sun", "time": "Closed"}], "id": "3005600000", "name": "USPS COLLECTION BOX - BLUE BOX", "address": {"city": "NEWBORN", "state": "GA", "street": "103 N JOHNSON ST", "postcode": "30056"}}},
{"geometry": {"type": "Point", "coordinates": [-83.6945867516, 33.5162321951]}, "type": "Feature", "properties": {"collection_times": [{"days": "Mon-Sat", "time": "11:30am"}, {"days": "Sun", "time": "Closed"}], "id": "3005600001", "name": "USPS COLLECTION BOX - PO LOBBY", "address": {"city": "NEWBORN", "state": "GA", "street": "103 N JOHNSON ST", "postcode": "30056"}}},
{"geometry": {"type": "Point", "coordinates": [-84.1079124188, 33.7156119137]}, "type": "Feature", "properties": {"collection_times": [{"days": "Mon-Fri", "time": "5:00pm"}, {"days": "Sat", "time": "3:30pm"}, {"days": "Sun", "time": "Closed"}], "id": "3005800005", "name": "USPS COLLECTION BOX - BLUE BOX", "address": {"city": "LITHONIA", "state": "GA", "street": "3035 STONE MOUNTAIN ST", "postcode": "30058"}}},
{"geometry": {"type": "Point", "coordinates": [-84.1079124188, 33.7156119137]}, "type": "Feature", "properties": {"collection_times": [{"days": "Mon-Fri", "time": "5:00pm"}, {"days": "Sat", "time": "3:30pm"}, {"days": "Sun", "time": "Closed"}], "id": "3005800006", "name": "USPS COLLECTION BOX - BLUE BOX", "address": {"city": "LITHONIA", "state": "GA", "street": "3035 STONE MOUNTAIN ST", "postcode": "30058"}}},
{"geometry": {"type": "Point", "coordinates": [-84.1663080051, 33.7228599032]}, "type": "Feature", "properties": {"collection_times": [{"days": "Mon-Sat", "time": "1:00pm"}, {"days": "Sun", "time": "Closed"}], "id": "3005800014", "name": "USPS COLLECTION BOX - BLUE BOX", "address": {"city": "LITHONIA", "state": "GA", "street": "6116 COVINGTON HWY", "postcode": "30058"}}},
{"geometry": {"type": "Point", "coordinates": [-84.1079124188, 33.7156119137]}, "type": "Feature", "properties": {"collection_times": [{"days": "Mon-Fri", "time": "5:00pm"}, {"days": "Sat", "time": "3:30pm"}, {"days": "Sun", "time": "Closed"}], "id": "3005800018", "name": "USPS COLLECTION BOX - PO LOBBY", "address": {"city": "LITHONIA", "state": "GA", "street": "3035 STONE MOUNTAIN ST", "postcode": "30058"}}},
{"geometry": {"type": "Point", "coordinates": [-84.173020521, 33.6985644845]}, "type": "Feature", "properties": {"collection_times": [{"days": "Mon-Sat", "time": "1:00pm"}, {"days": "Sun", "time": "Closed"}], "id": "3005800019", "name": "USPS COLLECTION BOX - BLUE BOX", "address": {"city": "LITHONIA", "state": "GA", "street": "3037 PANOLA RD", "postcode": "30058"}}},
{"geometry": {"type": "Point", "coordinates": [-84.5347993664, 33.9362265366]}, "type": "Feature", "properties": {"collection_times": [{"days": "Mon-Fri", "time": "12:00pm"}, {"days": "Sat-Sun", "time": "Closed"}], "id": "3006000006", "name": "USPS COLLECTION BOX - BLUE BOX", "address": {"city": "MARIETTA", "state": "GA", "street": "805 WALKER ST SE", "postcode": "30060"}}},
{"geometry": {"type": "Point", "coordinates": [-84.5450074756, 33.9531938433]}, "type": "Feature", "properties": {"collection_times": [{"days": "Mon-Sat", "time": "5:00pm"}, {"days": "Sun", "time": "Closed"}], "id": "3006000017", "name": "USPS COLLECTION BOX - BLUE BOX", "address": {"city": "MARIETTA", "state": "GA", "street": "257 LAWRENCE ST NE", "postcode": "30060"}}},
{"geometry": {"type": "Point", "coordinates": [-84.5450074756, 33.9531938433]}, "type": "Feature", "properties": {"collection_times": [{"days": "Mon-Sat", "time": "5:00pm"}, {"days": "Sun", "time": "Closed"}], "id": "3006000021", "name": "USPS COLLECTION BOX - APC", "address": {"city": "MARIETTA", "state": "GA", "street": "257 LAWRENCE ST NE", "postcode": "30060"}}},
{"geometry": {"type": "Point", "coordinates": [-84.5478974444, 33.9690797992]}, "type": "Feature", "properties": {"collection_times": [{"days": "Mon-Sat", "time": "12:00pm"}, {"days": "Sun", "time": "Closed"}], "id": "3006000029", "name": "USPS COLLECTION BOX - BLUE BOX", "address": {"city": "MARIETTA", "state": "GA", "street": "709 CANTON RD NE", "postcode": "30060"}}},
{"geometry": {"type": "Point", "coordinates": [-84.5351782696, 33.9382956581]}, "type": "Feature", "properties": {"collection_times": [{"days": "Mon-Sat", "time": "12:00pm"}, {"days": "Sun", "time": "Closed"}], "id": "3006000031", "name": "USPS COLLECTION BOX - BLUE BOX", "address": {"city": "MARIETTA", "state": "GA", "street": "580 S FAIRGROUND ST SE", "postcode": "30060"}}},
{"geometry": {"type": "Point", "coordinates": [-84.5339290649, 33.9415890159]}, "type": "Feature", "properties": {"collection_times": [{"days": "Mon-Sat", "time": "12:00pm"}, {"days": "Sun", "time": "Closed"}], "id": "3006000032", "name": "USPS COLLECTION BOX - BLUE BOX", "address": {"city": "MARIETTA", "state": "GA", "street": "430 COMMERCE PARK DR SE", "postcode": "30060"}}},
{"geometry": {"type": "Point", "coordinates": [-84.5502255076, 33.9685025153]}, "type": "Feature", "properties": {"collection_times": [{"days": "Mon-Sat", "time": "1:30pm"}, {"days": "Sun", "time": "Closed"}], "id": "3006000036", "name": "USPS COLLECTION BOX - BLUE BOX", "address": {"city": "MARIETTA", "state": "GA", "street": "677 CHURCH ST NE", "postcode": "30060"}}},
{"geometry": {"type": "Point", "coordinates": [-84.5058095135, 33.92099119]}, "type": "Feature", "properties": {"collection_times": [{"days": "Mon-Fri", "time": "12:00pm"}, {"days": "Sat-Sun", "time": "Closed"}], "id": "3006000038", "name": "USPS COLLECTION BOX - BLUE BOX", "address": {"city": "MARIETTA", "state": "GA", "street": "1295 BARRACKS CT", "postcode": "30060"}}},
{"geometry": {"type": "Point", "coordinates": [-84.5509032507, 33.9674972893]}, "type": "Feature", "properties": {"collection_times": [{"days": "Mon-Sat", "time": "1:30pm"}, {"days": "Sun", "time": "Closed"}], "id": "3006000045", "name": "USPS COLLECTION BOX - BLUE BOX", "address": {"city": "MARIETTA", "state": "GA", "street": "61 WHITCHER ST NE", "postcode": "30060"}}},
{"geometry": {"type": "Point", "coordinates": [-84.5628427677, 33.9793504412]}, "type": "Feature", "properties": {"collection_times": [{"days": "Mon-Sat", "time": "1:00pm"}, {"days": "Sun", "time": "Closed"}], "id": "3006000056", "name": "USPS COLLECTION BOX - BLUE BOX", "address": {"city": "MARIETTA", "state": "GA", "street": "1349 OLD 41 HWY NW", "postcode": "30060"}}},
{"geometry": {"type": "Point", "coordinates": [-84.5490342679, 33.9511615198]}, "type": "Feature", "properties": {"collection_times": [{"days": "Mon-Sat", "time": "2:30pm"}, {"days": "Sun", "time": "Closed"}], "id": "3006000059", "name": "USPS COLLECTION BOX - BLUE BOX", "address": {"city": "MARIETTA", "state": "GA", "street": "31 ATLANTA ST SE", "postcode": "30060"}}},
{"geometry": {"type": "Point", "coordinates": [-84.5450074756, 33.9531938433]}, "type": "Feature", "properties": {"collection_times": [{"days": "Mon-Sat", "time": "5:00pm"}, {"days": "Sun", "time": "Closed"}], "id": "3006000064", "name": "USPS COLLECTION BOX - PO LOBBY", "address": {"city": "MARIETTA", "state": "GA", "street": "257 LAWRENCE ST NE", "postcode": "30060"}}},
{"geometry": {"type": "Point", "coordinates": [-84.5450074756, 33.9531938433]}, "type": "Feature", "properties": {"collection_times": [{"days": "Mon-Sat", "time": "5:00pm"}, {"days": "Sun", "time": "Closed"}], "id": "3006000065", "name": "USPS COLLECTION BOX - PO LOBBY", "address": {"city": "MARIETTA", "state": "GA", "street": "257 LAWRENCE ST NE", "postcode": "30060"}}},
{"geometry": {"type": "Point", "coordinates": [-84.5509979901, 33.9674937887]}, "type": "Feature", "properties": {"collection_times": [{"days": "Mon-Fri", "time": "1:30pm"}, {"days": "Sat-Sun", "time": "Closed"}], "id": "3006000067", "name": "USPS COLLECTION BOX - BLUE BOX", "address": {"city": "MARIETTA", "state": "GA", "street": "55 WHITCHER ST NE", "postcode": "30060"}}},
{"geometry": {"type": "Point", "coordinates": [-84.5490591101, 33.952481702]}, "type": "Feature", "properties": {"collection_times": [{"days": "Mon-Sat", "time": "2:30pm"}, {"days": "Sun", "time": "Closed"}], "id": "3006000068", "name": "USPS COLLECTION BOX - BLUE BOX", "address": {"city": "MARIETTA", "state": "GA", "street": "10 EAST PARK SQ", "postcode": "30060"}}},
{"geometry": {"type": "Point", "coordinates": [-84.5566253156, 33.9647276932]}, "type": "Feature", "properties": {"collection_times": [{"days": "Mon-Fri", "time": "1:00pm"}, {"days": "Sat-Sun", "time": "Closed"}], "id": "3006000069", "name": "USPS COLLECTION BOX - BLUE BOX", "address": {"city": "MARIETTA", "state": "GA", "street": "531 ROSELANE ST NW", "postcode": "30060"}}},
{"geometry": {"type": "Point", "coordinates": [-84.5859727802, 33.916588602]}, "type": "Feature", "properties": {"collection_times": [{"days": "Mon-Sat", "time": "1:30pm"}, {"days": "Sun", "time": "Closed"}], "id": "3006000070", "name": "USPS COLLECTION BOX - BLUE BOX", "address": {"city": "MARIETTA", "state": "GA", "street": "1123 POWDER SPRINGS RD", "postcode": "30060"}}},
{"geometry": {"type": "Point", "coordinates": [-84.5166707736, 33.9328723924]}, "type": "Feature", "properties": {"collection_times": [{"days": "Mon-Sat", "time": "12:30pm"}, {"days": "Sun", "time": "Closed"}], "id": "3006000072", "name": "USPS COLLECTION BOX - BLUE BOX", "address": {"city": "MARIETTA", "state": "GA", "street": "1269 BARCLAY CIR SE", "postcode": "30060"}}},
{"geometry": {"type": "Point", "coordinates": [-84.525449615, 33.9900773209]}, "type": "Feature", "properties": {"collection_times": [{"days": "Mon-Sat", "time": "12:00pm"}, {"days": "Sun", "time": "Closed"}], "id": "3006200002", "name": "USPS COLLECTION BOX - BLUE BOX", "address": {"city": "MARIETTA", "state": "GA", "street": "1841 W OAK PKWY", "postcode": "30062"}}},
{"geometry": {"type": "Point", "coordinates": [-84.4489027063, 33.9791940984]}, "type": "Feature", "properties": {"collection_times": [{"days": "Mon-Fri", "time": "2:00pm"}, {"days": "Sat", "time": "1:45pm"}, {"days": "Sun", "time": "Closed"}], "id": "3006200004", "name": "USPS COLLECTION BOX - BLUE BOX", "address": {"city": "MARIETTA", "state": "GA", "street": "3535 ROSWELL RD", "postcode": "30062"}}},
{"geometry": {"type": "Point", "coordinates": [-84.427340304, 33.986503161]}, "type": "Feature", "properties": {"collection_times": [{"days": "Mon-Fri", "time": "2:00pm"}, {"days": "Sat", "time": "1:45pm"}, {"days": "Sun", "time": "Closed"}], "id": "3006200007", "name": "USPS COLLECTION BOX - BLUE BOX", "address": {"city": "MARIETTA", "state": "GA", "street": "1501 JOHNSON FERRY RD", "postcode": "30062"}}},
{"geometry": {"type": "Point", "coordinates": [-84.525449615, 33.9900773209]}, "type": "Feature", "properties": {"collection_times": [{"days": "Mon-Sat", "time": "12:00pm"}, {"days": "Sun", "time": "Closed"}], "id": "3006200011", "name": "USPS COLLECTION BOX - BLUE BOX", "address": {"city": "MARIETTA", "state": "GA", "street": "1841 W OAK PKWY", "postcode": "30062"}}},
{"geometry": {"type": "Point", "coordinates": [-84.4267801907, 34.0274174206]}, "type": "Feature", "properties": {"collection_times": [{"days": "Mon-Sat", "time": "12:30pm"}, {"days": "Sun", "time": "Closed"}], "id": "3006200044", "name": "USPS COLLECTION BOX - BLUE BOX", "address": {"city": "MARIETTA", "state": "GA", "street": "4343 SHALLOWFORD RD", "postcode": "30062"}}},
{"geometry": {"type": "Point", "coordinates": [-84.4850444686, 33.9735572989]}, "type": "Feature", "properties": {"collection_times": [{"days": "Mon-Sat", "time": "2:00pm"}, {"days": "Sun", "time": "Closed"}], "id": "3006200050", "name": "USPS COLLECTION BOX - BLUE BOX", "address": {"city": "MARIETTA", "state": "GA", "street": "2265 ROSWELL RD", "postcode": "30062"}}},
{"geometry": {"type": "Point", "coordinates": [-84.4284512921, 34.0188986183]}, "type": "Feature", "properties": {"collection_times": [{"days": "Mon-Sat", "time": "12:30pm"}, {"days": "Sun", "time": "Closed"}], "id": "3006200051", "name": "USPS COLLECTION BOX - BLUE BOX", "address": {"city": "MARIETTA", "state": "GA", "street": "2878 JOHNSON FERRY RD", "postcode": "30062"}}},
{"geometry": {"type": "Point", "coordinates": [-84.4267801907, 34.0274174206]}, "type": "Feature", "properties": {"collection_times": [{"days": "Mon-Sat", "time": "12:30pm"}, {"days": "Sun", "time": "Closed"}], "id": "3006200053", "name": "USPS COLLECTION BOX - BLUE BOX", "address": {"city": "MARIETTA", "state": "GA", "street": "4343 SHALLOWFORD RD", "postcode": "30062"}}},
{"geometry": {"type": "Point", "coordinates": [-84.438390933, 33.977966187]}, "type": "Feature", "properties": {"collection_times": [{"days": "Mon-Sat", "time": "2:00pm"}, {"days": "Sun", "time": "Closed"}], "id": "3006200054", "name": "USPS COLLECTION BOX - BLUE BOX", "address": {"city": "MARIETTA", "state": "GA", "street": "3901 ROSWELL RD", "postcode": "30062"}}},
{"geometry": {"type": "Point", "coordinates": [-84.4220081343, 33.9863510001]}, "type": "Feature", "properties": {"collection_times": [{"days": "Mon-Fri", "time": "2:00pm"}, {"days": "Sat", "time": "1:45pm"}, {"days": "Sun", "time": "Closed"}], "id": "3006200055", "name": "USPS COLLECTION BOX - BLUE BOX", "address": {"city": "MARIETTA", "state": "GA", "street": "4475 ROSWELL RD", "postcode": "30062"}}},
{"geometry": {"type": "Point", "coordinates": [-84.4798098731, 33.9783590839]}, "type": "Feature", "properties": {"collection_times": [{"days": "Mon-Sat", "time": "2:00pm"}, {"days": "Sun", "time": "Closed"}], "id": "3006200056", "name": "USPS COLLECTION BOX - BLUE BOX", "address": {"city": "MARIETTA", "state": "GA", "street": "1050 E PIEDMONT RD", "postcode": "30062"}}},
{"geometry": {"type": "Point", "coordinates": [-84.461679516, 33.979481687]}, "type": "Feature", "properties": {"collection_times": [{"days": "Mon-Sat", "time": "2:00pm"}, {"days": "Sun", "time": "Closed"}], "id": "3006200057", "name": "USPS COLLECTION BOX - BLUE BOX", "address": {"city": "MARIETTA", "state": "GA", "street": "3101 ROSWELL RD", "postcode": "30062"}}},
{"geometry": {"type": "Point", "coordinates": [-84.6553913988, 33.9539308016]}, "type": "Feature", "properties": {"collection_times": [{"days": "Mon-Sat", "time": "2:00pm"}, {"days": "Sun", "time": "Closed"}], "id": "3006400004", "name": "USPS COLLECTION BOX - BLUE BOX", "address": {"city": "MARIETTA", "state": "GA", "street": "3600 DALLAS HWY SW", "postcode": "30064"}}},
{"geometry": {"type": "Point", "coordinates": [-84.5521407182, 33.9411016368]}, "type": "Feature", "properties": {"collection_times": [{"days": "Mon-Sat", "time": "1:30pm"}, {"days": "Sun", "time": "Closed"}], "id": "3006400007", "name": "USPS COLLECTION BOX - BLUE BOX", "address": {"city": "MARIETTA", "state": "GA", "street": "540 POWDER SPRINGS ST", "postcode": "30064"}}},
{"geometry": {"type": "Point", "coordinates": [-84.5791086337, 33.9520972403]}, "type": "Feature", "properties": {"collection_times": [{"days": "Mon-Sat", "time": "2:00pm"}, {"days": "Sun", "time": "Closed"}], "id": "3006400015", "name": "USPS COLLECTION BOX - BLUE BOX", "address": {"city": "MARIETTA", "state": "GA", "street": "999 WHITLOCK AVE SW", "postcode": "30064"}}},
{"geometry": {"type": "Point", "coordinates": [-84.573047152, 33.9518949544]}, "type": "Feature", "properties": {"collection_times": [{"days": "Mon-Sat", "time": "2:00pm"}, {"days": "Sun", "time": "Closed"}], "id": "3006400018", "name": "USPS COLLECTION BOX - BLUE BOX", "address": {"city": "MARIETTA", "state": "GA", "street": "707 WHITLOCK AVE SW", "postcode": "30064"}}},
{"geometry": {"type": "Point", "coordinates": [-84.5502620181, 33.9522275461]}, "type": "Feature", "properties": {"collection_times": [{"days": "Mon-Fri", "time": "2:30pm"}, {"days": "Sat-Sun", "time": "Closed"}], "id": "3006400020", "name": "USPS COLLECTION BOX - BLUE BOX", "address": {"city": "MARIETTA", "state": "GA", "street": "3 WHITLOCK AVE SW", "postcode": "30064"}}},
{"geometry": {"type": "Point", "coordinates": [-84.5151756164, 33.9561098372]}, "type": "Feature", "properties": {"collection_times": [{"days": "Mon-Fri", "time": "5:00pm"}, {"days": "Sat", "time": "1:00pm"}, {"days": "Sun", "time": "Closed"}], "id": "3006500001", "name": "USPS COLLECTION BOX - BLUE BOX", "address": {"city": "MARIETTA", "state": "GA", "street": "1290 GRESHAM RD", "postcode": "30065"}}},
{"geometry": {"type": "Point", "coordinates": [-84.5151756164, 33.9561098372]}, "type": "Feature", "properties": {"collection_times": [{"days": "Mon-Fri", "time": "5:00pm"}, {"days": "Sat", "time": "1:00pm"}, {"days": "Sun", "time": "Closed"}], "id": "3006500005", "name": "USPS COLLECTION BOX - PO LOBBY", "address": {"city": "MARIETTA", "state": "GA", "street": "1290 GRESHAM RD", "postcode": "30065"}}},
{"geometry": {"type": "Point", "coordinates": [-84.5151756164, 33.9561098372]}, "type": "Feature", "properties": {"collection_times": [{"days": "Mon-Fri", "time": "5:00pm"}, {"days": "Sat", "time": "1:00pm"}, {"days": "Sun", "time": "Closed"}], "id": "3006500006", "name": "USPS COLLECTION BOX - PO LOBBY", "address": {"city": "MARIETTA", "state": "GA", "street": "1290 GRESHAM RD", "postcode": "30065"}}},
{"geometry": {"type": "Point", "coordinates": [-84.4881036343, 34.0218224093]}, "type": "Feature", "properties": {"collection_times": [{"days": "Mon-Fri", "time": "5:00pm"}, {"days": "Sat", "time": "2:00pm"}, {"days": "Sun", "time": "Closed"}], "id": "3006600010", "name": "USPS COLLECTION BOX - BLUE BOX", "address": {"city": "MARIETTA", "state": "GA", "street": "2886 SANDY PLAINS RD", "postcode": "30066"}}},
{"geometry": {"type": "Point", "coordinates": [-84.4881036343, 34.0218224093]}, "type": "Feature", "properties": {"collection_times": [{"days": "Mon-Fri", "time": "5:00pm"}, {"days": "Sat", "time": "2:00pm"}, {"days": "Sun", "time": "Closed"}], "id": "3006600011", "name": "USPS COLLECTION BOX - BLUE BOX", "address": {"city": "MARIETTA", "state": "GA", "street": "2886 SANDY PLAINS RD", "postcode": "30066"}}},
{"geometry": {"type": "Point", "coordinates": [-84.5284618665, 34.0224942079]}, "type": "Feature", "properties": {"collection_times": [{"days": "Mon-Sat", "time": "12:45pm"}, {"days": "Sun", "time": "Closed"}], "id": "3006600014", "name": "USPS COLLECTION BOX - BLUE BOX", "address": {"city": "MARIETTA", "state": "GA", "street": "2932 CANTON RD STE 260", "postcode": "30066"}}},
{"geometry": {"type": "Point", "coordinates": [-84.5284176591, 34.0389571853]}, "type": "Feature", "properties": {"collection_times": [{"days": "Mon-Sat", "time": "12:30pm"}, {"days": "Sun", "time": "Closed"}], "id": "3006600017", "name": "USPS COLLECTION BOX - BLUE BOX", "address": {"city": "MARIETTA", "state": "GA", "street": "3595 CANTON RD", "postcode": "30066"}}},
{"geometry": {"type": "Point", "coordinates": [-84.5373880369, 33.9833734924]}, "type": "Feature", "properties": {"collection_times": [{"days": "Mon-Sat", "time": "12:00pm"}, {"days": "Sun", "time": "Closed"}], "id": "3006600022", "name": "USPS COLLECTION BOX - BLUE BOX", "address": {"city": "MARIETTA", "state": "GA", "street": "1335 CANTON RD", "postcode": "30066"}}},
{"geometry": {"type": "Point", "coordinates": [-84.495297174, 34.0136962796]}, "type": "Feature", "properties": {"collection_times": [{"days": "Mon-Sat", "time": "12:00pm"}, {"days": "Sun", "time": "Closed"}], "id": "3006600035", "name": "USPS COLLECTION BOX - BLUE BOX", "address": {"city": "MARIETTA", "state": "GA", "street": "2619 SANDY PLAINS RD", "postcode": "30066"}}},
{"geometry": {"type": "Point", "coordinates": [-84.5163869664, 33.9946187003]}, "type": "Feature", "properties": {"collection_times": [{"days": "Mon-Sat", "time": "12:00pm"}, {"days": "Sun", "time": "Closed"}], "id": "3006600039", "name": "USPS COLLECTION BOX - BLUE BOX", "address": {"city": "MARIETTA", "state": "GA", "street": "1800 SANDY PLAINS RD", "postcode": "30066"}}},
{"geometry": {"type": "Point", "coordinates": [-84.5499231432, 34.0139425888]}, "type": "Feature", "properties": {"collection_times": [{"days": "Mon-Sat", "time": "12:45pm"}, {"days": "Sun", "time": "Closed"}], "id": "3006600040", "name": "USPS COLLECTION BOX - BLUE BOX", "address": {"city": "MARIETTA", "state": "GA", "street": "50 BARRETT PKWY", "postcode": "30066"}}},
{"geometry": {"type": "Point", "coordinates": [-84.4881036343, 34.0218224093]}, "type": "Feature", "properties": {"collection_times": [{"days": "Mon-Fri", "time": "5:00pm"}, {"days": "Sat", "time": "2:00pm"}, {"days": "Sun", "time": "Closed"}], "id": "3006600041", "name": "USPS COLLECTION BOX - PO LOBBY", "address": {"city": "MARIETTA", "state": "GA", "street": "2886 SANDY PLAINS RD", "postcode": "30066"}}},
{"geometry": {"type": "Point", "coordinates": [-84.4881036343, 34.0218224093]}, "type": "Feature", "properties": {"collection_times": [{"days": "Mon-Fri", "time": "5:00pm"}, {"days": "Sat", "time": "2:00pm"}, {"days": "Sun", "time": "Closed"}], "id": "3006600043", "name": "USPS COLLECTION BOX - PO LOBBY", "address": {"city": "MARIETTA", "state": "GA", "street": "2886 SANDY PLAINS RD", "postcode": "30066"}}},
{"geometry": {"type": "Point", "coordinates": [-84.4589886145, 34.0370561703]}, "type": "Feature", "properties": {"collection_times": [{"days": "Mon-Sat", "time": "12:30pm"}, {"days": "Sun", "time": "Closed"}], "id": "3006600044", "name": "USPS COLLECTION BOX - BLUE BOX", "address": {"city": "MARIETTA", "state": "GA", "street": "3225 SHALLOWFORD RD", "postcode": "30066"}}},
{"geometry": {"type": "Point", "coordinates": [-84.4881036343, 34.0218224093]}, "type": "Feature", "properties": {"collection_times": [{"days": "Mon-Fri", "time": "5:00pm"}, {"days": "Sat", "time": "2:00pm"}, {"days": "Sun", "time": "Closed"}], "id": "3006600045", "name": "USPS COLLECTION BOX - APC", "address": {"city": "MARIETTA", "state": "GA", "street": "2886 SANDY PLAINS RD", "postcode": "30066"}}},
{"geometry": {"type": "Point", "coordinates": [-84.5118881735, 33.9403197009]}, "type": "Feature", "properties": {"collection_times": [{"days": "Mon-Sat", "time": "2:00pm"}, {"days": "Sun", "time": "Closed"}], "id": "3006700007", "name": "USPS COLLECTION BOX - BLUE BOX", "address": {"city": "MARIETTA", "state": "GA", "street": "1395 S MARIETTA PKWY SE", "postcode": "30067"}}},
{"geometry": {"type": "Point", "coordinates": [-84.4676821799, 33.9176021569]}, "type": "Feature", "properties": {"collection_times": [{"days": "Mon-Sat", "time": "1:00pm"}, {"days": "Sun", "time": "Closed"}], "id": "3006700009", "name": "USPS COLLECTION BOX - BLUE BOX", "address": {"city": "MARIETTA", "state": "GA", "street": "1410 TERRELL MILL RD SE", "postcode": "30067"}}},
{"geometry": {"type": "Point", "coordinates": [-84.4805894452, 33.9272077837]}, "type": "Feature", "properties": {"collection_times": [{"days": "Mon-Sat", "time": "12:45pm"}, {"days": "Sun", "time": "Closed"}], "id": "3006700022", "name": "USPS COLLECTION BOX - BLUE BOX", "address": {"city": "MARIETTA", "state": "GA", "street": "1110 NORTHCHASE PKWY SE", "postcode": "30067"}}},
{"geometry": {"type": "Point", "coordinates": [-84.4904269319, 33.924000782]}, "type": "Feature", "properties": {"collection_times": [{"days": "Mon-Sat", "time": "12:45pm"}, {"days": "Sun", "time": "Closed"}], "id": "3006700048", "name": "USPS COLLECTION BOX - BLUE BOX", "address": {"city": "MARIETTA", "state": "GA", "street": "2137 KINGSTON CT SE", "postcode": "30067"}}},
{"geometry": {"type": "Point", "coordinates": [-84.4967794216, 33.9179889845]}, "type": "Feature", "properties": {"collection_times": [{"days": "Mon-Sat", "time": "12:30pm"}, {"days": "Sun", "time": "Closed"}], "id": "3006700052", "name": "USPS COLLECTION BOX - BLUE BOX", "address": {"city": "MARIETTA", "state": "GA", "street": "2211 NEW MARKET PKWY SE", "postcode": "30067"}}},
{"geometry": {"type": "Point", "coordinates": [-84.4793627167, 33.9012702255]}, "type": "Feature", "properties": {"collection_times": [{"days": "Mon-Sat", "time": "1:00pm"}, {"days": "Sun", "time": "Closed"}], "id": "3006700059", "name": "USPS COLLECTION BOX - BLUE BOX", "address": {"city": "MARIETTA", "state": "GA", "street": "2540 WINDY HILL RD SE", "postcode": "30067"}}},
{"geometry": {"type": "Point", "coordinates": [-84.467217277, 33.9046830621]}, "type": "Feature", "properties": {"collection_times": [{"days": "Mon-Fri", "time": "5:00pm"}, {"days": "Sat", "time": "1:30pm"}, {"days": "Sun", "time": "Closed"}], "id": "3006700066", "name": "USPS COLLECTION BOX - BLUE BOX", "address": {"city": "MARIETTA", "state": "GA", "street": "3000 WINDY HILL RD SE", "postcode": "30067"}}},
{"geometry": {"type": "Point", "coordinates": [-84.467217277, 33.9046830621]}, "type": "Feature", "properties": {"collection_times": [{"days": "Mon-Fri", "time": "5:00pm"}, {"days": "Sat", "time": "1:30pm"}, {"days": "Sun", "time": "Closed"}], "id": "3006700067", "name": "USPS COLLECTION BOX - BLUE BOX", "address": {"city": "MARIETTA", "state": "GA", "street": "3000 WINDY HILL RD SE", "postcode": "30067"}}},
{"geometry": {"type": "Point", "coordinates": [-84.4688473945, 33.9218892002]}, "type": "Feature", "properties": {"collection_times": [{"days": "Mon-Sat", "time": "1:00pm"}, {"days": "Sun", "time": "Closed"}], "id": "3006700091", "name": "USPS COLLECTION BOX - BLUE BOX", "address": {"city": "MARIETTA", "state": "GA", "street": "1250 POWERS FERRY CMN SE", "postcode": "30067"}}},
{"geometry": {"type": "Point", "coordinates": [-84.512822711, 33.9407325536]}, "type": "Feature", "properties": {"collection_times": [{"days": "Mon-Sat", "time": "2:00pm"}, {"days": "Sun", "time": "Closed"}], "id": "3006700094", "name": "USPS COLLECTION BOX - BLUE BOX", "address": {"city": "MARIETTA", "state": "GA", "street": "1355 S MARIETTA PKWY SE", "postcode": "30067"}}},
{"geometry": {"type": "Point", "coordinates": [-84.4142591999, 33.950598927]}, "type": "Feature", "properties": {"collection_times": [{"days": "Mon-Sat", "time": "1:30pm"}, {"days": "Sun", "time": "Closed"}], "id": "3006700095", "name": "USPS COLLECTION BOX - BLUE BOX", "address": {"city": "MARIETTA", "state": "GA", "street": "501 VILLAGE TRCE NE", "postcode": "30067"}}},
{"geometry": {"type": "Point", "coordinates": [-84.467217277, 33.9046830621]}, "type": "Feature", "properties": {"collection_times": [{"days": "Mon-Fri", "time": "5:00pm"}, {"days": "Sat", "time": "1:30pm"}, {"days": "Sun", "time": "Closed"}], "id": "3006700110", "name": "USPS COLLECTION BOX - PO LOBBY", "address": {"city": "MARIETTA", "state": "GA", "street": "3000 WINDY HILL RD SE", "postcode": "30067"}}},
{"geometry": {"type": "Point", "coordinates": [-84.467217277, 33.9046830621]}, "type": "Feature", "properties": {"collection_times": [{"days": "Mon-Fri", "time": "5:00pm"}, {"days": "Sat", "time": "1:30pm"}, {"days": "Sun", "time": "Closed"}], "id": "3006700111", "name": "USPS COLLECTION BOX - PO LOBBY", "address": {"city": "MARIETTA", "state": "GA", "street": "3000 WINDY HILL RD SE", "postcode": "30067"}}},
{"geometry": {"type": "Point", "coordinates": [-84.46533042, 33.9107460801]}, "type": "Feature", "properties": {"collection_times": [{"days": "Mon-Sat", "time": "1:15pm"}, {"days": "Sun", "time": "Closed"}], "id": "3006700113", "name": "USPS COLLECTION BOX - BLUE BOX", "address": {"city": "MARIETTA", "state": "GA", "street": "1640 POWERS FERRY RD SE", "postcode": "30067"}}},
{"geometry": {"type": "Point", "coordinates": [-84.4670623094, 33.9238742054]}, "type": "Feature", "properties": {"collection_times": [{"days": "Mon-Sat", "time": "12:45pm"}, {"days": "Sun", "time": "Closed"}], "id": "3006700114", "name": "USPS COLLECTION BOX - BLUE BOX", "address": {"city": "MARIETTA", "state": "GA", "street": "2900 DELK RD SE", "postcode": "30067"}}},
{"geometry": {"type": "Point", "coordinates": [-84.467217277, 33.9046830621]}, "type": "Feature", "properties": {"collection_times": [{"days": "Mon-Fri", "time": "5:00pm"}, {"days": "Sat", "time": "1:30pm"}, {"days": "Sun", "time": "Closed"}], "id": "3006700116", "name": "USPS COLLECTION BOX - APC", "address": {"city": "MARIETTA", "state": "GA", "street": "3000 WINDY HILL RD SE", "postcode": "30067"}}},
{"geometry": {"type": "Point", "coordinates": [-84.4132353106, 33.9717651161]}, "type": "Feature", "properties": {"collection_times": [{"days": "Mon-Sat", "time": "1:45pm"}, {"days": "Sun", "time": "Closed"}], "id": "3006800000", "name": "USPS COLLECTION BOX - BLUE BOX", "address": {"city": "MARIETTA", "state": "GA", "street": "1000 JOHNSON FERRY RD", "postcode": "30068"}}},
{"geometry": {"type": "Point", "coordinates": [-84.4411185067, 33.9661723262]}, "type": "Feature", "properties": {"collection_times": [{"days": "Mon-Sat", "time": "1:45pm"}, {"days": "Sun", "time": "Closed"}], "id": "3006800002", "name": "USPS COLLECTION BOX - BLUE BOX", "address": {"city": "MARIETTA", "state": "GA", "street": "4800 OLDE TOWN PKWY", "postcode": "30068"}}},
{"geometry": {"type": "Point", "coordinates": [-84.4089104126, 33.9660526073]}, "type": "Feature", "properties": {"collection_times": [{"days": "Mon-Sat", "time": "1:30pm"}, {"days": "Sun", "time": "Closed"}], "id": "3006800003", "name": "USPS COLLECTION BOX - BLUE BOX", "address": {"city": "MARIETTA", "state": "GA", "street": "4880 LOWER ROSWELL RD", "postcode": "30068"}}},
{"geometry": {"type": "Point", "coordinates": [-84.4250199478, 33.9828458927]}, "type": "Feature", "properties": {"collection_times": [{"days": "Mon-Fri", "time": "5:00pm"}, {"days": "Sat", "time": "1:15pm"}, {"days": "Sun", "time": "Closed"}], "id": "3006800007", "name": "USPS COLLECTION BOX - BLUE BOX", "address": {"city": "MARIETTA", "state": "GA", "street": "1395 E COBB DR", "postcode": "30068"}}},
{"geometry": {"type": "Point", "coordinates": [-84.4155065918, 33.9763833879]}, "type": "Feature", "properties": {"collection_times": [{"days": "Mon-Sat", "time": "1:45pm"}, {"days": "Sun", "time": "Closed"}], "id": "3006800012", "name": "USPS COLLECTION BOX - BLUE BOX", "address": {"city": "MARIETTA", "state": "GA", "street": "1100 JOHNSON FERRY RD", "postcode": "30068"}}},
{"geometry": {"type": "Point", "coordinates": [-84.4250199478, 33.9828458927]}, "type": "Feature", "properties": {"collection_times": [{"days": "Mon-Fri", "time": "5:00pm"}, {"days": "Sat", "time": "1:15pm"}, {"days": "Sun", "time": "Closed"}], "id": "3006800014", "name": "USPS COLLECTION BOX - PO LOBBY", "address": {"city": "MARIETTA", "state": "GA", "street": "1395 E COBB DR", "postcode": "30068"}}},
{"geometry": {"type": "Point", "coordinates": [-84.4250199478, 33.9828458927]}, "type": "Feature", "properties": {"collection_times": [{"days": "Mon-Fri", "time": "5:00pm"}, {"days": "Sat", "time": "1:15pm"}, {"days": "Sun", "time": "Closed"}], "id": "3006800015", "name": "USPS COLLECTION BOX - PO LOBBY", "address": {"city": "MARIETTA", "state": "GA", "street": "1395 E COBB DR", "postcode": "30068"}}},
{"geometry": {"type": "Point", "coordinates": [-84.4219681082, 33.9635476284]}, "type": "Feature", "properties": {"collection_times": [{"days": "Mon-Sat", "time": "5:00pm"}, {"days": "Sun", "time": "Closed"}], "id": "3006800016", "name": "USPS COLLECTION BOX - BLUE BOX", "address": {"city": "MARIETTA", "state": "GA", "street": "4455 LOWER ROSWELL RD", "postcode": "30068"}}},
{"geometry": {"type": "Point", "coordinates": [-84.4219681082, 33.9635476284]}, "type": "Feature", "properties": {"collection_times": [{"days": "Mon-Sat", "time": "5:00pm"}, {"days": "Sun", "time": "Closed"}], "id": "3006800017", "name": "USPS COLLECTION BOX - BLUE BOX", "address": {"city": "MARIETTA", "state": "GA", "street": "4455 LOWER ROSWELL RD", "postcode": "30068"}}},
{"geometry": {"type": "Point", "coordinates": [-84.4219681082, 33.9635476284]}, "type": "Feature", "properties": {"collection_times": [{"days": "Mon-Sat", "time": "5:00pm"}, {"days": "Sun", "time": "Closed"}], "id": "3006800019", "name": "USPS COLLECTION BOX - PO LOBBY", "address": {"city": "MARIETTA", "state": "GA", "street": "4455 LOWER ROSWELL RD", "postcode": "30068"}}},
{"geometry": {"type": "Point", "coordinates": [-84.4219681082, 33.9635476284]}, "type": "Feature", "properties": {"collection_times": [{"days": "Mon-Sat", "time": "5:00pm"}, {"days": "Sun", "time": "Closed"}], "id": "3006800020", "name": "USPS COLLECTION BOX - PO LOBBY", "address": {"city": "MARIETTA", "state": "GA", "street": "4455 LOWER ROSWELL RD", "postcode": "30068"}}},
{"geometry": {"type": "Point", "coordinates": [-84.4219681082, 33.9635476284]}, "type": "Feature", "properties": {"collection_times": [{"days": "Mon-Sat", "time": "5:00pm"}, {"days": "Sun", "time": "Closed"}], "id": "3006800021", "name": "USPS COLLECTION BOX - PO LOBBY", "address": {"city": "MARIETTA", "state": "GA", "street": "4455 LOWER ROSWELL RD", "postcode": "30068"}}},
{"geometry": {"type": "Point", "coordinates": [-84.4999655038, 33.9519007285]}, "type": "Feature", "properties": {"collection_times": [{"days": "Mon-Sat", "time": "2:00pm"}, {"days": "Sun", "time": "Closed"}], "id": "3006800024", "name": "USPS COLLECTION BOX - BLUE BOX", "address": {"city": "MARIETTA", "state": "GA", "street": "1836 LOWER ROSWELL RD", "postcode": "30068"}}},
{"geometry": {"type": "Point", "coordinates": [-84.4219681082, 33.9635476284]}, "type": "Feature", "properties": {"collection_times": [{"days": "Mon-Sat", "time": "5:00pm"}, {"days": "Sun", "time": "Closed"}], "id": "3006800025", "name": "USPS COLLECTION BOX - APC", "address": {"city": "MARIETTA", "state": "GA", "street": "4455 LOWER ROSWELL RD", "postcode": "30068"}}},
{"geometry": {"type": "Point", "coordinates": [-84.4250199478, 33.9828458927]}, "type": "Feature", "properties": {"collection_times": [{"days": "Mon-Fri", "time": "5:00pm"}, {"days": "Sat", "time": "1:15pm"}, {"days": "Sun", "time": "Closed"}], "id": "3006800026", "name": "USPS COLLECTION BOX - APC", "address": {"city": "MARIETTA", "state": "GA", "street": "1395 E COBB DR", "postcode": "30068"}}},
{"geometry": {"type": "Point", "coordinates": [-84.4045199486, 33.9667619824]}, "type": "Feature", "properties": {"collection_times": [{"days": "Mon-Sat", "time": "1:30pm"}, {"days": "Sun", "time": "Closed"}], "id": "3006800027", "name": "USPS COLLECTION BOX - BLUE BOX", "address": {"city": "MARIETTA", "state": "GA", "street": "4994 LOWER ROSWELL RD", "postcode": "30068"}}},
{"geometry": {"type": "Point", "coordinates": [-83.8957895552, 33.5736763277]}, "type": "Feature", "properties": {"collection_times": [{"days": "Mon-Fri", "time": "4:15pm"}, {"days": "Sat", "time": "12:00pm"}, {"days": "Sun", "time": "Closed"}], "id": "3007000000", "name": "USPS COLLECTION BOX - BLUE BOX", "address": {"city": "PORTERDALE", "state": "GA", "street": "2 N BROAD ST", "postcode": "30070"}}},
{"geometry": {"type": "Point", "coordinates": [-84.209321923, 33.9421255269]}, "type": "Feature", "properties": {"collection_times": [{"days": "Mon-Fri", "time": "5:00pm"}, {"days": "Sat", "time": "4:00pm"}, {"days": "Sun", "time": "Closed"}], "id": "3007100003", "name": "USPS COLLECTION BOX - BLUE BOX", "address": {"city": "NORCROSS", "state": "GA", "street": "265 MITCHELL RD", "postcode": "30071"}}},
{"geometry": {"type": "Point", "coordinates": [-84.209321923, 33.9421255269]}, "type": "Feature", "properties": {"collection_times": [{"days": "Mon-Fri", "time": "5:00pm"}, {"days": "Sat", "time": "4:00pm"}, {"days": "Sun", "time": "Closed"}], "id": "3007100006", "name": "USPS COLLECTION BOX - BLUE BOX", "address": {"city": "NORCROSS", "state": "GA", "street": "265 MITCHELL RD", "postcode": "30071"}}},
{"geometry": {"type": "Point", "coordinates": [-84.209321923, 33.9421255269]}, "type": "Feature", "properties": {"collection_times": [{"days": "Mon-Fri", "time": "5:00pm"}, {"days": "Sat", "time": "4:00pm"}, {"days": "Sun", "time": "Closed"}], "id": "3007100007", "name": "USPS COLLECTION BOX - BLUE BOX", "address": {"city": "NORCROSS", "state": "GA", "street": "265 MITCHELL RD", "postcode": "30071"}}},
{"geometry": {"type": "Point", "coordinates": [-84.1949798924, 33.9591973546]}, "type": "Feature", "properties": {"collection_times": [{"days": "Mon-Sat", "time": "12:30pm"}, {"days": "Sun", "time": "Closed"}], "id": "3007100012", "name": "USPS COLLECTION BOX - BLUE BOX", "address": {"city": "NORCROSS", "state": "GA", "street": "2975 NORTHWOODS PKWY", "postcode": "30071"}}},
{"geometry": {"type": "Point", "coordinates": [-84.2626103285, 33.9316036592]}, "type": "Feature", "properties": {"collection_times": [{"days": "Mon-Fri", "time": "1:30pm"}, {"days": "Sat-Sun", "time": "Closed"}], "id": "3007100026", "name": "USPS COLLECTION BOX - BLUE BOX", "address": {"city": "NORCROSS", "state": "GA", "street": "7094 PEACHTREE IND BLVD", "postcode": "30071"}}},
{"geometry": {"type": "Point", "coordinates": [-84.2044998353, 33.915063527]}, "type": "Feature", "properties": {"collection_times": [{"days": "Mon-Fri", "time": "1:30pm"}, {"days": "Sat", "time": "1:00pm"}, {"days": "Sun", "time": "Closed"}], "id": "3007100029", "name": "USPS COLLECTION BOX - BLUE BOX", "address": {"city": "NORCROSS", "state": "GA", "street": "6015 UNITY DR", "postcode": "30071"}}},
{"geometry": {"type": "Point", "coordinates": [-84.2151717249, 33.9255742379]}, "type": "Feature", "properties": {"collection_times": [{"days": "Mon-Fri", "time": "2:00pm"}, {"days": "Sat", "time": "1:00pm"}, {"days": "Sun", "time": "Closed"}], "id": "3007100032", "name": "USPS COLLECTION BOX - BLUE BOX", "address": {"city": "NORCROSS", "state": "GA", "street": "6100 BEST FRIEND RD", "postcode": "30071"}}},
{"geometry": {"type": "Point", "coordinates": [-84.209321923, 33.9421255269]}, "type": "Feature", "properties": {"collection_times": [{"days": "Mon-Fri", "time": "5:00pm"}, {"days": "Sat", "time": "4:00pm"}, {"days": "Sun", "time": "Closed"}], "id": "3007100043", "name": "USPS COLLECTION BOX - PO LOBBY", "address": {"city": "NORCROSS", "state": "GA", "street": "265 MITCHELL RD", "postcode": "30071"}}},
{"geometry": {"type": "Point", "coordinates": [-84.2159325295, 33.954331069]}, "type": "Feature", "properties": {"collection_times": [{"days": "Mon-Sat", "time": "12:30pm"}, {"days": "Sun", "time": "Closed"}], "id": "3007100066", "name": "USPS COLLECTION BOX - BLUE BOX", "address": {"city": "NORCROSS", "state": "GA", "street": "3145 REPS MILLER RD", "postcode": "30071"}}},
{"geometry": {"type": "Point", "coordinates": [-84.209321923, 33.9421255269]}, "type": "Feature", "properties": {"collection_times": [{"days": "Mon-Fri", "time": "5:00pm"}, {"days": "Sat", "time": "4:00pm"}, {"days": "Sun", "time": "Closed"}], "id": "3007100078", "name": "USPS COLLECTION BOX - APC", "address": {"city": "NORCROSS", "state": "GA", "street": "265 MITCHELL RD", "postcode": "30071"}}},
{"geometry": {"type": "Point", "coordinates": [-84.2071165051, 33.7864428977]}, "type": "Feature", "properties": {"collection_times": [{"days": "Mon-Fri", "time": "4:30pm"}, {"days": "Sat", "time": "12:00pm"}, {"days": "Sun", "time": "Closed"}], "id": "3007200001", "name": "USPS COLLECTION BOX - BLUE BOX", "address": {"city": "PINE LAKE", "state": "GA", "street": "4567 ROCKBRIDGE RD", "postcode": "30072"}}},
{"geometry": {"type": "Point", "coordinates": [-84.2071165051, 33.7864428977]}, "type": "Feature", "properties": {"collection_times": [{"days": "Mon-Fri", "time": "4:30pm"}, {"days": "Sat", "time": "12:00pm"}, {"days": "Sun", "time": "Closed"}], "id": "3007200002", "name": "USPS COLLECTION BOX - BLUE BOX", "address": {"city": "PINE LAKE", "state": "GA", "street": "4567 ROCKBRIDGE RD", "postcode": "30072"}}},
{"geometry": {"type": "Point", "coordinates": [-84.2071165051, 33.7864428977]}, "type": "Feature", "properties": {"collection_times": [{"days": "Mon-Fri", "time": "4:30pm"}, {"days": "Sat", "time": "12:00pm"}, {"days": "Sun", "time": "Closed"}], "id": "3007200003", "name": "USPS COLLECTION BOX - PO LOBBY", "address": {"city": "PINE LAKE", "state": "GA", "street": "4567 ROCKBRIDGE RD", "postcode": "30072"}}},
{"geometry": {"type": "Point", "coordinates": [-84.141515296, 33.7453160645]}, "type": "Feature", "properties": {"collection_times": [{"days": "Mon-Fri", "time": "4:30pm"}, {"days": "Sat", "time": "12:00pm"}, {"days": "Sun", "time": "Closed"}], "id": "3007400003", "name": "USPS COLLECTION BOX - BLUE BOX", "address": {"city": "REDAN", "state": "GA", "street": "1544 WELLBORN RD", "postcode": "30074"}}},
{"geometry": {"type": "Point", "coordinates": [-84.3603191902, 34.0217131925]}, "type": "Feature", "properties": {"collection_times": [{"days": "Mon-Sat", "time": "1:00pm"}, {"days": "Sun", "time": "Closed"}], "id": "3007500005", "name": "USPS COLLECTION BOX - BLUE BOX", "address": {"city": "ROSWELL", "state": "GA", "street": "38 HILL ST", "postcode": "30075"}}},
{"geometry": {"type": "Point", "coordinates": [-84.4194659554, 34.0271926584]}, "type": "Feature", "properties": {"collection_times": [{"days": "Mon-Sat", "time": "1:00pm"}, {"days": "Sun", "time": "Closed"}], "id": "3007500006", "name": "USPS COLLECTION BOX - BLUE BOX", "address": {"city": "ROSWELL", "state": "GA", "street": "4401 SHALLOWFORD RD", "postcode": "30075"}}},
{"geometry": {"type": "Point", "coordinates": [-84.4217183093, 34.0626968058]}, "type": "Feature", "properties": {"collection_times": [{"days": "Mon-Sat", "time": "1:00pm"}, {"days": "Sun", "time": "Closed"}], "id": "3007500007", "name": "USPS COLLECTION BOX - BLUE BOX", "address": {"city": "ROSWELL", "state": "GA", "street": "4651 WOODSTOCK RD", "postcode": "30075"}}},
{"geometry": {"type": "Point", "coordinates": [-84.3428090316, 34.0296603108]}, "type": "Feature", "properties": {"collection_times": [{"days": "Mon-Sat", "time": "1:00pm"}, {"days": "Sun", "time": "Closed"}], "id": "3007500008", "name": "USPS COLLECTION BOX - BLUE BOX", "address": {"city": "ROSWELL", "state": "GA", "street": "1150 GRIMES BRIDGE RD", "postcode": "30075"}}},
{"geometry": {"type": "Point", "coordinates": [-84.3421196613, 34.031045224]}, "type": "Feature", "properties": {"collection_times": [{"days": "Mon-Sat", "time": "1:00pm"}, {"days": "Sun", "time": "Closed"}], "id": "3007500012", "name": "USPS COLLECTION BOX - BLUE BOX", "address": {"city": "ROSWELL", "state": "GA", "street": "1182 GRIMES BRIDGE RD", "postcode": "30075"}}},
{"geometry": {"type": "Point", "coordinates": [-84.3611543592, 34.0478234628]}, "type": "Feature", "properties": {"collection_times": [{"days": "Mon-Sat", "time": "1:00pm"}, {"days": "Sun", "time": "Closed"}], "id": "3007500013", "name": "USPS COLLECTION BOX - BLUE BOX", "address": {"city": "ROSWELL", "state": "GA", "street": "10930 CRABAPPLE RD", "postcode": "30075"}}},
{"geometry": {"type": "Point", "coordinates": [-84.3611082021, 34.0463029444]}, "type": "Feature", "properties": {"collection_times": [{"days": "Mon-Sat", "time": "1:00pm"}, {"days": "Sun", "time": "Closed"}], "id": "3007500014", "name": "USPS COLLECTION BOX - BLUE BOX", "address": {"city": "ROSWELL", "state": "GA", "street": "10933 CRABAPPLE RD", "postcode": "30075"}}},
{"geometry": {"type": "Point", "coordinates": [-84.3611330659, 34.0502154058]}, "type": "Feature", "properties": {"collection_times": [{"days": "Mon-Sat", "time": "1:00pm"}, {"days": "Sun", "time": "Closed"}], "id": "3007500015", "name": "USPS COLLECTION BOX - BLUE BOX", "address": {"city": "ROSWELL", "state": "GA", "street": "11050 CRABAPPLE RD", "postcode": "30075"}}},
{"geometry": {"type": "Point", "coordinates": [-84.4240794954, 34.0652425335]}, "type": "Feature", "properties": {"collection_times": [{"days": "Mon-Sat", "time": "1:00pm"}, {"days": "Sun", "time": "Closed"}], "id": "3007500016", "name": "USPS COLLECTION BOX - BLUE BOX", "address": {"city": "ROSWELL", "state": "GA", "street": "4750 ALABAMA RD NE", "postcode": "30075"}}},
{"geometry": {"type": "Point", "coordinates": [-84.3612940414, 34.0459508633]}, "type": "Feature", "properties": {"collection_times": [{"days": "Mon-Sat", "time": "1:00pm"}, {"days": "Sun", "time": "Closed"}], "id": "3007500019", "name": "USPS COLLECTION BOX - BLUE BOX", "address": {"city": "ROSWELL", "state": "GA", "street": "10898 CRABAPPLE RD", "postcode": "30075"}}},
{"geometry": {"type": "Point", "coordinates": [-84.3296450642, 34.0168453163]}, "type": "Feature", "properties": {"collection_times": [{"days": "Mon-Sat", "time": "1:00pm"}, {"days": "Sun", "time": "Closed"}], "id": "3007500023", "name": "USPS COLLECTION BOX - BLUE BOX", "address": {"city": "ROSWELL", "state": "GA", "street": "9755 DOGWOOD RD", "postcode": "30075"}}},
{"geometry": {"type": "Point", "coordinates": [-84.3615080639, 34.0252289465]}, "type": "Feature", "properties": {"collection_times": [{"days": "Mon-Sat", "time": "1:00pm"}, {"days": "Sun", "time": "Closed"}], "id": "3007500028", "name": "USPS COLLECTION BOX - BLUE BOX", "address": {"city": "ROSWELL", "state": "GA", "street": "980 CANTON ST", "postcode": "30075"}}},
{"geometry": {"type": "Point", "coordinates": [-84.3613766188, 34.03138602]}, "type": "Feature", "properties": {"collection_times": [{"days": "Mon-Sat", "time": "1:00pm"}, {"days": "Sun", "time": "Closed"}], "id": "3007500029", "name": "USPS COLLECTION BOX - BLUE BOX", "address": {"city": "ROSWELL", "state": "GA", "street": "15 WOODSTOCK RD", "postcode": "30075"}}},
{"geometry": {"type": "Point", "coordinates": [-84.3769358924, 34.0547434625]}, "type": "Feature", "properties": {"collection_times": [{"days": "Mon-Sat", "time": "1:00pm"}, {"days": "Sun", "time": "Closed"}], "id": "3007500032", "name": "USPS COLLECTION BOX - BLUE BOX", "address": {"city": "ROSWELL", "state": "GA", "street": "560 W CROSSVILLE RD # 80", "postcode": "30075"}}},
{"geometry": {"type": "Point", "coordinates": [-84.3860532795, 34.060414878]}, "type": "Feature", "properties": {"collection_times": [{"days": "Mon-Sat", "time": "1:00pm"}, {"days": "Sun", "time": "Closed"}], "id": "3007500037", "name": "USPS COLLECTION BOX - BLUE BOX", "address": {"city": "ROSWELL", "state": "GA", "street": "885 WOODSTOCK RD", "postcode": "30075"}}},
{"geometry": {"type": "Point", "coordinates": [-84.3586255974, 34.0472627063]}, "type": "Feature", "properties": {"collection_times": [{"days": "Mon-Sat", "time": "1:00pm"}, {"days": "Sun", "time": "Closed"}], "id": "3007500039", "name": "USPS COLLECTION BOX - BLUE BOX", "address": {"city": "ROSWELL", "state": "GA", "street": "100 MACY DR", "postcode": "30075"}}},
{"geometry": {"type": "Point", "coordinates": [-84.3396397171, 34.0356578931]}, "type": "Feature", "properties": {"collection_times": [{"days": "Mon-Sat", "time": "1:00pm"}, {"days": "Sun", "time": "Closed"}], "id": "3007500041", "name": "USPS COLLECTION BOX - BLUE BOX", "address": {"city": "ROSWELL", "state": "GA", "street": "770 OLD ROSWELL PL", "postcode": "30075"}}},
{"geometry": {"type": "Point", "coordinates": [-84.3869610236, 34.052568842]}, "type": "Feature", "properties": {"collection_times": [{"days": "Mon-Sat", "time": "1:00pm"}, {"days": "Sun", "time": "Closed"}], "id": "3007500043", "name": "USPS COLLECTION BOX - BLUE BOX", "address": {"city": "ROSWELL", "state": "GA", "street": "627 HOLCOMB BRG RD", "postcode": "30075"}}},
{"geometry": {"type": "Point", "coordinates": [-84.3423012826, 34.0402850275]}, "type": "Feature", "properties": {"collection_times": [{"days": "Mon-Fri", "time": "5:00pm"}, {"days": "Sat", "time": "1:00pm"}, {"days": "Sun", "time": "Closed"}], "id": "3007500044", "name": "USPS COLLECTION BOX - APC", "address": {"city": "ROSWELL", "state": "GA", "street": "10719 ALPHARETTA HWY", "postcode": "30075"}}},
{"geometry": {"type": "Point", "coordinates": [-84.3423012826, 34.0402850275]}, "type": "Feature", "properties": {"collection_times": [{"days": "Mon-Fri", "time": "5:00pm"}, {"days": "Sat", "time": "1:00pm"}, {"days": "Sun", "time": "Closed"}], "id": "3007500045", "name": "USPS COLLECTION BOX - PO LOBBY", "address": {"city": "ROSWELL", "state": "GA", "street": "10719 ALPHARETTA HWY", "postcode": "30075"}}},
{"geometry": {"type": "Point", "coordinates": [-84.3423012826, 34.0402850275]}, "type": "Feature", "properties": {"collection_times": [{"days": "Mon-Fri", "time": "5:00pm"}, {"days": "Sat", "time": "1:00pm"}, {"days": "Sun", "time": "Closed"}], "id": "3007500046", "name": "USPS COLLECTION BOX - PO LOBBY", "address": {"city": "ROSWELL", "state": "GA", "street": "10719 ALPHARETTA HWY", "postcode": "30075"}}},
{"geometry": {"type": "Point", "coordinates": [-84.3586255974, 34.0472627063]}, "type": "Feature", "properties": {"collection_times": [{"days": "Mon-Sat", "time": "1:00pm"}, {"days": "Sun", "time": "Closed"}], "id": "3007500047", "name": "USPS COLLECTION BOX - BLUE BOX", "address": {"city": "ROSWELL", "state": "GA", "street": "100 MACY DR", "postcode": "30075"}}},
{"geometry": {"type": "Point", "coordinates": [-84.3236678049, 34.0618917702]}, "type": "Feature", "properties": {"collection_times": [{"days": "Mon-Sat", "time": "2:00pm"}, {"days": "Sun", "time": "Closed"}], "id": "3007600001", "name": "USPS COLLECTION BOX - BLUE BOX", "address": {"city": "ROSWELL", "state": "GA", "street": "11585 ALPHARETTA HWY", "postcode": "30076"}}},
{"geometry": {"type": "Point", "coordinates": [-84.2871236042, 34.0214517585]}, "type": "Feature", "properties": {"collection_times": [{"days": "Mon-Sat", "time": "1:00pm"}, {"days": "Sun", "time": "Closed"}], "id": "3007600007", "name": "USPS COLLECTION BOX - BLUE BOX", "address": {"city": "ROSWELL", "state": "GA", "street": "2500 OLD ALABAMA RD", "postcode": "30076"}}},
{"geometry": {"type": "Point", "coordinates": [-84.3408796255, 34.0437363395]}, "type": "Feature", "properties": {"collection_times": [{"days": "Mon-Sat", "time": "3:00pm"}, {"days": "Sun", "time": "Closed"}], "id": "3007600016", "name": "USPS COLLECTION BOX - BLUE BOX", "address": {"city": "ROSWELL", "state": "GA", "street": "10800 ALPHARETTA HWY", "postcode": "30076"}}},
{"geometry": {"type": "Point", "coordinates": [-84.3346466147, 34.0552323348]}, "type": "Feature", "properties": {"collection_times": [{"days": "Mon-Sat", "time": "2:30pm"}, {"days": "Sun", "time": "Closed"}], "id": "3007600019", "name": "USPS COLLECTION BOX - BLUE BOX", "address": {"city": "ROSWELL", "state": "GA", "street": "11285 ELKINS RD", "postcode": "30076"}}},
{"geometry": {"type": "Point", "coordinates": [-84.3398729274, 34.0528983567]}, "type": "Feature", "properties": {"collection_times": [{"days": "Mon-Sat", "time": "2:30pm"}, {"days": "Sun", "time": "Closed"}], "id": "3007600028", "name": "USPS COLLECTION BOX - BLUE BOX", "address": {"city": "ROSWELL", "state": "GA", "street": "500 SUN VALLEY DR", "postcode": "30076"}}},
{"geometry": {"type": "Point", "coordinates": [-84.322637241, 34.0165933564]}, "type": "Feature", "properties": {"collection_times": [{"days": "Mon-Sat", "time": "3:00pm"}, {"days": "Sun", "time": "Closed"}], "id": "3007600033", "name": "USPS COLLECTION BOX - BLUE BOX", "address": {"city": "ROSWELL", "state": "GA", "street": "1425 MARKET BLVD", "postcode": "30076"}}},
{"geometry": {"type": "Point", "coordinates": [-84.3164043837, 34.0213193197]}, "type": "Feature", "properties": {"collection_times": [{"days": "Mon-Sat", "time": "1:00pm"}, {"days": "Sun", "time": "Closed"}], "id": "3007600038", "name": "USPS COLLECTION BOX - BLUE BOX", "address": {"city": "ROSWELL", "state": "GA", "street": "1540 OLD ALABAMA RD", "postcode": "30076"}}},
{"geometry": {"type": "Point", "coordinates": [-84.3280244104, 34.0228038806]}, "type": "Feature", "properties": {"collection_times": [{"days": "Mon-Sat", "time": "1:00pm"}, {"days": "Sun", "time": "Closed"}], "id": "3007600045", "name": "USPS COLLECTION BOX - BLUE BOX", "address": {"city": "ROSWELL", "state": "GA", "street": "1080 HOLCOMB BRIDGE RD", "postcode": "30076"}}},
{"geometry": {"type": "Point", "coordinates": [-84.3359194785, 34.0288594476]}, "type": "Feature", "properties": {"collection_times": [{"days": "Mon-Sat", "time": "1:00pm"}, {"days": "Sun", "time": "Closed"}], "id": "3007600046", "name": "USPS COLLECTION BOX - BLUE BOX", "address": {"city": "ROSWELL", "state": "GA", "street": "880 HOLCOMB BRIDGE RD", "postcode": "30076"}}},
{"geometry": {"type": "Point", "coordinates": [-84.3172878748, 34.056119554]}, "type": "Feature", "properties": {"collection_times": [{"days": "Mon-Sat", "time": "2:00pm"}, {"days": "Sun", "time": "Closed"}], "id": "3007600049", "name": "USPS COLLECTION BOX - BLUE BOX", "address": {"city": "ROSWELL", "state": "GA", "street": "205 HEMBREE PARK DR", "postcode": "30076"}}},
{"geometry": {"type": "Point", "coordinates": [-84.3149529511, 34.0602812572]}, "type": "Feature", "properties": {"collection_times": [{"days": "Mon-Sat", "time": "2:00pm"}, {"days": "Sun", "time": "Closed"}], "id": "3007600050", "name": "USPS COLLECTION BOX - BLUE BOX", "address": {"city": "ROSWELL", "state": "GA", "street": "1325 NORTHMEADOW PKWY", "postcode": "30076"}}},
{"geometry": {"type": "Point", "coordinates": [-84.343631188, 34.049719746]}, "type": "Feature", "properties": {"collection_times": [{"days": "Mon-Sat", "time": "3:00pm"}, {"days": "Sun", "time": "Closed"}], "id": "3007600052", "name": "USPS COLLECTION BOX - BLUE BOX", "address": {"city": "ROSWELL", "state": "GA", "street": "11111 HOUZE RD", "postcode": "30076"}}},
{"geometry": {"type": "Point", "coordinates": [-84.3226632404, 34.0631770872]}, "type": "Feature", "properties": {"collection_times": [{"days": "Mon-Sat", "time": "2:30pm"}, {"days": "Sun", "time": "Closed"}], "id": "3007600054", "name": "USPS COLLECTION BOX - BLUE BOX", "address": {"city": "ROSWELL", "state": "GA", "street": "11660 ALPHARETTA HWY", "postcode": "30076"}}},
{"geometry": {"type": "Point", "coordinates": [-84.3335656549, 34.0522887702]}, "type": "Feature", "properties": {"collection_times": [{"days": "Mon-Sat", "time": "2:30pm"}, {"days": "Sun", "time": "Closed"}], "id": "3007600055", "name": "USPS COLLECTION BOX - BLUE BOX", "address": {"city": "ROSWELL", "state": "GA", "street": "11205 ALPHARETTA HWY", "postcode": "30076"}}},
{"geometry": {"type": "Point", "coordinates": [-84.3164043837, 34.0213193197]}, "type": "Feature", "properties": {"collection_times": [{"days": "Mon-Sat", "time": "1:00pm"}, {"days": "Sun", "time": "Closed"}], "id": "3007600056", "name": "USPS COLLECTION BOX - BLUE BOX", "address": {"city": "ROSWELL", "state": "GA", "street": "1540 OLD ALABAMA RD", "postcode": "30076"}}},
{"geometry": {"type": "Point", "coordinates": [-84.3426881731, 34.0465784006]}, "type": "Feature", "properties": {"collection_times": [{"days": "Mon-Sat", "time": "3:00pm"}, {"days": "Sun", "time": "Closed"}], "id": "3007600066", "name": "USPS COLLECTION BOX - BLUE BOX", "address": {"city": "ROSWELL", "state": "GA", "street": "600 HOUZE WAY", "postcode": "30076"}}},
{"geometry": {"type": "Point", "coordinates": [-84.3114693486, 34.0177290317]}, "type": "Feature", "properties": {"collection_times": [{"days": "Mon-Sat", "time": "1:00pm"}, {"days": "Sun", "time": "Closed"}], "id": "3007600067", "name": "USPS COLLECTION BOX - BLUE BOX", "address": {"city": "ROSWELL", "state": "GA", "street": "1000 HOLCOMB WOODS PKWY", "postcode": "30076"}}},
{"geometry": {"type": "Point", "coordinates": [-84.3370441147, 34.0328445206]}, "type": "Feature", "properties": {"collection_times": [{"days": "Mon-Sat", "time": "1:30pm"}, {"days": "Sun", "time": "Closed"}], "id": "3007600068", "name": "USPS COLLECTION BOX - BLUE BOX", "address": {"city": "ROSWELL", "state": "GA", "street": "700 OLD ROSWELL LAKES PKWY", "postcode": "30076"}}},
{"geometry": {"type": "Point", "coordinates": [-84.3387141026, 34.0507156853]}, "type": "Feature", "properties": {"collection_times": [{"days": "Mon-Sat", "time": "2:30pm"}, {"days": "Sun", "time": "Closed"}], "id": "3007600070", "name": "USPS COLLECTION BOX - BLUE BOX", "address": {"city": "ROSWELL", "state": "GA", "street": "555 SUN VALLEY DR", "postcode": "30076"}}},
{"geometry": {"type": "Point", "coordinates": [-84.3387141026, 34.0507156853]}, "type": "Feature", "properties": {"collection_times": [{"days": "Mon-Sat", "time": "2:30pm"}, {"days": "Sun", "time": "Closed"}], "id": "3007600071", "name": "USPS COLLECTION BOX - BLUE BOX", "address": {"city": "ROSWELL", "state": "GA", "street": "555 SUN VALLEY DR", "postcode": "30076"}}},
{"geometry": {"type": "Point", "coordinates": [-84.3313295978, 34.0402880141]}, "type": "Feature", "properties": {"collection_times": [{"days": "Mon-Sat", "time": "1:30pm"}, {"days": "Sun", "time": "Closed"}], "id": "3007600074", "name": "USPS COLLECTION BOX - BLUE BOX", "address": {"city": "ROSWELL", "state": "GA", "street": "30 MANSELL CT", "postcode": "30076"}}},
{"geometry": {"type": "Point", "coordinates": [-84.3201758934, 34.04601346]}, "type": "Feature", "properties": {"collection_times": [{"days": "Mon-Sat", "time": "2:00pm"}, {"days": "Sun", "time": "Closed"}], "id": "3007600075", "name": "USPS COLLECTION BOX - BLUE BOX", "address": {"city": "ROSWELL", "state": "GA", "street": "3000 NORTHFIELD PL", "postcode": "30076"}}},
{"geometry": {"type": "Point", "coordinates": [-84.3047769008, 33.9972318567]}, "type": "Feature", "properties": {"collection_times": [{"days": "Mon-Fri", "time": "5:30pm"}, {"days": "Sat", "time": "4:00pm"}, {"days": "Sun", "time": "Closed"}], "id": "3007600076", "name": "USPS COLLECTION BOX - PO LOBBY", "address": {"city": "ROSWELL", "state": "GA", "street": "8920 EVES RD", "postcode": "30076"}}},
{"geometry": {"type": "Point", "coordinates": [-84.3289708504, 34.0412301525]}, "type": "Feature", "properties": {"collection_times": [{"days": "Mon-Sat", "time": "1:30pm"}, {"days": "Sun", "time": "Closed"}], "id": "3007600079", "name": "USPS COLLECTION BOX - BLUE BOX", "address": {"city": "ROSWELL", "state": "GA", "street": "100 MANSELL CT E", "postcode": "30076"}}},
{"geometry": {"type": "Point", "coordinates": [-84.3289708504, 34.0412301525]}, "type": "Feature", "properties": {"collection_times": [{"days": "Mon-Sat", "time": "1:30pm"}, {"days": "Sun", "time": "Closed"}], "id": "3007600080", "name": "USPS COLLECTION BOX - BLUE BOX", "address": {"city": "ROSWELL", "state": "GA", "street": "100 MANSELL CT E", "postcode": "30076"}}},
{"geometry": {"type": "Point", "coordinates": [-84.3276754826, 34.0411990159]}, "type": "Feature", "properties": {"collection_times": [{"days": "Mon-Sat", "time": "1:30pm"}, {"days": "Sun", "time": "Closed"}], "id": "3007600081", "name": "USPS COLLECTION BOX - BLUE BOX", "address": {"city": "ROSWELL", "state": "GA", "street": "200 MANSELL CT E", "postcode": "30076"}}},
{"geometry": {"type": "Point", "coordinates": [-84.3347711156, 34.0543089223]}, "type": "Feature", "properties": {"collection_times": [{"days": "Mon-Sat", "time": "2:30pm"}, {"days": "Sun", "time": "Closed"}], "id": "3007600084", "name": "USPS COLLECTION BOX - BLUE BOX", "address": {"city": "ROSWELL", "state": "GA", "street": "100 BOMBAY LN", "postcode": "30076"}}},
{"geometry": {"type": "Point", "coordinates": [-84.3047769008, 33.9972318567]}, "type": "Feature", "properties": {"collection_times": [{"days": "Mon-Fri", "time": "5:30pm"}, {"days": "Sat", "time": "4:00pm"}, {"days": "Sun", "time": "Closed"}], "id": "3007600092", "name": "USPS COLLECTION BOX - BLUE BOX", "address": {"city": "ROSWELL", "state": "GA", "street": "8920 EVES RD", "postcode": "30076"}}},
{"geometry": {"type": "Point", "coordinates": [-84.3222846935, 34.062922751]}, "type": "Feature", "properties": {"collection_times": [{"days": "Mon-Sat", "time": "2:00pm"}, {"days": "Sun", "time": "Closed"}], "id": "3007600093", "name": "USPS COLLECTION BOX - BLUE BOX", "address": {"city": "ROSWELL", "state": "GA", "street": "2500 HOSPITAL BLVD", "postcode": "30076"}}},
{"geometry": {"type": "Point", "coordinates": [-84.3222846935, 34.062922751]}, "type": "Feature", "properties": {"collection_times": [{"days": "Mon-Sat", "time": "2:00pm"}, {"days": "Sun", "time": "Closed"}], "id": "3007600094", "name": "USPS COLLECTION BOX - BLUE BOX", "address": {"city": "ROSWELL", "state": "GA", "street": "2500 HOSPITAL BLVD", "postcode": "30076"}}},
{"geometry": {"type": "Point", "coordinates": [-84.3420838777, 34.040956386]}, "type": "Feature", "properties": {"collection_times": [{"days": "Mon-Fri", "time": "5:00pm"}, {"days": "Sat", "time": "3:00pm"}, {"days": "Sun", "time": "Closed"}], "id": "3007600100", "name": "USPS COLLECTION BOX - BLUE BOX", "address": {"city": "ROSWELL", "state": "GA", "street": "10765 ALPHARETTA HWY", "postcode": "30076"}}},
{"geometry": {"type": "Point", "coordinates": [-84.3258335704, 34.0465056465]}, "type": "Feature", "properties": {"collection_times": [{"days": "Mon-Sat", "time": "1:30pm"}, {"days": "Sun", "time": "Closed"}], "id": "3007600101", "name": "USPS COLLECTION BOX - BLUE BOX", "address": {"city": "ROSWELL", "state": "GA", "street": "300 COLONIAL CENTER PKWY", "postcode": "30076"}}},
{"geometry": {"type": "Point", "coordinates": [-84.3047769008, 33.9972318567]}, "type": "Feature", "properties": {"collection_times": [{"days": "Mon-Fri", "time": "5:30pm"}, {"days": "Sat", "time": "4:00pm"}, {"days": "Sun", "time": "Closed"}], "id": "3007600103", "name": "USPS COLLECTION BOX - APC", "address": {"city": "ROSWELL", "state": "GA", "street": "8920 EVES RD", "postcode": "30076"}}},
{"geometry": {"type": "Point", "coordinates": [-84.0182464808, 33.8599798541]}, "type": "Feature", "properties": {"collection_times": [{"days": "Mon-Fri", "time": "5:00pm"}, {"days": "Sat", "time": "4:00pm"}, {"days": "Sun", "time": "Closed"}], "id": "3007800001", "name": "USPS COLLECTION BOX - BLUE BOX", "address": {"city": "SNELLVILLE", "state": "GA", "street": "2250 OAK RD", "postcode": "30078"}}},
{"geometry": {"type": "Point", "coordinates": [-84.0240654703, 33.8535662222]}, "type": "Feature", "properties": {"collection_times": [{"days": "Mon-Sat", "time": "12:00pm"}, {"days": "Sun", "time": "Closed"}], "id": "3007800006", "name": "USPS COLLECTION BOX - BLUE BOX", "address": {"city": "SNELLVILLE", "state": "GA", "street": "2341 HENRY CLOWER BLVD", "postcode": "30078"}}},
{"geometry": {"type": "Point", "coordinates": [-84.0138458878, 33.8588954524]}, "type": "Feature", "properties": {"collection_times": [{"days": "Mon-Sat", "time": "12:00pm"}, {"days": "Sun", "time": "Closed"}], "id": "3007800007", "name": "USPS COLLECTION BOX - BLUE BOX", "address": {"city": "SNELLVILLE", "state": "GA", "street": "2336 WISTERIA DR", "postcode": "30078"}}},
{"geometry": {"type": "Point", "coordinates": [-84.0182464808, 33.8599798541]}, "type": "Feature", "properties": {"collection_times": [{"days": "Mon-Fri", "time": "5:00pm"}, {"days": "Sat", "time": "4:00pm"}, {"days": "Sun", "time": "Closed"}], "id": "3007800018", "name": "USPS COLLECTION BOX - BLUE BOX", "address": {"city": "SNELLVILLE", "state": "GA", "street": "2250 OAK RD", "postcode": "30078"}}},
{"geometry": {"type": "Point", "coordinates": [-84.0182464808, 33.8599798541]}, "type": "Feature", "properties": {"collection_times": [{"days": "Mon-Fri", "time": "5:00pm"}, {"days": "Sat", "time": "4:00pm"}, {"days": "Sun", "time": "Closed"}], "id": "3007800019", "name": "USPS COLLECTION BOX - BLUE BOX", "address": {"city": "SNELLVILLE", "state": "GA", "street": "2250 OAK RD", "postcode": "30078"}}},
{"geometry": {"type": "Point", "coordinates": [-84.0182464808, 33.8599798541]}, "type": "Feature", "properties": {"collection_times": [{"days": "Mon-Fri", "time": "5:00pm"}, {"days": "Sat", "time": "4:00pm"}, {"days": "Sun", "time": "Closed"}], "id": "3007800022", "name": "USPS COLLECTION BOX - PO LOBBY", "address": {"city": "SNELLVILLE", "state": "GA", "street": "2250 OAK RD", "postcode": "30078"}}},
{"geometry": {"type": "Point", "coordinates": [-84.0124428984, 33.8787892733]}, "type": "Feature", "properties": {"collection_times": [{"days": "Mon-Sat", "time": "12:00pm"}, {"days": "Sun", "time": "Closed"}], "id": "3007800023", "name": "USPS COLLECTION BOX - BLUE BOX", "address": {"city": "SNELLVILLE", "state": "GA", "street": "1905 SCENIC HWY N", "postcode": "30078"}}},
{"geometry": {"type": "Point", "coordinates": [-84.0182464808, 33.8599798541]}, "type": "Feature", "properties": {"collection_times": [{"days": "Mon-Fri", "time": "5:00pm"}, {"days": "Sat", "time": "4:00pm"}, {"days": "Sun", "time": "Closed"}], "id": "3007800024", "name": "USPS COLLECTION BOX - APC", "address": {"city": "SNELLVILLE", "state": "GA", "street": "2250 OAK RD", "postcode": "30078"}}},
{"geometry": {"type": "Point", "coordinates": [-84.2647018, 33.7914904505]}, "type": "Feature", "properties": {"collection_times": [{"days": "Mon-Fri", "time": "5:00pm"}, {"days": "Sat", "time": "9:00am"}, {"days": "Sun", "time": "Closed"}], "id": "3007900001", "name": "USPS COLLECTION BOX - BLUE BOX", "address": {"city": "SCOTTDALE", "state": "GA", "street": "3328 E PONCE DE LEON AVE", "postcode": "30079"}}},
{"geometry": {"type": "Point", "coordinates": [-84.5284178015, 33.8943049361]}, "type": "Feature", "properties": {"collection_times": [{"days": "Mon-Fri", "time": "5:00pm"}, {"days": "Sat", "time": "2:45pm"}, {"days": "Sun", "time": "Closed"}], "id": "3008000010", "name": "USPS COLLECTION BOX - PO LOBBY", "address": {"city": "SMYRNA", "state": "GA", "street": "850 WINDY HILL RD SE", "postcode": "30080"}}},
{"geometry": {"type": "Point", "coordinates": [-84.5284178015, 33.8943049361]}, "type": "Feature", "properties": {"collection_times": [{"days": "Mon-Fri", "time": "5:00pm"}, {"days": "Sat", "time": "2:45pm"}, {"days": "Sun", "time": "Closed"}], "id": "3008000012", "name": "USPS COLLECTION BOX - PO LOBBY", "address": {"city": "SMYRNA", "state": "GA", "street": "850 WINDY HILL RD SE", "postcode": "30080"}}},
{"geometry": {"type": "Point", "coordinates": [-84.4890447357, 33.8450330597]}, "type": "Feature", "properties": {"collection_times": [{"days": "Mon-Fri", "time": "12:00pm"}, {"days": "Sat-Sun", "time": "Closed"}], "id": "3008000015", "name": "USPS COLLECTION BOX - BLUE BOX", "address": {"city": "SMYRNA", "state": "GA", "street": "1270 WINCHESTER PKWY SE", "postcode": "30080"}}},
{"geometry": {"type": "Point", "coordinates": [-84.4846080758, 33.8956620682]}, "type": "Feature", "properties": {"collection_times": [{"days": "Mon-Fri", "time": "12:00pm"}, {"days": "Sat-Sun", "time": "Closed"}], "id": "3008000021", "name": "USPS COLLECTION BOX - BLUE BOX", "address": {"city": "SMYRNA", "state": "GA", "street": "2300 LAKE PARK DR SE", "postcode": "30080"}}},
{"geometry": {"type": "Point", "coordinates": [-84.4906047373, 33.895530231]}, "type": "Feature", "properties": {"collection_times": [{"days": "Mon-Fri", "time": "12:00pm"}, {"days": "Sat-Sun", "time": "Closed"}], "id": "3008000023", "name": "USPS COLLECTION BOX - BLUE BOX", "address": {"city": "SMYRNA", "state": "GA", "street": "1955 LAKE PARK DR SE", "postcode": "30080"}}},
{"geometry": {"type": "Point", "coordinates": [-84.5284178015, 33.8943049361]}, "type": "Feature", "properties": {"collection_times": [{"days": "Mon-Fri", "time": "5:00pm"}, {"days": "Sat", "time": "2:45pm"}, {"days": "Sun", "time": "Closed"}], "id": "3008000024", "name": "USPS COLLECTION BOX - APC", "address": {"city": "SMYRNA", "state": "GA", "street": "850 WINDY HILL RD SE", "postcode": "30080"}}},
{"geometry": {"type": "Point", "coordinates": [-84.4828761049, 33.8957044035]}, "type": "Feature", "properties": {"collection_times": [{"days": "Mon-Fri", "time": "12:00pm"}, {"days": "Sat-Sun", "time": "Closed"}], "id": "3008000035", "name": "USPS COLLECTION BOX - BLUE BOX", "address": {"city": "SMYRNA", "state": "GA", "street": "2401 LAKE PARK DR SE", "postcode": "30080"}}},
{"geometry": {"type": "Point", "coordinates": [-84.5164758369, 33.8852278568]}, "type": "Feature", "properties": {"collection_times": [{"days": "Mon-Fri", "time": "12:00pm"}, {"days": "Sat-Sun", "time": "Closed"}], "id": "3008000039", "name": "USPS COLLECTION BOX - BLUE BOX", "address": {"city": "SMYRNA", "state": "GA", "street": "2800 KING ST SE", "postcode": "30080"}}},
{"geometry": {"type": "Point", "coordinates": [-84.5284178015, 33.8943049361]}, "type": "Feature", "properties": {"collection_times": [{"days": "Mon-Fri", "time": "5:00pm"}, {"days": "Sat", "time": "2:45pm"}, {"days": "Sun", "time": "Closed"}], "id": "3008000074", "name": "USPS COLLECTION BOX - BLUE BOX", "address": {"city": "SMYRNA", "state": "GA", "street": "850 WINDY HILL RD SE", "postcode": "30080"}}},
{"geometry": {"type": "Point", "coordinates": [-84.5297827937, 33.872714779]}, "type": "Feature", "properties": {"collection_times": [{"days": "Mon-Fri", "time": "4:15pm"}, {"days": "Sat-Sun", "time": "Closed"}], "id": "3008000078", "name": "USPS COLLECTION BOX - PO LOBBY", "address": {"city": "SMYRNA", "state": "GA", "street": "3315 S COBB DR SE", "postcode": "30080"}}},
{"geometry": {"type": "Point", "coordinates": [-84.4911340754, 33.8954544483]}, "type": "Feature", "properties": {"collection_times": [{"days": "Mon-Fri", "time": "12:00pm"}, {"days": "Sat-Sun", "time": "Closed"}], "id": "3008000079", "name": "USPS COLLECTION BOX - BLUE BOX", "address": {"city": "SMYRNA", "state": "GA", "street": "1850 LAKE PARK DR SE", "postcode": "30080"}}},
{"geometry": {"type": "Point", "coordinates": [-84.4831732355, 33.8957433147]}, "type": "Feature", "properties": {"collection_times": [{"days": "Mon-Fri", "time": "12:00pm"}, {"days": "Sat-Sun", "time": "Closed"}], "id": "3008000080", "name": "USPS COLLECTION BOX - BLUE BOX", "address": {"city": "SMYRNA", "state": "GA", "street": "2400 LAKE PARK DR SE", "postcode": "30080"}}},
{"geometry": {"type": "Point", "coordinates": [-84.5297827937, 33.872714779]}, "type": "Feature", "properties": {"collection_times": [{"days": "Mon-Fri", "time": "5:00pm"}, {"days": "Sat-Sun", "time": "Closed"}], "id": "3008000084", "name": "USPS COLLECTION BOX - BLUE BOX", "address": {"city": "SMYRNA", "state": "GA", "street": "3315 S COBB DR SE", "postcode": "30080"}}},
{"geometry": {"type": "Point", "coordinates": [-84.4958852386, 33.8384680471]}, "type": "Feature", "properties": {"collection_times": [{"days": "Mon-Fri", "time": "12:00pm"}, {"days": "Sat-Sun", "time": "Closed"}], "id": "3008200018", "name": "USPS COLLECTION BOX - BLUE BOX", "address": {"city": "SMYRNA", "state": "GA", "street": "2750 S COBB INDUSTRIAL BLVD SE", "postcode": "30082"}}},
{"geometry": {"type": "Point", "coordinates": [-84.5360255248, 33.8546407027]}, "type": "Feature", "properties": {"collection_times": [{"days": "Mon-Fri", "time": "12:00pm"}, {"days": "Sat-Sun", "time": "Closed"}], "id": "3008200027", "name": "USPS COLLECTION BOX - BLUE BOX", "address": {"city": "SMYRNA", "state": "GA", "street": "100 HIGHLANDS PKWY", "postcode": "30082"}}},
{"geometry": {"type": "Point", "coordinates": [-84.5098700455, 33.8293557841]}, "type": "Feature", "properties": {"collection_times": [{"days": "Mon-Fri", "time": "12:00pm"}, {"days": "Sat-Sun", "time": "Closed"}], "id": "3008200028", "name": "USPS COLLECTION BOX - BLUE BOX", "address": {"city": "SMYRNA", "state": "GA", "street": "4900 HIGHLANDS PKWY SE", "postcode": "30082"}}},
{"geometry": {"type": "Point", "coordinates": [-84.5207164771, 33.8371213617]}, "type": "Feature", "properties": {"collection_times": [{"days": "Mon-Fri", "time": "12:00pm"}, {"days": "Sat-Sun", "time": "Closed"}], "id": "3008200029", "name": "USPS COLLECTION BOX - BLUE BOX", "address": {"city": "SMYRNA", "state": "GA", "street": "7100 HIGHLANDS PKWY SE", "postcode": "30082"}}},
{"geometry": {"type": "Point", "coordinates": [-84.1995373224, 33.8211141089]}, "type": "Feature", "properties": {"collection_times": [{"days": "Mon-Fri", "time": "2:30pm"}, {"days": "Sat", "time": "1:30pm"}, {"days": "Sun", "time": "Closed"}], "id": "3008300008", "name": "USPS COLLECTION BOX - BLUE BOX", "address": {"city": "STONE MTN", "state": "GA", "street": "4625 STONEGATE INDUSTRIAL BLVD", "postcode": "30083"}}},
{"geometry": {"type": "Point", "coordinates": [-84.1905591139, 33.8284831264]}, "type": "Feature", "properties": {"collection_times": [{"days": "Mon-Fri", "time": "2:30pm"}, {"days": "Sat", "time": "1:30pm"}, {"days": "Sun", "time": "Closed"}], "id": "3008300024", "name": "USPS COLLECTION BOX - BLUE BOX", "address": {"city": "STONE MTN", "state": "GA", "street": "1580 STONE RIDGE DR", "postcode": "30083"}}},
{"geometry": {"type": "Point", "coordinates": [-84.2174792611, 33.7996575992]}, "type": "Feature", "properties": {"collection_times": [{"days": "Mon-Fri", "time": "2:30pm"}, {"days": "Sat", "time": "1:30pm"}, {"days": "Sun", "time": "Closed"}], "id": "3008300028", "name": "USPS COLLECTION BOX - BLUE BOX", "address": {"city": "STONE MTN", "state": "GA", "street": "5405 MEMORIAL DR", "postcode": "30083"}}},
{"geometry": {"type": "Point", "coordinates": [-84.2238379183, 33.7973134337]}, "type": "Feature", "properties": {"collection_times": [{"days": "Mon-Fri", "time": "5:00pm"}, {"days": "Sat", "time": "11:30am"}, {"days": "Sun", "time": "Closed"}], "id": "3008300034", "name": "USPS COLLECTION BOX - BLUE BOX", "address": {"city": "STONE MTN", "state": "GA", "street": "5152 MEMORIAL DR", "postcode": "30083"}}},
{"geometry": {"type": "Point", "coordinates": [-84.2208341327, 33.7988342598]}, "type": "Feature", "properties": {"collection_times": [{"days": "Mon-Fri", "time": "2:30pm"}, {"days": "Sat", "time": "1:30pm"}, {"days": "Sun", "time": "Closed"}], "id": "3008300043", "name": "USPS COLLECTION BOX - BLUE BOX", "address": {"city": "STONE MTN", "state": "GA", "street": "5300 MEMORIAL DR", "postcode": "30083"}}},
{"geometry": {"type": "Point", "coordinates": [-84.2238379183, 33.7973134337]}, "type": "Feature", "properties": {"collection_times": [{"days": "Mon-Fri", "time": "5:00pm"}, {"days": "Sat", "time": "11:30am"}, {"days": "Sun", "time": "Closed"}], "id": "3008300044", "name": "USPS COLLECTION BOX - BLUE BOX", "address": {"city": "STONE MTN", "state": "GA", "street": "5152 MEMORIAL DR", "postcode": "30083"}}},
{"geometry": {"type": "Point", "coordinates": [-84.1773970624, 33.8065660796]}, "type": "Feature", "properties": {"collection_times": [{"days": "Mon-Fri", "time": "5:00pm"}, {"days": "Sat", "time": "2:45pm"}, {"days": "Sun", "time": "Closed"}], "id": "3008300046", "name": "USPS COLLECTION BOX - BLUE BOX", "address": {"city": "STONE MTN", "state": "GA", "street": "5181 W MOUNTAIN ST", "postcode": "30083"}}},
{"geometry": {"type": "Point", "coordinates": [-84.1773970624, 33.8065660796]}, "type": "Feature", "properties": {"collection_times": [{"days": "Mon-Fri", "time": "5:00pm"}, {"days": "Sat", "time": "2:45pm"}, {"days": "Sun", "time": "Closed"}], "id": "3008300047", "name": "USPS COLLECTION BOX - BLUE BOX", "address": {"city": "STONE MTN", "state": "GA", "street": "5181 W MOUNTAIN ST", "postcode": "30083"}}},
{"geometry": {"type": "Point", "coordinates": [-84.1773970624, 33.8065660796]}, "type": "Feature", "properties": {"collection_times": [{"days": "Mon-Fri", "time": "5:00pm"}, {"days": "Sat", "time": "2:45pm"}, {"days": "Sun", "time": "Closed"}], "id": "3008300048", "name": "USPS COLLECTION BOX - BLUE BOX", "address": {"city": "STONE MTN", "state": "GA", "street": "5181 W MOUNTAIN ST", "postcode": "30083"}}},
{"geometry": {"type": "Point", "coordinates": [-84.1773970624, 33.8065660796]}, "type": "Feature", "properties": {"collection_times": [{"days": "Mon-Fri", "time": "5:00pm"}, {"days": "Sat", "time": "2:45pm"}, {"days": "Sun", "time": "Closed"}], "id": "3008300051", "name": "USPS COLLECTION BOX - PO LOBBY", "address": {"city": "STONE MTN", "state": "GA", "street": "5181 W MOUNTAIN ST", "postcode": "30083"}}},
{"geometry": {"type": "Point", "coordinates": [-84.2238379183, 33.7973134337]}, "type": "Feature", "properties": {"collection_times": [{"days": "Mon-Fri", "time": "4:30pm"}, {"days": "Sat-Sun", "time": "Closed"}], "id": "3008300057", "name": "USPS COLLECTION BOX - PO LOBBY", "address": {"city": "STONE MTN", "state": "GA", "street": "5152 MEMORIAL DR", "postcode": "30083"}}},
{"geometry": {"type": "Point", "coordinates": [-84.2440781965, 33.8516415835]}, "type": "Feature", "properties": {"collection_times": [{"days": "Mon-Fri", "time": "1:00pm"}, {"days": "Sat", "time": "10:30am"}, {"days": "Sun", "time": "Closed"}], "id": "3008400010", "name": "USPS COLLECTION BOX - BLUE BOX", "address": {"city": "TUCKER", "state": "GA", "street": "3537 HABERSHAM AT NORTHLAKE", "postcode": "30084"}}},
{"geometry": {"type": "Point", "coordinates": [-84.1802042241, 33.8581490053]}, "type": "Feature", "properties": {"collection_times": [{"days": "Mon-Fri", "time": "2:00pm"}, {"days": "Sat-Sun", "time": "Closed"}], "id": "3008400022", "name": "USPS COLLECTION BOX - BLUE BOX", "address": {"city": "TUCKER", "state": "GA", "street": "5060 N ROYAL ATLANTA DR", "postcode": "30084"}}},
{"geometry": {"type": "Point", "coordinates": [-84.2525149567, 33.830972889]}, "type": "Feature", "properties": {"collection_times": [{"days": "Mon-Fri", "time": "2:00pm"}, {"days": "Sat-Sun", "time": "Closed"}], "id": "3008400026", "name": "USPS COLLECTION BOX - BLUE BOX", "address": {"city": "TUCKER", "state": "GA", "street": "1728 MONTREAL CIR", "postcode": "30084"}}},
{"geometry": {"type": "Point", "coordinates": [-84.2501409806, 33.8262467601]}, "type": "Feature", "properties": {"collection_times": [{"days": "Mon-Fri", "time": "2:00pm"}, {"days": "Sat-Sun", "time": "Closed"}], "id": "3008400029", "name": "USPS COLLECTION BOX - BLUE BOX", "address": {"city": "TUCKER", "state": "GA", "street": "1459 MONTREAL RD", "postcode": "30084"}}},
{"geometry": {"type": "Point", "coordinates": [-84.2122216243, 33.8542452111]}, "type": "Feature", "properties": {"collection_times": [{"days": "Mon-Fri", "time": "5:00pm"}, {"days": "Sat", "time": "3:30pm"}, {"days": "Sun", "time": "Closed"}], "id": "3008400036", "name": "USPS COLLECTION BOX - BLUE BOX", "address": {"city": "TUCKER", "state": "GA", "street": "4325 1ST AVE", "postcode": "30084"}}},
{"geometry": {"type": "Point", "coordinates": [-84.2567960852, 33.838526082]}, "type": "Feature", "properties": {"collection_times": [{"days": "Mon-Fri", "time": "1:00pm"}, {"days": "Sat-Sun", "time": "Closed"}], "id": "3008400040", "name": "USPS COLLECTION BOX - BLUE BOX", "address": {"city": "TUCKER", "state": "GA", "street": "1901 MONTREAL RD", "postcode": "30084"}}},
{"geometry": {"type": "Point", "coordinates": [-84.2502094507, 33.8264059363]}, "type": "Feature", "properties": {"collection_times": [{"days": "Mon-Fri", "time": "2:00pm"}, {"days": "Sat-Sun", "time": "Closed"}], "id": "3008400041", "name": "USPS COLLECTION BOX - BLUE BOX", "address": {"city": "TUCKER", "state": "GA", "street": "1462 MONTREAL RD", "postcode": "30084"}}},
{"geometry": {"type": "Point", "coordinates": [-84.239443516, 33.8397739183]}, "type": "Feature", "properties": {"collection_times": [{"days": "Mon-Fri", "time": "1:00pm"}, {"days": "Sat", "time": "10:30am"}, {"days": "Sun", "time": "Closed"}], "id": "3008400042", "name": "USPS COLLECTION BOX - BLUE BOX", "address": {"city": "TUCKER", "state": "GA", "street": "1957 LAKESIDE PKWY", "postcode": "30084"}}},
{"geometry": {"type": "Point", "coordinates": [-84.26221278, 33.8408764256]}, "type": "Feature", "properties": {"collection_times": [{"days": "Mon-Fri", "time": "1:00pm"}, {"days": "Sat", "time": "10:30am"}, {"days": "Sun", "time": "Closed"}], "id": "3008400047", "name": "USPS COLLECTION BOX - BLUE BOX", "address": {"city": "TUCKER", "state": "GA", "street": "3756 LAVISTA RD", "postcode": "30084"}}},
{"geometry": {"type": "Point", "coordinates": [-84.2122216243, 33.8542452111]}, "type": "Feature", "properties": {"collection_times": [{"days": "Mon-Fri", "time": "5:00pm"}, {"days": "Sat", "time": "3:30pm"}, {"days": "Sun", "time": "Closed"}], "id": "3008400066", "name": "USPS COLLECTION BOX - BLUE BOX", "address": {"city": "TUCKER", "state": "GA", "street": "4325 1ST AVE", "postcode": "30084"}}},
{"geometry": {"type": "Point", "coordinates": [-84.2122216243, 33.8542452111]}, "type": "Feature", "properties": {"collection_times": [{"days": "Mon-Fri", "time": "5:00pm"}, {"days": "Sat", "time": "3:30pm"}, {"days": "Sun", "time": "Closed"}], "id": "3008400067", "name": "USPS COLLECTION BOX - PO LOBBY", "address": {"city": "TUCKER", "state": "GA", "street": "4325 1ST AVE", "postcode": "30084"}}},
{"geometry": {"type": "Point", "coordinates": [-84.26221278, 33.8408764256]}, "type": "Feature", "properties": {"collection_times": [{"days": "Mon-Fri", "time": "1:00pm"}, {"days": "Sat", "time": "10:30am"}, {"days": "Sun", "time": "Closed"}], "id": "3008400070", "name": "USPS COLLECTION BOX - BLUE BOX", "address": {"city": "TUCKER", "state": "GA", "street": "3756 LAVISTA RD", "postcode": "30084"}}},
{"geometry": {"type": "Point", "coordinates": [-84.2122216243, 33.8542452111]}, "type": "Feature", "properties": {"collection_times": [{"days": "Mon-Fri", "time": "5:00pm"}, {"days": "Sat", "time": "3:30pm"}, {"days": "Sun", "time": "Closed"}], "id": "3008400071", "name": "USPS COLLECTION BOX - APC", "address": {"city": "TUCKER", "state": "GA", "street": "4325 1ST AVE", "postcode": "30084"}}},
{"geometry": {"type": "Point", "coordinates": [-84.1055565415, 33.8257315271]}, "type": "Feature", "properties": {"collection_times": [{"days": "Mon-Sat", "time": "1:00pm"}, {"days": "Sun", "time": "Closed"}], "id": "3008700004", "name": "USPS COLLECTION BOX - BLUE BOX", "address": {"city": "STONE MTN", "state": "GA", "street": "1999 PARKER CT", "postcode": "30087"}}},
{"geometry": {"type": "Point", "coordinates": [-84.1162497817, 33.8158802404]}, "type": "Feature", "properties": {"collection_times": [{"days": "Mon-Sat", "time": "1:00pm"}, {"days": "Sun", "time": "Closed"}], "id": "3008700009", "name": "USPS COLLECTION BOX - BLUE BOX", "address": {"city": "STONE MTN", "state": "GA", "street": "2156 W PARK PL", "postcode": "30087"}}},
{"geometry": {"type": "Point", "coordinates": [-84.1187507637, 33.8258285628]}, "type": "Feature", "properties": {"collection_times": [{"days": "Mon-Fri", "time": "5:00pm"}, {"days": "Sat", "time": "3:00pm"}, {"days": "Sun", "time": "Closed"}], "id": "3008700018", "name": "USPS COLLECTION BOX - BLUE BOX", "address": {"city": "STONE MTN", "state": "GA", "street": "1785 E PARK PLACE BLVD", "postcode": "30087"}}},
{"geometry": {"type": "Point", "coordinates": [-84.1187507637, 33.8258285628]}, "type": "Feature", "properties": {"collection_times": [{"days": "Mon-Fri", "time": "5:00pm"}, {"days": "Sat", "time": "3:00pm"}, {"days": "Sun", "time": "Closed"}], "id": "3008700020", "name": "USPS COLLECTION BOX - BLUE BOX", "address": {"city": "STONE MTN", "state": "GA", "street": "1785 E PARK PLACE BLVD", "postcode": "30087"}}},
{"geometry": {"type": "Point", "coordinates": [-84.1305601681, 33.841178276]}, "type": "Feature", "properties": {"collection_times": [{"days": "Mon-Sat", "time": "1:00pm"}, {"days": "Sun", "time": "Closed"}], "id": "3008700022", "name": "USPS COLLECTION BOX - BLUE BOX", "address": {"city": "STONE MTN", "state": "GA", "street": "5385 FIVE FORKS TRICKUM RD", "postcode": "30087"}}},
{"geometry": {"type": "Point", "coordinates": [-84.1118788802, 33.8142032627]}, "type": "Feature", "properties": {"collection_times": [{"days": "Mon-Sat", "time": "1:00pm"}, {"days": "Sun", "time": "Closed"}], "id": "3008700027", "name": "USPS COLLECTION BOX - BLUE BOX", "address": {"city": "STONE MTN", "state": "GA", "street": "2300 W PARK PL", "postcode": "30087"}}},
{"geometry": {"type": "Point", "coordinates": [-84.1195669305, 33.8182631778]}, "type": "Feature", "properties": {"collection_times": [{"days": "Mon-Sat", "time": "1:00pm"}, {"days": "Sun", "time": "Closed"}], "id": "3008700028", "name": "USPS COLLECTION BOX - BLUE BOX", "address": {"city": "STONE MTN", "state": "GA", "street": "2066 W PARK PL", "postcode": "30087"}}},
{"geometry": {"type": "Point", "coordinates": [-84.1019763307, 33.7857365381]}, "type": "Feature", "properties": {"collection_times": [{"days": "Mon-Sat", "time": "1:00pm"}, {"days": "Sun", "time": "Closed"}], "id": "3008700029", "name": "USPS COLLECTION BOX - BLUE BOX", "address": {"city": "STONE MTN", "state": "GA", "street": "380 N DESHON RD", "postcode": "30087"}}},
{"geometry": {"type": "Point", "coordinates": [-84.1187507637, 33.8258285628]}, "type": "Feature", "properties": {"collection_times": [{"days": "Mon-Fri", "time": "5:00pm"}, {"days": "Sat", "time": "3:00pm"}, {"days": "Sun", "time": "Closed"}], "id": "3008700030", "name": "USPS COLLECTION BOX - PO LOBBY", "address": {"city": "STONE MTN", "state": "GA", "street": "1785 E PARK PLACE BLVD", "postcode": "30087"}}},
{"geometry": {"type": "Point", "coordinates": [-84.1187507637, 33.8258285628]}, "type": "Feature", "properties": {"collection_times": [{"days": "Mon-Fri", "time": "5:00pm"}, {"days": "Sat", "time": "3:00pm"}, {"days": "Sun", "time": "Closed"}], "id": "3008700034", "name": "USPS COLLECTION BOX - APC", "address": {"city": "STONE MTN", "state": "GA", "street": "1785 E PARK PLACE BLVD STE E", "postcode": "30087"}}},
{"geometry": {"type": "Point", "coordinates": [-84.1966294603, 33.7601411428]}, "type": "Feature", "properties": {"collection_times": [{"days": "Mon-Fri", "time": "2:30pm"}, {"days": "Sat", "time": "1:30pm"}, {"days": "Sun", "time": "Closed"}], "id": "3008800001", "name": "USPS COLLECTION BOX - BLUE BOX", "address": {"city": "STONE MTN", "state": "GA", "street": "1232 S HAIRSTON RD", "postcode": "30088"}}},
{"geometry": {"type": "Point", "coordinates": [-84.2265197318, 33.970105439]}, "type": "Feature", "properties": {"collection_times": [{"days": "Mon-Fri", "time": "5:00pm"}, {"days": "Sat", "time": "2:00pm"}, {"days": "Sun", "time": "Closed"}], "id": "3009200007", "name": "USPS COLLECTION BOX - BLUE BOX", "address": {"city": "NORCROSS", "state": "GA", "street": "5600 SPALDING DR", "postcode": "30092"}}},
{"geometry": {"type": "Point", "coordinates": [-84.2377471523, 33.951046521]}, "type": "Feature", "properties": {"collection_times": [{"days": "Mon-Sat", "time": "1:00pm"}, {"days": "Sun", "time": "Closed"}], "id": "3009200009", "name": "USPS COLLECTION BOX - BLUE BOX", "address": {"city": "NORCROSS", "state": "GA", "street": "3320 HOLCOMB BRIDGE RD", "postcode": "30092"}}},
{"geometry": {"type": "Point", "coordinates": [-84.2348055616, 33.9514511359]}, "type": "Feature", "properties": {"collection_times": [{"days": "Mon-Sat", "time": "12:30pm"}, {"days": "Sun", "time": "Closed"}], "id": "3009200010", "name": "USPS COLLECTION BOX - BLUE BOX", "address": {"city": "NORCROSS", "state": "GA", "street": "6135 PEACHTREE PKWY", "postcode": "30092"}}},
{"geometry": {"type": "Point", "coordinates": [-84.238552613, 33.9537041237]}, "type": "Feature", "properties": {"collection_times": [{"days": "Mon-Sat", "time": "1:00pm"}, {"days": "Sun", "time": "Closed"}], "id": "3009200016", "name": "USPS COLLECTION BOX - BLUE BOX", "address": {"city": "NORCROSS", "state": "GA", "street": "6025 THE CORNERS PKWY", "postcode": "30092"}}},
{"geometry": {"type": "Point", "coordinates": [-84.2609419828, 33.9672154976]}, "type": "Feature", "properties": {"collection_times": [{"days": "Mon-Fri", "time": "2:00pm"}, {"days": "Sat", "time": "1:00pm"}, {"days": "Sun", "time": "Closed"}], "id": "3009200021", "name": "USPS COLLECTION BOX - BLUE BOX", "address": {"city": "NORCROSS", "state": "GA", "street": "7742 SPALDING DR", "postcode": "30092"}}},
{"geometry": {"type": "Point", "coordinates": [-84.2203256718, 33.9622039653]}, "type": "Feature", "properties": {"collection_times": [{"days": "Mon-Sat", "time": "12:30pm"}, {"days": "Sun", "time": "Closed"}], "id": "3009200040", "name": "USPS COLLECTION BOX - BLUE BOX", "address": {"city": "NORCROSS", "state": "GA", "street": "157 TECHNOLOGY PKWY", "postcode": "30092"}}},
{"geometry": {"type": "Point", "coordinates": [-84.2176486608, 33.9675223311]}, "type": "Feature", "properties": {"collection_times": [{"days": "Mon-Sat", "time": "12:30pm"}, {"days": "Sun", "time": "Closed"}], "id": "3009200041", "name": "USPS COLLECTION BOX - BLUE BOX", "address": {"city": "NORCROSS", "state": "GA", "street": "110 TECHNOLOGY PKWY", "postcode": "30092"}}},
{"geometry": {"type": "Point", "coordinates": [-84.2141938396, 33.9762079771]}, "type": "Feature", "properties": {"collection_times": [{"days": "Mon-Fri", "time": "2:30pm"}, {"days": "Sat", "time": "1:00pm"}, {"days": "Sun", "time": "Closed"}], "id": "3009200042", "name": "USPS COLLECTION BOX - BLUE BOX", "address": {"city": "NORCROSS", "state": "GA", "street": "3720 DAVINCI CT", "postcode": "30092"}}},
{"geometry": {"type": "Point", "coordinates": [-84.2265197318, 33.970105439]}, "type": "Feature", "properties": {"collection_times": [{"days": "Mon-Fri", "time": "5:00pm"}, {"days": "Sat", "time": "2:00pm"}, {"days": "Sun", "time": "Closed"}], "id": "3009200045", "name": "USPS COLLECTION BOX - PO LOBBY", "address": {"city": "NORCROSS", "state": "GA", "street": "5600 SPALDING DR", "postcode": "30092"}}},
{"geometry": {"type": "Point", "coordinates": [-84.2518957085, 33.9637871526]}, "type": "Feature", "properties": {"collection_times": [{"days": "Mon-Fri", "time": "2:00pm"}, {"days": "Sat", "time": "1:00pm"}, {"days": "Sun", "time": "Closed"}], "id": "3009200047", "name": "USPS COLLECTION BOX - BLUE BOX", "address": {"city": "NORCROSS", "state": "GA", "street": "3850 HOLCOMB BRIDGE RD", "postcode": "30092"}}},
{"geometry": {"type": "Point", "coordinates": [-84.2265197318, 33.970105439]}, "type": "Feature", "properties": {"collection_times": [{"days": "Mon-Fri", "time": "5:00pm"}, {"days": "Sat", "time": "2:00pm"}, {"days": "Sun", "time": "Closed"}], "id": "3009200055", "name": "USPS COLLECTION BOX - APC", "address": {"city": "NORCROSS", "state": "GA", "street": "5600 SPALDING DR", "postcode": "30092"}}},
{"geometry": {"type": "Point", "coordinates": [-84.1539626955, 33.9384115772]}, "type": "Feature", "properties": {"collection_times": [{"days": "Mon-Sat", "time": "1:00pm"}, {"days": "Sun", "time": "Closed"}], "id": "3009300001", "name": "USPS COLLECTION BOX - BLUE BOX", "address": {"city": "NORCROSS", "state": "GA", "street": "1854 SHACKLEFORD CT", "postcode": "30093"}}},
{"geometry": {"type": "Point", "coordinates": [-84.206152429, 33.9068549747]}, "type": "Feature", "properties": {"collection_times": [{"days": "Mon-Sat", "time": "12:30pm"}, {"days": "Sun", "time": "Closed"}], "id": "3009300009", "name": "USPS COLLECTION BOX - BLUE BOX", "address": {"city": "NORCROSS", "state": "GA", "street": "5430 JIMMY CARTER BLVD", "postcode": "30093"}}},
{"geometry": {"type": "Point", "coordinates": [-84.2063748252, 33.9090032282]}, "type": "Feature", "properties": {"collection_times": [{"days": "Mon-Sat", "time": "12:30pm"}, {"days": "Sun", "time": "Closed"}], "id": "3009300014", "name": "USPS COLLECTION BOX - BLUE BOX", "address": {"city": "NORCROSS", "state": "GA", "street": "5495 JIMMY CARTER BLVD", "postcode": "30093"}}},
{"geometry": {"type": "Point", "coordinates": [-84.1930618051, 33.8841859321]}, "type": "Feature", "properties": {"collection_times": [{"days": "Mon-Fri", "time": "5:00pm"}, {"days": "Sat", "time": "12:30pm"}, {"days": "Sun", "time": "Closed"}], "id": "3009300023", "name": "USPS COLLECTION BOX - BLUE BOX", "address": {"city": "NORCROSS", "state": "GA", "street": "4771 BRITT RD", "postcode": "30093"}}},
{"geometry": {"type": "Point", "coordinates": [-84.1930618051, 33.8841859321]}, "type": "Feature", "properties": {"collection_times": [{"days": "Mon-Sat", "time": "12:30pm"}, {"days": "Sun", "time": "Closed"}], "id": "3009300048", "name": "USPS COLLECTION BOX - BLUE BOX", "address": {"city": "NORCROSS", "state": "GA", "street": "4771 BRITT RD", "postcode": "30093"}}},
{"geometry": {"type": "Point", "coordinates": [-84.200761685, 33.9049929973]}, "type": "Feature", "properties": {"collection_times": [{"days": "Mon-Sat", "time": "12:30pm"}, {"days": "Sun", "time": "Closed"}], "id": "3009300055", "name": "USPS COLLECTION BOX - BLUE BOX", "address": {"city": "NORCROSS", "state": "GA", "street": "6050 SINGLETON RD", "postcode": "30093"}}},
{"geometry": {"type": "Point", "coordinates": [-84.0366995051, 33.6646793244]}, "type": "Feature", "properties": {"collection_times": [{"days": "Mon-Sat", "time": "1:30pm"}, {"days": "Sun", "time": "Closed"}], "id": "3009400000", "name": "USPS COLLECTION BOX - BLUE BOX", "address": {"city": "CONYERS", "state": "GA", "street": "1496 KLONDIKE RD SW", "postcode": "30094"}}},
{"geometry": {"type": "Point", "coordinates": [-84.0214861537, 33.6548655225]}, "type": "Feature", "properties": {"collection_times": [{"days": "Mon-Sat", "time": "1:30pm"}, {"days": "Sun", "time": "Closed"}], "id": "3009400002", "name": "USPS COLLECTION BOX - BLUE BOX", "address": {"city": "CONYERS", "state": "GA", "street": "889 COMMERCE DR SW", "postcode": "30094"}}},
{"geometry": {"type": "Point", "coordinates": [-84.1761070306, 34.0437099517]}, "type": "Feature", "properties": {"collection_times": [{"days": "Mon-Sat", "time": "11:00am"}, {"days": "Sun", "time": "Closed"}], "id": "3009600000", "name": "USPS COLLECTION BOX - BLUE BOX", "address": {"city": "DULUTH", "state": "GA", "street": "10820 ABBOTTS BRIDGE RD", "postcode": "30096"}}},
{"geometry": {"type": "Point", "coordinates": [-84.1910302701, 34.0188679373]}, "type": "Feature", "properties": {"collection_times": [{"days": "Mon-Sat", "time": "11:00am"}, {"days": "Sun", "time": "Closed"}], "id": "3009600001", "name": "USPS COLLECTION BOX - BLUE BOX", "address": {"city": "DULUTH", "state": "GA", "street": "5805 STATE BRIDGE RD", "postcode": "30096"}}},
{"geometry": {"type": "Point", "coordinates": [-84.1588706673, 34.0038128329]}, "type": "Feature", "properties": {"collection_times": [{"days": "Mon-Fri", "time": "5:00pm"}, {"days": "Sat", "time": "2:00pm"}, {"days": "Sun", "time": "Closed"}], "id": "3009600003", "name": "USPS COLLECTION BOX - BLUE BOX", "address": {"city": "DULUTH", "state": "GA", "street": "3470 MCCLURE BRIDGE RD", "postcode": "30096"}}},
{"geometry": {"type": "Point", "coordinates": [-84.1588706673, 34.0038128329]}, "type": "Feature", "properties": {"collection_times": [{"days": "Mon-Fri", "time": "5:00pm"}, {"days": "Sat", "time": "2:00pm"}, {"days": "Sun", "time": "Closed"}], "id": "3009600004", "name": "USPS COLLECTION BOX - BLUE BOX", "address": {"city": "DULUTH", "state": "GA", "street": "3470 MCCLURE BRIDGE RD", "postcode": "30096"}}},
{"geometry": {"type": "Point", "coordinates": [-84.1588706673, 34.0038128329]}, "type": "Feature", "properties": {"collection_times": [{"days": "Mon-Fri", "time": "5:00pm"}, {"days": "Sat", "time": "2:00pm"}, {"days": "Sun", "time": "Closed"}], "id": "3009600005", "name": "USPS COLLECTION BOX - BLUE BOX", "address": {"city": "DULUTH", "state": "GA", "street": "3470 MCCLURE BRIDGE RD", "postcode": "30096"}}},
{"geometry": {"type": "Point", "coordinates": [-84.1703667286, 34.0061859611]}, "type": "Feature", "properties": {"collection_times": [{"days": "Mon-Sat", "time": "11:00am"}, {"days": "Sun", "time": "Closed"}], "id": "3009600012", "name": "USPS COLLECTION BOX - BLUE BOX", "address": {"city": "DULUTH", "state": "GA", "street": "3455 PEACHTREE INDUSTRIAL BLVD", "postcode": "30096"}}},
{"geometry": {"type": "Point", "coordinates": [-84.1109772543, 33.9574379543]}, "type": "Feature", "properties": {"collection_times": [{"days": "Mon-Fri", "time": "2:00pm"}, {"days": "Sat", "time": "12:00pm"}, {"days": "Sun", "time": "Closed"}], "id": "3009600029", "name": "USPS COLLECTION BOX - BLUE BOX", "address": {"city": "DULUTH", "state": "GA", "street": "3100 BRECKINRIDGE BLVD", "postcode": "30096"}}},
{"geometry": {"type": "Point", "coordinates": [-84.1345514717, 33.9528779933]}, "type": "Feature", "properties": {"collection_times": [{"days": "Mon-Fri", "time": "2:00pm"}, {"days": "Sat", "time": "12:00pm"}, {"days": "Sun", "time": "Closed"}], "id": "3009600032", "name": "USPS COLLECTION BOX - BLUE BOX", "address": {"city": "DULUTH", "state": "GA", "street": "3761 VENTURE DR", "postcode": "30096"}}},
{"geometry": {"type": "Point", "coordinates": [-84.1331508104, 33.9571101981]}, "type": "Feature", "properties": {"collection_times": [{"days": "Mon-Fri", "time": "1:00pm"}, {"days": "Sat", "time": "11:00am"}, {"days": "Sun", "time": "Closed"}], "id": "3009600035", "name": "USPS COLLECTION BOX - BLUE BOX", "address": {"city": "DULUTH", "state": "GA", "street": "2100 PLEASANT HILL RD", "postcode": "30096"}}},
{"geometry": {"type": "Point", "coordinates": [-84.1088862884, 33.9599721229]}, "type": "Feature", "properties": {"collection_times": [{"days": "Mon-Fri", "time": "2:00pm"}, {"days": "Sat", "time": "12:00pm"}, {"days": "Sun", "time": "Closed"}], "id": "3009600038", "name": "USPS COLLECTION BOX - BLUE BOX", "address": {"city": "DULUTH", "state": "GA", "street": "3005 BRECKINRIDGE BLVD", "postcode": "30096"}}},
{"geometry": {"type": "Point", "coordinates": [-84.1367542842, 33.9577280171]}, "type": "Feature", "properties": {"collection_times": [{"days": "Mon-Fri", "time": "5:00pm"}, {"days": "Sat", "time": "12:00pm"}, {"days": "Sun", "time": "Closed"}], "id": "3009600045", "name": "USPS COLLECTION BOX - BLUE BOX", "address": {"city": "DULUTH", "state": "GA", "street": "3628 SATELLITE BLVD", "postcode": "30096"}}},
{"geometry": {"type": "Point", "coordinates": [-84.1317880795, 33.9633436312]}, "type": "Feature", "properties": {"collection_times": [{"days": "Mon-Fri", "time": "1:00pm"}, {"days": "Sat", "time": "11:00am"}, {"days": "Sun", "time": "Closed"}], "id": "3009600047", "name": "USPS COLLECTION BOX - BLUE BOX", "address": {"city": "DULUTH", "state": "GA", "street": "3473 SATELLITE BLVD", "postcode": "30096"}}},
{"geometry": {"type": "Point", "coordinates": [-84.1651233214, 34.016714774]}, "type": "Feature", "properties": {"collection_times": [{"days": "Mon-Sat", "time": "11:00am"}, {"days": "Sun", "time": "Closed"}], "id": "3009600050", "name": "USPS COLLECTION BOX - BLUE BOX", "address": {"city": "DULUTH", "state": "GA", "street": "4250 RIVER GREEN PKWY", "postcode": "30096"}}},
{"geometry": {"type": "Point", "coordinates": [-84.1367542842, 33.9577280171]}, "type": "Feature", "properties": {"collection_times": [{"days": "Mon-Fri", "time": "5:00pm"}, {"days": "Sat", "time": "12:00pm"}, {"days": "Sun", "time": "Closed"}], "id": "3009600052", "name": "USPS COLLECTION BOX - BLUE BOX", "address": {"city": "DULUTH", "state": "GA", "street": "3628 SATELLITE BLVD", "postcode": "30096"}}},
{"geometry": {"type": "Point", "coordinates": [-84.0920988158, 33.9968498977]}, "type": "Feature", "properties": {"collection_times": [{"days": "Mon-Sat", "time": "11:00am"}, {"days": "Sun", "time": "Closed"}], "id": "3009600056", "name": "USPS COLLECTION BOX - BLUE BOX", "address": {"city": "DULUTH", "state": "GA", "street": "6555 SUGARLOAF PKWY", "postcode": "30096"}}},
{"geometry": {"type": "Point", "coordinates": [-84.1322967851, 33.9625447303]}, "type": "Feature", "properties": {"collection_times": [{"days": "Mon-Fri", "time": "1:00pm"}, {"days": "Sat", "time": "11:00am"}, {"days": "Sun", "time": "Closed"}], "id": "3009600058", "name": "USPS COLLECTION BOX - BLUE BOX", "address": {"city": "DULUTH", "state": "GA", "street": "3483 SATELLITE BLVD", "postcode": "30096"}}},
{"geometry": {"type": "Point", "coordinates": [-84.1367542842, 33.9577280171]}, "type": "Feature", "properties": {"collection_times": [{"days": "Mon-Fri", "time": "5:00pm"}, {"days": "Sat", "time": "12:00pm"}, {"days": "Sun", "time": "Closed"}], "id": "3009600059", "name": "USPS COLLECTION BOX - BLUE BOX", "address": {"city": "DULUTH", "state": "GA", "street": "3628 SATELLITE BLVD", "postcode": "30096"}}},
{"geometry": {"type": "Point", "coordinates": [-84.1367542842, 33.9577280171]}, "type": "Feature", "properties": {"collection_times": [{"days": "Mon-Fri", "time": "5:00pm"}, {"days": "Sat", "time": "12:00pm"}, {"days": "Sun", "time": "Closed"}], "id": "3009600060", "name": "USPS COLLECTION BOX - BLUE BOX", "address": {"city": "DULUTH", "state": "GA", "street": "3628 SATELLITE BLVD", "postcode": "30096"}}},
{"geometry": {"type": "Point", "coordinates": [-84.0920988158, 33.9968498977]}, "type": "Feature", "properties": {"collection_times": [{"days": "Mon-Sat", "time": "11:00am"}, {"days": "Sun", "time": "Closed"}], "id": "3009600062", "name": "USPS COLLECTION BOX - BLUE BOX", "address": {"city": "DULUTH", "state": "GA", "street": "6555 SUGARLOAF PKWY", "postcode": "30096"}}},
{"geometry": {"type": "Point", "coordinates": [-84.11777545, 33.9662483319]}, "type": "Feature", "properties": {"collection_times": [{"days": "Mon-Fri", "time": "1:00pm"}, {"days": "Sat", "time": "11:00am"}, {"days": "Sun", "time": "Closed"}], "id": "3009600065", "name": "USPS COLLECTION BOX - BLUE BOX", "address": {"city": "DULUTH", "state": "GA", "street": "2600 COMMERCE AVE", "postcode": "30096"}}},
{"geometry": {"type": "Point", "coordinates": [-84.1588706673, 34.0038128329]}, "type": "Feature", "properties": {"collection_times": [{"days": "Mon-Fri", "time": "5:00pm"}, {"days": "Sat", "time": "2:00pm"}, {"days": "Sun", "time": "Closed"}], "id": "3009600073", "name": "USPS COLLECTION BOX - PO LOBBY", "address": {"city": "DULUTH", "state": "GA", "street": "3470 MCCLURE BRIDGE RD", "postcode": "30096"}}},
{"geometry": {"type": "Point", "coordinates": [-84.1367542842, 33.9577280171]}, "type": "Feature", "properties": {"collection_times": [{"days": "Mon-Fri", "time": "5:00pm"}, {"days": "Sat-Sun", "time": "Closed"}], "id": "3009600075", "name": "USPS COLLECTION BOX - PO LOBBY", "address": {"city": "DULUTH", "state": "GA", "street": "3628 SATELLITE BLVD", "postcode": "30096"}}},
{"geometry": {"type": "Point", "coordinates": [-84.1009483393, 33.9678010206]}, "type": "Feature", "properties": {"collection_times": [{"days": "Mon-Fri", "time": "1:00pm"}, {"days": "Sat", "time": "11:00am"}, {"days": "Sun", "time": "Closed"}], "id": "3009600077", "name": "USPS COLLECTION BOX - BLUE BOX", "address": {"city": "DULUTH", "state": "GA", "street": "2651 SATELLITE BLVD", "postcode": "30096"}}},
{"geometry": {"type": "Point", "coordinates": [-84.0937109964, 33.9754914368]}, "type": "Feature", "properties": {"collection_times": [{"days": "Mon-Fri", "time": "1:00pm"}, {"days": "Sat", "time": "11:00am"}, {"days": "Sun", "time": "Closed"}], "id": "3009600079", "name": "USPS COLLECTION BOX - BLUE BOX", "address": {"city": "DULUTH", "state": "GA", "street": "2385 SATELLITE BLVD", "postcode": "30096"}}},
{"geometry": {"type": "Point", "coordinates": [-84.1701242307, 33.9886826123]}, "type": "Feature", "properties": {"collection_times": [{"days": "Mon-Sat", "time": "11:00am"}, {"days": "Sun", "time": "Closed"}], "id": "3009600081", "name": "USPS COLLECTION BOX - BLUE BOX", "address": {"city": "DULUTH", "state": "GA", "street": "3870 PEACHTREE INDUSTRIAL BLVD", "postcode": "30096"}}},
{"geometry": {"type": "Point", "coordinates": [-84.1688454521, 34.0663627957]}, "type": "Feature", "properties": {"collection_times": [{"days": "Mon-Sat", "time": "11:00am"}, {"days": "Sun", "time": "Closed"}], "id": "3009600082", "name": "USPS COLLECTION BOX - BLUE BOX", "address": {"city": "DULUTH", "state": "GA", "street": "11695 MEDLOCK BRIDGE RD", "postcode": "30096"}}},
{"geometry": {"type": "Point", "coordinates": [-84.1325510881, 34.0078418157]}, "type": "Feature", "properties": {"collection_times": [{"days": "Mon-Fri", "time": "5:00pm"}, {"days": "Sat", "time": "2:00pm"}, {"days": "Sun", "time": "Closed"}], "id": "3009600083", "name": "USPS COLLECTION BOX - BLUE BOX", "address": {"city": "DULUTH", "state": "GA", "street": "2700 BUFORD HWY", "postcode": "30096"}}},
{"geometry": {"type": "Point", "coordinates": [-84.1588706673, 34.0038128329]}, "type": "Feature", "properties": {"collection_times": [{"days": "Mon-Fri", "time": "5:00pm"}, {"days": "Sat", "time": "2:00pm"}, {"days": "Sun", "time": "Closed"}], "id": "3009600085", "name": "USPS COLLECTION BOX - APC", "address": {"city": "DULUTH", "state": "GA", "street": "3470 MCCLURE BRIDGE RD", "postcode": "30096"}}},
{"geometry": {"type": "Point", "coordinates": [-84.1886240517, 33.9848018356]}, "type": "Feature", "properties": {"collection_times": [{"days": "Mon-Sat", "time": "11:00am"}, {"days": "Sun", "time": "Closed"}], "id": "3009600086", "name": "USPS COLLECTION BOX - BLUE BOX", "address": {"city": "DULUTH", "state": "GA", "street": "4040 S BERKELEY LAKE RD NW", "postcode": "30096"}}},
{"geometry": {"type": "Point", "coordinates": [-84.1115257824, 33.9569342416]}, "type": "Feature", "properties": {"collection_times": [{"days": "Mon-Fri", "time": "9:00am"}, {"days": "Sat-Sun", "time": "Closed"}], "id": "3009900001", "name": "USPS COLLECTION BOX - BLUE BOX", "address": {"city": "DULUTH", "state": "GA", "street": "1 PRIMERICA PKWY", "postcode": "30099"}}}
]}
