{"type": "FeatureCollection", "features": [
{"geometry": {"type": "Point", "coordinates": [-84.678146704, 34.034956868]}, "type": "Feature", "properties": {"collection_times": [{"days": "Mon-Fri", "time": "2:00pm"}, {"days": "Sat", "time": "12:00pm"}, {"days": "Sun", "time": "Closed"}], "id": "3010100001", "name": "USPS COLLECTION BOX - BLUE BOX", "address": {"city": "ACWORTH", "state": "GA", "street": "3330 COBB PKWY NW", "postcode": "30101"}}},
{"geometry": {"type": "Point", "coordinates": [-84.6799397769, 34.0664906543]}, "type": "Feature", "properties": {"collection_times": [{"days": "Mon-Fri", "time": "5:00pm"}, {"days": "Sat", "time": "12:00pm"}, {"days": "Sun", "time": "Closed"}], "id": "3010100007", "name": "USPS COLLECTION BOX - BLUE BOX", "address": {"city": "ACWORTH", "state": "GA", "street": "4591 MORNINGSIDE DR", "postcode": "30101"}}},
{"geometry": {"type": "Point", "coordinates": [-84.6525652475, 34.0760532317]}, "type": "Feature", "properties": {"collection_times": [{"days": "Mon-Fri", "time": "2:00pm"}, {"days": "Sat", "time": "12:00pm"}, {"days": "Sun", "time": "Closed"}], "id": "3010100030", "name": "USPS COLLECTION BOX - BLUE BOX", "address": {"city": "ACWORTH", "state": "GA", "street": "3509 BAKER RD NW", "postcode": "30101"}}},
{"geometry": {"type": "Point", "coordinates": [-84.6801311163, 34.0669088386]}, "type": "Feature", "properties": {"collection_times": [{"days": "Mon-Fri", "time": "5:00pm"}, {"days": "Sat", "time": "12:00pm"}, {"days": "Sun", "time": "Closed"}], "id": "3010100034", "name": "USPS COLLECTION BOX - PO LOBBY", "address": {"city": "ACWORTH", "state": "GA", "street": "4915 N MAIN ST", "postcode": "30101"}}},
{"geometry": {"type": "Point", "coordinates": [-84.7065687675, 34.0549541733]}, "type": "Feature", "properties": {"collection_times": [{"days": "Mon-Sat", "time": "9:30am"}, {"days": "Sun", "time": "Closed"}], "id": "3010100035", "name": "USPS COLLECTION BOX - BLUE BOX", "address": {"city": "ACWORTH", "state": "GA", "street": "3950 COBB PKWY NW", "postcode": "30101"}}},
{"geometry": {"type": "Point", "coordinates": [-84.6579383848, 34.0766808401]}, "type": "Feature", "properties": {"collection_times": [{"days": "Mon-Fri", "time": "5:00pm"}, {"days": "Sat", "time": "12:00pm"}, {"days": "Sun", "time": "Closed"}], "id": "3010100036", "name": "USPS COLLECTION BOX - PO LOBBY", "address": {"city": "ACWORTH", "state": "GA", "street": "5944 HWY 92 STE 100", "postcode": "30101"}}},
{"geometry": {"type": "Point", "coordinates": [-84.7153939495, 34.0439858798]}, "type": "Feature", "properties": {"collection_times": [{"days": "Mon-Fri", "time": "5:00pm"}, {"days": "Sat", "time": "12:00pm"}, {"days": "Sun", "time": "Closed"}], "id": "3010100037", "name": "USPS COLLECTION BOX - PO LOBBY", "address": {"city": "ACWORTH", "state": "GA", "street": "5330 BROOKSTONE DR NW", "postcode": "30101"}}},
{"geometry": {"type": "Point", "coordinates": [-84.9311461311, 34.3753021525]}, "type": "Feature", "properties": {"collection_times": [{"days": "Mon-Fri", "time": "5:00pm"}, {"days": "Sat", "time": "4:00pm"}, {"days": "Sun", "time": "Closed"}], "id": "3010300001", "name": "USPS COLLECTION BOX - BLUE BOX", "address": {"city": "ADAIRSVILLE", "state": "GA", "street": "10 FINLEY ST", "postcode": "30103"}}},
{"geometry": {"type": "Point", "coordinates": [-84.9311461311, 34.3753021525]}, "type": "Feature", "properties": {"collection_times": [{"days": "Mon-Fri", "time": "5:00pm"}, {"days": "Sat", "time": "4:00pm"}, {"days": "Sun", "time": "Closed"}], "id": "3010300002", "name": "USPS COLLECTION BOX - BLUE BOX", "address": {"city": "ADAIRSVILLE", "state": "GA", "street": "10 FINLEY ST", "postcode": "30103"}}},
{"geometry": {"type": "Point", "coordinates": [-84.9311461311, 34.3753021525]}, "type": "Feature", "properties": {"collection_times": [{"days": "Mon-Fri", "time": "4:45pm"}, {"days": "Sat", "time": "4:00pm"}, {"days": "Sun", "time": "Closed"}], "id": "3010300009", "name": "USPS COLLECTION BOX - PO LOBBY", "address": {"city": "ADAIRSVILLE", "state": "GA", "street": "10 FINLEY ST", "postcode": "30103"}}},
{"geometry": {"type": "Point", "coordinates": [-85.0591924624, 34.0426331382]}, "type": "Feature", "properties": {"collection_times": [{"days": "Mon-Fri", "time": "4:30pm"}, {"days": "Sat", "time": "12:00pm"}, {"days": "Sun", "time": "Closed"}], "id": "3010400001", "name": "USPS COLLECTION BOX - BLUE BOX", "address": {"city": "ARAGON", "state": "GA", "street": "2646 ROME HWY", "postcode": "30104"}}},
{"geometry": {"type": "Point", "coordinates": [-85.0591924624, 34.0426331382]}, "type": "Feature", "properties": {"collection_times": [{"days": "Mon-Fri", "time": "4:30pm"}, {"days": "Sat", "time": "12:00pm"}, {"days": "Sun", "time": "Closed"}], "id": "3010400002", "name": "USPS COLLECTION BOX - PO LOBBY", "address": {"city": "ARAGON", "state": "GA", "street": "2646 ROME HWY", "postcode": "30104"}}},
{"geometry": {"type": "Point", "coordinates": [-85.1829250231, 34.3892269582]}, "type": "Feature", "properties": {"collection_times": [{"days": "Mon-Fri", "time": "4:00pm"}, {"days": "Sat", "time": "12:00pm"}, {"days": "Sun", "time": "Closed"}], "id": "3010500001", "name": "USPS COLLECTION BOX - BLUE BOX", "address": {"city": "ARMUCHEE", "state": "GA", "street": "5345 MARTHA BERRY HWY NE", "postcode": "30105"}}},
{"geometry": {"type": "Point", "coordinates": [-85.1829250231, 34.3892269582]}, "type": "Feature", "properties": {"collection_times": [{"days": "Mon-Fri", "time": "4:00pm"}, {"days": "Sat", "time": "12:00pm"}, {"days": "Sun", "time": "Closed"}], "id": "3010500002", "name": "USPS COLLECTION BOX - PO LOBBY", "address": {"city": "ARMUCHEE", "state": "GA", "street": "5345 MARTHA BERRY HWY NW", "postcode": "30105"}}},
{"geometry": {"type": "Point", "coordinates": [-84.6034616027, 33.8561396837]}, "type": "Feature", "properties": {"collection_times": [{"days": "Mon-Fri", "time": "1:30pm"}, {"days": "Sat", "time": "1:00pm"}, {"days": "Sun", "time": "Closed"}], "id": "3010600006", "name": "USPS COLLECTION BOX - BLUE BOX", "address": {"city": "AUSTELL", "state": "GA", "street": "1700 HOSPITAL SOUTH DR", "postcode": "30106"}}},
{"geometry": {"type": "Point", "coordinates": [-84.3774395184, 34.3361293062]}, "type": "Feature", "properties": {"collection_times": [{"days": "Mon-Fri", "time": "4:45pm"}, {"days": "Sat", "time": "12:30pm"}, {"days": "Sun", "time": "Closed"}], "id": "3010700002", "name": "USPS COLLECTION BOX - BLUE BOX", "address": {"city": "BALL GROUND", "state": "GA", "street": "180 VALLEY ST", "postcode": "30107"}}},
{"geometry": {"type": "Point", "coordinates": [-84.3774395184, 34.3361293062]}, "type": "Feature", "properties": {"collection_times": [{"days": "Mon-Fri", "time": "4:45pm"}, {"days": "Sat", "time": "12:30pm"}, {"days": "Sun", "time": "Closed"}], "id": "3010700004", "name": "USPS COLLECTION BOX - PO LOBBY", "address": {"city": "BALL GROUND", "state": "GA", "street": "180 VALLEY ST", "postcode": "30107"}}},
{"geometry": {"type": "Point", "coordinates": [-84.3774395184, 34.3361293062]}, "type": "Feature", "properties": {"collection_times": [{"days": "Mon-Fri", "time": "4:45pm"}, {"days": "Sat", "time": "12:30pm"}, {"days": "Sun", "time": "Closed"}], "id": "3010700005", "name": "USPS COLLECTION BOX - PO LOBBY", "address": {"city": "BALL GROUND", "state": "GA", "street": "180 VALLEY ST", "postcode": "30107"}}},
{"geometry": {"type": "Point", "coordinates": [-85.2553832681, 33.5380516371]}, "type": "Feature", "properties": {"collection_times": [{"days": "Mon-Fri", "time": "5:00pm"}, {"days": "Sat", "time": "11:30am"}, {"days": "Sun", "time": "Closed"}], "id": "3010800002", "name": "USPS COLLECTION BOX - BLUE BOX", "address": {"city": "BOWDON", "state": "GA", "street": "210 W COLLEGE ST", "postcode": "30108"}}},
{"geometry": {"type": "Point", "coordinates": [-85.2553832681, 33.5380516371]}, "type": "Feature", "properties": {"collection_times": [{"days": "Mon-Fri", "time": "4:00pm"}, {"days": "Sat", "time": "11:30am"}, {"days": "Sun", "time": "Closed"}], "id": "3010800006", "name": "USPS COLLECTION BOX - PO LOBBY", "address": {"city": "BOWDON", "state": "GA", "street": "210 W COLLEGE ST", "postcode": "30108"}}},
{"geometry": {"type": "Point", "coordinates": [-85.2553832681, 33.5380516371]}, "type": "Feature", "properties": {"collection_times": [{"days": "Mon-Fri", "time": "4:00pm"}, {"days": "Sat", "time": "11:30am"}, {"days": "Sun", "time": "Closed"}], "id": "3010800007", "name": "USPS COLLECTION BOX - PO LOBBY", "address": {"city": "BOWDON", "state": "GA", "street": "210 W COLLEGE ST", "postcode": "30108"}}},
{"geometry": {"type": "Point", "coordinates": [-85.1502038908, 33.6658723644]}, "type": "Feature", "properties": {"collection_times": [{"days": "Mon-Fri", "time": "4:15pm"}, {"days": "Sat", "time": "9:00am"}, {"days": "Sun", "time": "Closed"}], "id": "3010900001", "name": "USPS COLLECTION BOX - BLUE BOX", "address": {"city": "BOWDON JUNCTION", "state": "GA", "street": "4363 HIGHWAY 27 N", "postcode": "30109"}}},
{"geometry": {"type": "Point", "coordinates": [-85.1487013776, 33.7198974826]}, "type": "Feature", "properties": {"collection_times": [{"days": "Mon-Fri", "time": "5:00pm"}, {"days": "Sat", "time": "3:00pm"}, {"days": "Sun", "time": "Closed"}], "id": "3011000005", "name": "USPS COLLECTION BOX - PO LOBBY", "address": {"city": "BREMEN", "state": "GA", "street": "101 TALLAPOOSA ST W", "postcode": "30110"}}},
{"geometry": {"type": "Point", "coordinates": [-85.1488030515, 33.7199555148]}, "type": "Feature", "properties": {"collection_times": [{"days": "Mon-Fri", "time": "5:00pm"}, {"days": "Sat", "time": "3:00pm"}, {"days": "Sun", "time": "Closed"}], "id": "3011000014", "name": "USPS COLLECTION BOX - BLUE BOX", "address": {"city": "BREMEN", "state": "GA", "street": "101 TALLAPOOSA ST W", "postcode": "30110"}}},
{"geometry": {"type": "Point", "coordinates": [-84.6734623214, 33.8587865534]}, "type": "Feature", "properties": {"collection_times": [{"days": "Mon-Fri", "time": "4:30pm"}, {"days": "Sat", "time": "12:00pm"}, {"days": "Sun", "time": "Closed"}], "id": "3011100000", "name": "USPS COLLECTION BOX - BLUE BOX", "address": {"city": "CLARKDALE", "state": "GA", "street": "5071 AUSTELL POWDER SPRINGS RD", "postcode": "30111"}}},
{"geometry": {"type": "Point", "coordinates": [-84.6734623214, 33.8587865534]}, "type": "Feature", "properties": {"collection_times": [{"days": "Mon-Fri", "time": "4:30pm"}, {"days": "Sat", "time": "12:00pm"}, {"days": "Sun", "time": "Closed"}], "id": "3011100001", "name": "USPS COLLECTION BOX - PO LOBBY", "address": {"city": "CLARKDALE", "state": "GA", "street": "5071 AUSTELL POWDER SPRINGS RD", "postcode": "30111"}}},
{"geometry": {"type": "Point", "coordinates": [-85.187358366, 33.801838198]}, "type": "Feature", "properties": {"collection_times": [{"days": "Mon-Fri", "time": "4:30pm"}, {"days": "Sat", "time": "12:00pm"}, {"days": "Sun", "time": "Closed"}], "id": "3011300002", "name": "USPS COLLECTION BOX - BLUE BOX", "address": {"city": "BUCHANAN", "state": "GA", "street": "368 CARROLLTON ST", "postcode": "30113"}}},
{"geometry": {"type": "Point", "coordinates": [-85.187358366, 33.801838198]}, "type": "Feature", "properties": {"collection_times": [{"days": "Mon-Fri", "time": "4:30pm"}, {"days": "Sat", "time": "12:00pm"}, {"days": "Sun", "time": "Closed"}], "id": "3011300003", "name": "USPS COLLECTION BOX - PO LOBBY", "address": {"city": "BUCHANAN", "state": "GA", "street": "368 CARROLLTON ST", "postcode": "30113"}}},
{"geometry": {"type": "Point", "coordinates": [-85.187358366, 33.801838198]}, "type": "Feature", "properties": {"collection_times": [{"days": "Mon-Fri", "time": "4:30pm"}, {"days": "Sat", "time": "12:00pm"}, {"days": "Sun", "time": "Closed"}], "id": "3011300004", "name": "USPS COLLECTION BOX - PO LOBBY", "address": {"city": "BUCHANAN", "state": "GA", "street": "368 CARROLLTON ST", "postcode": "30113"}}},
{"geometry": {"type": "Point", "coordinates": [-84.4810138815, 34.257134519]}, "type": "Feature", "properties": {"collection_times": [{"days": "Mon-Fri", "time": "5:00pm"}, {"days": "Sat", "time": "2:00pm"}, {"days": "Sun", "time": "Closed"}], "id": "3011400007", "name": "USPS COLLECTION BOX - BLUE BOX", "address": {"city": "CANTON", "state": "GA", "street": "2400 RIVERSTONE BLVD", "postcode": "30114"}}},
{"geometry": {"type": "Point", "coordinates": [-84.4810138815, 34.257134519]}, "type": "Feature", "properties": {"collection_times": [{"days": "Mon-Fri", "time": "5:00pm"}, {"days": "Sat", "time": "2:00pm"}, {"days": "Sun", "time": "Closed"}], "id": "3011400027", "name": "USPS COLLECTION BOX - PO LOBBY", "address": {"city": "CANTON", "state": "GA", "street": "2400 RIVERSTONE BLVD", "postcode": "30114"}}},
{"geometry": {"type": "Point", "coordinates": [-84.4810138815, 34.257134519]}, "type": "Feature", "properties": {"collection_times": [{"days": "Mon-Fri", "time": "5:00pm"}, {"days": "Sat", "time": "2:00pm"}, {"days": "Sun", "time": "Closed"}], "id": "3011400028", "name": "USPS COLLECTION BOX - PO LOBBY", "address": {"city": "CANTON", "state": "GA", "street": "2400 RIVERSTONE BLVD", "postcode": "30114"}}},
{"geometry": {"type": "Point", "coordinates": [-84.4810138815, 34.257134519]}, "type": "Feature", "properties": {"collection_times": [{"days": "Mon-Fri", "time": "5:00pm"}, {"days": "Sat", "time": "2:00pm"}, {"days": "Sun", "time": "Closed"}], "id": "3011400029", "name": "USPS COLLECTION BOX - PO LOBBY", "address": {"city": "CANTON", "state": "GA", "street": "2400 RIVERSTONE BLVD", "postcode": "30114"}}},
{"geometry": {"type": "Point", "coordinates": [-84.489937877, 34.236797832]}, "type": "Feature", "properties": {"collection_times": [{"days": "Mon-Sat", "time": "2:00pm"}, {"days": "Sun", "time": "Closed"}], "id": "3011400031", "name": "USPS COLLECTION BOX - BLUE BOX", "address": {"city": "CANTON", "state": "GA", "street": "196 E MAIN ST", "postcode": "30114"}}},
{"geometry": {"type": "Point", "coordinates": [-85.0571139253, 33.5853585189]}, "type": "Feature", "properties": {"collection_times": [{"days": "Mon-Fri", "time": "5:00pm"}, {"days": "Sat", "time": "2:00pm"}, {"days": "Sun", "time": "Closed"}], "id": "3011700042", "name": "USPS COLLECTION BOX - PO LOBBY", "address": {"city": "CARROLLTON", "state": "GA", "street": "110 POSTAL WAY", "postcode": "30117"}}},
{"geometry": {"type": "Point", "coordinates": [-85.0571139253, 33.5853585189]}, "type": "Feature", "properties": {"collection_times": [{"days": "Mon-Fri", "time": "5:00pm"}, {"days": "Sat", "time": "2:00pm"}, {"days": "Sun", "time": "Closed"}], "id": "3011700045", "name": "USPS COLLECTION BOX - BLUE BOX", "address": {"city": "CARROLLTON", "state": "GA", "street": "110 POSTAL WAY", "postcode": "30117"}}},
{"geometry": {"type": "Point", "coordinates": [-85.0571139253, 33.5853585189]}, "type": "Feature", "properties": {"collection_times": [{"days": "Mon-Fri", "time": "5:00pm"}, {"days": "Sat", "time": "2:00pm"}, {"days": "Sun", "time": "Closed"}], "id": "3011700047", "name": "USPS COLLECTION BOX - PO LOBBY", "address": {"city": "CARROLLTON", "state": "GA", "street": "110 POSTAL WAY", "postcode": "30117"}}},
{"geometry": {"type": "Point", "coordinates": [-85.0571139253, 33.5853585189]}, "type": "Feature", "properties": {"collection_times": [{"days": "Mon-Fri", "time": "5:00pm"}, {"days": "Sat", "time": "2:00pm"}, {"days": "Sun", "time": "Closed"}], "id": "3011700048", "name": "USPS COLLECTION BOX - PO LOBBY", "address": {"city": "CARROLLTON", "state": "GA", "street": "110 POSTAL WAY", "postcode": "30117"}}},
{"geometry": {"type": "Point", "coordinates": [-84.796585672, 34.1658032677]}, "type": "Feature", "properties": {"collection_times": [{"days": "Mon-Fri", "time": "4:00pm"}, {"days": "Sat", "time": "12:00pm"}, {"days": "Sun", "time": "Closed"}], "id": "3012000029", "name": "USPS COLLECTION BOX - BLUE BOX", "address": {"city": "CARTERSVILLE", "state": "GA", "street": "135 W CHEROKEE AVE", "postcode": "30120"}}},
{"geometry": {"type": "Point", "coordinates": [-84.7842128827, 34.1689980926]}, "type": "Feature", "properties": {"collection_times": [{"days": "Mon-Fri", "time": "5:00pm"}, {"days": "Sat", "time": "3:00pm"}, {"days": "Sun", "time": "Closed"}], "id": "3012000032", "name": "USPS COLLECTION BOX - PO LOBBY", "address": {"city": "CARTERSVILLE", "state": "GA", "street": "25 LIBERTY DR", "postcode": "30120"}}},
{"geometry": {"type": "Point", "coordinates": [-84.8576258955, 34.1677589869]}, "type": "Feature", "properties": {"collection_times": [{"days": "Mon-Fri", "time": "4:30pm"}, {"days": "Sat", "time": "12:00pm"}, {"days": "Sun", "time": "Closed"}], "id": "3012000033", "name": "USPS COLLECTION BOX - PO LOBBY", "address": {"city": "CARTERSVILLE", "state": "GA", "street": "918 J F HARRIS PKWY", "postcode": "30120"}}},
{"geometry": {"type": "Point", "coordinates": [-84.8576258955, 34.1677589869]}, "type": "Feature", "properties": {"collection_times": [{"days": "Mon-Fri", "time": "4:00pm"}, {"days": "Sat", "time": "12:00pm"}, {"days": "Sun", "time": "Closed"}], "id": "3012000034", "name": "USPS COLLECTION BOX - BLUE BOX", "address": {"city": "CARTERSVILLE", "state": "GA", "street": "962 JOE FRANK HARRIS PKWY SE", "postcode": "30120"}}},
{"geometry": {"type": "Point", "coordinates": [-84.7963631948, 34.166022039]}, "type": "Feature", "properties": {"collection_times": [{"days": "Mon-Fri", "time": "4:00pm"}, {"days": "Sat", "time": "12:00pm"}, {"days": "Sun", "time": "Closed"}], "id": "3012000035", "name": "USPS COLLECTION BOX - BLUE BOX", "address": {"city": "CARTERSVILLE", "state": "GA", "street": "10 N PUBLIC SQ", "postcode": "30120"}}},
{"geometry": {"type": "Point", "coordinates": [-84.7842128827, 34.1689980926]}, "type": "Feature", "properties": {"collection_times": [{"days": "Mon-Fri", "time": "5:00pm"}, {"days": "Sat", "time": "3:00pm"}, {"days": "Sun", "time": "Closed"}], "id": "3012000037", "name": "USPS COLLECTION BOX - BLUE BOX", "address": {"city": "CARTERSVILLE", "state": "GA", "street": "25 LIBERTY DR", "postcode": "30120"}}},
{"geometry": {"type": "Point", "coordinates": [-84.8106360235, 34.1592256537]}, "type": "Feature", "properties": {"collection_times": [{"days": "Mon-Fri", "time": "4:00pm"}, {"days": "Sat", "time": "12:00pm"}, {"days": "Sun", "time": "Closed"}], "id": "3012000038", "name": "USPS COLLECTION BOX - BLUE BOX", "address": {"city": "CARTERSVILLE", "state": "GA", "street": "825 WEST AVE", "postcode": "30120"}}},
{"geometry": {"type": "Point", "coordinates": [-84.7842128827, 34.1689980926]}, "type": "Feature", "properties": {"collection_times": [{"days": "Mon-Fri", "time": "5:00pm"}, {"days": "Sat", "time": "3:00pm"}, {"days": "Sun", "time": "Closed"}], "id": "3012000039", "name": "USPS COLLECTION BOX - APC", "address": {"city": "CARTERSVILLE", "state": "GA", "street": "25 LIBERTY DR", "postcode": "30120"}}},
{"geometry": {"type": "Point", "coordinates": [-84.796585672, 34.1658032677]}, "type": "Feature", "properties": {"collection_times": [{"days": "Mon-Fri", "time": "4:00pm"}, {"days": "Sat", "time": "12:00pm"}, {"days": "Sun", "time": "Closed"}], "id": "3012000040", "name": "USPS COLLECTION BOX - BLUE BOX", "address": {"city": "CARTERSVILLE", "state": "GA", "street": "135 W CHEROKEE AVE", "postcode": "30120"}}},
{"geometry": {"type": "Point", "coordinates": [-84.6349916152, 33.7829849756]}, "type": "Feature", "properties": {"collection_times": [{"days": "Mon-Fri", "time": "5:00pm"}, {"days": "Sat", "time": "2:15pm"}, {"days": "Sun", "time": "Closed"}], "id": "3012200001", "name": "USPS COLLECTION BOX - BLUE BOX", "address": {"city": "LITHIA SPRINGS", "state": "GA", "street": "2727 SKYVIEW DR", "postcode": "30122"}}},
{"geometry": {"type": "Point", "coordinates": [-84.6290960486, 33.7918481488]}, "type": "Feature", "properties": {"collection_times": [{"days": "Mon-Sat", "time": "2:00pm"}, {"days": "Sun", "time": "Closed"}], "id": "3012200004", "name": "USPS COLLECTION BOX - BLUE BOX", "address": {"city": "LITHIA SPRINGS", "state": "GA", "street": "422 THORNTON RD", "postcode": "30122"}}},
{"geometry": {"type": "Point", "coordinates": [-84.6240658062, 33.7895574956]}, "type": "Feature", "properties": {"collection_times": [{"days": "Mon-Sat", "time": "2:00pm"}, {"days": "Sun", "time": "Closed"}], "id": "3012200005", "name": "USPS COLLECTION BOX - BLUE BOX", "address": {"city": "LITHIA SPRINGS", "state": "GA", "street": "591 THORNTON RD", "postcode": "30122"}}},
{"geometry": {"type": "Point", "coordinates": [-84.6114105112, 33.7802239494]}, "type": "Feature", "properties": {"collection_times": [{"days": "Mon-Sat", "time": "2:00pm"}, {"days": "Sun", "time": "Closed"}], "id": "3012200006", "name": "USPS COLLECTION BOX - BLUE BOX", "address": {"city": "LITHIA SPRINGS", "state": "GA", "street": "880 CRESTMARK DR", "postcode": "30122"}}},
{"geometry": {"type": "Point", "coordinates": [-84.6197909086, 33.7881015335]}, "type": "Feature", "properties": {"collection_times": [{"days": "Mon-Sat", "time": "2:00pm"}, {"days": "Sun", "time": "Closed"}], "id": "3012200014", "name": "USPS COLLECTION BOX - BLUE BOX", "address": {"city": "LITHIA SPRINGS", "state": "GA", "street": "630 THORNTON RD", "postcode": "30122"}}},
{"geometry": {"type": "Point", "coordinates": [-84.6349916152, 33.7829849756]}, "type": "Feature", "properties": {"collection_times": [{"days": "Mon-Fri", "time": "4:30pm"}, {"days": "Sat", "time": "2:15pm"}, {"days": "Sun", "time": "Closed"}], "id": "3012200017", "name": "USPS COLLECTION BOX - PO LOBBY", "address": {"city": "LITHIA SPRINGS", "state": "GA", "street": "2727 SKYVIEW DR", "postcode": "30122"}}},
{"geometry": {"type": "Point", "coordinates": [-84.6349916152, 33.7829849756]}, "type": "Feature", "properties": {"collection_times": [{"days": "Mon-Fri", "time": "4:30pm"}, {"days": "Sat", "time": "2:15pm"}, {"days": "Sun", "time": "Closed"}], "id": "3012200018", "name": "USPS COLLECTION BOX - PO LOBBY", "address": {"city": "LITHIA SPRINGS", "state": "GA", "street": "2727 SKYVIEW DR", "postcode": "30122"}}},
{"geometry": {"type": "Point", "coordinates": [-84.8572039224, 34.2448252076]}, "type": "Feature", "properties": {"collection_times": [{"days": "Mon-Fri", "time": "4:30pm"}, {"days": "Sat", "time": "12:00pm"}, {"days": "Sun", "time": "Closed"}], "id": "3012300001", "name": "USPS COLLECTION BOX - BLUE BOX", "address": {"city": "CASSVILLE", "state": "GA", "street": "66 FIRE TOWER RD NW", "postcode": "30123"}}},
{"geometry": {"type": "Point", "coordinates": [-84.8572039224, 34.2448252076]}, "type": "Feature", "properties": {"collection_times": [{"days": "Mon-Fri", "time": "4:30pm"}, {"days": "Sat", "time": "12:00pm"}, {"days": "Sun", "time": "Closed"}], "id": "3012300002", "name": "USPS COLLECTION BOX - PO LOBBY", "address": {"city": "CASSVILLE", "state": "GA", "street": "66 FIRE TOWER RD NW", "postcode": "30123"}}},
{"geometry": {"type": "Point", "coordinates": [-85.3407818691, 34.107782924]}, "type": "Feature", "properties": {"collection_times": [{"days": "Mon-Fri", "time": "4:00pm"}, {"days": "Sat", "time": "11:30am"}, {"days": "Sun", "time": "Closed"}], "id": "3012400001", "name": "USPS COLLECTION BOX - BLUE BOX", "address": {"city": "CAVE SPRINGS", "state": "GA", "street": "5 MILL ST", "postcode": "30124"}}},
{"geometry": {"type": "Point", "coordinates": [-85.3407818691, 34.107782924]}, "type": "Feature", "properties": {"collection_times": [{"days": "Mon-Fri", "time": "4:00pm"}, {"days": "Sat", "time": "11:30am"}, {"days": "Sun", "time": "Closed"}], "id": "3012400002", "name": "USPS COLLECTION BOX - PO LOBBY", "address": {"city": "CAVE SPRINGS", "state": "GA", "street": "5 MILL STREET", "postcode": "30124"}}},
{"geometry": {"type": "Point", "coordinates": [-85.3407818691, 34.107782924]}, "type": "Feature", "properties": {"collection_times": [{"days": "Mon-Fri", "time": "4:00pm"}, {"days": "Sat", "time": "11:30am"}, {"days": "Sun", "time": "Closed"}], "id": "3012400003", "name": "USPS COLLECTION BOX - PO LOBBY", "address": {"city": "CAVE SPRINGS", "state": "GA", "street": "5 MILL STREET", "postcode": "30124"}}},
{"geometry": {"type": "Point", "coordinates": [-85.2559595306, 34.0111862072]}, "type": "Feature", "properties": {"collection_times": [{"days": "Mon-Fri", "time": "5:00pm"}, {"days": "Sat", "time": "3:00pm"}, {"days": "Sun", "time": "Closed"}], "id": "3012500002", "name": "USPS COLLECTION BOX - BLUE BOX", "address": {"city": "CEDARTOWN", "state": "GA", "street": "145 WEST AVE", "postcode": "30125"}}},
{"geometry": {"type": "Point", "coordinates": [-85.2496550826, 34.0254791324]}, "type": "Feature", "properties": {"collection_times": [{"days": "Mon-Fri", "time": "12:00pm"}, {"days": "Sat", "time": "10:00am"}, {"days": "Sun", "time": "Closed"}], "id": "3012500014", "name": "USPS COLLECTION BOX - BLUE BOX", "address": {"city": "CEDARTOWN", "state": "GA", "street": "752 N MAIN ST", "postcode": "30125"}}},
{"geometry": {"type": "Point", "coordinates": [-85.2561973809, 34.0134324728]}, "type": "Feature", "properties": {"collection_times": [{"days": "Mon-Fri", "time": "1:00pm"}, {"days": "Sat", "time": "10:00am"}, {"days": "Sun", "time": "Closed"}], "id": "3012500015", "name": "USPS COLLECTION BOX - BLUE BOX", "address": {"city": "CEDARTOWN", "state": "GA", "street": "100 PRIOR ST", "postcode": "30125"}}},
{"geometry": {"type": "Point", "coordinates": [-85.2559595306, 34.0111862072]}, "type": "Feature", "properties": {"collection_times": [{"days": "Mon-Fri", "time": "4:45pm"}, {"days": "Sat", "time": "2:45pm"}, {"days": "Sun", "time": "Closed"}], "id": "3012500016", "name": "USPS COLLECTION BOX - PO LOBBY", "address": {"city": "CEDARTOWN", "state": "GA", "street": "145 WEST AVE", "postcode": "30125"}}},
{"geometry": {"type": "Point", "coordinates": [-84.5730637134, 33.8221598447]}, "type": "Feature", "properties": {"collection_times": [{"days": "Mon-Sat", "time": "10:00am"}, {"days": "Sun", "time": "Closed"}], "id": "3012600001", "name": "USPS COLLECTION BOX - BLUE BOX", "address": {"city": "MABELTON", "state": "GA", "street": "620 FONTAINE RD", "postcode": "30126"}}},
{"geometry": {"type": "Point", "coordinates": [-84.5759512012, 33.8259761673]}, "type": "Feature", "properties": {"collection_times": [{"days": "Mon-Fri", "time": "5:00pm"}, {"days": "Sat", "time": "3:00pm"}, {"days": "Sun", "time": "Closed"}], "id": "3012600005", "name": "USPS COLLECTION BOX - BLUE BOX", "address": {"city": "MABELTON", "state": "GA", "street": "5284 FLOYD RD SW", "postcode": "30126"}}},
{"geometry": {"type": "Point", "coordinates": [-84.5757967373, 33.8266609689]}, "type": "Feature", "properties": {"collection_times": [{"days": "Mon-Fri", "time": "5:00pm"}, {"days": "Sat", "time": "3:00pm"}, {"days": "Sun", "time": "Closed"}], "id": "3012600007", "name": "USPS COLLECTION BOX - BLUE BOX", "address": {"city": "MABELTON", "state": "GA", "street": "5284 FLOYD RD", "postcode": "30126"}}},
{"geometry": {"type": "Point", "coordinates": [-84.57596, 33.825977]}, "type": "Feature", "properties": {"collection_times": [{"days": "Mon-Fri", "time": "5:00pm"}, {"days": "Sat", "time": "3:00pm"}, {"days": "Sun", "time": "Closed"}], "id": "3012600013", "name": "USPS COLLECTION BOX - BLUE BOX", "address": {"city": "MABELTON", "state": "GA", "street": "5284 FLOYD RD SW", "postcode": "30126"}}},
{"geometry": {"type": "Point", "coordinates": [-84.5759323889, 33.8323451214]}, "type": "Feature", "properties": {"collection_times": [{"days": "Mon-Sat", "time": "9:45am"}, {"days": "Sun", "time": "Closed"}], "id": "3012600017", "name": "USPS COLLECTION BOX - BLUE BOX", "address": {"city": "MABELTON", "state": "GA", "street": "5015 FLOYD RD", "postcode": "30126"}}},
{"geometry": {"type": "Point", "coordinates": [-84.5759512012, 33.8259761673]}, "type": "Feature", "properties": {"collection_times": [{"days": "Mon-Fri", "time": "5:00pm"}, {"days": "Sat", "time": "3:30pm"}, {"days": "Sun", "time": "Closed"}], "id": "3012600019", "name": "USPS COLLECTION BOX - PO LOBBY", "address": {"city": "MABELTON", "state": "GA", "street": "5284 FLOYD RD SW", "postcode": "30126"}}},
{"geometry": {"type": "Point", "coordinates": [-84.5760802349, 33.8352988098]}, "type": "Feature", "properties": {"collection_times": [{"days": "Mon-Sat", "time": "9:45am"}, {"days": "Sun", "time": "Closed"}], "id": "3012600021", "name": "USPS COLLECTION BOX - BLUE BOX", "address": {"city": "MABELTON", "state": "GA", "street": "4875 FLOYD RD", "postcode": "30126"}}},
{"geometry": {"type": "Point", "coordinates": [-84.5757967373, 33.8266609689]}, "type": "Feature", "properties": {"collection_times": [{"days": "Mon-Fri", "time": "5:00pm"}, {"days": "Sat", "time": "3:30pm"}, {"days": "Sun", "time": "Closed"}], "id": "3012600022", "name": "USPS COLLECTION BOX - APC", "address": {"city": "MABELTON", "state": "GA", "street": "5284 FLOYD RD", "postcode": "30126"}}},
{"geometry": {"type": "Point", "coordinates": [-84.6996687137, 33.8431703788]}, "type": "Feature", "properties": {"collection_times": [{"days": "Mon-Sat", "time": "2:00pm"}, {"days": "Sun", "time": "Closed"}], "id": "3012700000", "name": "USPS COLLECTION BOX - BLUE BOX", "address": {"city": "POWDER SPRINGS", "state": "GA", "street": "4551 BROWNSVILLE RD", "postcode": "30127"}}},
{"geometry": {"type": "Point", "coordinates": [-84.704644539, 33.8775226644]}, "type": "Feature", "properties": {"collection_times": [{"days": "Mon-Sat", "time": "2:00pm"}, {"days": "Sun", "time": "Closed"}], "id": "3012700003", "name": "USPS COLLECTION BOX - BLUE BOX", "address": {"city": "POWDER SPRINGS", "state": "GA", "street": "4011 FAMBROUGH DR", "postcode": "30127"}}},
{"geometry": {"type": "Point", "coordinates": [-84.6761900629, 33.8748626028]}, "type": "Feature", "properties": {"collection_times": [{"days": "Mon-Sat", "time": "2:00pm"}, {"days": "Sun", "time": "Closed"}], "id": "3012700006", "name": "USPS COLLECTION BOX - BLUE BOX", "address": {"city": "POWDER SPRINGS", "state": "GA", "street": "3251 NEW MACLAND RD", "postcode": "30127"}}},
{"geometry": {"type": "Point", "coordinates": [-84.7003251036, 33.8306763219]}, "type": "Feature", "properties": {"collection_times": [{"days": "Mon-Sat", "time": "2:00pm"}, {"days": "Sun", "time": "Closed"}], "id": "3012700007", "name": "USPS COLLECTION BOX - BLUE BOX", "address": {"city": "POWDER SPRINGS", "state": "GA", "street": "4110 POWDER SPRINGS AUSTELL RD", "postcode": "30127"}}},
{"geometry": {"type": "Point", "coordinates": [-84.7021162558, 33.9408697768]}, "type": "Feature", "properties": {"collection_times": [{"days": "Mon-Sat", "time": "1:00pm"}, {"days": "Sun", "time": "Closed"}], "id": "3012700008", "name": "USPS COLLECTION BOX - BLUE BOX", "address": {"city": "POWDER SPRINGS", "state": "GA", "street": "5100 DALLAS HWY", "postcode": "30127"}}},
{"geometry": {"type": "Point", "coordinates": [-84.6844335167, 33.8607262235]}, "type": "Feature", "properties": {"collection_times": [{"days": "Mon-Sat", "time": "2:00pm"}, {"days": "Sun", "time": "Closed"}], "id": "3012700009", "name": "USPS COLLECTION BOX - BLUE BOX", "address": {"city": "POWDER SPRINGS", "state": "GA", "street": "4488 PINEVIEW DR", "postcode": "30127"}}},
{"geometry": {"type": "Point", "coordinates": [-84.6889639346, 33.8625171111]}, "type": "Feature", "properties": {"collection_times": [{"days": "Mon-Fri", "time": "5:00pm"}, {"days": "Sat", "time": "3:00pm"}, {"days": "Sun", "time": "Closed"}], "id": "3012700011", "name": "USPS COLLECTION BOX - BLUE BOX", "address": {"city": "POWDER SPRINGS", "state": "GA", "street": "4644 POWDER SPRINGS DALLAS RD", "postcode": "30127"}}},
{"geometry": {"type": "Point", "coordinates": [-84.6889639346, 33.8625171111]}, "type": "Feature", "properties": {"collection_times": [{"days": "Mon-Fri", "time": "5:00pm"}, {"days": "Sat", "time": "3:00pm"}, {"days": "Sun", "time": "Closed"}], "id": "3012700012", "name": "USPS COLLECTION BOX - BLUE BOX", "address": {"city": "POWDER SPRINGS", "state": "GA", "street": "4644 POWDER SPRINGS DALLAS RD", "postcode": "30127"}}},
{"geometry": {"type": "Point", "coordinates": [-84.6889639346, 33.8625171111]}, "type": "Feature", "properties": {"collection_times": [{"days": "Mon-Fri", "time": "5:00pm"}, {"days": "Sat", "time": "3:00pm"}, {"days": "Sun", "time": "Closed"}], "id": "3012700014", "name": "USPS COLLECTION BOX - PO LOBBY", "address": {"city": "POWDER SPRINGS", "state": "GA", "street": "4644 POWDER SPRINGS DALLAS RD", "postcode": "30127"}}},
{"geometry": {"type": "Point", "coordinates": [-84.6755889532, 33.8623822843]}, "type": "Feature", "properties": {"collection_times": [{"days": "Mon-Sat", "time": "2:00pm"}, {"days": "Sun", "time": "Closed"}], "id": "3012700015", "name": "USPS COLLECTION BOX - BLUE BOX", "address": {"city": "POWDER SPRINGS", "state": "GA", "street": "3745 NEW MACLAND RD", "postcode": "30127"}}},
{"geometry": {"type": "Point", "coordinates": [-84.6889639346, 33.8625171111]}, "type": "Feature", "properties": {"collection_times": [{"days": "Mon-Fri", "time": "5:00pm"}, {"days": "Sat", "time": "3:00pm"}, {"days": "Sun", "time": "Closed"}], "id": "3012700016", "name": "USPS COLLECTION BOX - APC", "address": {"city": "POWDER SPRINGS", "state": "GA", "street": "4644 POWDER SPRINGS DALLAS RD", "postcode": "30127"}}},
{"geometry": {"type": "Point", "coordinates": [-85.3372488169, 34.2606584357]}, "type": "Feature", "properties": {"collection_times": [{"days": "Mon-Fri", "time": "4:00pm"}, {"days": "Sat", "time": "12:00pm"}, {"days": "Sun", "time": "Closed"}], "id": "3012900001", "name": "USPS COLLECTION BOX - BLUE BOX", "address": {"city": "COOSA", "state": "GA", "street": "4000 ALABAMA HWY NW", "postcode": "30129"}}},
{"geometry": {"type": "Point", "coordinates": [-85.3372488169, 34.2606584357]}, "type": "Feature", "properties": {"collection_times": [{"days": "Mon-Fri", "time": "1:00pm"}, {"days": "Sat", "time": "12:00pm"}, {"days": "Sun", "time": "Closed"}], "id": "3012900002", "name": "USPS COLLECTION BOX - PO LOBBY", "address": {"city": "COOSA", "state": "GA", "street": "4000 ALABAMA HWY NW", "postcode": "30129"}}},
{"geometry": {"type": "Point", "coordinates": [-84.8292201425, 33.9157523715]}, "type": "Feature", "properties": {"collection_times": [{"days": "Mon-Sat", "time": "1:00pm"}, {"days": "Sun", "time": "Closed"}], "id": "3013200002", "name": "USPS COLLECTION BOX - BLUE BOX", "address": {"city": "DALLAS", "state": "GA", "street": "270 MERCHANTS SQ", "postcode": "30132"}}},
{"geometry": {"type": "Point", "coordinates": [-84.8307257726, 33.9217654184]}, "type": "Feature", "properties": {"collection_times": [{"days": "Mon-Fri", "time": "5:00pm"}, {"days": "Sat", "time": "3:00pm"}, {"days": "Sun", "time": "Closed"}], "id": "3013200005", "name": "USPS COLLECTION BOX - BLUE BOX", "address": {"city": "DALLAS", "state": "GA", "street": "280 MERCHANTS DR", "postcode": "30132"}}},
{"geometry": {"type": "Point", "coordinates": [-83.4445334408, 32.6483269665]}, "type": "Feature", "properties": {"collection_times": [{"days": "Mon-Sat", "time": "10:00am"}, {"days": "Sun", "time": "Closed"}], "id": "3013200009", "name": "USPS COLLECTION BOX - BLUE BOX", "address": {"city": "DALLAS", "state": "GA", "street": "4075 CHARLES HARDY PKWY", "postcode": "30132"}}},
{"geometry": {"type": "Point", "coordinates": [-84.8307257726, 33.9217654184]}, "type": "Feature", "properties": {"collection_times": [{"days": "Mon-Fri", "time": "5:00pm"}, {"days": "Sat", "time": "3:00pm"}, {"days": "Sun", "time": "Closed"}], "id": "3013200011", "name": "USPS COLLECTION BOX - PO LOBBY", "address": {"city": "DALLAS", "state": "GA", "street": "280 MERCHANTS DR", "postcode": "30132"}}},
{"geometry": {"type": "Point", "coordinates": [-84.841529652, 33.9251826907]}, "type": "Feature", "properties": {"collection_times": [{"days": "Mon-Sat", "time": "1:00pm"}, {"days": "Sun", "time": "Closed"}], "id": "3013200013", "name": "USPS COLLECTION BOX - BLUE BOX", "address": {"city": "DALLAS", "state": "GA", "street": "51 E PAULDING DR", "postcode": "30132"}}},
{"geometry": {"type": "Point", "coordinates": [-84.7461365248, 33.749387758]}, "type": "Feature", "properties": {"collection_times": [{"days": "Mon-Fri", "time": "5:00pm"}, {"days": "Sat", "time": "3:00pm"}, {"days": "Sun", "time": "Closed"}], "id": "3013400001", "name": "USPS COLLECTION BOX - BLUE BOX", "address": {"city": "DOUGLASVILLE", "state": "GA", "street": "8486 CAMPBELLTON ST", "postcode": "30134"}}},
{"geometry": {"type": "Point", "coordinates": [-84.7461365248, 33.749387758]}, "type": "Feature", "properties": {"collection_times": [{"days": "Mon-Fri", "time": "5:00pm"}, {"days": "Sat", "time": "3:00pm"}, {"days": "Sun", "time": "Closed"}], "id": "3013400017", "name": "USPS COLLECTION BOX - PO LOBBY", "address": {"city": "DOUGLASVILLE", "state": "GA", "street": "8486 CAMPBELLTON ST", "postcode": "30134"}}},
{"geometry": {"type": "Point", "coordinates": [-84.7463337118, 33.749795631]}, "type": "Feature", "properties": {"collection_times": [{"days": "Mon-Sat", "time": "3:00pm"}, {"days": "Sun", "time": "Closed"}], "id": "3013400023", "name": "USPS COLLECTION BOX - PO LOBBY", "address": {"city": "DOUGLASVILLE", "state": "GA", "street": "8486 CAMPBELLTON ST", "postcode": "30134"}}},
{"geometry": {"type": "Point", "coordinates": [-84.6972945755, 33.7466143206]}, "type": "Feature", "properties": {"collection_times": [{"days": "Mon-Sat", "time": "11:00am"}, {"days": "Sun", "time": "Closed"}], "id": "3013500005", "name": "USPS COLLECTION BOX - BLUE BOX", "address": {"city": "DOUGLASVILLE", "state": "GA", "street": "2175 FAIRBURN RD", "postcode": "30135"}}},
{"geometry": {"type": "Point", "coordinates": [-84.7240045455, 33.7202550276]}, "type": "Feature", "properties": {"collection_times": [{"days": "Mon-Sat", "time": "12:00pm"}, {"days": "Sun", "time": "Closed"}], "id": "3013500011", "name": "USPS COLLECTION BOX - BLUE BOX", "address": {"city": "DOUGLASVILLE", "state": "GA", "street": "3133 GOLF RIDGE BLVD", "postcode": "30135"}}},
{"geometry": {"type": "Point", "coordinates": [-84.7669537328, 33.7158326044]}, "type": "Feature", "properties": {"collection_times": [{"days": "Mon-Sat", "time": "1:00pm"}, {"days": "Sun", "time": "Closed"}], "id": "3013500014", "name": "USPS COLLECTION BOX - BLUE BOX", "address": {"city": "DOUGLASVILLE", "state": "GA", "street": "3316 HIGHWAY 5", "postcode": "30135"}}},
{"geometry": {"type": "Point", "coordinates": [-84.7704041834, 33.7189719641]}, "type": "Feature", "properties": {"collection_times": [{"days": "Mon-Fri", "time": "5:00pm"}, {"days": "Sat", "time": "3:00pm"}, {"days": "Sun", "time": "Closed"}], "id": "3013500015", "name": "USPS COLLECTION BOX - BLUE BOX", "address": {"city": "DOUGLASVILLE", "state": "GA", "street": "6000 STEWART PKWY", "postcode": "30135"}}},
{"geometry": {"type": "Point", "coordinates": [-84.7704041834, 33.7189719641]}, "type": "Feature", "properties": {"collection_times": [{"days": "Mon-Fri", "time": "5:00pm"}, {"days": "Sat", "time": "3:00pm"}, {"days": "Sun", "time": "Closed"}], "id": "3013500020", "name": "USPS COLLECTION BOX - PO LOBBY", "address": {"city": "DOUGLASVILLE", "state": "GA", "street": "6000 STEWART PKWY", "postcode": "30135"}}},
{"geometry": {"type": "Point", "coordinates": [-84.7159722541, 33.6994349498]}, "type": "Feature", "properties": {"collection_times": [{"days": "Mon-Sat", "time": "12:00pm"}, {"days": "Sun", "time": "Closed"}], "id": "3013500024", "name": "USPS COLLECTION BOX - BLUE BOX", "address": {"city": "DOUGLASVILLE", "state": "GA", "street": "3875 CHAPEL HILL RD", "postcode": "30135"}}},
{"geometry": {"type": "Point", "coordinates": [-84.7704041834, 33.7189719641]}, "type": "Feature", "properties": {"collection_times": [{"days": "Mon-Fri", "time": "5:00pm"}, {"days": "Sat", "time": "3:00pm"}, {"days": "Sun", "time": "Closed"}], "id": "3013500025", "name": "USPS COLLECTION BOX - APC", "address": {"city": "DOUGLASVILLE", "state": "GA", "street": "6000 STEWART PKWY", "postcode": "30135"}}},
{"geometry": {"type": "Point", "coordinates": [-84.7685156803, 34.1100154424]}, "type": "Feature", "properties": {"collection_times": [{"days": "Mon-Fri", "time": "4:30pm"}, {"days": "Sat", "time": "12:00pm"}, {"days": "Sun", "time": "Closed"}], "id": "3013700001", "name": "USPS COLLECTION BOX - BLUE BOX", "address": {"city": "EMERSON", "state": "GA", "street": "86 GASTON WESTBROOK AVE", "postcode": "30137"}}},
{"geometry": {"type": "Point", "coordinates": [-84.7685156803, 34.1100154424]}, "type": "Feature", "properties": {"collection_times": [{"days": "Mon-Fri", "time": "4:30pm"}, {"days": "Sat", "time": "12:00pm"}, {"days": "Sun", "time": "Closed"}], "id": "3013700002", "name": "USPS COLLECTION BOX - PO LOBBY", "address": {"city": "EMERSON", "state": "GA", "street": "86 GASTON WESTBROOK AVE", "postcode": "30137"}}},
{"geometry": {"type": "Point", "coordinates": [-85.3598222492, 33.947946496]}, "type": "Feature", "properties": {"collection_times": [{"days": "Mon-Fri", "time": "11:00am"}, {"days": "Sat", "time": "10:00am"}, {"days": "Sun", "time": "Closed"}], "id": "3013800001", "name": "USPS COLLECTION BOX - BLUE BOX", "address": {"city": "ESOM HILL", "state": "GA", "street": "215 HARDIN RD", "postcode": "30138"}}},
{"geometry": {"type": "Point", "coordinates": [-84.7015521101, 34.4454262311]}, "type": "Feature", "properties": {"collection_times": [{"days": "Mon-Fri", "time": "4:30pm"}, {"days": "Sat", "time": "12:00pm"}, {"days": "Sun", "time": "Closed"}], "id": "3013900001", "name": "USPS COLLECTION BOX - BLUE BOX", "address": {"city": "FAIRMOUNT", "state": "GA", "street": "2295 HIGHWAY 411 SE", "postcode": "30139"}}},
{"geometry": {"type": "Point", "coordinates": [-84.7015521101, 34.4454262311]}, "type": "Feature", "properties": {"collection_times": [{"days": "Mon-Fri", "time": "4:30pm"}, {"days": "Sat", "time": "12:00pm"}, {"days": "Sun", "time": "Closed"}], "id": "3013900002", "name": "USPS COLLECTION BOX - PO LOBBY", "address": {"city": "FAIRMOUNT", "state": "GA", "street": "2295 HIGHWAY 411 SE", "postcode": "30139"}}},
{"geometry": {"type": "Point", "coordinates": [-85.2255097588, 33.8913324757]}, "type": "Feature", "properties": {"collection_times": [{"days": "Mon-Fri", "time": "4:00pm"}, {"days": "Sat", "time": "9:00am"}, {"days": "Sun", "time": "Closed"}], "id": "3014000001", "name": "USPS COLLECTION BOX - BLUE BOX", "address": {"city": "FELTON", "state": "GA", "street": "7369 HIGHWAY 27", "postcode": "30140"}}},
{"geometry": {"type": "Point", "coordinates": [-85.2255097588, 33.8913324757]}, "type": "Feature", "properties": {"collection_times": [{"days": "Mon-Fri", "time": "4:00pm"}, {"days": "Sat", "time": "9:00am"}, {"days": "Sun", "time": "Closed"}], "id": "3014000002", "name": "USPS COLLECTION BOX - PO LOBBY", "address": {"city": "FELTON", "state": "GA", "street": "7369 HIGHWAY 27", "postcode": "30140"}}},
{"geometry": {"type": "Point", "coordinates": [-84.7555720102, 33.8756455925]}, "type": "Feature", "properties": {"collection_times": [{"days": "Mon-Fri", "time": "5:00pm"}, {"days": "Sat", "time": "12:00pm"}, {"days": "Sun", "time": "Closed"}], "id": "3014100001", "name": "USPS COLLECTION BOX - BLUE BOX", "address": {"city": "HIRAM", "state": "GA", "street": "225 MAIN ST", "postcode": "30141"}}},
{"geometry": {"type": "Point", "coordinates": [-84.5023192375, 34.1763947962]}, "type": "Feature", "properties": {"collection_times": [{"days": "Mon-Fri", "time": "4:30pm"}, {"days": "Sat", "time": "12:00pm"}, {"days": "Sun", "time": "Closed"}], "id": "3014200001", "name": "USPS COLLECTION BOX - BLUE BOX", "address": {"city": "HOLLY SPRINGS", "state": "GA", "street": "2631 HOLLY SPRINGS PKWY", "postcode": "30142"}}},
{"geometry": {"type": "Point", "coordinates": [-84.5023192375, 34.1763947962]}, "type": "Feature", "properties": {"collection_times": [{"days": "Mon-Fri", "time": "4:30pm"}, {"days": "Sat", "time": "12:00pm"}, {"days": "Sun", "time": "Closed"}], "id": "3014200002", "name": "USPS COLLECTION BOX - PO LOBBY", "address": {"city": "HOLLY SPRINGS", "state": "GA", "street": "2631 HOLLY SPRINGS PKWY", "postcode": "30142"}}},
{"geometry": {"type": "Point", "coordinates": [-84.5127331753, 34.4362901958]}, "type": "Feature", "properties": {"collection_times": [{"days": "Mon-Fri", "time": "5:00pm"}, {"days": "Sat", "time": "3:30pm"}, {"days": "Sun", "time": "Closed"}], "id": "3014300001", "name": "USPS COLLECTION BOX - BLUE BOX", "address": {"city": "JASPER", "state": "GA", "street": "100 EAGLES LNDG", "postcode": "30143"}}},
{"geometry": {"type": "Point", "coordinates": [-84.5127331753, 34.4362901958]}, "type": "Feature", "properties": {"collection_times": [{"days": "Mon-Fri", "time": "5:00pm"}, {"days": "Sat", "time": "3:30pm"}, {"days": "Sun", "time": "Closed"}], "id": "3014300002", "name": "USPS COLLECTION BOX - BLUE BOX", "address": {"city": "JASPER", "state": "GA", "street": "100 EAGLES LNDG", "postcode": "30143"}}},
{"geometry": {"type": "Point", "coordinates": [-84.4301484526, 34.4686629602]}, "type": "Feature", "properties": {"collection_times": [{"days": "Mon-Sat", "time": "11:00am"}, {"days": "Sun", "time": "Closed"}], "id": "3014300004", "name": "USPS COLLECTION BOX - BLUE BOX", "address": {"city": "JASPER", "state": "GA", "street": "50 N MAIN ST", "postcode": "30143"}}},
{"geometry": {"type": "Point", "coordinates": [-84.461477847, 34.4660466892]}, "type": "Feature", "properties": {"collection_times": [{"days": "Mon-Sat", "time": "11:00am"}, {"days": "Sun", "time": "Closed"}], "id": "3014300005", "name": "USPS COLLECTION BOX - BLUE BOX", "address": {"city": "JASPER", "state": "GA", "street": "115 BILL WIGINTON PKWY", "postcode": "30143"}}},
{"geometry": {"type": "Point", "coordinates": [-84.4282149574, 34.4687591349]}, "type": "Feature", "properties": {"collection_times": [{"days": "Mon-Sat", "time": "11:00am"}, {"days": "Sun", "time": "Closed"}], "id": "3014300007", "name": "USPS COLLECTION BOX - BLUE BOX", "address": {"city": "JASPER", "state": "GA", "street": "294 E CHURCH ST", "postcode": "30143"}}},
{"geometry": {"type": "Point", "coordinates": [-84.5127331753, 34.4362901958]}, "type": "Feature", "properties": {"collection_times": [{"days": "Mon-Fri", "time": "4:45pm"}, {"days": "Sat", "time": "3:30pm"}, {"days": "Sun", "time": "Closed"}], "id": "3014300011", "name": "USPS COLLECTION BOX - PO LOBBY", "address": {"city": "JASPER", "state": "GA", "street": "100 EAGLES LNDG", "postcode": "30143"}}},
{"geometry": {"type": "Point", "coordinates": [-84.4219380592, 34.4721286756]}, "type": "Feature", "properties": {"collection_times": [{"days": "Mon-Sat", "time": "11:00am"}, {"days": "Sun", "time": "Closed"}], "id": "3014300016", "name": "USPS COLLECTION BOX - BLUE BOX", "address": {"city": "JASPER", "state": "GA", "street": "65 COVE RD", "postcode": "30143"}}},
{"geometry": {"type": "Point", "coordinates": [-84.575757583, 34.005358066]}, "type": "Feature", "properties": {"collection_times": [{"days": "Mon-Fri", "time": "5:00pm"}, {"days": "Sat", "time": "12:00pm"}, {"days": "Sun", "time": "Closed"}], "id": "3014400007", "name": "USPS COLLECTION BOX - PO LOBBY", "address": {"city": "KENNESAW", "state": "GA", "street": "840 ERNEST W BARRETT PKWY NW", "postcode": "30144"}}},
{"geometry": {"type": "Point", "coordinates": [-84.6084085377, 34.0193676268]}, "type": "Feature", "properties": {"collection_times": [{"days": "Mon-Fri", "time": "5:00pm"}, {"days": "Sat", "time": "3:00pm"}, {"days": "Sun", "time": "Closed"}], "id": "3014400020", "name": "USPS COLLECTION BOX - BLUE BOX", "address": {"city": "KENNESAW", "state": "GA", "street": "2001 DUNCAN DR NW", "postcode": "30144"}}},
{"geometry": {"type": "Point", "coordinates": [-84.575757583, 34.005358066]}, "type": "Feature", "properties": {"collection_times": [{"days": "Mon-Fri", "time": "5:00pm"}, {"days": "Sat", "time": "12:00pm"}, {"days": "Sun", "time": "Closed"}], "id": "3014400025", "name": "USPS COLLECTION BOX - BLUE BOX", "address": {"city": "KENNESAW", "state": "GA", "street": "840 ERNEST W BARRETT PKWY NW", "postcode": "30144"}}},
{"geometry": {"type": "Point", "coordinates": [-84.6084085377, 34.0193676268]}, "type": "Feature", "properties": {"collection_times": [{"days": "Mon-Fri", "time": "5:00pm"}, {"days": "Sat", "time": "3:00pm"}, {"days": "Sun", "time": "Closed"}], "id": "3014400033", "name": "USPS COLLECTION BOX - PO LOBBY", "address": {"city": "KENNESAW", "state": "GA", "street": "2001 DUNCAN DR NW", "postcode": "30144"}}},
{"geometry": {"type": "Point", "coordinates": [-84.5660320321, 34.0366979554]}, "type": "Feature", "properties": {"collection_times": [{"days": "Mon-Fri", "time": "1:00pm"}, {"days": "Sat", "time": "11:00am"}, {"days": "Sun", "time": "Closed"}], "id": "3014400041", "name": "USPS COLLECTION BOX - BLUE BOX", "address": {"city": "KENNESAW", "state": "GA", "street": "50 CHASTAIN CENTER BLVD NW", "postcode": "30144"}}},
{"geometry": {"type": "Point", "coordinates": [-84.615653785, 34.0462655058]}, "type": "Feature", "properties": {"collection_times": [{"days": "Mon-Fri", "time": "1:00pm"}, {"days": "Sat", "time": "11:00am"}, {"days": "Sun", "time": "Closed"}], "id": "3014400047", "name": "USPS COLLECTION BOX - BLUE BOX", "address": {"city": "KENNESAW", "state": "GA", "street": "3605 KENNESAW N IND PKWY NW", "postcode": "30144"}}},
{"geometry": {"type": "Point", "coordinates": [-84.5996175933, 34.0476578485]}, "type": "Feature", "properties": {"collection_times": [{"days": "Mon-Fri", "time": "1:00pm"}, {"days": "Sat", "time": "11:00am"}, {"days": "Sun", "time": "Closed"}], "id": "3014400059", "name": "USPS COLLECTION BOX - BLUE BOX", "address": {"city": "KENNESAW", "state": "GA", "street": "3895 CHEROKEE ST NW", "postcode": "30144"}}},
{"geometry": {"type": "Point", "coordinates": [-84.5847430672, 34.007255068]}, "type": "Feature", "properties": {"collection_times": [{"days": "Mon-Fri", "time": "1:00pm"}, {"days": "Sat", "time": "11:00am"}, {"days": "Sun", "time": "Closed"}], "id": "3014400072", "name": "USPS COLLECTION BOX - BLUE BOX", "address": {"city": "KENNESAW", "state": "GA", "street": "975 COBB PLACE BLVD NW", "postcode": "30144"}}},
{"geometry": {"type": "Point", "coordinates": [-84.6084085377, 34.0193676268]}, "type": "Feature", "properties": {"collection_times": [{"days": "Mon-Fri", "time": "5:00pm"}, {"days": "Sat", "time": "3:00pm"}, {"days": "Sun", "time": "Closed"}], "id": "3014400075", "name": "USPS COLLECTION BOX - APC", "address": {"city": "KENNESAW", "state": "GA", "street": "2001 DUNCAN DR NW", "postcode": "30144"}}},
{"geometry": {"type": "Point", "coordinates": [-84.9428848447, 34.2351912886]}, "type": "Feature", "properties": {"collection_times": [{"days": "Mon-Fri", "time": "4:00pm"}, {"days": "Sat", "time": "11:45am"}, {"days": "Sun", "time": "Closed"}], "id": "3014500001", "name": "USPS COLLECTION BOX - BLUE BOX", "address": {"city": "KINGSTON", "state": "GA", "street": "25 W MAIN ST", "postcode": "30145"}}},
{"geometry": {"type": "Point", "coordinates": [-84.9428848447, 34.2351912886]}, "type": "Feature", "properties": {"collection_times": [{"days": "Mon-Fri", "time": "4:00pm"}, {"days": "Sat", "time": "11:45am"}, {"days": "Sun", "time": "Closed"}], "id": "3014500002", "name": "USPS COLLECTION BOX - PO LOBBY", "address": {"city": "KINGSTON", "state": "GA", "street": "25 W MAIN ST", "postcode": "30145"}}},
{"geometry": {"type": "Point", "coordinates": [-84.5081312526, 34.1419291154]}, "type": "Feature", "properties": {"collection_times": [{"days": "Mon-Fri", "time": "4:00pm"}, {"days": "Sat", "time": "11:15am"}, {"days": "Sun", "time": "Closed"}], "id": "3014600001", "name": "USPS COLLECTION BOX - BLUE BOX", "address": {"city": "LEBANON", "state": "GA", "street": "5101 OLD HIGHWAY 5", "postcode": "30146"}}},
{"geometry": {"type": "Point", "coordinates": [-84.5081312526, 34.1419291154]}, "type": "Feature", "properties": {"collection_times": [{"days": "Mon-Fri", "time": "4:00pm"}, {"days": "Sat", "time": "11:15am"}, {"days": "Sun", "time": "Closed"}], "id": "3014600002", "name": "USPS COLLECTION BOX - PO LOBBY", "address": {"city": "LEBANON", "state": "GA", "street": "5101 OLD HIGHWAY 5", "postcode": "30146"}}},
{"geometry": {"type": "Point", "coordinates": [-85.1752319653, 34.1815591463]}, "type": "Feature", "properties": {"collection_times": [{"days": "Mon-Fri", "time": "4:00pm"}, {"days": "Sat", "time": "12:00pm"}, {"days": "Sun", "time": "Closed"}], "id": "3014700002", "name": "USPS COLLECTION BOX - BLUE BOX", "address": {"city": "LINDALE", "state": "GA", "street": "502 PARK AVE SE", "postcode": "30147"}}},
{"geometry": {"type": "Point", "coordinates": [-85.1752319653, 34.1815591463]}, "type": "Feature", "properties": {"collection_times": [{"days": "Mon-Fri", "time": "4:00pm"}, {"days": "Sat", "time": "12:00pm"}, {"days": "Sun", "time": "Closed"}], "id": "3014700003", "name": "USPS COLLECTION BOX - PO LOBBY", "address": {"city": "LINDALE", "state": "GA", "street": "502 PARK AVE SE", "postcode": "30147"}}},
{"geometry": {"type": "Point", "coordinates": [-84.2912184843, 34.41247042]}, "type": "Feature", "properties": {"collection_times": [{"days": "Mon-Fri", "time": "4:30pm"}, {"days": "Sat", "time": "11:30am"}, {"days": "Sun", "time": "Closed"}], "id": "3014800001", "name": "USPS COLLECTION BOX - BLUE BOX", "address": {"city": "MARBLEHILL", "state": "GA", "street": "12813 HIGHWAY 53", "postcode": "30148"}}},
{"geometry": {"type": "Point", "coordinates": [-85.189333284, 33.6346584828]}, "type": "Feature", "properties": {"collection_times": [{"days": "Mon-Fri", "time": "4:00pm"}, {"days": "Sat", "time": "9:30am"}, {"days": "Sun", "time": "Closed"}], "id": "3015000001", "name": "USPS COLLECTION BOX - BLUE BOX", "address": {"city": "MOUNT ZION", "state": "GA", "street": "11 MARTIN ST", "postcode": "30150"}}},
{"geometry": {"type": "Point", "coordinates": [-85.1890892735, 33.6348954315]}, "type": "Feature", "properties": {"collection_times": [{"days": "Mon-Fri", "time": "4:00pm"}, {"days": "Sat", "time": "9:30am"}, {"days": "Sun", "time": "Closed"}], "id": "3015000002", "name": "USPS COLLECTION BOX - PO LOBBY", "address": {"city": "MOUNT ZION", "state": "GA", "street": "11 MARTIN ST", "postcode": "30150"}}},
{"geometry": {"type": "Point", "coordinates": [-84.3707640469, 34.3804816617]}, "type": "Feature", "properties": {"collection_times": [{"days": "Mon-Fri", "time": "4:00pm"}, {"days": "Sat", "time": "9:00am"}, {"days": "Sun", "time": "Closed"}], "id": "3015100001", "name": "USPS COLLECTION BOX - BLUE BOX", "address": {"city": "NELSON", "state": "GA", "street": "199 DOGWOOD PASS", "postcode": "30151"}}},
{"geometry": {"type": "Point", "coordinates": [-84.3705182787, 34.3792911427]}, "type": "Feature", "properties": {"collection_times": [{"days": "Mon-Fri", "time": "1:00pm"}, {"days": "Sat", "time": "9:00am"}, {"days": "Sun", "time": "Closed"}], "id": "3015100002", "name": "USPS COLLECTION BOX - PO LOBBY", "address": {"city": "NELSON", "state": "GA", "street": "199 DOGWOOD PASS", "postcode": "30151"}}},
{"geometry": {"type": "Point", "coordinates": [-85.0507988459, 33.9972327927]}, "type": "Feature", "properties": {"collection_times": [{"days": "Mon-Fri", "time": "5:00pm"}, {"days": "Sat", "time": "12:00pm"}, {"days": "Sun", "time": "Closed"}], "id": "3015300005", "name": "USPS COLLECTION BOX - BLUE BOX", "address": {"city": "ROCKMART", "state": "GA", "street": "130 E ELM ST", "postcode": "30153"}}},
{"geometry": {"type": "Point", "coordinates": [-85.0507988459, 33.9972327927]}, "type": "Feature", "properties": {"collection_times": [{"days": "Mon-Fri", "time": "5:00pm"}, {"days": "Sat", "time": "12:00pm"}, {"days": "Sun", "time": "Closed"}], "id": "3015300011", "name": "USPS COLLECTION BOX - PO LOBBY", "address": {"city": "ROCKMART", "state": "GA", "street": "130 E ELM ST", "postcode": "30153"}}},
{"geometry": {"type": "Point", "coordinates": [-85.168278099, 34.258504896]}, "type": "Feature", "properties": {"collection_times": [{"days": "Mon-Fri", "time": "2:00pm"}, {"days": "Sat", "time": "1:00pm"}, {"days": "Sun", "time": "Closed"}], "id": "3016100015", "name": "USPS COLLECTION BOX - BLUE BOX", "address": {"city": "ROME", "state": "GA", "street": "205 RIVERSIDE PKWY", "postcode": "30161"}}},
{"geometry": {"type": "Point", "coordinates": [-85.16947022, 34.2777599286]}, "type": "Feature", "properties": {"collection_times": [{"days": "Mon-Fri", "time": "2:00pm"}, {"days": "Sat", "time": "1:00pm"}, {"days": "Sun", "time": "Closed"}], "id": "3016100039", "name": "USPS COLLECTION BOX - BLUE BOX", "address": {"city": "ROME", "state": "GA", "street": "504 RIVERSIDE PKWY NE", "postcode": "30161"}}},
{"geometry": {"type": "Point", "coordinates": [-85.166323767, 34.2537257183]}, "type": "Feature", "properties": {"collection_times": [{"days": "Mon-Fri", "time": "2:00pm"}, {"days": "Sat", "time": "1:00pm"}, {"days": "Sun", "time": "Closed"}], "id": "3016100070", "name": "USPS COLLECTION BOX - BLUE BOX", "address": {"city": "ROME", "state": "GA", "street": "305 E 6 TH AVE", "postcode": "30161"}}},
{"geometry": {"type": "Point", "coordinates": [-85.1819383378, 34.2757870273]}, "type": "Feature", "properties": {"collection_times": [{"days": "Mon-Fri", "time": "2:00pm"}, {"days": "Sat", "time": "1:00pm"}, {"days": "Sun", "time": "Closed"}], "id": "3016500005", "name": "USPS COLLECTION BOX - BLUE BOX", "address": {"city": "ROME", "state": "GA", "street": "1825 MARTHA BERRY BLVD NW", "postcode": "30165"}}},
{"geometry": {"type": "Point", "coordinates": [-85.2283892939, 34.2740137269]}, "type": "Feature", "properties": {"collection_times": [{"days": "Mon-Fri", "time": "5:00pm"}, {"days": "Sat", "time": "1:00pm"}, {"days": "Sun", "time": "Closed"}], "id": "3016500015", "name": "USPS COLLECTION BOX - BLUE BOX", "address": {"city": "ROME", "state": "GA", "street": "2503 REDMOND CIR NW", "postcode": "30165"}}},
{"geometry": {"type": "Point", "coordinates": [-85.1805255472, 34.2604087928]}, "type": "Feature", "properties": {"collection_times": [{"days": "Mon-Fri", "time": "2:00pm"}, {"days": "Sat", "time": "1:00pm"}, {"days": "Sun", "time": "Closed"}], "id": "3016500022", "name": "USPS COLLECTION BOX - BLUE BOX", "address": {"city": "ROME", "state": "GA", "street": "304 TURNER MCCALL BLVD SW", "postcode": "30165"}}},
{"geometry": {"type": "Point", "coordinates": [-85.2283892939, 34.2740137269]}, "type": "Feature", "properties": {"collection_times": [{"days": "Mon-Fri", "time": "4:30pm"}, {"days": "Sat-Sun", "time": "Closed"}], "id": "3016500047", "name": "USPS COLLECTION BOX - PO LOBBY", "address": {"city": "ROME", "state": "GA", "street": "2503 REDMOND CIR NW", "postcode": "30165"}}},
{"geometry": {"type": "Point", "coordinates": [-85.1809016628, 34.2702054403]}, "type": "Feature", "properties": {"collection_times": [{"days": "Mon-Fri", "time": "5:00pm"}, {"days": "Sat", "time": "1:00pm"}, {"days": "Sun", "time": "Closed"}], "id": "3016500050", "name": "USPS COLLECTION BOX - BLUE BOX", "address": {"city": "ROME", "state": "GA", "street": "1420 MARTHA BERRY BLVD NE", "postcode": "30165"}}},
{"geometry": {"type": "Point", "coordinates": [-85.1809016628, 34.2702054403]}, "type": "Feature", "properties": {"collection_times": [{"days": "Mon-Fri", "time": "5:00pm"}, {"days": "Sat", "time": "1:00pm"}, {"days": "Sun", "time": "Closed"}], "id": "3016500051", "name": "USPS COLLECTION BOX - PO LOBBY", "address": {"city": "ROME", "state": "GA", "street": "1420 MARTHA BERRY BLVD NE", "postcode": "30165"}}},
{"geometry": {"type": "Point", "coordinates": [-85.1809016628, 34.2702054403]}, "type": "Feature", "properties": {"collection_times": [{"days": "Mon-Fri", "time": "5:00pm"}, {"days": "Sat", "time": "1:00pm"}, {"days": "Sun", "time": "Closed"}], "id": "3016500052", "name": "USPS COLLECTION BOX - PO LOBBY", "address": {"city": "ROME", "state": "GA", "street": "1420 MARTHA BERRY BLVD NE", "postcode": "30165"}}},
{"geometry": {"type": "Point", "coordinates": [-85.1809016628, 34.2702054403]}, "type": "Feature", "properties": {"collection_times": [{"days": "Mon-Fri", "time": "5:00pm"}, {"days": "Sat", "time": "1:00pm"}, {"days": "Sun", "time": "Closed"}], "id": "3016500053", "name": "USPS COLLECTION BOX - APC", "address": {"city": "ROME", "state": "GA", "street": "1420 MARTHA BERRY BLVD NE", "postcode": "30165"}}},
{"geometry": {"type": "Point", "coordinates": [-84.6362320562, 33.8102537553]}, "type": "Feature", "properties": {"collection_times": [{"days": "Mon-Fri", "time": "5:00pm"}, {"days": "Sat", "time": "12:00pm"}, {"days": "Sun", "time": "Closed"}], "id": "3016800013", "name": "USPS COLLECTION BOX - PO LOBBY", "address": {"city": "AUSTELL", "state": "GA", "street": "2847 VETERANS MEMORIAL HWY SW", "postcode": "30168"}}},
{"geometry": {"type": "Point", "coordinates": [-84.6362320562, 33.8102537553]}, "type": "Feature", "properties": {"collection_times": [{"days": "Mon-Fri", "time": "5:00pm"}, {"days": "Sat", "time": "2:00pm"}, {"days": "Sun", "time": "Closed"}], "id": "3016800014", "name": "USPS COLLECTION BOX - BLUE BOX", "address": {"city": "AUSTELL", "state": "GA", "street": "2847 VETERANS MEMORIAL HWY SW", "postcode": "30168"}}},
{"geometry": {"type": "Point", "coordinates": [-84.6362320562, 33.8102537553]}, "type": "Feature", "properties": {"collection_times": [{"days": "Mon-Fri", "time": "5:00pm"}, {"days": "Sat", "time": "2:00pm"}, {"days": "Sun", "time": "Closed"}], "id": "3016800015", "name": "USPS COLLECTION BOX - BLUE BOX", "address": {"city": "AUSTELL", "state": "GA", "street": "2847 VETERANS MEMORIAL HWY SW", "postcode": "30168"}}},
{"geometry": {"type": "Point", "coordinates": [-85.1242263962, 33.4518803933]}, "type": "Feature", "properties": {"collection_times": [{"days": "Mon-Fri", "time": "4:00pm"}, {"days": "Sat", "time": "11:00am"}, {"days": "Sun", "time": "Closed"}], "id": "3017000001", "name": "USPS COLLECTION BOX - BLUE BOX", "address": {"city": "ROOPVILLE", "state": "GA", "street": "270 S HIGHWAY 27", "postcode": "30170"}}},
{"geometry": {"type": "Point", "coordinates": [-85.1242263962, 33.4518803933]}, "type": "Feature", "properties": {"collection_times": [{"days": "Mon-Fri", "time": "4:00pm"}, {"days": "Sat", "time": "11:00am"}, {"days": "Sun", "time": "Closed"}], "id": "3017000002", "name": "USPS COLLECTION BOX - PO LOBBY", "address": {"city": "ROOPVILLE", "state": "GA", "street": "270 S HIGHWAY 27", "postcode": "30170"}}},
{"geometry": {"type": "Point", "coordinates": [-84.6955441621, 34.3465548352]}, "type": "Feature", "properties": {"collection_times": [{"days": "Mon-Fri", "time": "4:30pm"}, {"days": "Sat", "time": "12:00pm"}, {"days": "Sun", "time": "Closed"}], "id": "3017100001", "name": "USPS COLLECTION BOX - BLUE BOX", "address": {"city": "RYDAL", "state": "GA", "street": "11 POST OFFICE CIR NE", "postcode": "30171"}}},
{"geometry": {"type": "Point", "coordinates": [-84.6955441621, 34.3465548352]}, "type": "Feature", "properties": {"collection_times": [{"days": "Mon-Fri", "time": "4:30pm"}, {"days": "Sat", "time": "12:00pm"}, {"days": "Sun", "time": "Closed"}], "id": "3017100002", "name": "USPS COLLECTION BOX - PO LOBBY", "address": {"city": "RYDAL", "state": "GA", "street": "11 POST OFFICE CIR NE", "postcode": "30171"}}},
{"geometry": {"type": "Point", "coordinates": [-85.0783903123, 34.3431378473]}, "type": "Feature", "properties": {"collection_times": [{"days": "Mon-Fri", "time": "4:00pm"}, {"days": "Sat", "time": "11:30am"}, {"days": "Sun", "time": "Closed"}], "id": "3017200001", "name": "USPS COLLECTION BOX - BLUE BOX", "address": {"city": "SHANNON", "state": "GA", "street": "361 BURLINGTON DR", "postcode": "30172"}}},
{"geometry": {"type": "Point", "coordinates": [-85.0783903123, 34.3431378473]}, "type": "Feature", "properties": {"collection_times": [{"days": "Mon-Fri", "time": "4:00pm"}, {"days": "Sat", "time": "11:30am"}, {"days": "Sun", "time": "Closed"}], "id": "3017200002", "name": "USPS COLLECTION BOX - PO LOBBY", "address": {"city": "SHANNON", "state": "GA", "street": "361 BURLINGTON DR", "postcode": "30172"}}},
{"geometry": {"type": "Point", "coordinates": [-85.1424349441, 34.1638582733]}, "type": "Feature", "properties": {"collection_times": [{"days": "Mon-Fri", "time": "4:30pm"}, {"days": "Sat", "time": "12:00pm"}, {"days": "Sun", "time": "Closed"}], "id": "3017300001", "name": "USPS COLLECTION BOX - BLUE BOX", "address": {"city": "SILVER CREEK", "state": "GA", "street": "4565 ROCKMART RD SE", "postcode": "30173"}}},
{"geometry": {"type": "Point", "coordinates": [-85.1424349441, 34.1638582733]}, "type": "Feature", "properties": {"collection_times": [{"days": "Mon-Fri", "time": "4:30pm"}, {"days": "Sat", "time": "12:00pm"}, {"days": "Sun", "time": "Closed"}], "id": "3017300002", "name": "USPS COLLECTION BOX - PO LOBBY", "address": {"city": "SILVER CREEK", "state": "GA", "street": "4565 ROCKMART RD SE", "postcode": "30173"}}},
{"geometry": {"type": "Point", "coordinates": [-84.5135749719, 34.5086957437]}, "type": "Feature", "properties": {"collection_times": [{"days": "Mon-Fri", "time": "4:15pm"}, {"days": "Sat", "time": "12:00pm"}, {"days": "Sun", "time": "Closed"}], "id": "3017500001", "name": "USPS COLLECTION BOX - PO LOBBY", "address": {"city": "TALKING ROCK", "state": "GA", "street": "100 ANTIOCH CHURCH RD", "postcode": "30175"}}},
{"geometry": {"type": "Point", "coordinates": [-85.3405706624, 33.7436019424]}, "type": "Feature", "properties": {"collection_times": [{"days": "Mon-Fri", "time": "5:00pm"}, {"days": "Sat", "time": "3:30pm"}, {"days": "Sun", "time": "Closed"}], "id": "3017600001", "name": "USPS COLLECTION BOX - BLUE BOX", "address": {"city": "TALLAPOOSA", "state": "GA", "street": "1919 U S HIGHWAY 78", "postcode": "30176"}}},
{"geometry": {"type": "Point", "coordinates": [-85.3405706624, 33.7436019424]}, "type": "Feature", "properties": {"collection_times": [{"days": "Mon-Fri", "time": "5:00pm"}, {"days": "Sat", "time": "3:30pm"}, {"days": "Sun", "time": "Closed"}], "id": "3017600008", "name": "USPS COLLECTION BOX - PO LOBBY", "address": {"city": "TALLAPOOSA", "state": "GA", "street": "1919 US HIGHWAY 78", "postcode": "30176"}}},
{"geometry": {"type": "Point", "coordinates": [-84.3853662137, 34.4165269392]}, "type": "Feature", "properties": {"collection_times": [{"days": "Mon-Fri", "time": "4:30pm"}, {"days": "Sat", "time": "12:00pm"}, {"days": "Sun", "time": "Closed"}], "id": "3017700001", "name": "USPS COLLECTION BOX - BLUE BOX", "address": {"city": "TATE", "state": "GA", "street": "4817 HIGHWAY 53 E STE E", "postcode": "30177"}}},
{"geometry": {"type": "Point", "coordinates": [-84.3853662137, 34.4165269392]}, "type": "Feature", "properties": {"collection_times": [{"days": "Mon-Fri", "time": "4:30pm"}, {"days": "Sat", "time": "12:00pm"}, {"days": "Sun", "time": "Closed"}], "id": "3017700002", "name": "USPS COLLECTION BOX - PO LOBBY", "address": {"city": "TATE", "state": "GA", "street": "4817 HIGHWAY 53 E STE E", "postcode": "30177"}}},
{"geometry": {"type": "Point", "coordinates": [-84.9895928541, 34.0877249471]}, "type": "Feature", "properties": {"collection_times": [{"days": "Mon-Fri", "time": "4:30pm"}, {"days": "Sat", "time": "12:00pm"}, {"days": "Sun", "time": "Closed"}], "id": "3017800001", "name": "USPS COLLECTION BOX - BLUE BOX", "address": {"city": "TAYLORSVILLE", "state": "GA", "street": "61 MADDEN ST", "postcode": "30178"}}},
{"geometry": {"type": "Point", "coordinates": [-84.9895928541, 34.0877249471]}, "type": "Feature", "properties": {"collection_times": [{"days": "Mon-Fri", "time": "4:30pm"}, {"days": "Sat", "time": "12:00pm"}, {"days": "Sun", "time": "Closed"}], "id": "3017800002", "name": "USPS COLLECTION BOX - PO LOBBY", "address": {"city": "TAYLORSVILLE", "state": "GA", "street": "61 MADDEN ST", "postcode": "30178"}}},
{"geometry": {"type": "Point", "coordinates": [-85.0330045812, 33.736235253]}, "type": "Feature", "properties": {"collection_times": [{"days": "Mon-Fri", "time": "5:00pm"}, {"days": "Sat", "time": "4:00pm"}, {"days": "Sun", "time": "Closed"}], "id": "3017900001", "name": "USPS COLLECTION BOX - BLUE BOX", "address": {"city": "TEMPLE", "state": "GA", "street": "68 JAMES ST", "postcode": "30179"}}},
{"geometry": {"type": "Point", "coordinates": [-84.9320676811, 33.7318264039]}, "type": "Feature", "properties": {"collection_times": [{"days": "Mon-Fri", "time": "5:00pm"}, {"days": "Sat", "time": "4:00pm"}, {"days": "Sun", "time": "Closed"}], "id": "3018000001", "name": "USPS COLLECTION BOX - BLUE BOX", "address": {"city": "VILLA RICA", "state": "GA", "street": "43 COMMUNITY SQUARE BLVD", "postcode": "30180"}}},
{"geometry": {"type": "Point", "coordinates": [-84.9387516199, 33.7199354872]}, "type": "Feature", "properties": {"collection_times": [{"days": "Mon-Sat", "time": "9:00am"}, {"days": "Sun", "time": "Closed"}], "id": "3018000007", "name": "USPS COLLECTION BOX - BLUE BOX", "address": {"city": "VILLA RICA", "state": "GA", "street": "98 HIGHWAY 61 CONNECTOR", "postcode": "30180"}}},
{"geometry": {"type": "Point", "coordinates": [-84.9320676811, 33.7318264039]}, "type": "Feature", "properties": {"collection_times": [{"days": "Mon-Fri", "time": "5:00pm"}, {"days": "Sat", "time": "4:00pm"}, {"days": "Sun", "time": "Closed"}], "id": "3018000014", "name": "USPS COLLECTION BOX - BLUE BOX", "address": {"city": "VILLA RICA", "state": "GA", "street": "43 COMMUNITY SQUARE BLVD", "postcode": "30180"}}},
{"geometry": {"type": "Point", "coordinates": [-84.910682036, 33.6452382615]}, "type": "Feature", "properties": {"collection_times": [{"days": "Mon-Sat", "time": "9:00am"}, {"days": "Sun", "time": "Closed"}], "id": "3018000016", "name": "USPS COLLECTION BOX - BLUE BOX", "address": {"city": "VILLA RICA", "state": "GA", "street": "1602 LAKEVIEW PKWY", "postcode": "30180"}}},
{"geometry": {"type": "Point", "coordinates": [-84.9202725691, 33.7196149783]}, "type": "Feature", "properties": {"collection_times": [{"days": "Mon-Sat", "time": "9:00am"}, {"days": "Sun", "time": "Closed"}], "id": "3018000020", "name": "USPS COLLECTION BOX - BLUE BOX", "address": {"city": "VILLA RICA", "state": "GA", "street": "2000 MIRROR LAKE BLVD", "postcode": "30180"}}},
{"geometry": {"type": "Point", "coordinates": [-85.1872274424, 33.6953700382]}, "type": "Feature", "properties": {"collection_times": [{"days": "Mon-Fri", "time": "4:45pm"}, {"days": "Sat", "time": "11:45am"}, {"days": "Sun", "time": "Closed"}], "id": "3018200003", "name": "USPS COLLECTION BOX - BLUE BOX", "address": {"city": "WACO", "state": "GA", "street": "86 ATLANTIC AVE", "postcode": "30182"}}},
{"geometry": {"type": "Point", "coordinates": [-85.1872274424, 33.6953700382]}, "type": "Feature", "properties": {"collection_times": [{"days": "Mon-Fri", "time": "4:45pm"}, {"days": "Sat", "time": "11:45am"}, {"days": "Sun", "time": "Closed"}], "id": "3018200004", "name": "USPS COLLECTION BOX - PO LOBBY", "address": {"city": "WACO", "state": "GA", "street": "86 ATLANTIC AVE", "postcode": "30182"}}},
{"geometry": {"type": "Point", "coordinates": [-84.5962312897, 34.337191862]}, "type": "Feature", "properties": {"collection_times": [{"days": "Mon-Fri", "time": "4:00pm"}, {"days": "Sat", "time": "12:00pm"}, {"days": "Sun", "time": "Closed"}], "id": "3018300001", "name": "USPS COLLECTION BOX - BLUE BOX", "address": {"city": "WALESKA", "state": "GA", "street": "7265 R C PKWY", "postcode": "30183"}}},
{"geometry": {"type": "Point", "coordinates": [-84.5962312897, 34.337191862]}, "type": "Feature", "properties": {"collection_times": [{"days": "Mon-Fri", "time": "4:00pm"}, {"days": "Sat", "time": "12:00pm"}, {"days": "Sun", "time": "Closed"}], "id": "3018300002", "name": "USPS COLLECTION BOX - PO LOBBY", "address": {"city": "WALESKA", "state": "GA", "street": "7265 R C PKWY", "postcode": "30183"}}},
{"geometry": {"type": "Point", "coordinates": [-84.7429533891, 34.2873747304]}, "type": "Feature", "properties": {"collection_times": [{"days": "Mon-Fri", "time": "4:15pm"}, {"days": "Sat", "time": "11:45am"}, {"days": "Sun", "time": "Closed"}], "id": "3018400001", "name": "USPS COLLECTION BOX - BLUE BOX", "address": {"city": "WHITE", "state": "GA", "street": "3172 HIGHWAY 411 NE", "postcode": "30184"}}},
{"geometry": {"type": "Point", "coordinates": [-84.7429533891, 34.2873747304]}, "type": "Feature", "properties": {"collection_times": [{"days": "Mon-Fri", "time": "4:45pm"}, {"days": "Sat", "time": "12:15pm"}, {"days": "Sun", "time": "Closed"}], "id": "3018400002", "name": "USPS COLLECTION BOX - PO LOBBY", "address": {"city": "WHITE", "state": "GA", "street": "3172 HIGHWAY 411 NE", "postcode": "30184"}}},
{"geometry": {"type": "Point", "coordinates": [-84.9142231641, 33.4944482715]}, "type": "Feature", "properties": {"collection_times": [{"days": "Mon-Fri", "time": "4:00pm"}, {"days": "Sat", "time": "11:30am"}, {"days": "Sun", "time": "Closed"}], "id": "3018500001", "name": "USPS COLLECTION BOX - BLUE BOX", "address": {"city": "WHITESBURG", "state": "GA", "street": "710 MAIN ST", "postcode": "30185"}}},
{"geometry": {"type": "Point", "coordinates": [-84.9142231641, 33.4944482715]}, "type": "Feature", "properties": {"collection_times": [{"days": "Mon-Fri", "time": "4:00pm"}, {"days": "Sat", "time": "11:30am"}, {"days": "Sun", "time": "Closed"}], "id": "3018500002", "name": "USPS COLLECTION BOX - PO LOBBY", "address": {"city": "WHITESBURG", "state": "GA", "street": "710 MAIN ST", "postcode": "30185"}}},
{"geometry": {"type": "Point", "coordinates": [-84.8254988758, 33.7260113059]}, "type": "Feature", "properties": {"collection_times": [{"days": "Mon-Fri", "time": "4:30pm"}, {"days": "Sat", "time": "11:30am"}, {"days": "Sun", "time": "Closed"}], "id": "3018700001", "name": "USPS COLLECTION BOX - BLUE BOX", "address": {"city": "WINSTON", "state": "GA", "street": "2929 POST RD", "postcode": "30187"}}},
{"geometry": {"type": "Point", "coordinates": [-84.8254988758, 33.7260113059]}, "type": "Feature", "properties": {"collection_times": [{"days": "Mon-Fri", "time": "4:30pm"}, {"days": "Sat", "time": "11:30am"}, {"days": "Sun", "time": "Closed"}], "id": "3018700003", "name": "USPS COLLECTION BOX - PO LOBBY", "address": {"city": "WINSTON", "state": "GA", "street": "2929 POST RD", "postcode": "30187"}}},
{"geometry": {"type": "Point", "coordinates": [-84.5310820185, 34.0873230448]}, "type": "Feature", "properties": {"collection_times": [{"days": "Mon-Fri", "time": "5:00pm"}, {"days": "Sat", "time": "2:00pm"}, {"days": "Sun", "time": "Closed"}], "id": "3018800009", "name": "USPS COLLECTION BOX - BLUE BOX", "address": {"city": "WOODSTOCK", "state": "GA", "street": "225 PARKWAY 575", "postcode": "30188"}}},
{"geometry": {"type": "Point", "coordinates": [-84.5310820185, 34.0873230448]}, "type": "Feature", "properties": {"collection_times": [{"days": "Mon-Fri", "time": "5:00pm"}, {"days": "Sat", "time": "2:00pm"}, {"days": "Sun", "time": "Closed"}], "id": "3018800025", "name": "USPS COLLECTION BOX - PO LOBBY", "address": {"city": "WOODSTOCK", "state": "GA", "street": "225 PARKWAY 575", "postcode": "30188"}}},
{"geometry": {"type": "Point", "coordinates": [-84.5535358061, 34.1129112304]}, "type": "Feature", "properties": {"collection_times": [{"days": "Mon-Sat", "time": "12:30pm"}, {"days": "Sun", "time": "Closed"}], "id": "3018800027", "name": "USPS COLLECTION BOX - BLUE BOX", "address": {"city": "WOODSTOCK", "state": "GA", "street": "2295 TOWNE LAKE PKWY", "postcode": "30188"}}},
{"geometry": {"type": "Point", "coordinates": [-84.5584093473, 34.1110839512]}, "type": "Feature", "properties": {"collection_times": [{"days": "Mon-Fri", "time": "5:00pm"}, {"days": "Sat", "time": "1:15pm"}, {"days": "Sun", "time": "Closed"}], "id": "3018800030", "name": "USPS COLLECTION BOX - BLUE BOX", "address": {"city": "WOODSTOCK", "state": "GA", "street": "3101 PARKBROOKE CIR", "postcode": "30188"}}},
{"geometry": {"type": "Point", "coordinates": [-84.5310820185, 34.0873230448]}, "type": "Feature", "properties": {"collection_times": [{"days": "Mon-Fri", "time": "5:00pm"}, {"days": "Sat", "time": "2:00pm"}, {"days": "Sun", "time": "Closed"}], "id": "3018800032", "name": "USPS COLLECTION BOX - APC", "address": {"city": "WOODSTOCK", "state": "GA", "street": "225 PARKWAY 575", "postcode": "30188"}}}
]}
