{"type": "FeatureCollection", "features": [
{"geometry": {"type": "Point", "coordinates": [-84.1549987746, 33.0546428329]}, "type": "Feature", "properties": {"collection_times": [{"days": "Mon-Fri", "time": "5:00pm"}, {"days": "Sat", "time": "2:30pm"}, {"days": "Sun", "time": "Closed"}], "id": "3020400005", "name": "USPS COLLECTION BOX - BLUE BOX", "address": {"city": "BARNESVILLE", "state": "GA", "street": "118 FORSYTH ST", "postcode": "30204"}}},
{"geometry": {"type": "Point", "coordinates": [-84.1294678935, 33.0509196706]}, "type": "Feature", "properties": {"collection_times": [{"days": "Mon-Sat", "time": "12:00pm"}, {"days": "Sun", "time": "Closed"}], "id": "3020400009", "name": "USPS COLLECTION BOX - BLUE BOX", "address": {"city": "BARNESVILLE", "state": "GA", "street": "625 VETERANS PKWY", "postcode": "30204"}}},
{"geometry": {"type": "Point", "coordinates": [-84.1546799941, 33.0546456914]}, "type": "Feature", "properties": {"collection_times": [{"days": "Mon-Fri", "time": "4:30pm"}, {"days": "Sat", "time": "2:30pm"}, {"days": "Sun", "time": "Closed"}], "id": "3020400010", "name": "USPS COLLECTION BOX - PO LOBBY", "address": {"city": "BARNESVILLE", "state": "GA", "street": "138 FORSYTH ST", "postcode": "30204"}}},
{"geometry": {"type": "Point", "coordinates": [-84.4584005512, 33.2904132307]}, "type": "Feature", "properties": {"collection_times": [{"days": "Mon-Fri", "time": "4:00pm"}, {"days": "Sat", "time": "11:30am"}, {"days": "Sun", "time": "Closed"}], "id": "3020500001", "name": "USPS COLLECTION BOX - BLUE BOX", "address": {"city": "BROOKS", "state": "GA", "street": "104 W MCINTOSH RD", "postcode": "30205"}}},
{"geometry": {"type": "Point", "coordinates": [-84.4586084168, 33.2904666277]}, "type": "Feature", "properties": {"collection_times": [{"days": "Mon-Fri", "time": "4:00pm"}, {"days": "Sat", "time": "11:30am"}, {"days": "Sun", "time": "Closed"}], "id": "3020500002", "name": "USPS COLLECTION BOX - PO LOBBY", "address": {"city": "BROOKS", "state": "GA", "street": "104 W MCINTOSH RD", "postcode": "30205"}}},
{"geometry": {"type": "Point", "coordinates": [-84.4598032504, 33.0970752925]}, "type": "Feature", "properties": {"collection_times": [{"days": "Mon-Fri", "time": "4:00pm"}, {"days": "Sat", "time": "9:30am"}, {"days": "Sun", "time": "Closed"}], "id": "3020600001", "name": "USPS COLLECTION BOX - BLUE BOX", "address": {"city": "CONCORD", "state": "GA", "street": "12 MAIN ST", "postcode": "30206"}}},
{"geometry": {"type": "Point", "coordinates": [-84.2849586052, 33.2700686548]}, "type": "Feature", "properties": {"collection_times": [{"days": "Mon-Fri", "time": "5:00pm"}, {"days": "Sat", "time": "12:00pm"}, {"days": "Sun", "time": "Closed"}], "id": "3021200001", "name": "USPS COLLECTION BOX - BLUE BOX", "address": {"city": "EXPERIMENT", "state": "GA", "street": "1382 EXPERIMENT ST", "postcode": "30212"}}},
{"geometry": {"type": "Point", "coordinates": [-84.2849586052, 33.2700686548]}, "type": "Feature", "properties": {"collection_times": [{"days": "Mon-Fri", "time": "5:00pm"}, {"days": "Sat", "time": "12:00pm"}, {"days": "Sun", "time": "Closed"}], "id": "3021200002", "name": "USPS COLLECTION BOX - PO LOBBY", "address": {"city": "EXPERIMENT", "state": "GA", "street": "1382 EXPRTIMENT ST", "postcode": "30212"}}},
{"geometry": {"type": "Point", "coordinates": [-84.6101292958, 33.6087983146]}, "type": "Feature", "properties": {"collection_times": [{"days": "Mon-Sat", "time": "9:30am"}, {"days": "Sun", "time": "Closed"}], "id": "3021300001", "name": "USPS COLLECTION BOX - BLUE BOX", "address": {"city": "FAIRBURN", "state": "GA", "street": "5370 HIGHWAY 92", "postcode": "30213"}}},
{"geometry": {"type": "Point", "coordinates": [-84.5842462245, 33.5657724164]}, "type": "Feature", "properties": {"collection_times": [{"days": "Mon-Fri", "time": "5:00pm"}, {"days": "Sat", "time": "2:00pm"}, {"days": "Sun", "time": "Closed"}], "id": "3021300004", "name": "USPS COLLECTION BOX - BLUE BOX", "address": {"city": "FAIRBURN", "state": "GA", "street": "75 WASHINGTON ST", "postcode": "30213"}}},
{"geometry": {"type": "Point", "coordinates": [-84.5842462245, 33.5657724164]}, "type": "Feature", "properties": {"collection_times": [{"days": "Mon-Fri", "time": "5:00pm"}, {"days": "Sat", "time": "2:00pm"}, {"days": "Sun", "time": "Closed"}], "id": "3021300005", "name": "USPS COLLECTION BOX - BLUE BOX", "address": {"city": "FAIRBURN", "state": "GA", "street": "75 WASHINGTON ST", "postcode": "30213"}}},
{"geometry": {"type": "Point", "coordinates": [-84.4822422254, 33.4493712]}, "type": "Feature", "properties": {"collection_times": [{"days": "Mon-Sat", "time": "1:00pm"}, {"days": "Sun", "time": "Closed"}], "id": "3021400001", "name": "USPS COLLECTION BOX - BLUE BOX", "address": {"city": "FAYETTEVILLE", "state": "GA", "street": "137 MARQUIS DR", "postcode": "30214"}}},
{"geometry": {"type": "Point", "coordinates": [-84.4503006611, 33.4421476214]}, "type": "Feature", "properties": {"collection_times": [{"days": "Mon-Sat", "time": "1:00pm"}, {"days": "Sun", "time": "Closed"}], "id": "3021400005", "name": "USPS COLLECTION BOX - BLUE BOX", "address": {"city": "FAYETTEVILLE", "state": "GA", "street": "1 CENTER DR", "postcode": "30214"}}},
{"geometry": {"type": "Point", "coordinates": [-84.5097893981, 33.450739465]}, "type": "Feature", "properties": {"collection_times": [{"days": "Mon-Sat", "time": "1:00pm"}, {"days": "Sun", "time": "Closed"}], "id": "3021400008", "name": "USPS COLLECTION BOX - BLUE BOX", "address": {"city": "FAYETTEVILLE", "state": "GA", "street": "1267 HIGHWAY 54 W", "postcode": "30214"}}},
{"geometry": {"type": "Point", "coordinates": [-84.4446535031, 33.4730192709]}, "type": "Feature", "properties": {"collection_times": [{"days": "Mon-Sat", "time": "1:00pm"}, {"days": "Sun", "time": "Closed"}], "id": "3021400014", "name": "USPS COLLECTION BOX - BLUE BOX", "address": {"city": "FAYETTEVILLE", "state": "GA", "street": "150 BANKS XING", "postcode": "30214"}}},
{"geometry": {"type": "Point", "coordinates": [-84.4560164017, 33.4477003504]}, "type": "Feature", "properties": {"collection_times": [{"days": "Mon-Sat", "time": "1:00pm"}, {"days": "Sun", "time": "Closed"}], "id": "3021400017", "name": "USPS COLLECTION BOX - BLUE BOX", "address": {"city": "FAYETTEVILLE", "state": "GA", "street": "140 STONEWALL AVE W", "postcode": "30214"}}},
{"geometry": {"type": "Point", "coordinates": [-84.5131593227, 33.4743855739]}, "type": "Feature", "properties": {"collection_times": [{"days": "Mon-Sat", "time": "1:00pm"}, {"days": "Sun", "time": "Closed"}], "id": "3021400018", "name": "USPS COLLECTION BOX - BLUE BOX", "address": {"city": "FAYETTEVILLE", "state": "GA", "street": "461 SANDY CREEK RD", "postcode": "30214"}}},
{"geometry": {"type": "Point", "coordinates": [-84.4247405992, 33.4545469964]}, "type": "Feature", "properties": {"collection_times": [{"days": "Mon-Sat", "time": "1:00pm"}, {"days": "Sun", "time": "Closed"}], "id": "3021400021", "name": "USPS COLLECTION BOX - BLUE BOX", "address": {"city": "FAYETTEVILLE", "state": "GA", "street": "1250 HIGHWAY 54 W", "postcode": "30214"}}},
{"geometry": {"type": "Point", "coordinates": [-84.4513595908, 33.4538560742]}, "type": "Feature", "properties": {"collection_times": [{"days": "Mon-Fri", "time": "5:00pm"}, {"days": "Sat", "time": "1:00pm"}, {"days": "Sun", "time": "Closed"}], "id": "3021400022", "name": "USPS COLLECTION BOX - PO LOBBY", "address": {"city": "FAYETTEVILLE", "state": "GA", "street": "250 GEORGIA AVE E", "postcode": "30214"}}},
{"geometry": {"type": "Point", "coordinates": [-84.4422156008, 33.4796179051]}, "type": "Feature", "properties": {"collection_times": [{"days": "Mon-Sat", "time": "1:00pm"}, {"days": "Sun", "time": "Closed"}], "id": "3021400023", "name": "USPS COLLECTION BOX - BLUE BOX", "address": {"city": "FAYETTEVILLE", "state": "GA", "street": "125 PAVILION PKWY", "postcode": "30214"}}},
{"geometry": {"type": "Point", "coordinates": [-84.440085373, 33.480120538]}, "type": "Feature", "properties": {"collection_times": [{"days": "Mon-Sat", "time": "1:00pm"}, {"days": "Sun", "time": "Closed"}], "id": "3021400024", "name": "USPS COLLECTION BOX - BLUE BOX", "address": {"city": "FAYETTEVILLE", "state": "GA", "street": "108 PAVILION PKWY", "postcode": "30214"}}},
{"geometry": {"type": "Point", "coordinates": [-84.4570514682, 33.4330948557]}, "type": "Feature", "properties": {"collection_times": [{"days": "Mon-Sat", "time": "1:00pm"}, {"days": "Sun", "time": "Closed"}], "id": "3021400026", "name": "USPS COLLECTION BOX - BLUE BOX", "address": {"city": "FAYETTEVILLE", "state": "GA", "street": "817 GLYNN ST S", "postcode": "30214"}}},
{"geometry": {"type": "Point", "coordinates": [-84.4513595908, 33.4538560742]}, "type": "Feature", "properties": {"collection_times": [{"days": "Mon-Fri", "time": "5:00pm"}, {"days": "Sat", "time": "1:00pm"}, {"days": "Sun", "time": "Closed"}], "id": "3021400027", "name": "USPS COLLECTION BOX - BLUE BOX", "address": {"city": "FAYETTEVILLE", "state": "GA", "street": "250 GEORGIA AVE E", "postcode": "30214"}}},
{"geometry": {"type": "Point", "coordinates": [-84.5087023114, 33.4508685526]}, "type": "Feature", "properties": {"collection_times": [{"days": "Mon-Sat", "time": "1:00pm"}, {"days": "Sun", "time": "Closed"}], "id": "3021400028", "name": "USPS COLLECTION BOX - BLUE BOX", "address": {"city": "FAYETTEVILLE", "state": "GA", "street": "1255 HIGHWAY 54 W", "postcode": "30214"}}},
{"geometry": {"type": "Point", "coordinates": [-84.5103762371, 33.4506668088]}, "type": "Feature", "properties": {"collection_times": [{"days": "Mon-Sat", "time": "1:00pm"}, {"days": "Sun", "time": "Closed"}], "id": "3021400029", "name": "USPS COLLECTION BOX - BLUE BOX", "address": {"city": "FAYETTEVILLE", "state": "GA", "street": "1275 HIGHWAY 54 W", "postcode": "30214"}}},
{"geometry": {"type": "Point", "coordinates": [-84.5106206336, 33.4506390949]}, "type": "Feature", "properties": {"collection_times": [{"days": "Mon-Sat", "time": "1:00pm"}, {"days": "Sun", "time": "Closed"}], "id": "3021400033", "name": "USPS COLLECTION BOX - BLUE BOX", "address": {"city": "FAYETTEVILLE", "state": "GA", "street": "1279 HIGHWAY 54 W", "postcode": "30214"}}},
{"geometry": {"type": "Point", "coordinates": [-84.4503006611, 33.4421476214]}, "type": "Feature", "properties": {"collection_times": [{"days": "Mon-Sat", "time": "1:00pm"}, {"days": "Sun", "time": "Closed"}], "id": "3021400034", "name": "USPS COLLECTION BOX - BLUE BOX", "address": {"city": "FAYETTEVILLE", "state": "GA", "street": "1 CENTER DR", "postcode": "30214"}}},
{"geometry": {"type": "Point", "coordinates": [-84.4513595908, 33.4538560742]}, "type": "Feature", "properties": {"collection_times": [{"days": "Mon-Fri", "time": "5:00pm"}, {"days": "Sat", "time": "1:00pm"}, {"days": "Sun", "time": "Closed"}], "id": "3021400035", "name": "USPS COLLECTION BOX - APC", "address": {"city": "FAYETTEVILLE", "state": "GA", "street": "250 GEORGIA AVE E", "postcode": "30214"}}},
{"geometry": {"type": "Point", "coordinates": [-84.4575573506, 33.4378400443]}, "type": "Feature", "properties": {"collection_times": [{"days": "Mon-Sat", "time": "9:00am"}, {"days": "Sun", "time": "Closed"}], "id": "3021500001", "name": "USPS COLLECTION BOX - BLUE BOX", "address": {"city": "FAYETTEVILLE", "state": "GA", "street": "260 STAYMAN PARK", "postcode": "30215"}}},
{"geometry": {"type": "Point", "coordinates": [-84.5187500462, 33.4461746439]}, "type": "Feature", "properties": {"collection_times": [{"days": "Mon-Fri", "time": "5:00pm"}, {"days": "Sat", "time": "12:00pm"}, {"days": "Sun", "time": "Closed"}], "id": "3021500002", "name": "USPS COLLECTION BOX - BLUE BOX", "address": {"city": "FAYETTEVILLE", "state": "GA", "street": "1430 HIGHWAY 54 W", "postcode": "30215"}}},
{"geometry": {"type": "Point", "coordinates": [-83.8930163888, 33.2537736673]}, "type": "Feature", "properties": {"collection_times": [{"days": "Mon-Fri", "time": "4:15pm"}, {"days": "Sat", "time": "10:00am"}, {"days": "Sun", "time": "Closed"}], "id": "3021600001", "name": "USPS COLLECTION BOX - BLUE BOX", "address": {"city": "FLOVILLA", "state": "GA", "street": "340 HEARD ST", "postcode": "30216"}}},
{"geometry": {"type": "Point", "coordinates": [-85.1026942607, 33.1634586306]}, "type": "Feature", "properties": {"collection_times": [{"days": "Mon-Fri", "time": "4:00pm"}, {"days": "Sat", "time": "12:00pm"}, {"days": "Sun", "time": "Closed"}], "id": "3021700001", "name": "USPS COLLECTION BOX - BLUE BOX", "address": {"city": "FRANKLIN", "state": "GA", "street": "291 PARK AVE", "postcode": "30217"}}},
{"geometry": {"type": "Point", "coordinates": [-85.1026942607, 33.1634586306]}, "type": "Feature", "properties": {"collection_times": [{"days": "Mon-Fri", "time": "4:00pm"}, {"days": "Sat", "time": "12:00pm"}, {"days": "Sun", "time": "Closed"}], "id": "3021700003", "name": "USPS COLLECTION BOX - PO LOBBY", "address": {"city": "FRANKLIN", "state": "GA", "street": "291 PARK AVE", "postcode": "30217"}}},
{"geometry": {"type": "Point", "coordinates": [-84.5738699548, 33.0925987137]}, "type": "Feature", "properties": {"collection_times": [{"days": "Mon-Fri", "time": "4:00pm"}, {"days": "Sat", "time": "9:30am"}, {"days": "Sun", "time": "Closed"}], "id": "3021800001", "name": "USPS COLLECTION BOX - BLUE BOX", "address": {"city": "GAY", "state": "GA", "street": "18685 HIGHWAY 85", "postcode": "30218"}}},
{"geometry": {"type": "Point", "coordinates": [-84.5738699548, 33.0925987137]}, "type": "Feature", "properties": {"collection_times": [{"days": "Mon-Fri", "time": "4:00pm"}, {"days": "Sat", "time": "9:30am"}, {"days": "Sun", "time": "Closed"}], "id": "3021800002", "name": "USPS COLLECTION BOX - PO LOBBY", "address": {"city": "GAY", "state": "GA", "street": "18685 HIGHWAY 85", "postcode": "30218"}}},
{"geometry": {"type": "Point", "coordinates": [-84.8383669214, 33.2330370194]}, "type": "Feature", "properties": {"collection_times": [{"days": "Mon-Fri", "time": "5:00pm"}, {"days": "Sat", "time": "12:00pm"}, {"days": "Sun", "time": "Closed"}], "id": "3022000001", "name": "USPS COLLECTION BOX - BLUE BOX", "address": {"city": "GRANTVILLE", "state": "GA", "street": "88 LAGRANGE ST", "postcode": "30220"}}},
{"geometry": {"type": "Point", "coordinates": [-84.725517806, 33.0239384449]}, "type": "Feature", "properties": {"collection_times": [{"days": "Mon-Fri", "time": "4:30pm"}, {"days": "Sat", "time": "12:00pm"}, {"days": "Sun", "time": "Closed"}], "id": "3022200001", "name": "USPS COLLECTION BOX - BLUE BOX", "address": {"city": "GREENVILLE", "state": "GA", "street": "405 LAGRANGE ST", "postcode": "30222"}}},
{"geometry": {"type": "Point", "coordinates": [-84.725517806, 33.0239384449]}, "type": "Feature", "properties": {"collection_times": [{"days": "Mon-Fri", "time": "4:30pm"}, {"days": "Sat", "time": "12:00pm"}, {"days": "Sun", "time": "Closed"}], "id": "3022200003", "name": "USPS COLLECTION BOX - PO LOBBY", "address": {"city": "GREENVILLE", "state": "GA", "street": "405 LAGRANGE ST", "postcode": "30222"}}},
{"geometry": {"type": "Point", "coordinates": [-84.263631663, 33.248528947]}, "type": "Feature", "properties": {"collection_times": [{"days": "Mon-Sat", "time": "2:00pm"}, {"days": "Sun", "time": "Closed"}], "id": "3022300001", "name": "USPS COLLECTION BOX - BLUE BOX", "address": {"city": "GRIFFIN", "state": "GA", "street": "100 E SOLOMON ST", "postcode": "30223"}}},
{"geometry": {"type": "Point", "coordinates": [-84.290475307, 33.269679672]}, "type": "Feature", "properties": {"collection_times": [{"days": "Mon-Sat", "time": "1:30pm"}, {"days": "Sun", "time": "Closed"}], "id": "3022300007", "name": "USPS COLLECTION BOX - BLUE BOX", "address": {"city": "GRIFFIN", "state": "GA", "street": "1401 N EXPRESSWAY", "postcode": "30223"}}},
{"geometry": {"type": "Point", "coordinates": [-84.2654871639, 33.2485512184]}, "type": "Feature", "properties": {"collection_times": [{"days": "Mon-Fri", "time": "5:00pm"}, {"days": "Sat", "time": "2:30pm"}, {"days": "Sun", "time": "Closed"}], "id": "3022300016", "name": "USPS COLLECTION BOX - BLUE BOX", "address": {"city": "GRIFFIN", "state": "GA", "street": "200 W SOLOMON ST", "postcode": "30223"}}},
{"geometry": {"type": "Point", "coordinates": [-84.292016842, 33.280339299]}, "type": "Feature", "properties": {"collection_times": [{"days": "Mon-Sat", "time": "1:30pm"}, {"days": "Sun", "time": "Closed"}], "id": "3022300023", "name": "USPS COLLECTION BOX - BLUE BOX", "address": {"city": "GRIFFIN", "state": "GA", "street": "1699 N EXPRESSWAY", "postcode": "30223"}}},
{"geometry": {"type": "Point", "coordinates": [-84.270626998, 33.221686587]}, "type": "Feature", "properties": {"collection_times": [{"days": "Mon-Sat", "time": "2:00pm"}, {"days": "Sun", "time": "Closed"}], "id": "3022300025", "name": "USPS COLLECTION BOX - BLUE BOX", "address": {"city": "GRIFFIN", "state": "GA", "street": "1104 ZEBULON RD", "postcode": "30223"}}},
{"geometry": {"type": "Point", "coordinates": [-84.287840701, 33.247352366]}, "type": "Feature", "properties": {"collection_times": [{"days": "Mon-Sat", "time": "1:45pm"}, {"days": "Sun", "time": "Closed"}], "id": "3022300029", "name": "USPS COLLECTION BOX - BLUE BOX", "address": {"city": "GRIFFIN", "state": "GA", "street": "1400 HIGHWAY 16 W", "postcode": "30223"}}},
{"geometry": {"type": "Point", "coordinates": [-84.2654871639, 33.2485512184]}, "type": "Feature", "properties": {"collection_times": [{"days": "Mon-Fri", "time": "5:00pm"}, {"days": "Sat", "time": "2:30pm"}, {"days": "Sun", "time": "Closed"}], "id": "3022300030", "name": "USPS COLLECTION BOX - BLUE BOX", "address": {"city": "GRIFFIN", "state": "GA", "street": "200 W SOLOMON ST", "postcode": "30223"}}},
{"geometry": {"type": "Point", "coordinates": [-84.2655125112, 33.2487377179]}, "type": "Feature", "properties": {"collection_times": [{"days": "Mon-Fri", "time": "5:00pm"}, {"days": "Sat", "time": "2:30pm"}, {"days": "Sun", "time": "Closed"}], "id": "3022300033", "name": "USPS COLLECTION BOX - BLUE BOX", "address": {"city": "GRIFFIN", "state": "GA", "street": "101 N 8TH ST", "postcode": "30223"}}},
{"geometry": {"type": "Point", "coordinates": [-84.263755808, 33.260719153]}, "type": "Feature", "properties": {"collection_times": [{"days": "Mon-Sat", "time": "2:00pm"}, {"days": "Sun", "time": "Closed"}], "id": "3022300034", "name": "USPS COLLECTION BOX - BLUE BOX", "address": {"city": "GRIFFIN", "state": "GA", "street": "100 W COLLEGE ST", "postcode": "30223"}}},
{"geometry": {"type": "Point", "coordinates": [-84.2655125112, 33.2487377179]}, "type": "Feature", "properties": {"collection_times": [{"days": "Mon-Fri", "time": "5:00pm"}, {"days": "Sat", "time": "2:30pm"}, {"days": "Sun", "time": "Closed"}], "id": "3022300037", "name": "USPS COLLECTION BOX - BLUE BOX", "address": {"city": "GRIFFIN", "state": "GA", "street": "101 N 8TH ST", "postcode": "30223"}}},
{"geometry": {"type": "Point", "coordinates": [-84.2655125112, 33.2487377179]}, "type": "Feature", "properties": {"collection_times": [{"days": "Mon-Fri", "time": "5:00pm"}, {"days": "Sat", "time": "2:30pm"}, {"days": "Sun", "time": "Closed"}], "id": "3022300038", "name": "USPS COLLECTION BOX - BLUE BOX", "address": {"city": "GRIFFIN", "state": "GA", "street": "101 N 8TH ST", "postcode": "30223"}}},
{"geometry": {"type": "Point", "coordinates": [-84.263631663, 33.248528947]}, "type": "Feature", "properties": {"collection_times": [{"days": "Mon-Sat", "time": "2:00pm"}, {"days": "Sun", "time": "Closed"}], "id": "3022300039", "name": "USPS COLLECTION BOX - BLUE BOX", "address": {"city": "GRIFFIN", "state": "GA", "street": "100 E SOLOMON ST", "postcode": "30223"}}},
{"geometry": {"type": "Point", "coordinates": [-84.262017994, 33.26082156]}, "type": "Feature", "properties": {"collection_times": [{"days": "Mon-Sat", "time": "2:00pm"}, {"days": "Sun", "time": "Closed"}], "id": "3022300042", "name": "USPS COLLECTION BOX - BLUE BOX", "address": {"city": "GRIFFIN", "state": "GA", "street": "816 S HILL ST", "postcode": "30223"}}},
{"geometry": {"type": "Point", "coordinates": [-84.2655125112, 33.2487377179]}, "type": "Feature", "properties": {"collection_times": [{"days": "Mon-Fri", "time": "5:00pm"}, {"days": "Sat", "time": "2:30pm"}, {"days": "Sun", "time": "Closed"}], "id": "3022300044", "name": "USPS COLLECTION BOX - PO LOBBY", "address": {"city": "GRIFFIN", "state": "GA", "street": "101 N 8TH ST", "postcode": "30223"}}},
{"geometry": {"type": "Point", "coordinates": [-84.303104543, 33.16773611]}, "type": "Feature", "properties": {"collection_times": [{"days": "Mon-Sat", "time": "2:00pm"}, {"days": "Sun", "time": "Closed"}], "id": "3022300045", "name": "USPS COLLECTION BOX - BLUE BOX", "address": {"city": "GRIFFIN", "state": "GA", "street": "1735 ZEBULON RD", "postcode": "30223"}}},
{"geometry": {"type": "Point", "coordinates": [-84.2826342749, 33.3850990936]}, "type": "Feature", "properties": {"collection_times": [{"days": "Mon-Sat", "time": "10:00am"}, {"days": "Sun", "time": "Closed"}], "id": "3022800001", "name": "USPS COLLECTION BOX - BLUE BOX", "address": {"city": "HAMPTON", "state": "GA", "street": "4 MCDONOUGH ST", "postcode": "30228"}}},
{"geometry": {"type": "Point", "coordinates": [-84.3015909802, 33.3816487217]}, "type": "Feature", "properties": {"collection_times": [{"days": "Mon-Fri", "time": "5:00pm"}, {"days": "Sat", "time": "3:00pm"}, {"days": "Sun", "time": "Closed"}], "id": "3022800003", "name": "USPS COLLECTION BOX - BLUE BOX", "address": {"city": "HAMPTON", "state": "GA", "street": "998 HIGHWAY 19 41", "postcode": "30228"}}},
{"geometry": {"type": "Point", "coordinates": [-84.3015909802, 33.3816487217]}, "type": "Feature", "properties": {"collection_times": [{"days": "Mon-Fri", "time": "5:00pm"}, {"days": "Sat", "time": "3:00pm"}, {"days": "Sun", "time": "Closed"}], "id": "3022800004", "name": "USPS COLLECTION BOX - BLUE BOX", "address": {"city": "HAMPTON", "state": "GA", "street": "998 HIGHWAY 19 41", "postcode": "30228"}}},
{"geometry": {"type": "Point", "coordinates": [-84.3257236318, 33.4503758073]}, "type": "Feature", "properties": {"collection_times": [{"days": "Mon-Sat", "time": "10:00am"}, {"days": "Sun", "time": "Closed"}], "id": "3022800007", "name": "USPS COLLECTION BOX - BLUE BOX", "address": {"city": "HAMPTON", "state": "GA", "street": "11155 TARA BLVD", "postcode": "30228"}}},
{"geometry": {"type": "Point", "coordinates": [-84.322684373, 33.4429397572]}, "type": "Feature", "properties": {"collection_times": [{"days": "Mon-Sat", "time": "10:00am"}, {"days": "Sun", "time": "Closed"}], "id": "3022800009", "name": "USPS COLLECTION BOX - BLUE BOX", "address": {"city": "HAMPTON", "state": "GA", "street": "11465 TARA BLVD", "postcode": "30228"}}},
{"geometry": {"type": "Point", "coordinates": [-84.3015909802, 33.3816487217]}, "type": "Feature", "properties": {"collection_times": [{"days": "Mon-Fri", "time": "5:00pm"}, {"days": "Sat", "time": "3:00pm"}, {"days": "Sun", "time": "Closed"}], "id": "3022800010", "name": "USPS COLLECTION BOX - PO LOBBY", "address": {"city": "HAMPTON", "state": "GA", "street": "998 HIGHWAY 19 41", "postcode": "30228"}}},
{"geometry": {"type": "Point", "coordinates": [-84.5718014456, 33.2258007728]}, "type": "Feature", "properties": {"collection_times": [{"days": "Mon-Fri", "time": "4:30pm"}, {"days": "Sat", "time": "9:00am"}, {"days": "Sun", "time": "Closed"}], "id": "3022900001", "name": "USPS COLLECTION BOX - BLUE BOX", "address": {"city": "HARALSON", "state": "GA", "street": "214 HIGHWAY 85", "postcode": "30229"}}},
{"geometry": {"type": "Point", "coordinates": [-84.9130805694, 33.1720716625]}, "type": "Feature", "properties": {"collection_times": [{"days": "Mon-Fri", "time": "5:00pm"}, {"days": "Sat", "time": "3:45pm"}, {"days": "Sun", "time": "Closed"}], "id": "3023000002", "name": "USPS COLLECTION BOX - BLUE BOX", "address": {"city": "HOGANSVILLE", "state": "GA", "street": "113 HIGH ST", "postcode": "30230"}}},
{"geometry": {"type": "Point", "coordinates": [-83.9621311575, 33.2951673483]}, "type": "Feature", "properties": {"collection_times": [{"days": "Mon-Fri", "time": "5:00pm"}, {"days": "Sat", "time": "3:45pm"}, {"days": "Sun", "time": "Closed"}], "id": "3023300006", "name": "USPS COLLECTION BOX - BLUE BOX", "address": {"city": "JACKSON", "state": "GA", "street": "461 E 2ND ST", "postcode": "30233"}}},
{"geometry": {"type": "Point", "coordinates": [-83.9621311575, 33.2951673483]}, "type": "Feature", "properties": {"collection_times": [{"days": "Mon-Fri", "time": "4:45pm"}, {"days": "Sat", "time": "3:45pm"}, {"days": "Sun", "time": "Closed"}], "id": "3023300010", "name": "USPS COLLECTION BOX - PO LOBBY", "address": {"city": "JACKSON", "state": "GA", "street": "461 E 2ND ST", "postcode": "30233"}}},
{"geometry": {"type": "Point", "coordinates": [-84.0079359823, 33.3261926227]}, "type": "Feature", "properties": {"collection_times": [{"days": "Mon-Fri", "time": "4:30pm"}, {"days": "Sat", "time": "11:30am"}, {"days": "Sun", "time": "Closed"}], "id": "3023400001", "name": "USPS COLLECTION BOX - BLUE BOX", "address": {"city": "JENKINSBURG", "state": "GA", "street": "2109 HIGHWAY 42 N", "postcode": "30234"}}},
{"geometry": {"type": "Point", "coordinates": [-84.3540719839, 33.5191579183]}, "type": "Feature", "properties": {"collection_times": [{"days": "Mon-Fri", "time": "1:00pm"}, {"days": "Sat-Sun", "time": "Closed"}], "id": "3023600002", "name": "USPS COLLECTION BOX - BLUE BOX", "address": {"city": "JONESBORO", "state": "GA", "street": "149 S MCDONOUGH ST", "postcode": "30236"}}},
{"geometry": {"type": "Point", "coordinates": [-84.3459521535, 33.5268223095]}, "type": "Feature", "properties": {"collection_times": [{"days": "Mon-Sat", "time": "1:00pm"}, {"days": "Sun", "time": "Closed"}], "id": "3023600016", "name": "USPS COLLECTION BOX - BLUE BOX", "address": {"city": "JONESBORO", "state": "GA", "street": "242 STOCKBRIDGE RD", "postcode": "30236"}}},
{"geometry": {"type": "Point", "coordinates": [-84.3632996079, 33.5212280571]}, "type": "Feature", "properties": {"collection_times": [{"days": "Mon-Fri", "time": "1:00pm"}, {"days": "Sat-Sun", "time": "Closed"}], "id": "3023600030", "name": "USPS COLLECTION BOX - BLUE BOX", "address": {"city": "JONESBORO", "state": "GA", "street": "8564 TARA BLVD", "postcode": "30236"}}},
{"geometry": {"type": "Point", "coordinates": [-84.3544339693, 33.5212470239]}, "type": "Feature", "properties": {"collection_times": [{"days": "Mon-Sat", "time": "1:00pm"}, {"days": "Sun", "time": "Closed"}], "id": "3023600044", "name": "USPS COLLECTION BOX - BLUE BOX", "address": {"city": "JONESBORO", "state": "GA", "street": "102 S MAIN ST", "postcode": "30236"}}},
{"geometry": {"type": "Point", "coordinates": [-84.3568755966, 33.5225624742]}, "type": "Feature", "properties": {"collection_times": [{"days": "Mon-Sat", "time": "1:00pm"}, {"days": "Sun", "time": "Closed"}], "id": "3023600046", "name": "USPS COLLECTION BOX - BLUE BOX", "address": {"city": "JONESBORO", "state": "GA", "street": "123 SMITH ST", "postcode": "30236"}}},
{"geometry": {"type": "Point", "coordinates": [-84.3641622067, 33.5549595305]}, "type": "Feature", "properties": {"collection_times": [{"days": "Mon-Sat", "time": "1:00pm"}, {"days": "Sun", "time": "Closed"}], "id": "3023600051", "name": "USPS COLLECTION BOX - BLUE BOX", "address": {"city": "JONESBORO", "state": "GA", "street": "865 BATTLECREEK RD", "postcode": "30236"}}},
{"geometry": {"type": "Point", "coordinates": [-84.3564864031, 33.5323727529]}, "type": "Feature", "properties": {"collection_times": [{"days": "Mon-Fri", "time": "5:15pm"}, {"days": "Sat", "time": "2:00pm"}, {"days": "Sun", "time": "Closed"}], "id": "3023600052", "name": "USPS COLLECTION BOX - PO LOBBY", "address": {"city": "JONESBORO", "state": "GA", "street": "255 N MAIN ST", "postcode": "30236"}}},
{"geometry": {"type": "Point", "coordinates": [-84.3564864031, 33.5323727529]}, "type": "Feature", "properties": {"collection_times": [{"days": "Mon-Fri", "time": "5:15pm"}, {"days": "Sat", "time": "2:00pm"}, {"days": "Sun", "time": "Closed"}], "id": "3023600054", "name": "USPS COLLECTION BOX - BLUE BOX", "address": {"city": "JONESBORO", "state": "GA", "street": "255 N MAIN ST", "postcode": "30236"}}},
{"geometry": {"type": "Point", "coordinates": [-84.3564864031, 33.5323727529]}, "type": "Feature", "properties": {"collection_times": [{"days": "Mon-Fri", "time": "5:15pm"}, {"days": "Sat", "time": "2:00pm"}, {"days": "Sun", "time": "Closed"}], "id": "3023600055", "name": "USPS COLLECTION BOX - BLUE BOX", "address": {"city": "JONESBORO", "state": "GA", "street": "255 N MAIN ST", "postcode": "30236"}}},
{"geometry": {"type": "Point", "coordinates": [-84.3564864031, 33.5323727529]}, "type": "Feature", "properties": {"collection_times": [{"days": "Mon-Fri", "time": "5:15pm"}, {"days": "Sat", "time": "2:00pm"}, {"days": "Sun", "time": "Closed"}], "id": "3023600056", "name": "USPS COLLECTION BOX - BLUE BOX", "address": {"city": "JONESBORO", "state": "GA", "street": "255 N MAIN ST", "postcode": "30236"}}},
{"geometry": {"type": "Point", "coordinates": [-84.3564864031, 33.5323727529]}, "type": "Feature", "properties": {"collection_times": [{"days": "Mon-Fri", "time": "5:00pm"}, {"days": "Sat", "time": "2:00pm"}, {"days": "Sun", "time": "Closed"}], "id": "3023600058", "name": "USPS COLLECTION BOX - APC", "address": {"city": "JONESBORO", "state": "GA", "street": "255 N MAIN ST", "postcode": "30236"}}},
{"geometry": {"type": "Point", "coordinates": [-85.0309691092, 33.0425683573]}, "type": "Feature", "properties": {"collection_times": [{"days": "Mon-Fri", "time": "4:30pm"}, {"days": "Sat", "time": "1:00pm"}, {"days": "Sun", "time": "Closed"}], "id": "3024000006", "name": "USPS COLLECTION BOX - BLUE BOX", "address": {"city": "LA GRANGE", "state": "GA", "street": "306 RIDLEY AVE", "postcode": "30240"}}},
{"geometry": {"type": "Point", "coordinates": [-85.0309691092, 33.0425683573]}, "type": "Feature", "properties": {"collection_times": [{"days": "Mon-Fri", "time": "4:30pm"}, {"days": "Sat", "time": "1:00pm"}, {"days": "Sun", "time": "Closed"}], "id": "3024000007", "name": "USPS COLLECTION BOX - BLUE BOX", "address": {"city": "LA GRANGE", "state": "GA", "street": "306 RIDLEY AVE", "postcode": "30240"}}},
{"geometry": {"type": "Point", "coordinates": [-85.0766470941, 33.0337726481]}, "type": "Feature", "properties": {"collection_times": [{"days": "Mon-Sat", "time": "1:00pm"}, {"days": "Sun", "time": "Closed"}], "id": "3024000016", "name": "USPS COLLECTION BOX - BLUE BOX", "address": {"city": "LA GRANGE", "state": "GA", "street": "1861 ROANOKE RD", "postcode": "30240"}}},
{"geometry": {"type": "Point", "coordinates": [-85.0614741236, 33.0301621226]}, "type": "Feature", "properties": {"collection_times": [{"days": "Mon-Sat", "time": "1:00pm"}, {"days": "Sun", "time": "Closed"}], "id": "3024000017", "name": "USPS COLLECTION BOX - BLUE BOX", "address": {"city": "LA GRANGE", "state": "GA", "street": "1514 VERNON RD", "postcode": "30240"}}},
{"geometry": {"type": "Point", "coordinates": [-85.0356124896, 33.0342225113]}, "type": "Feature", "properties": {"collection_times": [{"days": "Mon-Fri", "time": "1:30pm"}, {"days": "Sat", "time": "1:00pm"}, {"days": "Sun", "time": "Closed"}], "id": "3024000025", "name": "USPS COLLECTION BOX - BLUE BOX", "address": {"city": "LA GRANGE", "state": "GA", "street": "505 S GREENWOOD ST", "postcode": "30240"}}},
{"geometry": {"type": "Point", "coordinates": [-85.0286978119, 33.0573707286]}, "type": "Feature", "properties": {"collection_times": [{"days": "Mon-Fri", "time": "12:30pm"}, {"days": "Sat", "time": "1:00pm"}, {"days": "Sun", "time": "Closed"}], "id": "3024000030", "name": "USPS COLLECTION BOX - BLUE BOX", "address": {"city": "LA GRANGE", "state": "GA", "street": "803 NEW FRANKLIN RD", "postcode": "30240"}}},
{"geometry": {"type": "Point", "coordinates": [-85.0319993992, 33.0422105785]}, "type": "Feature", "properties": {"collection_times": [{"days": "Mon-Fri", "time": "4:30pm"}, {"days": "Sat", "time": "1:00pm"}, {"days": "Sun", "time": "Closed"}], "id": "3024000053", "name": "USPS COLLECTION BOX - BLUE BOX", "address": {"city": "LA GRANGE", "state": "GA", "street": "309 CHURCH ST", "postcode": "30240"}}},
{"geometry": {"type": "Point", "coordinates": [-85.0766470941, 33.0337726481]}, "type": "Feature", "properties": {"collection_times": [{"days": "Mon-Fri", "time": "4:00pm"}, {"days": "Sat", "time": "1:00pm"}, {"days": "Sun", "time": "Closed"}], "id": "3024000057", "name": "USPS COLLECTION BOX - BLUE BOX", "address": {"city": "LA GRANGE", "state": "GA", "street": "1861 ROANOKE RD", "postcode": "30240"}}},
{"geometry": {"type": "Point", "coordinates": [-85.0479764779, 33.0271508609]}, "type": "Feature", "properties": {"collection_times": [{"days": "Mon-Fri", "time": "1:30pm"}, {"days": "Sat", "time": "1:00pm"}, {"days": "Sun", "time": "Closed"}], "id": "3024000061", "name": "USPS COLLECTION BOX - BLUE BOX", "address": {"city": "LA GRANGE", "state": "GA", "street": "614 LINCOLN ST", "postcode": "30240"}}},
{"geometry": {"type": "Point", "coordinates": [-85.0766470941, 33.0337726481]}, "type": "Feature", "properties": {"collection_times": [{"days": "Mon-Fri", "time": "4:00pm"}, {"days": "Sat", "time": "1:00pm"}, {"days": "Sun", "time": "Closed"}], "id": "3024000063", "name": "USPS COLLECTION BOX - BLUE BOX", "address": {"city": "LA GRANGE", "state": "GA", "street": "1861 ROANOKE RD", "postcode": "30240"}}},
{"geometry": {"type": "Point", "coordinates": [-85.0073765876, 33.0400891224]}, "type": "Feature", "properties": {"collection_times": [{"days": "Mon-Fri", "time": "5:15pm"}, {"days": "Sat", "time": "4:15pm"}, {"days": "Sun", "time": "Closed"}], "id": "3024100000", "name": "USPS COLLECTION BOX - BLUE BOX", "address": {"city": "LA GRANGE", "state": "GA", "street": "950 LAFAYETTE PKWY", "postcode": "30241"}}},
{"geometry": {"type": "Point", "coordinates": [-85.0073765876, 33.0400891224]}, "type": "Feature", "properties": {"collection_times": [{"days": "Mon-Fri", "time": "5:15pm"}, {"days": "Sat", "time": "4:15pm"}, {"days": "Sun", "time": "Closed"}], "id": "3024100002", "name": "USPS COLLECTION BOX - BLUE BOX", "address": {"city": "LA GRANGE", "state": "GA", "street": "950 LAFAYETTE PKWY", "postcode": "30241"}}},
{"geometry": {"type": "Point", "coordinates": [-85.0073765876, 33.0400891224]}, "type": "Feature", "properties": {"collection_times": [{"days": "Mon-Fri", "time": "5:15pm"}, {"days": "Sat", "time": "4:15pm"}, {"days": "Sun", "time": "Closed"}], "id": "3024100003", "name": "USPS COLLECTION BOX - BLUE BOX", "address": {"city": "LA GRANGE", "state": "GA", "street": "950 LAFAYETTE PKWY", "postcode": "30241"}}},
{"geometry": {"type": "Point", "coordinates": [-85.0260149099, 33.0494194351]}, "type": "Feature", "properties": {"collection_times": [{"days": "Mon-Fri", "time": "12:30pm"}, {"days": "Sat", "time": "1:00pm"}, {"days": "Sun", "time": "Closed"}], "id": "3024100005", "name": "USPS COLLECTION BOX - BLUE BOX", "address": {"city": "LA GRANGE", "state": "GA", "street": "203 COMMERCE AVE", "postcode": "30241"}}},
{"geometry": {"type": "Point", "coordinates": [-84.9882472427, 33.0412996756]}, "type": "Feature", "properties": {"collection_times": [{"days": "Mon-Fri", "time": "12:30pm"}, {"days": "Sat", "time": "1:00pm"}, {"days": "Sun", "time": "Closed"}], "id": "3024100009", "name": "USPS COLLECTION BOX - BLUE BOX", "address": {"city": "LA GRANGE", "state": "GA", "street": "1501 LAFAYETTE PKWY", "postcode": "30241"}}},
{"geometry": {"type": "Point", "coordinates": [-84.1036642549, 33.3421072899]}, "type": "Feature", "properties": {"collection_times": [{"days": "Mon-Fri", "time": "4:30pm"}, {"days": "Sat", "time": "12:00pm"}, {"days": "Sun", "time": "Closed"}], "id": "3024800005", "name": "USPS COLLECTION BOX - BLUE BOX", "address": {"city": "LOCUST GROVE", "state": "GA", "street": "4050 HIGHWAY 42", "postcode": "30248"}}},
{"geometry": {"type": "Point", "coordinates": [-84.1036642549, 33.3421072899]}, "type": "Feature", "properties": {"collection_times": [{"days": "Mon-Fri", "time": "4:30pm"}, {"days": "Sat", "time": "12:00pm"}, {"days": "Sun", "time": "Closed"}], "id": "3024800006", "name": "USPS COLLECTION BOX - BLUE BOX", "address": {"city": "LOCUST GROVE", "state": "GA", "street": "4050 HIGHWAY 42", "postcode": "30248"}}},
{"geometry": {"type": "Point", "coordinates": [-84.1258240865, 33.3758179506]}, "type": "Feature", "properties": {"collection_times": [{"days": "Mon-Sat", "time": "10:00am"}, {"days": "Sun", "time": "Closed"}], "id": "3024800009", "name": "USPS COLLECTION BOX - BLUE BOX", "address": {"city": "LOCUST GROVE", "state": "GA", "street": "101 PARK 42 DR", "postcode": "30248"}}},
{"geometry": {"type": "Point", "coordinates": [-84.1180795608, 33.3538445036]}, "type": "Feature", "properties": {"collection_times": [{"days": "Mon-Sat", "time": "9:00am"}, {"days": "Sun", "time": "Closed"}], "id": "3024800010", "name": "USPS COLLECTION BOX - BLUE BOX", "address": {"city": "LOCUST GROVE", "state": "GA", "street": "4930 BILL GARDNER PKWY", "postcode": "30248"}}},
{"geometry": {"type": "Point", "coordinates": [-84.1036642549, 33.3421072899]}, "type": "Feature", "properties": {"collection_times": [{"days": "Mon-Fri", "time": "4:30pm"}, {"days": "Sat", "time": "12:00pm"}, {"days": "Sun", "time": "Closed"}], "id": "3024800011", "name": "USPS COLLECTION BOX - PO LOBBY", "address": {"city": "LOCUST GROVE", "state": "GA", "street": "4050 HIGHWAY 42", "postcode": "30248"}}},
{"geometry": {"type": "Point", "coordinates": [-84.3176214435, 33.4330632162]}, "type": "Feature", "properties": {"collection_times": [{"days": "Mon-Fri", "time": "4:30pm"}, {"days": "Sat", "time": "11:30am"}, {"days": "Sun", "time": "Closed"}], "id": "3025000001", "name": "USPS COLLECTION BOX - BLUE BOX", "address": {"city": "LOVEJOY", "state": "GA", "street": "2261 TALMADGE RD", "postcode": "30250"}}},
{"geometry": {"type": "Point", "coordinates": [-84.3176214435, 33.4330632162]}, "type": "Feature", "properties": {"collection_times": [{"days": "Mon-Fri", "time": "4:30pm"}, {"days": "Sat", "time": "11:30am"}, {"days": "Sun", "time": "Closed"}], "id": "3025000002", "name": "USPS COLLECTION BOX - PO LOBBY", "address": {"city": "LOVEJOY", "state": "GA", "street": "2261 TALMADGE RD", "postcode": "30250"}}},
{"geometry": {"type": "Point", "coordinates": [-84.7457786432, 33.2147587642]}, "type": "Feature", "properties": {"collection_times": [{"days": "Mon-Fri", "time": "4:30pm"}, {"days": "Sat", "time": "12:00pm"}, {"days": "Sun", "time": "Closed"}], "id": "3025100001", "name": "USPS COLLECTION BOX - BLUE BOX", "address": {"city": "LUTHERSVILLE", "state": "GA", "street": "36 N MAIN ST", "postcode": "30251"}}},
{"geometry": {"type": "Point", "coordinates": [-84.1387889, 33.447904369]}, "type": "Feature", "properties": {"collection_times": [{"days": "Mon-Sat", "time": "1:00pm"}, {"days": "Sun", "time": "Closed"}], "id": "3025300010", "name": "USPS COLLECTION BOX - BLUE BOX", "address": {"city": "MCDONOUGH", "state": "GA", "street": "12 N ZACK HINTON PKWY", "postcode": "30253"}}},
{"geometry": {"type": "Point", "coordinates": [-84.168149355, 33.45395742]}, "type": "Feature", "properties": {"collection_times": [{"days": "Mon-Sat", "time": "1:00pm"}, {"days": "Sun", "time": "Closed"}], "id": "3025300012", "name": "USPS COLLECTION BOX - BLUE BOX", "address": {"city": "MCDONOUGH", "state": "GA", "street": "301 JONESBORO RD", "postcode": "30253"}}},
{"geometry": {"type": "Point", "coordinates": [-84.1376823692, 33.4407153073]}, "type": "Feature", "properties": {"collection_times": [{"days": "Mon-Fri", "time": "5:00pm"}, {"days": "Sat", "time": "3:00pm"}, {"days": "Sun", "time": "Closed"}], "id": "3025300020", "name": "USPS COLLECTION BOX - BLUE BOX", "address": {"city": "MCDONOUGH", "state": "GA", "street": "100 POSTMASTER DR", "postcode": "30253"}}},
{"geometry": {"type": "Point", "coordinates": [-84.1376823692, 33.4407153073]}, "type": "Feature", "properties": {"collection_times": [{"days": "Mon-Fri", "time": "5:00pm"}, {"days": "Sat", "time": "3:00pm"}, {"days": "Sun", "time": "Closed"}], "id": "3025300021", "name": "USPS COLLECTION BOX - BLUE BOX", "address": {"city": "MCDONOUGH", "state": "GA", "street": "100 POSTMASTER DR", "postcode": "30253"}}},
{"geometry": {"type": "Point", "coordinates": [-84.2042551887, 33.411837436]}, "type": "Feature", "properties": {"collection_times": [{"days": "Mon-Sat", "time": "1:00pm"}, {"days": "Sun", "time": "Closed"}], "id": "3025300026", "name": "USPS COLLECTION BOX - BLUE BOX", "address": {"city": "MCDONOUGH", "state": "GA", "street": "2164 HIGHWAY 20 W", "postcode": "30253"}}},
{"geometry": {"type": "Point", "coordinates": [-84.210752688, 33.429796441]}, "type": "Feature", "properties": {"collection_times": [{"days": "Mon-Sat", "time": "1:00pm"}, {"days": "Sun", "time": "Closed"}], "id": "3025300027", "name": "USPS COLLECTION BOX - BLUE BOX", "address": {"city": "MCDONOUGH", "state": "GA", "street": "920 HIGHWAY 81 E", "postcode": "30253"}}},
{"geometry": {"type": "Point", "coordinates": [-84.2199835852, 33.4644626276]}, "type": "Feature", "properties": {"collection_times": [{"days": "Mon-Sat", "time": "1:00pm"}, {"days": "Sun", "time": "Closed"}], "id": "3025300028", "name": "USPS COLLECTION BOX - BLUE BOX", "address": {"city": "MCDONOUGH", "state": "GA", "street": "1900 JONESBORO RD", "postcode": "30253"}}},
{"geometry": {"type": "Point", "coordinates": [-84.1815527973, 33.4335862157]}, "type": "Feature", "properties": {"collection_times": [{"days": "Mon-Sat", "time": "1:00pm"}, {"days": "Sun", "time": "Closed"}], "id": "3025300029", "name": "USPS COLLECTION BOX - BLUE BOX", "address": {"city": "MCDONOUGH", "state": "GA", "street": "135 WILLOW LN", "postcode": "30253"}}},
{"geometry": {"type": "Point", "coordinates": [-84.1376823692, 33.4407153073]}, "type": "Feature", "properties": {"collection_times": [{"days": "Mon-Fri", "time": "5:00pm"}, {"days": "Sat", "time": "3:00pm"}, {"days": "Sun", "time": "Closed"}], "id": "3025300031", "name": "USPS COLLECTION BOX - APC", "address": {"city": "MCDONOUGH", "state": "GA", "street": "100 POSTMASTER DR", "postcode": "30253"}}},
{"geometry": {"type": "Point", "coordinates": [-84.1838953257, 33.4474692923]}, "type": "Feature", "properties": {"collection_times": [{"days": "Mon-Sat", "time": "1:00pm"}, {"days": "Sun", "time": "Closed"}], "id": "3025300032", "name": "USPS COLLECTION BOX - BLUE BOX", "address": {"city": "MCDONOUGH", "state": "GA", "street": "1200 PENNSYLVANIA AVE", "postcode": "30253"}}},
{"geometry": {"type": "Point", "coordinates": [-84.143614535, 33.507619984]}, "type": "Feature", "properties": {"collection_times": [{"days": "Mon-Sat", "time": "1:00pm"}, {"days": "Sun", "time": "Closed"}], "id": "3025300035", "name": "USPS COLLECTION BOX - BLUE BOX", "address": {"city": "MCDONOUGH", "state": "GA", "street": "5916 EAST LAKE PKWY", "postcode": "30253"}}},
{"geometry": {"type": "Point", "coordinates": [-84.3082868637, 33.0488034247]}, "type": "Feature", "properties": {"collection_times": [{"days": "Mon-Fri", "time": "3:30pm"}, {"days": "Sat", "time": "10:00am"}, {"days": "Sun", "time": "Closed"}], "id": "3025600002", "name": "USPS COLLECTION BOX - BLUE BOX", "address": {"city": "MEANSVILLE", "state": "GA", "street": "12570 GA HWY 109", "postcode": "30256"}}},
{"geometry": {"type": "Point", "coordinates": [-84.3082868637, 33.0488034247]}, "type": "Feature", "properties": {"collection_times": [{"days": "Mon-Fri", "time": "3:30pm"}, {"days": "Sat", "time": "10:00am"}, {"days": "Sun", "time": "Closed"}], "id": "3025600003", "name": "USPS COLLECTION BOX - PO LOBBY", "address": {"city": "MEANSVILLE", "state": "GA", "street": "12570 GA HWY 109", "postcode": "30256"}}},
{"geometry": {"type": "Point", "coordinates": [-84.1966753579, 33.1166784048]}, "type": "Feature", "properties": {"collection_times": [{"days": "Mon-Fri", "time": "4:00pm"}, {"days": "Sat", "time": "12:00pm"}, {"days": "Sun", "time": "Closed"}], "id": "3025700001", "name": "USPS COLLECTION BOX - BLUE BOX", "address": {"city": "MILNER", "state": "GA", "street": "104 GREENWOOD ST", "postcode": "30257"}}},
{"geometry": {"type": "Point", "coordinates": [-84.1966753579, 33.1166784048]}, "type": "Feature", "properties": {"collection_times": [{"days": "Mon-Fri", "time": "4:00pm"}, {"days": "Sat", "time": "12:00pm"}, {"days": "Sun", "time": "Closed"}], "id": "3025700002", "name": "USPS COLLECTION BOX - PO LOBBY", "address": {"city": "MILNER", "state": "GA", "street": "104 GREENWOOD ST", "postcode": "30257"}}},
{"geometry": {"type": "Point", "coordinates": [-84.4974444141, 33.0209312742]}, "type": "Feature", "properties": {"collection_times": [{"days": "Mon-Fri", "time": "3:00pm"}, {"days": "Sat", "time": "9:00am"}, {"days": "Sun", "time": "Closed"}], "id": "3025800001", "name": "USPS COLLECTION BOX - BLUE BOX", "address": {"city": "MOLENA", "state": "GA", "street": "2696 MAIN ST", "postcode": "30258"}}},
{"geometry": {"type": "Point", "coordinates": [-84.7673682985, 33.2822616661]}, "type": "Feature", "properties": {"collection_times": [{"days": "Mon-Fri", "time": "4:30pm"}, {"days": "Sat", "time": "11:30am"}, {"days": "Sun", "time": "Closed"}], "id": "3025900001", "name": "USPS COLLECTION BOX - BLUE BOX", "address": {"city": "MORELAND", "state": "GA", "street": "100 BALL ST", "postcode": "30259"}}},
{"geometry": {"type": "Point", "coordinates": [-84.7673682985, 33.2822616661]}, "type": "Feature", "properties": {"collection_times": [{"days": "Mon-Fri", "time": "4:30pm"}, {"days": "Sat", "time": "11:30am"}, {"days": "Sun", "time": "Closed"}], "id": "3025900002", "name": "USPS COLLECTION BOX - PO LOBBY", "address": {"city": "MORELAND", "state": "GA", "street": "100 BALL ST", "postcode": "30259"}}},
{"geometry": {"type": "Point", "coordinates": [-84.338384765, 33.5830980334]}, "type": "Feature", "properties": {"collection_times": [{"days": "Mon-Fri", "time": "5:00pm"}, {"days": "Sat", "time": "3:00pm"}, {"days": "Sun", "time": "Closed"}], "id": "3026000010", "name": "USPS COLLECTION BOX - BLUE BOX", "address": {"city": "MORROW", "state": "GA", "street": "1600 LAKE HARBIN RD", "postcode": "30260"}}},
{"geometry": {"type": "Point", "coordinates": [-84.3322447442, 33.5708957151]}, "type": "Feature", "properties": {"collection_times": [{"days": "Mon-Fri", "time": "2:30pm"}, {"days": "Sat", "time": "9:00am"}, {"days": "Sun", "time": "Closed"}], "id": "3026000021", "name": "USPS COLLECTION BOX - BLUE BOX", "address": {"city": "MORROW", "state": "GA", "street": "3000 CORPORATE CENTER DR", "postcode": "30260"}}},
{"geometry": {"type": "Point", "coordinates": [-84.338384765, 33.5830980334]}, "type": "Feature", "properties": {"collection_times": [{"days": "Mon-Fri", "time": "5:00pm"}, {"days": "Sat", "time": "3:00pm"}, {"days": "Sun", "time": "Closed"}], "id": "3026000023", "name": "USPS COLLECTION BOX - BLUE BOX", "address": {"city": "MORROW", "state": "GA", "street": "1600 LAKE HARBIN RD", "postcode": "30260"}}},
{"geometry": {"type": "Point", "coordinates": [-84.3452376463, 33.5610606908]}, "type": "Feature", "properties": {"collection_times": [{"days": "Mon-Fri", "time": "5:00pm"}, {"days": "Sat", "time": "9:00am"}, {"days": "Sun", "time": "Closed"}], "id": "3026000027", "name": "USPS COLLECTION BOX - BLUE BOX", "address": {"city": "MORROW", "state": "GA", "street": "7147 JONESBORO RD", "postcode": "30260"}}},
{"geometry": {"type": "Point", "coordinates": [-84.3457995518, 33.5589396454]}, "type": "Feature", "properties": {"collection_times": [{"days": "Mon-Fri", "time": "2:30pm"}, {"days": "Sat", "time": "9:00am"}, {"days": "Sun", "time": "Closed"}], "id": "3026000028", "name": "USPS COLLECTION BOX - BLUE BOX", "address": {"city": "MORROW", "state": "GA", "street": "7179 JONESBORO RD", "postcode": "30260"}}},
{"geometry": {"type": "Point", "coordinates": [-84.324215364, 33.562751897]}, "type": "Feature", "properties": {"collection_times": [{"days": "Mon-Sat", "time": "1:30pm"}, {"days": "Sun", "time": "Closed"}], "id": "3026000030", "name": "USPS COLLECTION BOX - BLUE BOX", "address": {"city": "MORROW", "state": "GA", "street": "2045 MOUNT ZION RD", "postcode": "30260"}}},
{"geometry": {"type": "Point", "coordinates": [-84.338384765, 33.5830980334]}, "type": "Feature", "properties": {"collection_times": [{"days": "Mon-Fri", "time": "5:00pm"}, {"days": "Sat", "time": "3:00pm"}, {"days": "Sun", "time": "Closed"}], "id": "3026000032", "name": "USPS COLLECTION BOX - PO LOBBY", "address": {"city": "MORROW", "state": "GA", "street": "1600 LAKE HARBIN RD", "postcode": "30260"}}},
{"geometry": {"type": "Point", "coordinates": [-84.8004835124, 33.3752573484]}, "type": "Feature", "properties": {"collection_times": [{"days": "Mon-Sat", "time": "12:30pm"}, {"days": "Sun", "time": "Closed"}], "id": "3026300025", "name": "USPS COLLECTION BOX - BLUE BOX", "address": {"city": "NEWNAN", "state": "GA", "street": "2 JACKSON ST", "postcode": "30263"}}},
{"geometry": {"type": "Point", "coordinates": [-84.7996282183, 33.3734935148]}, "type": "Feature", "properties": {"collection_times": [{"days": "Mon-Fri", "time": "5:00pm"}, {"days": "Sat", "time": "12:30pm"}, {"days": "Sun", "time": "Closed"}], "id": "3026300031", "name": "USPS COLLECTION BOX - BLUE BOX", "address": {"city": "NEWNAN", "state": "GA", "street": "18 GREENVILLE ST", "postcode": "30263"}}},
{"geometry": {"type": "Point", "coordinates": [-84.9235498191, 33.3490037377]}, "type": "Feature", "properties": {"collection_times": [{"days": "Mon-Sat", "time": "12:30pm"}, {"days": "Sun", "time": "Closed"}], "id": "3026300038", "name": "USPS COLLECTION BOX - BLUE BOX", "address": {"city": "NEWNAN", "state": "GA", "street": "3150 HIGHWAY 34 W", "postcode": "30263"}}},
{"geometry": {"type": "Point", "coordinates": [-84.7996282183, 33.3734935148]}, "type": "Feature", "properties": {"collection_times": [{"days": "Mon-Fri", "time": "5:00pm"}, {"days": "Sat", "time": "12:30pm"}, {"days": "Sun", "time": "Closed"}], "id": "3026300040", "name": "USPS COLLECTION BOX - PO LOBBY", "address": {"city": "NEWNAN", "state": "GA", "street": "18 GREENVILLE ST", "postcode": "30263"}}},
{"geometry": {"type": "Point", "coordinates": [-84.7666857557, 33.396248802]}, "type": "Feature", "properties": {"collection_times": [{"days": "Mon-Fri", "time": "5:00pm"}, {"days": "Sat", "time": "4:00pm"}, {"days": "Sun", "time": "Closed"}], "id": "3026300042", "name": "USPS COLLECTION BOX - BLUE BOX", "address": {"city": "NEWNAN", "state": "GA", "street": "60 POSTAL PKWY", "postcode": "30263"}}},
{"geometry": {"type": "Point", "coordinates": [-84.7666857557, 33.396248802]}, "type": "Feature", "properties": {"collection_times": [{"days": "Mon-Fri", "time": "5:00pm"}, {"days": "Sat", "time": "4:00pm"}, {"days": "Sun", "time": "Closed"}], "id": "3026300045", "name": "USPS COLLECTION BOX - PO LOBBY", "address": {"city": "NEWNAN", "state": "GA", "street": "60 POSTAL PKWY", "postcode": "30263"}}},
{"geometry": {"type": "Point", "coordinates": [-84.9235498191, 33.3490037377]}, "type": "Feature", "properties": {"collection_times": [{"days": "Mon-Sat", "time": "12:30pm"}, {"days": "Sun", "time": "Closed"}], "id": "3026300047", "name": "USPS COLLECTION BOX - BLUE BOX", "address": {"city": "NEWNAN", "state": "GA", "street": "3150 HIGHWAY 34 W", "postcode": "30263"}}},
{"geometry": {"type": "Point", "coordinates": [-84.7666857557, 33.396248802]}, "type": "Feature", "properties": {"collection_times": [{"days": "Mon-Fri", "time": "5:00pm"}, {"days": "Sat", "time": "4:00pm"}, {"days": "Sun", "time": "Closed"}], "id": "3026300049", "name": "USPS COLLECTION BOX - APC", "address": {"city": "NEWNAN", "state": "GA", "street": "60 POSTAL PKWY", "postcode": "30263"}}},
{"geometry": {"type": "Point", "coordinates": [-84.2129631663, 33.188642045]}, "type": "Feature", "properties": {"collection_times": [{"days": "Mon-Fri", "time": "4:00pm"}, {"days": "Sat", "time": "12:00pm"}, {"days": "Sun", "time": "Closed"}], "id": "3026600001", "name": "USPS COLLECTION BOX - BLUE BOX", "address": {"city": "ORCHARD HILL", "state": "GA", "street": "2201 S MCDONOUGH RD", "postcode": "30266"}}},
{"geometry": {"type": "Point", "coordinates": [-84.6586117569, 33.5298459526]}, "type": "Feature", "properties": {"collection_times": [{"days": "Mon-Fri", "time": "5:00pm"}, {"days": "Sat", "time": "12:00pm"}, {"days": "Sun", "time": "Closed"}], "id": "3026800001", "name": "USPS COLLECTION BOX - BLUE BOX", "address": {"city": "PALMETTO", "state": "GA", "street": "502 WALNUT WAY", "postcode": "30268"}}},
{"geometry": {"type": "Point", "coordinates": [-84.6586117569, 33.5298459526]}, "type": "Feature", "properties": {"collection_times": [{"days": "Mon-Fri", "time": "5:00pm"}, {"days": "Sat", "time": "12:00pm"}, {"days": "Sun", "time": "Closed"}], "id": "3026800002", "name": "USPS COLLECTION BOX - BLUE BOX", "address": {"city": "PALMETTO", "state": "GA", "street": "502 WALNUT WAY", "postcode": "30268"}}},
{"geometry": {"type": "Point", "coordinates": [-84.6586117569, 33.5298459526]}, "type": "Feature", "properties": {"collection_times": [{"days": "Mon-Fri", "time": "5:00pm"}, {"days": "Sat", "time": "12:00pm"}, {"days": "Sun", "time": "Closed"}], "id": "3026800005", "name": "USPS COLLECTION BOX - PO LOBBY", "address": {"city": "PALMETTO", "state": "GA", "street": "502 WALNUT WAY", "postcode": "30268"}}},
{"geometry": {"type": "Point", "coordinates": [-84.5898255098, 33.3998796529]}, "type": "Feature", "properties": {"collection_times": [{"days": "Mon-Sat", "time": "1:00pm"}, {"days": "Sun", "time": "Closed"}], "id": "3026900003", "name": "USPS COLLECTION BOX - BLUE BOX", "address": {"city": "PEACHTREE CITY", "state": "GA", "street": "200 WESTPARK DR", "postcode": "30269"}}},
{"geometry": {"type": "Point", "coordinates": [-84.5692068787, 33.4078722021]}, "type": "Feature", "properties": {"collection_times": [{"days": "Mon-Sat", "time": "1:00pm"}, {"days": "Sun", "time": "Closed"}], "id": "3026900006", "name": "USPS COLLECTION BOX - BLUE BOX", "address": {"city": "PEACHTREE CITY", "state": "GA", "street": "100 N PEACHTREE PKWY", "postcode": "30269"}}},
{"geometry": {"type": "Point", "coordinates": [-84.5622832991, 33.3762069116]}, "type": "Feature", "properties": {"collection_times": [{"days": "Mon-Fri", "time": "1:00pm"}, {"days": "Sat", "time": "12:00pm"}, {"days": "Sun", "time": "Closed"}], "id": "3026900007", "name": "USPS COLLECTION BOX - BLUE BOX", "address": {"city": "PEACHTREE CITY", "state": "GA", "street": "540 CROSSTOWN DR", "postcode": "30269"}}},
{"geometry": {"type": "Point", "coordinates": [-84.5890679598, 33.3959674262]}, "type": "Feature", "properties": {"collection_times": [{"days": "Mon-Fri", "time": "5:00pm"}, {"days": "Sat", "time": "1:00pm"}, {"days": "Sun", "time": "Closed"}], "id": "3026900008", "name": "USPS COLLECTION BOX - BLUE BOX", "address": {"city": "PEACHTREE CITY", "state": "GA", "street": "151 HIGHWAY 74 S", "postcode": "30269"}}},
{"geometry": {"type": "Point", "coordinates": [-84.5708233913, 33.396002776]}, "type": "Feature", "properties": {"collection_times": [{"days": "Mon-Sat", "time": "1:00pm"}, {"days": "Sun", "time": "Closed"}], "id": "3026900017", "name": "USPS COLLECTION BOX - BLUE BOX", "address": {"city": "PEACHTREE CITY", "state": "GA", "street": "100 PEACHTREE EAST", "postcode": "30269"}}},
{"geometry": {"type": "Point", "coordinates": [-84.5890679598, 33.3959674262]}, "type": "Feature", "properties": {"collection_times": [{"days": "Mon-Fri", "time": "5:00pm"}, {"days": "Sat", "time": "1:00pm"}, {"days": "Sun", "time": "Closed"}], "id": "3026900018", "name": "USPS COLLECTION BOX - PO LOBBY", "address": {"city": "PEACHTREE CITY", "state": "GA", "street": "151 HIGHWAY 74 S", "postcode": "30269"}}},
{"geometry": {"type": "Point", "coordinates": [-84.5884693701, 33.4411255967]}, "type": "Feature", "properties": {"collection_times": [{"days": "Mon-Fri", "time": "1:00pm"}, {"days": "Sat", "time": "12:00pm"}, {"days": "Sun", "time": "Closed"}], "id": "3026900019", "name": "USPS COLLECTION BOX - BLUE BOX", "address": {"city": "PEACHTREE CITY", "state": "GA", "street": "1101 N PEACHTREE PKWY", "postcode": "30269"}}},
{"geometry": {"type": "Point", "coordinates": [-84.5848518128, 33.3982219036]}, "type": "Feature", "properties": {"collection_times": [{"days": "Mon-Sat", "time": "1:00pm"}, {"days": "Sun", "time": "Closed"}], "id": "3026900020", "name": "USPS COLLECTION BOX - BLUE BOX", "address": {"city": "PEACHTREE CITY", "state": "GA", "street": "201 WILLOW BEND RD", "postcode": "30269"}}},
{"geometry": {"type": "Point", "coordinates": [-84.5890679598, 33.3959674262]}, "type": "Feature", "properties": {"collection_times": [{"days": "Mon-Fri", "time": "5:00pm"}, {"days": "Sat", "time": "1:00pm"}, {"days": "Sun", "time": "Closed"}], "id": "3026900021", "name": "USPS COLLECTION BOX - APC", "address": {"city": "PEACHTREE CITY", "state": "GA", "street": "151 HIGHWAY 74 S", "postcode": "30269"}}},
{"geometry": {"type": "Point", "coordinates": [-84.4989259865, 33.6221619135]}, "type": "Feature", "properties": {"collection_times": [{"days": "Mon-Fri", "time": "4:45pm"}, {"days": "Sat", "time": "8:30am"}, {"days": "Sun", "time": "Closed"}], "id": "3027200001", "name": "USPS COLLECTION BOX - BLUE BOX", "address": {"city": "RED OAK", "state": "GA", "street": "3435 ROOSEVELT HWY", "postcode": "30272"}}},
{"geometry": {"type": "Point", "coordinates": [-84.4985988465, 33.6247013427]}, "type": "Feature", "properties": {"collection_times": [{"days": "Mon-Fri", "time": "4:45pm"}, {"days": "Sat", "time": "8:30am"}, {"days": "Sun", "time": "Closed"}], "id": "3027200002", "name": "USPS COLLECTION BOX - PO LOBBY", "address": {"city": "RED OAK", "state": "GA", "street": "3435 ROOSEVELT HWY", "postcode": "30272"}}},
{"geometry": {"type": "Point", "coordinates": [-84.2819752747, 33.5784428484]}, "type": "Feature", "properties": {"collection_times": [{"days": "Mon-Fri", "time": "5:00pm"}, {"days": "Sat", "time": "12:00pm"}, {"days": "Sun", "time": "Closed"}], "id": "3027300005", "name": "USPS COLLECTION BOX - BLUE BOX", "address": {"city": "REX", "state": "GA", "street": "6450 EVANS DR", "postcode": "30273"}}},
{"geometry": {"type": "Point", "coordinates": [-84.4140390037, 33.5595623003]}, "type": "Feature", "properties": {"collection_times": [{"days": "Mon-Fri", "time": "2:30pm"}, {"days": "Sat", "time": "9:00am"}, {"days": "Sun", "time": "Closed"}], "id": "3027400012", "name": "USPS COLLECTION BOX - BLUE BOX", "address": {"city": "RIVERDALE", "state": "GA", "street": "7137 HIGHWAY 85", "postcode": "30274"}}},
{"geometry": {"type": "Point", "coordinates": [-84.4149624449, 33.5336767081]}, "type": "Feature", "properties": {"collection_times": [{"days": "Mon-Fri", "time": "5:15pm"}, {"days": "Sat", "time": "3:30pm"}, {"days": "Sun", "time": "Closed"}], "id": "3027400031", "name": "USPS COLLECTION BOX - BLUE BOX", "address": {"city": "RIVERDALE", "state": "GA", "street": "8060 WEBB RD", "postcode": "30274"}}},
{"geometry": {"type": "Point", "coordinates": [-84.4149624449, 33.5336767081]}, "type": "Feature", "properties": {"collection_times": [{"days": "Mon-Fri", "time": "5:15pm"}, {"days": "Sat", "time": "3:30pm"}, {"days": "Sun", "time": "Closed"}], "id": "3027400032", "name": "USPS COLLECTION BOX - BLUE BOX", "address": {"city": "RIVERDALE", "state": "GA", "street": "8060 WEBB RD", "postcode": "30274"}}},
{"geometry": {"type": "Point", "coordinates": [-84.4149624449, 33.5336767081]}, "type": "Feature", "properties": {"collection_times": [{"days": "Mon-Fri", "time": "5:15pm"}, {"days": "Sat", "time": "10:00am"}, {"days": "Sun", "time": "Closed"}], "id": "3027400035", "name": "USPS COLLECTION BOX - PO LOBBY", "address": {"city": "RIVERDALE", "state": "GA", "street": "8060 WEBB RD", "postcode": "30274"}}},
{"geometry": {"type": "Point", "coordinates": [-84.8676623208, 33.4328764094]}, "type": "Feature", "properties": {"collection_times": [{"days": "Mon-Fri", "time": "4:15pm"}, {"days": "Sat", "time": "12:00pm"}, {"days": "Sun", "time": "Closed"}], "id": "3027500001", "name": "USPS COLLECTION BOX - BLUE BOX", "address": {"city": "SARGENT", "state": "GA", "street": "374 HENRY BRYANT RD", "postcode": "30275"}}},
{"geometry": {"type": "Point", "coordinates": [-84.8676623208, 33.4328764094]}, "type": "Feature", "properties": {"collection_times": [{"days": "Mon-Fri", "time": "4:15pm"}, {"days": "Sat", "time": "12:00pm"}, {"days": "Sun", "time": "Closed"}], "id": "3027500002", "name": "USPS COLLECTION BOX - PO LOBBY", "address": {"city": "SARGENT", "state": "GA", "street": "374 HENRY BRYANT RD", "postcode": "30275"}}},
{"geometry": {"type": "Point", "coordinates": [-84.553810974, 33.2977459264]}, "type": "Feature", "properties": {"collection_times": [{"days": "Mon-Fri", "time": "4:30pm"}, {"days": "Sat", "time": "12:00pm"}, {"days": "Sun", "time": "Closed"}], "id": "3027600001", "name": "USPS COLLECTION BOX - BLUE BOX", "address": {"city": "SENOIA", "state": "GA", "street": "68 BROAD ST", "postcode": "30276"}}},
{"geometry": {"type": "Point", "coordinates": [-84.553810974, 33.2977459264]}, "type": "Feature", "properties": {"collection_times": [{"days": "Mon-Fri", "time": "4:30pm"}, {"days": "Sat", "time": "12:00pm"}, {"days": "Sun", "time": "Closed"}], "id": "3027600002", "name": "USPS COLLECTION BOX - PO LOBBY", "address": {"city": "SENOIA", "state": "GA", "street": "68 BROAD ST", "postcode": "30276"}}},
{"geometry": {"type": "Point", "coordinates": [-84.553810974, 33.2977459264]}, "type": "Feature", "properties": {"collection_times": [{"days": "Mon-Fri", "time": "4:30pm"}, {"days": "Sat", "time": "12:00pm"}, {"days": "Sun", "time": "Closed"}], "id": "3027600003", "name": "USPS COLLECTION BOX - PO LOBBY", "address": {"city": "SENOIA", "state": "GA", "street": "68 BROAD ST", "postcode": "30276"}}},
{"geometry": {"type": "Point", "coordinates": [-84.6444229222, 33.3438069006]}, "type": "Feature", "properties": {"collection_times": [{"days": "Mon-Fri", "time": "5:00pm"}, {"days": "Sat", "time": "12:00pm"}, {"days": "Sun", "time": "Closed"}], "id": "3027700001", "name": "USPS COLLECTION BOX - BLUE BOX", "address": {"city": "SHARPSBURG", "state": "GA", "street": "6545 HIGHWAY 54", "postcode": "30277"}}},
{"geometry": {"type": "Point", "coordinates": [-84.6444229222, 33.3438069006]}, "type": "Feature", "properties": {"collection_times": [{"days": "Mon-Fri", "time": "5:00pm"}, {"days": "Sat", "time": "12:00pm"}, {"days": "Sun", "time": "Closed"}], "id": "3027700005", "name": "USPS COLLECTION BOX - PO LOBBY", "address": {"city": "SHARPSBURG", "state": "GA", "street": "6545 HIGHWAY 54", "postcode": "30277"}}},
{"geometry": {"type": "Point", "coordinates": [-84.2292071162, 33.5122861097]}, "type": "Feature", "properties": {"collection_times": [{"days": "Mon-Fri", "time": "2:00pm"}, {"days": "Sat", "time": "10:00am"}, {"days": "Sun", "time": "Closed"}], "id": "3028100002", "name": "USPS COLLECTION BOX - BLUE BOX", "address": {"city": "STOCKBRIDGE", "state": "GA", "street": "155 EAGLES WALK", "postcode": "30281"}}},
{"geometry": {"type": "Point", "coordinates": [-84.2372205563, 33.5444129274]}, "type": "Feature", "properties": {"collection_times": [{"days": "Mon-Fri", "time": "2:00pm"}, {"days": "Sat", "time": "10:30am"}, {"days": "Sun", "time": "Closed"}], "id": "3028100004", "name": "USPS COLLECTION BOX - BLUE BOX", "address": {"city": "STOCKBRIDGE", "state": "GA", "street": "3701 WALT STEPHENS RD", "postcode": "30281"}}},
{"geometry": {"type": "Point", "coordinates": [-84.2736077369, 33.5513227074]}, "type": "Feature", "properties": {"collection_times": [{"days": "Mon-Sat", "time": "10:30am"}, {"days": "Sun", "time": "Closed"}], "id": "3028100005", "name": "USPS COLLECTION BOX - BLUE BOX", "address": {"city": "STOCKBRIDGE", "state": "GA", "street": "3588 HIGHWAY 138 SE", "postcode": "30281"}}},
{"geometry": {"type": "Point", "coordinates": [-84.2254169157, 33.5091772935]}, "type": "Feature", "properties": {"collection_times": [{"days": "Mon-Fri", "time": "2:00pm"}, {"days": "Sat", "time": "11:00am"}, {"days": "Sun", "time": "Closed"}], "id": "3028100006", "name": "USPS COLLECTION BOX - BLUE BOX", "address": {"city": "STOCKBRIDGE", "state": "GA", "street": "1133 EAGLES LANDING PKWY", "postcode": "30281"}}},
{"geometry": {"type": "Point", "coordinates": [-84.2625014963, 33.551770914]}, "type": "Feature", "properties": {"collection_times": [{"days": "Mon-Sat", "time": "5:00pm"}, {"days": "Sun", "time": "Closed"}], "id": "3028100007", "name": "USPS COLLECTION BOX - BLUE BOX", "address": {"city": "STOCKBRIDGE", "state": "GA", "street": "110 WALTER WAY", "postcode": "30281"}}},
{"geometry": {"type": "Point", "coordinates": [-84.2625014963, 33.551770914]}, "type": "Feature", "properties": {"collection_times": [{"days": "Mon-Sat", "time": "5:00pm"}, {"days": "Sun", "time": "Closed"}], "id": "3028100008", "name": "USPS COLLECTION BOX - BLUE BOX", "address": {"city": "STOCKBRIDGE", "state": "GA", "street": "110 WALTER WAY", "postcode": "30281"}}},
{"geometry": {"type": "Point", "coordinates": [-84.259507692, 33.554358682]}, "type": "Feature", "properties": {"collection_times": [{"days": "Mon-Sat", "time": "10:00am"}, {"days": "Sun", "time": "Closed"}], "id": "3028100011", "name": "USPS COLLECTION BOX - BLUE BOX", "address": {"city": "STOCKBRIDGE", "state": "GA", "street": "5625 N HENRY BLVD", "postcode": "30281"}}},
{"geometry": {"type": "Point", "coordinates": [-84.2343416571, 33.5442931789]}, "type": "Feature", "properties": {"collection_times": [{"days": "Mon-Sat", "time": "10:30am"}, {"days": "Sun", "time": "Closed"}], "id": "3028100012", "name": "USPS COLLECTION BOX - BLUE BOX", "address": {"city": "STOCKBRIDGE", "state": "GA", "street": "4705 N HENRY BLVD", "postcode": "30281"}}},
{"geometry": {"type": "Point", "coordinates": [-84.1133782224, 33.5947327107]}, "type": "Feature", "properties": {"collection_times": [{"days": "Mon-Sat", "time": "10:00am"}, {"days": "Sun", "time": "Closed"}], "id": "3028100013", "name": "USPS COLLECTION BOX - BLUE BOX", "address": {"city": "STOCKBRIDGE", "state": "GA", "street": "3867 HIGHWAY 138 SE", "postcode": "30281"}}},
{"geometry": {"type": "Point", "coordinates": [-84.2402050857, 33.4996982434]}, "type": "Feature", "properties": {"collection_times": [{"days": "Mon-Fri", "time": "1:00pm"}, {"days": "Sat", "time": "11:00am"}, {"days": "Sun", "time": "Closed"}], "id": "3028100016", "name": "USPS COLLECTION BOX - BLUE BOX", "address": {"city": "STOCKBRIDGE", "state": "GA", "street": "100 ANDREW DR", "postcode": "30281"}}},
{"geometry": {"type": "Point", "coordinates": [-84.2625014963, 33.551770914]}, "type": "Feature", "properties": {"collection_times": [{"days": "Mon-Sat", "time": "5:00pm"}, {"days": "Sun", "time": "Closed"}], "id": "3028100017", "name": "USPS COLLECTION BOX - PO LOBBY", "address": {"city": "STOCKBRIDGE", "state": "GA", "street": "110 WALTER WAY", "postcode": "30281"}}},
{"geometry": {"type": "Point", "coordinates": [-84.2199480964, 33.5121193125]}, "type": "Feature", "properties": {"collection_times": [{"days": "Mon-Fri", "time": "1:00pm"}, {"days": "Sat", "time": "11:00am"}, {"days": "Sun", "time": "Closed"}], "id": "3028100018", "name": "USPS COLLECTION BOX - BLUE BOX", "address": {"city": "STOCKBRIDGE", "state": "GA", "street": "909 EAGLES LANDING PKWY", "postcode": "30281"}}},
{"geometry": {"type": "Point", "coordinates": [-84.2435185538, 33.5016371131]}, "type": "Feature", "properties": {"collection_times": [{"days": "Mon-Fri", "time": "1:00pm"}, {"days": "Sat", "time": "11:00am"}, {"days": "Sun", "time": "Closed"}], "id": "3028100019", "name": "USPS COLLECTION BOX - BLUE BOX", "address": {"city": "STOCKBRIDGE", "state": "GA", "street": "1750 HUDSON BRIDGE RD", "postcode": "30281"}}},
{"geometry": {"type": "Point", "coordinates": [-84.2195364267, 33.5070668948]}, "type": "Feature", "properties": {"collection_times": [{"days": "Mon-Fri", "time": "1:00pm"}, {"days": "Sat", "time": "10:00am"}, {"days": "Sun", "time": "Closed"}], "id": "3028100021", "name": "USPS COLLECTION BOX - BLUE BOX", "address": {"city": "STOCKBRIDGE", "state": "GA", "street": "255 CORPORATE CENTER DR", "postcode": "30281"}}},
{"geometry": {"type": "Point", "coordinates": [-84.2625014963, 33.551770914]}, "type": "Feature", "properties": {"collection_times": [{"days": "Mon-Sat", "time": "5:00pm"}, {"days": "Sun", "time": "Closed"}], "id": "3028100022", "name": "USPS COLLECTION BOX - APC", "address": {"city": "STOCKBRIDGE", "state": "GA", "street": "110 WALTER WAY", "postcode": "30281"}}},
{"geometry": {"type": "Point", "coordinates": [-84.2229350678, 33.5113598528]}, "type": "Feature", "properties": {"collection_times": [{"days": "Mon-Fri", "time": "1:00pm"}, {"days": "Sat", "time": "11:00am"}, {"days": "Sun", "time": "Closed"}], "id": "3028100024", "name": "USPS COLLECTION BOX - BLUE BOX", "address": {"city": "STOCKBRIDGE", "state": "GA", "street": "1050 EAGLES LANDING PKWY", "postcode": "30281"}}},
{"geometry": {"type": "Point", "coordinates": [-84.2911489655, 33.3409089955]}, "type": "Feature", "properties": {"collection_times": [{"days": "Mon-Fri", "time": "4:30pm"}, {"days": "Sat", "time": "11:30am"}, {"days": "Sun", "time": "Closed"}], "id": "3028400001", "name": "USPS COLLECTION BOX - BLUE BOX", "address": {"city": "SUNNY SIDE", "state": "GA", "street": "3980 NORTH EXPY", "postcode": "30284"}}},
{"geometry": {"type": "Point", "coordinates": [-84.2911489655, 33.3409089955]}, "type": "Feature", "properties": {"collection_times": [{"days": "Mon-Fri", "time": "4:00pm"}, {"days": "Sat", "time": "11:30am"}, {"days": "Sun", "time": "Closed"}], "id": "3028400002", "name": "USPS COLLECTION BOX - PO LOBBY", "address": {"city": "SUNNY SIDE", "state": "GA", "street": "3980 NORTH EXPY", "postcode": "30284"}}},
{"geometry": {"type": "Point", "coordinates": [-84.235989829, 32.9743905066]}, "type": "Feature", "properties": {"collection_times": [{"days": "Mon-Fri", "time": "5:00pm"}, {"days": "Sat", "time": "12:00pm"}, {"days": "Sun", "time": "Closed"}], "id": "3028500001", "name": "USPS COLLECTION BOX - BLUE BOX", "address": {"city": "THE ROCK", "state": "GA", "street": "4674 W MAIN ST", "postcode": "30285"}}},
{"geometry": {"type": "Point", "coordinates": [-84.2405159607, 32.9809200012]}, "type": "Feature", "properties": {"collection_times": [{"days": "Mon-Sat", "time": "1:00pm"}, {"days": "Sun", "time": "Closed"}], "id": "3028500002", "name": "USPS COLLECTION BOX - BLUE BOX", "address": {"city": "THE ROCK", "state": "GA", "street": "5020 BARNESVILLE HWY", "postcode": "30285"}}},
{"geometry": {"type": "Point", "coordinates": [-84.3271301676, 32.8888618743]}, "type": "Feature", "properties": {"collection_times": [{"days": "Mon-Sat", "time": "1:30pm"}, {"days": "Sun", "time": "Closed"}], "id": "3028600006", "name": "USPS COLLECTION BOX - BLUE BOX", "address": {"city": "THOMASTON", "state": "GA", "street": "200 N CHURCH ST", "postcode": "30286"}}},
{"geometry": {"type": "Point", "coordinates": [-84.3261390306, 32.8888603032]}, "type": "Feature", "properties": {"collection_times": [{"days": "Mon-Sat", "time": "1:30pm"}, {"days": "Sun", "time": "Closed"}], "id": "3028600016", "name": "USPS COLLECTION BOX - BLUE BOX", "address": {"city": "THOMASTON", "state": "GA", "street": "200 N CENTER ST", "postcode": "30286"}}},
{"geometry": {"type": "Point", "coordinates": [-84.3271284801, 32.8888655407]}, "type": "Feature", "properties": {"collection_times": [{"days": "Mon-Fri", "time": "5:00pm"}, {"days": "Sat", "time": "4:00pm"}, {"days": "Sun", "time": "Closed"}], "id": "3028600018", "name": "USPS COLLECTION BOX - BLUE BOX", "address": {"city": "THOMASTON", "state": "GA", "street": "103 E THOMPSON ST", "postcode": "30286"}}},
{"geometry": {"type": "Point", "coordinates": [-84.3336582713, 32.9242149768]}, "type": "Feature", "properties": {"collection_times": [{"days": "Mon-Sat", "time": "1:15pm"}, {"days": "Sun", "time": "Closed"}], "id": "3028600019", "name": "USPS COLLECTION BOX - BLUE BOX", "address": {"city": "THOMASTON", "state": "GA", "street": "1059 HIGHWAY 19 N", "postcode": "30286"}}},
{"geometry": {"type": "Point", "coordinates": [-84.3271284801, 32.8888655407]}, "type": "Feature", "properties": {"collection_times": [{"days": "Mon-Fri", "time": "5:00pm"}, {"days": "Sat", "time": "4:00pm"}, {"days": "Sun", "time": "Closed"}], "id": "3028600029", "name": "USPS COLLECTION BOX - PO LOBBY", "address": {"city": "THOMASTON", "state": "GA", "street": "103 E THOMPSON ST", "postcode": "30286"}}},
{"geometry": {"type": "Point", "coordinates": [-84.3360157584, 33.6578733697]}, "type": "Feature", "properties": {"collection_times": [{"days": "Mon-Fri", "time": "4:00pm"}, {"days": "Sat", "time": "12:00pm"}, {"days": "Sun", "time": "Closed"}], "id": "3028800000", "name": "USPS COLLECTION BOX - BLUE BOX", "address": {"city": "CONLEY", "state": "GA", "street": "1333 CEDAR GROVE RD", "postcode": "30288"}}},
{"geometry": {"type": "Point", "coordinates": [-84.3360157584, 33.6578733697]}, "type": "Feature", "properties": {"collection_times": [{"days": "Mon-Fri", "time": "4:00pm"}, {"days": "Sat", "time": "12:00pm"}, {"days": "Sun", "time": "Closed"}], "id": "3028800001", "name": "USPS COLLECTION BOX - BLUE BOX", "address": {"city": "CONLEY", "state": "GA", "street": "1333 CEDAR GROVE RD", "postcode": "30288"}}},
{"geometry": {"type": "Point", "coordinates": [-84.3360157584, 33.6578733697]}, "type": "Feature", "properties": {"collection_times": [{"days": "Mon-Fri", "time": "4:00pm"}, {"days": "Sat", "time": "12:00pm"}, {"days": "Sun", "time": "Closed"}], "id": "3028800002", "name": "USPS COLLECTION BOX - PO LOBBY", "address": {"city": "CONLEY", "state": "GA", "street": "1333 CEDAR GROVE RD", "postcode": "30288"}}},
{"geometry": {"type": "Point", "coordinates": [-84.3360157584, 33.6578733697]}, "type": "Feature", "properties": {"collection_times": [{"days": "Mon-Fri", "time": "4:00pm"}, {"days": "Sat", "time": "12:00pm"}, {"days": "Sun", "time": "Closed"}], "id": "3028800003", "name": "USPS COLLECTION BOX - PO LOBBY", "address": {"city": "CONLEY", "state": "GA", "street": "1333 CEDAR GROVE RD", "postcode": "30288"}}},
{"geometry": {"type": "Point", "coordinates": [-84.636502317, 33.3253347267]}, "type": "Feature", "properties": {"collection_times": [{"days": "Mon-Fri", "time": "4:30pm"}, {"days": "Sat", "time": "11:30am"}, {"days": "Sun", "time": "Closed"}], "id": "3028900001", "name": "USPS COLLECTION BOX - BLUE BOX", "address": {"city": "TURIN", "state": "GA", "street": "14 S HUNTER ST", "postcode": "30289"}}},
{"geometry": {"type": "Point", "coordinates": [-84.636502317, 33.3253347267]}, "type": "Feature", "properties": {"collection_times": [{"days": "Mon-Fri", "time": "4:30pm"}, {"days": "Sat", "time": "11:30am"}, {"days": "Sun", "time": "Closed"}], "id": "3028900002", "name": "USPS COLLECTION BOX - PO LOBBY", "address": {"city": "TURIN", "state": "GA", "street": "14 S HUNTER ST", "postcode": "30289"}}},
{"geometry": {"type": "Point", "coordinates": [-84.5968662137, 33.4756447159]}, "type": "Feature", "properties": {"collection_times": [{"days": "Mon-Fri", "time": "5:00pm"}, {"days": "Sat", "time": "12:00pm"}, {"days": "Sun", "time": "Closed"}], "id": "3029000001", "name": "USPS COLLECTION BOX - BLUE BOX", "address": {"city": "TYRONE", "state": "GA", "street": "100 COMMERCE DR", "postcode": "30290"}}},
{"geometry": {"type": "Point", "coordinates": [-84.5968662137, 33.4756447159]}, "type": "Feature", "properties": {"collection_times": [{"days": "Mon-Fri", "time": "5:00pm"}, {"days": "Sat", "time": "12:00pm"}, {"days": "Sun", "time": "Closed"}], "id": "3029000002", "name": "USPS COLLECTION BOX - BLUE BOX", "address": {"city": "TYRONE", "state": "GA", "street": "100 COMMERCE DR", "postcode": "30290"}}},
{"geometry": {"type": "Point", "coordinates": [-84.583799775, 33.480340427]}, "type": "Feature", "properties": {"collection_times": [{"days": "Mon-Sat", "time": "9:00am"}, {"days": "Sun", "time": "Closed"}], "id": "3029000003", "name": "USPS COLLECTION BOX - BLUE BOX", "address": {"city": "TYRONE", "state": "GA", "street": "179 HANDLEY RD", "postcode": "30290"}}},
{"geometry": {"type": "Point", "coordinates": [-84.5884624372, 33.4764646728]}, "type": "Feature", "properties": {"collection_times": [{"days": "Mon-Sat", "time": "10:00am"}, {"days": "Sun", "time": "Closed"}], "id": "3029000004", "name": "USPS COLLECTION BOX - BLUE BOX", "address": {"city": "TYRONE", "state": "GA", "street": "100 GLENDALOUGH CT", "postcode": "30290"}}},
{"geometry": {"type": "Point", "coordinates": [-84.5522187935, 33.578899712]}, "type": "Feature", "properties": {"collection_times": [{"days": "Mon-Fri", "time": "5:00pm"}, {"days": "Sat", "time": "2:15pm"}, {"days": "Sun", "time": "Closed"}], "id": "3029100002", "name": "USPS COLLECTION BOX - BLUE BOX", "address": {"city": "UNION CITY", "state": "GA", "street": "5050 UNION ST", "postcode": "30291"}}},
{"geometry": {"type": "Point", "coordinates": [-84.5277386406, 33.5745700822]}, "type": "Feature", "properties": {"collection_times": [{"days": "Mon-Sat", "time": "10:00am"}, {"days": "Sun", "time": "Closed"}], "id": "3029100017", "name": "USPS COLLECTION BOX - BLUE BOX", "address": {"city": "UNION CITY", "state": "GA", "street": "4405 MALL BLVD", "postcode": "30291"}}},
{"geometry": {"type": "Point", "coordinates": [-84.3571121587, 33.1857788172]}, "type": "Feature", "properties": {"collection_times": [{"days": "Mon-Fri", "time": "4:00pm"}, {"days": "Sat", "time": "12:00pm"}, {"days": "Sun", "time": "Closed"}], "id": "3029200001", "name": "USPS COLLECTION BOX - BLUE BOX", "address": {"city": "WILLIAMSON", "state": "GA", "street": "421 HIGHWAY 362 W", "postcode": "30292"}}},
{"geometry": {"type": "Point", "coordinates": [-84.3571121587, 33.1857788172]}, "type": "Feature", "properties": {"collection_times": [{"days": "Mon-Fri", "time": "4:00pm"}, {"days": "Sat", "time": "12:00pm"}, {"days": "Sun", "time": "Closed"}], "id": "3029200002", "name": "USPS COLLECTION BOX - PO LOBBY", "address": {"city": "WILLIAMSON", "state": "GA", "street": "421 HIGHWAY 362 W", "postcode": "30292"}}},
{"geometry": {"type": "Point", "coordinates": [-84.5830287815, 32.9846083257]}, "type": "Feature", "properties": {"collection_times": [{"days": "Mon-Fri", "time": "4:15pm"}, {"days": "Sat", "time": "12:00pm"}, {"days": "Sun", "time": "Closed"}], "id": "3029300001", "name": "USPS COLLECTION BOX - BLUE BOX", "address": {"city": "WOODBURY", "state": "GA", "street": "40 JONES MILL RD", "postcode": "30293"}}},
{"geometry": {"type": "Point", "coordinates": [-84.5830287815, 32.9846083257]}, "type": "Feature", "properties": {"collection_times": [{"days": "Mon-Fri", "time": "4:15pm"}, {"days": "Sat", "time": "12:00pm"}, {"days": "Sun", "time": "Closed"}], "id": "3029300003", "name": "USPS COLLECTION BOX - PO LOBBY", "address": {"city": "WOODBURY", "state": "GA", "street": "40 JONES MILL RD", "postcode": "30293"}}},
{"geometry": {"type": "Point", "coordinates": [-84.3026898501, 33.607752742]}, "type": "Feature", "properties": {"collection_times": [{"days": "Mon-Fri", "time": "5:00pm"}, {"days": "Sat", "time": "12:00pm"}, {"days": "Sun", "time": "Closed"}], "id": "3029400000", "name": "USPS COLLECTION BOX - BLUE BOX", "address": {"city": "ELLENWOOD", "state": "GA", "street": "5465 HIGHWAY 42", "postcode": "30294"}}},
{"geometry": {"type": "Point", "coordinates": [-84.3026898501, 33.607752742]}, "type": "Feature", "properties": {"collection_times": [{"days": "Mon-Fri", "time": "5:00pm"}, {"days": "Sat", "time": "12:00pm"}, {"days": "Sun", "time": "Closed"}], "id": "3029400001", "name": "USPS COLLECTION BOX - BLUE BOX", "address": {"city": "ELLENWOOD", "state": "GA", "street": "5465 HIGHWAY 42", "postcode": "30294"}}},
{"geometry": {"type": "Point", "coordinates": [-84.2351278259, 33.6211112367]}, "type": "Feature", "properties": {"collection_times": [{"days": "Mon-Sat", "time": "9:30am"}, {"days": "Sun", "time": "Closed"}], "id": "3029400003", "name": "USPS COLLECTION BOX - BLUE BOX", "address": {"city": "ELLENWOOD", "state": "GA", "street": "1783 PANOLA RD", "postcode": "30294"}}},
{"geometry": {"type": "Point", "coordinates": [-84.3026898501, 33.607752742]}, "type": "Feature", "properties": {"collection_times": [{"days": "Mon-Fri", "time": "5:00pm"}, {"days": "Sat", "time": "12:00pm"}, {"days": "Sun", "time": "Closed"}], "id": "3029400006", "name": "USPS COLLECTION BOX - PO LOBBY", "address": {"city": "ELLENWOOD", "state": "GA", "street": "5465 HIGHWAY 42", "postcode": "30294"}}},
{"geometry": {"type": "Point", "coordinates": [-84.3415505924, 33.1045623068]}, "type": "Feature", "properties": {"collection_times": [{"days": "Mon-Fri", "time": "4:00pm"}, {"days": "Sat", "time": "12:00pm"}, {"days": "Sun", "time": "Closed"}], "id": "3029500001", "name": "USPS COLLECTION BOX - BLUE BOX", "address": {"city": "ZEBULON", "state": "GA", "street": "370 GRIFFIN ST", "postcode": "30295"}}},
{"geometry": {"type": "Point", "coordinates": [-84.3421313763, 33.1079136446]}, "type": "Feature", "properties": {"collection_times": [{"days": "Mon-Sat", "time": "10:30am"}, {"days": "Sun", "time": "Closed"}], "id": "3029500002", "name": "USPS COLLECTION BOX - BLUE BOX", "address": {"city": "ZEBULON", "state": "GA", "street": "685 GRIFFIN ST", "postcode": "30295"}}},
{"geometry": {"type": "Point", "coordinates": [-84.3415505924, 33.1045623068]}, "type": "Feature", "properties": {"collection_times": [{"days": "Mon-Fri", "time": "4:00pm"}, {"days": "Sat", "time": "12:00pm"}, {"days": "Sun", "time": "Closed"}], "id": "3029500004", "name": "USPS COLLECTION BOX - PO LOBBY", "address": {"city": "ZEBULON", "state": "GA", "street": "370 GRIFFIN ST", "postcode": "30295"}}},
{"geometry": {"type": "Point", "coordinates": [-84.4496772995, 33.5509349133]}, "type": "Feature", "properties": {"collection_times": [{"days": "Mon-Sat", "time": "9:00am"}, {"days": "Sun", "time": "Closed"}], "id": "3029600001", "name": "USPS COLLECTION BOX - BLUE BOX", "address": {"city": "RIVERDALE", "state": "GA", "street": "1825 HIGHWAY 138 SW", "postcode": "30296"}}},
{"geometry": {"type": "Point", "coordinates": [-84.415759745, 33.5721769562]}, "type": "Feature", "properties": {"collection_times": [{"days": "Mon-Fri", "time": "5:15pm"}, {"days": "Sat", "time": "3:30pm"}, {"days": "Sun", "time": "Closed"}], "id": "3029600014", "name": "USPS COLLECTION BOX - BLUE BOX", "address": {"city": "RIVERDALE", "state": "GA", "street": "6691 CHURCH ST", "postcode": "30296"}}},
{"geometry": {"type": "Point", "coordinates": [-84.415759745, 33.5721769562]}, "type": "Feature", "properties": {"collection_times": [{"days": "Mon-Fri", "time": "5:15pm"}, {"days": "Sat", "time": "3:30pm"}, {"days": "Sun", "time": "Closed"}], "id": "3029600015", "name": "USPS COLLECTION BOX - BLUE BOX", "address": {"city": "RIVERDALE", "state": "GA", "street": "6691 CHURCH ST", "postcode": "30296"}}},
{"geometry": {"type": "Point", "coordinates": [-84.415759745, 33.5721769562]}, "type": "Feature", "properties": {"collection_times": [{"days": "Mon-Fri", "time": "5:15pm"}, {"days": "Sat", "time": "3:30pm"}, {"days": "Sun", "time": "Closed"}], "id": "3029600016", "name": "USPS COLLECTION BOX - BLUE BOX", "address": {"city": "RIVERDALE", "state": "GA", "street": "6691 CHURCH ST", "postcode": "30296"}}},
{"geometry": {"type": "Point", "coordinates": [-84.415759745, 33.5721769562]}, "type": "Feature", "properties": {"collection_times": [{"days": "Mon-Fri", "time": "5:15pm"}, {"days": "Sat", "time": "3:30pm"}, {"days": "Sun", "time": "Closed"}], "id": "3029600018", "name": "USPS COLLECTION BOX - PO LOBBY", "address": {"city": "RIVERDALE", "state": "GA", "street": "6691 CHURCH ST", "postcode": "30296"}}},
{"geometry": {"type": "Point", "coordinates": [-84.4008623981, 33.6168490008]}, "type": "Feature", "properties": {"collection_times": [{"days": "Mon-Sat", "time": "12:00pm"}, {"days": "Sun", "time": "Closed"}], "id": "3029700001", "name": "USPS COLLECTION BOX - BLUE BOX", "address": {"city": "FOREST PARK", "state": "GA", "street": "16 FOREST PKWY", "postcode": "30297"}}},
{"geometry": {"type": "Point", "coordinates": [-84.352568443, 33.6182626715]}, "type": "Feature", "properties": {"collection_times": [{"days": "Mon-Fri", "time": "5:00pm"}, {"days": "Sat", "time": "3:00pm"}, {"days": "Sun", "time": "Closed"}], "id": "3029700005", "name": "USPS COLLECTION BOX - BLUE BOX", "address": {"city": "FOREST PARK", "state": "GA", "street": "4989 COURTNEY DR", "postcode": "30297"}}},
{"geometry": {"type": "Point", "coordinates": [-84.4008623981, 33.6168490008]}, "type": "Feature", "properties": {"collection_times": [{"days": "Mon-Sat", "time": "12:00pm"}, {"days": "Sun", "time": "Closed"}], "id": "3029700006", "name": "USPS COLLECTION BOX - BLUE BOX", "address": {"city": "FOREST PARK", "state": "GA", "street": "16 FOREST PKWY", "postcode": "30297"}}},
{"geometry": {"type": "Point", "coordinates": [-84.4008623981, 33.6168490008]}, "type": "Feature", "properties": {"collection_times": [{"days": "Mon-Sat", "time": "12:00pm"}, {"days": "Sun", "time": "Closed"}], "id": "3029700007", "name": "USPS COLLECTION BOX - BLUE BOX", "address": {"city": "FOREST PARK", "state": "GA", "street": "16 FOREST PKWY", "postcode": "30297"}}},
{"geometry": {"type": "Point", "coordinates": [-84.352568443, 33.6182626715]}, "type": "Feature", "properties": {"collection_times": [{"days": "Mon-Fri", "time": "5:00pm"}, {"days": "Sat", "time": "3:00pm"}, {"days": "Sun", "time": "Closed"}], "id": "3029700014", "name": "USPS COLLECTION BOX - BLUE BOX", "address": {"city": "FOREST PARK", "state": "GA", "street": "4989 COURTNEY DR", "postcode": "30297"}}},
{"geometry": {"type": "Point", "coordinates": [-84.3645470855, 33.5905766999]}, "type": "Feature", "properties": {"collection_times": [{"days": "Mon-Sat", "time": "12:00pm"}, {"days": "Sun", "time": "Closed"}], "id": "3029700017", "name": "USPS COLLECTION BOX - BLUE BOX", "address": {"city": "FOREST PARK", "state": "GA", "street": "798 MORROW RD", "postcode": "30297"}}},
{"geometry": {"type": "Point", "coordinates": [-84.352568443, 33.6182626715]}, "type": "Feature", "properties": {"collection_times": [{"days": "Mon-Fri", "time": "5:00pm"}, {"days": "Sat", "time": "3:00pm"}, {"days": "Sun", "time": "Closed"}], "id": "3029700029", "name": "USPS COLLECTION BOX - PO LOBBY", "address": {"city": "FOREST PARK", "state": "GA", "street": "4989 COURTNEY DR", "postcode": "30297"}}}
]}
