{"type": "FeatureCollection", "features": [
{"geometry": {"type": "Point", "coordinates": [-84.3958174228, 33.7496941444]}, "type": "Feature", "properties": {"collection_times": [{"days": "Mon-Fri", "time": "12:30pm"}, {"days": "Sat", "time": "2:00pm"}, {"days": "Sun", "time": "Closed"}], "id": "3030200001", "name": "USPS COLLECTION BOX - BLUE BOX", "address": {"city": "ATLANTA", "state": "GA", "street": "183 FORSYTH ST", "postcode": "30302"}}},
{"geometry": {"type": "Point", "coordinates": [-84.3800286353, 33.755588645]}, "type": "Feature", "properties": {"collection_times": [{"days": "Mon-Fri", "time": "2:00pm"}, {"days": "Sat", "time": "10:30am"}, {"days": "Sun", "time": "Closed"}], "id": "3030300010", "name": "USPS COLLECTION BOX - BLUE BOX", "address": {"city": "ATLANTA", "state": "GA", "street": "228 AUBURN AVE NE", "postcode": "30303"}}},
{"geometry": {"type": "Point", "coordinates": [-84.3882627408, 33.7582050147]}, "type": "Feature", "properties": {"collection_times": [{"days": "Mon-Fri", "time": "3:00pm"}, {"days": "Sat", "time": "11:30am"}, {"days": "Sun", "time": "Closed"}], "id": "3030300051", "name": "USPS COLLECTION BOX - BLUE BOX", "address": {"city": "ATLANTA", "state": "GA", "street": "133 CARNEGIE WAY NW", "postcode": "30303"}}},
{"geometry": {"type": "Point", "coordinates": [-84.3898056295, 33.7523250605]}, "type": "Feature", "properties": {"collection_times": [{"days": "Mon-Fri", "time": "3:00pm"}, {"days": "Sat", "time": "1:00pm"}, {"days": "Sun", "time": "Closed"}], "id": "3030300106", "name": "USPS COLLECTION BOX - BLUE BOX", "address": {"city": "ATLANTA", "state": "GA", "street": "50 UPPER ALABAMA ST SW", "postcode": "30303"}}},
{"geometry": {"type": "Point", "coordinates": [-84.3906340744, 33.7495842761]}, "type": "Feature", "properties": {"collection_times": [{"days": "Mon-Fri", "time": "2:00pm"}, {"days": "Sat", "time": "1:00pm"}, {"days": "Sun", "time": "Closed"}], "id": "3030300112", "name": "USPS COLLECTION BOX - BLUE BOX", "address": {"city": "ATLANTA", "state": "GA", "street": "68 MITCHELL AVE", "postcode": "30303"}}},
{"geometry": {"type": "Point", "coordinates": [-84.38990772, 33.7554494847]}, "type": "Feature", "properties": {"collection_times": [{"days": "Mon-Fri", "time": "2:00pm"}, {"days": "Sat", "time": "1:00pm"}, {"days": "Sun", "time": "Closed"}], "id": "3030300113", "name": "USPS COLLECTION BOX - BLUE BOX", "address": {"city": "ATLANTA", "state": "GA", "street": "44 BROAD ST NW", "postcode": "30303"}}},
{"geometry": {"type": "Point", "coordinates": [-84.3891080235, 33.756743758]}, "type": "Feature", "properties": {"collection_times": [{"days": "Mon-Fri", "time": "3:00pm"}, {"days": "Sat", "time": "1:00pm"}, {"days": "Sun", "time": "Closed"}], "id": "3030300114", "name": "USPS COLLECTION BOX - BLUE BOX", "address": {"city": "ATLANTA", "state": "GA", "street": "66 LUCKIE ST NW", "postcode": "30303"}}},
{"geometry": {"type": "Point", "coordinates": [-84.3951585146, 33.7482083479]}, "type": "Feature", "properties": {"collection_times": [{"days": "Mon-Fri", "time": "2:00pm"}, {"days": "Sat", "time": "1:00pm"}, {"days": "Sun", "time": "Closed"}], "id": "3030300130", "name": "USPS COLLECTION BOX - BLUE BOX", "address": {"city": "ATLANTA", "state": "GA", "street": "236 PEACHTREE ST SW", "postcode": "30303"}}},
{"geometry": {"type": "Point", "coordinates": [-84.387567467, 33.758612472]}, "type": "Feature", "properties": {"collection_times": [{"days": "Mon-Sat", "time": "1:00pm"}, {"days": "Sun", "time": "Closed"}], "id": "3030300135", "name": "USPS COLLECTION BOX - BLUE BOX", "address": {"city": "ATLANTA", "state": "GA", "street": "181 PEACHTREE ST", "postcode": "30303"}}},
{"geometry": {"type": "Point", "coordinates": [-84.3876084676, 33.7607860973]}, "type": "Feature", "properties": {"collection_times": [{"days": "Mon-Fri", "time": "3:00pm"}, {"days": "Sat", "time": "12:30pm"}, {"days": "Sun", "time": "Closed"}], "id": "3030300146", "name": "USPS COLLECTION BOX - PO LOBBY", "address": {"city": "ATLANTA", "state": "GA", "street": "240 PEACHTREE ST NW", "postcode": "30303"}}},
{"geometry": {"type": "Point", "coordinates": [-84.392855558, 33.7489274744]}, "type": "Feature", "properties": {"collection_times": [{"days": "Mon-Fri", "time": "3:30pm"}, {"days": "Sat", "time": "1:00pm"}, {"days": "Sun", "time": "Closed"}], "id": "3030300156", "name": "USPS COLLECTION BOX - BLUE BOX", "address": {"city": "ATLANTA", "state": "GA", "street": "210 PRYOR ST SW", "postcode": "30303"}}},
{"geometry": {"type": "Point", "coordinates": [-84.3935296419, 33.7511714187]}, "type": "Feature", "properties": {"collection_times": [{"days": "Mon-Fri", "time": "2:00pm"}, {"days": "Sat", "time": "1:00pm"}, {"days": "Sun", "time": "Closed"}], "id": "3030300160", "name": "USPS COLLECTION BOX - BLUE BOX", "address": {"city": "ATLANTA", "state": "GA", "street": "170 MITCHELL ST SW", "postcode": "30303"}}},
{"geometry": {"type": "Point", "coordinates": [-84.3938028441, 33.7498787168]}, "type": "Feature", "properties": {"collection_times": [{"days": "Mon-Fri", "time": "2:00pm"}, {"days": "Sat", "time": "1:00pm"}, {"days": "Sun", "time": "Closed"}], "id": "3030300161", "name": "USPS COLLECTION BOX - BLUE BOX", "address": {"city": "ATLANTA", "state": "GA", "street": "175 TRINITY AVE SW", "postcode": "30303"}}},
{"geometry": {"type": "Point", "coordinates": [-84.3869512148, 33.7571983241]}, "type": "Feature", "properties": {"collection_times": [{"days": "Mon-Fri", "time": "1:00pm"}, {"days": "Sat", "time": "10:00am"}, {"days": "Sun", "time": "Closed"}], "id": "3030300202", "name": "USPS COLLECTION BOX - BLUE BOX", "address": {"city": "ATLANTA", "state": "GA", "street": "24 JOHN WESLEY DOBBS AVE NE", "postcode": "30303"}}},
{"geometry": {"type": "Point", "coordinates": [-84.3909436318, 33.7552079161]}, "type": "Feature", "properties": {"collection_times": [{"days": "Mon-Sat", "time": "2:00pm"}, {"days": "Sun", "time": "Closed"}], "id": "3030300209", "name": "USPS COLLECTION BOX - BLUE BOX", "address": {"city": "ATLANTA", "state": "GA", "street": "40 MARIETTA ST NW", "postcode": "30303"}}},
{"geometry": {"type": "Point", "coordinates": [-84.3943925143, 33.7434786492]}, "type": "Feature", "properties": {"collection_times": [{"days": "Mon-Sat", "time": "5:00pm"}, {"days": "Sun", "time": "Closed"}], "id": "3030300224", "name": "USPS COLLECTION BOX - BLUE BOX", "address": {"city": "ATLANTA", "state": "GA", "street": "400 PRYOR ST SW", "postcode": "30303"}}},
{"geometry": {"type": "Point", "coordinates": [-84.3920295882, 33.7563956069]}, "type": "Feature", "properties": {"collection_times": [{"days": "Mon-Sat", "time": "2:00pm"}, {"days": "Sun", "time": "Closed"}], "id": "3030300252", "name": "USPS COLLECTION BOX - BLUE BOX", "address": {"city": "ATLANTA", "state": "GA", "street": "72 MARIETTA ST NW", "postcode": "30303"}}},
{"geometry": {"type": "Point", "coordinates": [-84.3884188973, 33.7547929305]}, "type": "Feature", "properties": {"collection_times": [{"days": "Mon-Fri", "time": "3:00pm"}, {"days": "Sat", "time": "11:00am"}, {"days": "Sun", "time": "Closed"}], "id": "3030300253", "name": "USPS COLLECTION BOX - BLUE BOX", "address": {"city": "ATLANTA", "state": "GA", "street": "10 PARK PL", "postcode": "30303"}}},
{"geometry": {"type": "Point", "coordinates": [-84.3880579365, 33.7552000271]}, "type": "Feature", "properties": {"collection_times": [{"days": "Mon-Fri", "time": "3:00pm"}, {"days": "Sat", "time": "10:00am"}, {"days": "Sun", "time": "Closed"}], "id": "3030300254", "name": "USPS COLLECTION BOX - BLUE BOX", "address": {"city": "ATLANTA", "state": "GA", "street": "25 PARK PL NE", "postcode": "30303"}}},
{"geometry": {"type": "Point", "coordinates": [-84.38869628, 33.754121673]}, "type": "Feature", "properties": {"collection_times": [{"days": "Mon-Fri", "time": "3:00pm"}, {"days": "Sat", "time": "11:30am"}, {"days": "Sun", "time": "Closed"}], "id": "3030300259", "name": "USPS COLLECTION BOX - BLUE BOX", "address": {"city": "ATLANTA", "state": "GA", "street": "250 TED TURNER DR NW", "postcode": "30303"}}},
{"geometry": {"type": "Point", "coordinates": [-84.3963048019, 33.7563222635]}, "type": "Feature", "properties": {"collection_times": [{"days": "Mon-Sat", "time": "2:00pm"}, {"days": "Sun", "time": "Closed"}], "id": "3030300260", "name": "USPS COLLECTION BOX - BLUE BOX", "address": {"city": "ATLANTA", "state": "GA", "street": "100 TECHWOOD DR", "postcode": "30303"}}},
{"geometry": {"type": "Point", "coordinates": [-84.3923761952, 33.7567493117]}, "type": "Feature", "properties": {"collection_times": [{"days": "Mon-Sat", "time": "2:00pm"}, {"days": "Sun", "time": "Closed"}], "id": "3030300268", "name": "USPS COLLECTION BOX - BLUE BOX", "address": {"city": "ATLANTA", "state": "GA", "street": "101 MARIETTA ST NW", "postcode": "30303"}}},
{"geometry": {"type": "Point", "coordinates": [-84.3881162658, 33.7481912353]}, "type": "Feature", "properties": {"collection_times": [{"days": "Mon-Fri", "time": "3:00pm"}, {"days": "Sat", "time": "1:00pm"}, {"days": "Sun", "time": "Closed"}], "id": "3030300275", "name": "USPS COLLECTION BOX - BLUE BOX", "address": {"city": "ATLANTA", "state": "GA", "street": "18 CAPITAL SQ", "postcode": "30303"}}},
{"geometry": {"type": "Point", "coordinates": [-84.3861775201, 33.7554781616]}, "type": "Feature", "properties": {"collection_times": [{"days": "Mon-Fri", "time": "3:00pm"}, {"days": "Sat", "time": "10:30am"}, {"days": "Sun", "time": "Closed"}], "id": "3030300277", "name": "USPS COLLECTION BOX - BLUE BOX", "address": {"city": "ATLANTA", "state": "GA", "street": "24 PEACHTREE CENTER AVE NE", "postcode": "30303"}}},
{"geometry": {"type": "Point", "coordinates": [-84.3860142418, 33.7612197136]}, "type": "Feature", "properties": {"collection_times": [{"days": "Mon-Fri", "time": "3:00pm"}, {"days": "Sat", "time": "12:00pm"}, {"days": "Sun", "time": "Closed"}], "id": "3030300278", "name": "USPS COLLECTION BOX - BLUE BOX", "address": {"city": "ATLANTA", "state": "GA", "street": "245 PEACHTREE CENTER AVE NE", "postcode": "30303"}}},
{"geometry": {"type": "Point", "coordinates": [-84.3922425208, 33.7519181072]}, "type": "Feature", "properties": {"collection_times": [{"days": "Mon-Fri", "time": "2:00pm"}, {"days": "Sat", "time": "12:00pm"}, {"days": "Sun", "time": "Closed"}], "id": "3030300279", "name": "USPS COLLECTION BOX - BLUE BOX", "address": {"city": "ATLANTA", "state": "GA", "street": "97 PEACHTREE ST SW", "postcode": "30303"}}},
{"geometry": {"type": "Point", "coordinates": [-84.3965314788, 33.7505462312]}, "type": "Feature", "properties": {"collection_times": [{"days": "Mon-Fri", "time": "2:00pm"}, {"days": "Sat-Sun", "time": "Closed"}], "id": "3030300281", "name": "USPS COLLECTION BOX - BLUE BOX", "address": {"city": "ATLANTA", "state": "GA", "street": "278 TRINITY AVE SW", "postcode": "30303"}}},
{"geometry": {"type": "Point", "coordinates": [-84.373149238, 33.847216817]}, "type": "Feature", "properties": {"collection_times": [{"days": "Mon-Fri", "time": "1:00pm"}, {"days": "Sat", "time": "12:00pm"}, {"days": "Sun", "time": "Closed"}], "id": "3030500005", "name": "USPS COLLECTION BOX - BLUE BOX", "address": {"city": "ATLANTA", "state": "GA", "street": "3330 PIEDMONT RD NE", "postcode": "30305"}}},
{"geometry": {"type": "Point", "coordinates": [-84.3792015812, 33.8392299425]}, "type": "Feature", "properties": {"collection_times": [{"days": "Mon-Fri", "time": "1:00pm"}, {"days": "Sat-Sun", "time": "Closed"}], "id": "3030500013", "name": "USPS COLLECTION BOX - BLUE BOX", "address": {"city": "ATLANTA", "state": "GA", "street": "255 E PACES FERRY RD NE", "postcode": "30305"}}},
{"geometry": {"type": "Point", "coordinates": [-84.3808399793, 33.8436009759]}, "type": "Feature", "properties": {"collection_times": [{"days": "Mon-Sat", "time": "12:00pm"}, {"days": "Sun", "time": "Closed"}], "id": "3030500021", "name": "USPS COLLECTION BOX - BLUE BOX", "address": {"city": "ATLANTA", "state": "GA", "street": "56 E ANDREWS DR NW", "postcode": "30305"}}},
{"geometry": {"type": "Point", "coordinates": [-84.383097065, 33.8432259779]}, "type": "Feature", "properties": {"collection_times": [{"days": "Mon-Sat", "time": "12:00pm"}, {"days": "Sun", "time": "Closed"}], "id": "3030500022", "name": "USPS COLLECTION BOX - BLUE BOX", "address": {"city": "ATLANTA", "state": "GA", "street": "110 E ANDREWS DR NW", "postcode": "30305"}}},
{"geometry": {"type": "Point", "coordinates": [-84.367878309, 33.8344314303]}, "type": "Feature", "properties": {"collection_times": [{"days": "Mon-Fri", "time": "1:00pm"}, {"days": "Sat", "time": "12:00pm"}, {"days": "Sun", "time": "Closed"}], "id": "3030500031", "name": "USPS COLLECTION BOX - BLUE BOX", "address": {"city": "ATLANTA", "state": "GA", "street": "2911 PIEDMONT RD NE", "postcode": "30305"}}},
{"geometry": {"type": "Point", "coordinates": [-84.379089896, 33.841129304]}, "type": "Feature", "properties": {"collection_times": [{"days": "Mon-Fri", "time": "1:00pm"}, {"days": "Sat", "time": "12:00pm"}, {"days": "Sun", "time": "Closed"}], "id": "3030500042", "name": "USPS COLLECTION BOX - BLUE BOX", "address": {"city": "ATLANTA", "state": "GA", "street": "3155 ROSWELL RD NE", "postcode": "30305"}}},
{"geometry": {"type": "Point", "coordinates": [-84.376636936, 33.840617926]}, "type": "Feature", "properties": {"collection_times": [{"days": "Mon-Fri", "time": "1:00pm"}, {"days": "Sat", "time": "12:00pm"}, {"days": "Sun", "time": "Closed"}], "id": "3030500047", "name": "USPS COLLECTION BOX - BLUE BOX", "address": {"city": "ATLANTA", "state": "GA", "street": "3164 PEACHTREE RD NE", "postcode": "30305"}}},
{"geometry": {"type": "Point", "coordinates": [-84.3723404192, 33.8416360811]}, "type": "Feature", "properties": {"collection_times": [{"days": "Mon-Fri", "time": "1:00pm"}, {"days": "Sat", "time": "12:00pm"}, {"days": "Sun", "time": "Closed"}], "id": "3030500049", "name": "USPS COLLECTION BOX - BLUE BOX", "address": {"city": "ATLANTA", "state": "GA", "street": "3161 MAPLE DR NE", "postcode": "30305"}}},
{"geometry": {"type": "Point", "coordinates": [-84.3759579077, 33.8389495813]}, "type": "Feature", "properties": {"collection_times": [{"days": "Mon-Fri", "time": "1:00pm"}, {"days": "Sat", "time": "12:00pm"}, {"days": "Sun", "time": "Closed"}], "id": "3030500050", "name": "USPS COLLECTION BOX - BLUE BOX", "address": {"city": "ATLANTA", "state": "GA", "street": "359 E PACES FERRY RD NE", "postcode": "30305"}}},
{"geometry": {"type": "Point", "coordinates": [-84.3806944754, 33.8592432423]}, "type": "Feature", "properties": {"collection_times": [{"days": "Mon-Fri", "time": "5:00pm"}, {"days": "Sat", "time": "3:00pm"}, {"days": "Sun", "time": "Closed"}], "id": "3030500070", "name": "USPS COLLECTION BOX - BLUE BOX", "address": {"city": "ATLANTA", "state": "GA", "street": "3840 ROSWELL RD NE", "postcode": "30305"}}},
{"geometry": {"type": "Point", "coordinates": [-84.3763589308, 33.8363943899]}, "type": "Feature", "properties": {"collection_times": [{"days": "Mon-Fri", "time": "1:00pm"}, {"days": "Sat", "time": "12:00pm"}, {"days": "Sun", "time": "Closed"}], "id": "3030500094", "name": "USPS COLLECTION BOX - BLUE BOX", "address": {"city": "ATLANTA", "state": "GA", "street": "2996 GRANDVIEW AVE NE", "postcode": "30305"}}},
{"geometry": {"type": "Point", "coordinates": [-84.3777429928, 33.8392062834]}, "type": "Feature", "properties": {"collection_times": [{"days": "Mon-Fri", "time": "1:00pm"}, {"days": "Sat", "time": "12:00pm"}, {"days": "Sun", "time": "Closed"}], "id": "3030500096", "name": "USPS COLLECTION BOX - BLUE BOX", "address": {"city": "ATLANTA", "state": "GA", "street": "309 E PACES FERRY RD NE", "postcode": "30305"}}},
{"geometry": {"type": "Point", "coordinates": [-84.3809521003, 33.8175633275]}, "type": "Feature", "properties": {"collection_times": [{"days": "Mon-Sat", "time": "12:00pm"}, {"days": "Sun", "time": "Closed"}], "id": "3030500098", "name": "USPS COLLECTION BOX - BLUE BOX", "address": {"city": "ATLANTA", "state": "GA", "street": "2277 VIRGINIA PL NE", "postcode": "30305"}}},
{"geometry": {"type": "Point", "coordinates": [-84.375804123, 33.8179059242]}, "type": "Feature", "properties": {"collection_times": [{"days": "Mon-Fri", "time": "1:00pm"}, {"days": "Sat", "time": "12:00pm"}, {"days": "Sun", "time": "Closed"}], "id": "3030500104", "name": "USPS COLLECTION BOX - BLUE BOX", "address": {"city": "ATLANTA", "state": "GA", "street": "349 PEACHTREE HILLS AVE NE", "postcode": "30305"}}},
{"geometry": {"type": "Point", "coordinates": [-84.3692942998, 33.8369752227]}, "type": "Feature", "properties": {"collection_times": [{"days": "Mon-Fri", "time": "5:00pm"}, {"days": "Sat", "time": "3:00pm"}, {"days": "Sun", "time": "Closed"}], "id": "3030500107", "name": "USPS COLLECTION BOX - BLUE BOX", "address": {"city": "ATLANTA", "state": "GA", "street": "575 PHARR RD NE", "postcode": "30305"}}},
{"geometry": {"type": "Point", "coordinates": [-84.3692942998, 33.8369752227]}, "type": "Feature", "properties": {"collection_times": [{"days": "Mon-Fri", "time": "5:00pm"}, {"days": "Sat", "time": "3:00pm"}, {"days": "Sun", "time": "Closed"}], "id": "3030500108", "name": "USPS COLLECTION BOX - BLUE BOX", "address": {"city": "ATLANTA", "state": "GA", "street": "575 PHARR RD NE", "postcode": "30305"}}},
{"geometry": {"type": "Point", "coordinates": [-84.3692942998, 33.8369752227]}, "type": "Feature", "properties": {"collection_times": [{"days": "Mon-Fri", "time": "5:00pm"}, {"days": "Sat", "time": "3:00pm"}, {"days": "Sun", "time": "Closed"}], "id": "3030500109", "name": "USPS COLLECTION BOX - BLUE BOX", "address": {"city": "ATLANTA", "state": "GA", "street": "575 PHARR RD NE", "postcode": "30305"}}},
{"geometry": {"type": "Point", "coordinates": [-84.3858509935, 33.8310982826]}, "type": "Feature", "properties": {"collection_times": [{"days": "Mon-Fri", "time": "12:30pm"}, {"days": "Sat", "time": "12:00pm"}, {"days": "Sun", "time": "Closed"}], "id": "3030500110", "name": "USPS COLLECTION BOX - BLUE BOX", "address": {"city": "ATLANTA", "state": "GA", "street": "2744 PEACHTREE RD NE", "postcode": "30305"}}},
{"geometry": {"type": "Point", "coordinates": [-84.3884946658, 33.8194034076]}, "type": "Feature", "properties": {"collection_times": [{"days": "Mon-Fri", "time": "1:00pm"}, {"days": "Sat", "time": "12:00pm"}, {"days": "Sun", "time": "Closed"}], "id": "3030500117", "name": "USPS COLLECTION BOX - BLUE BOX", "address": {"city": "ATLANTA", "state": "GA", "street": "2351 PEACHTREE RD NE", "postcode": "30305"}}},
{"geometry": {"type": "Point", "coordinates": [-84.352796561, 33.7780604991]}, "type": "Feature", "properties": {"collection_times": [{"days": "Mon-Sat", "time": "1:00pm"}, {"days": "Sun", "time": "Closed"}], "id": "3030600002", "name": "USPS COLLECTION BOX - BLUE BOX", "address": {"city": "ATLANTA", "state": "GA", "street": "854 N HIGHLAND AVE NE", "postcode": "30306"}}},
{"geometry": {"type": "Point", "coordinates": [-84.368343736, 33.7826552533]}, "type": "Feature", "properties": {"collection_times": [{"days": "Mon-Sat", "time": "1:00pm"}, {"days": "Sun", "time": "Closed"}], "id": "3030600003", "name": "USPS COLLECTION BOX - BLUE BOX", "address": {"city": "ATLANTA", "state": "GA", "street": "1027 MONROE DR NE", "postcode": "30306"}}},
{"geometry": {"type": "Point", "coordinates": [-84.3553964481, 33.7872738628]}, "type": "Feature", "properties": {"collection_times": [{"days": "Mon-Fri", "time": "5:00pm"}, {"days": "Sat", "time": "2:00pm"}, {"days": "Sun", "time": "Closed"}], "id": "3030600006", "name": "USPS COLLECTION BOX - BLUE BOX", "address": {"city": "ATLANTA", "state": "GA", "street": "1190 N HIGHLAND AVE NE", "postcode": "30306"}}},
{"geometry": {"type": "Point", "coordinates": [-84.3548937854, 33.782276737]}, "type": "Feature", "properties": {"collection_times": [{"days": "Mon-Sat", "time": "1:00pm"}, {"days": "Sun", "time": "Closed"}], "id": "3030600009", "name": "USPS COLLECTION BOX - BLUE BOX", "address": {"city": "ATLANTA", "state": "GA", "street": "999 VIRGINIA AVE NE", "postcode": "30306"}}},
{"geometry": {"type": "Point", "coordinates": [-84.3585530324, 33.7754081234]}, "type": "Feature", "properties": {"collection_times": [{"days": "Mon-Sat", "time": "1:00pm"}, {"days": "Sun", "time": "Closed"}], "id": "3030600013", "name": "USPS COLLECTION BOX - BLUE BOX", "address": {"city": "ATLANTA", "state": "GA", "street": "880 SAINT CHARLES AVE NE", "postcode": "30306"}}},
{"geometry": {"type": "Point", "coordinates": [-84.3601616658, 33.7676243773]}, "type": "Feature", "properties": {"collection_times": [{"days": "Mon-Fri", "time": "5:00pm"}, {"days": "Sat", "time": "4:00pm"}, {"days": "Sun", "time": "Closed"}], "id": "3030600019", "name": "USPS COLLECTION BOX - BLUE BOX", "address": {"city": "ATLANTA", "state": "GA", "street": "822 RALPH MCGILL BLVD NE", "postcode": "30306"}}},
{"geometry": {"type": "Point", "coordinates": [-84.3601616658, 33.7676243773]}, "type": "Feature", "properties": {"collection_times": [{"days": "Mon-Fri", "time": "5:00pm"}, {"days": "Sat-Sun", "time": "Closed"}], "id": "3030600023", "name": "USPS COLLECTION BOX - PO LOBBY", "address": {"city": "ATLANTA", "state": "GA", "street": "822 RALPH MCGILL BLVD NE", "postcode": "30306"}}},
{"geometry": {"type": "Point", "coordinates": [-84.3601616658, 33.7676243773]}, "type": "Feature", "properties": {"collection_times": [{"days": "Mon-Fri", "time": "5:00pm"}, {"days": "Sat-Sun", "time": "Closed"}], "id": "3030600024", "name": "USPS COLLECTION BOX - PO LOBBY", "address": {"city": "ATLANTA", "state": "GA", "street": "822 RALPH MCGILL BLVD NE", "postcode": "30306"}}},
{"geometry": {"type": "Point", "coordinates": [-84.3601616658, 33.7676243773]}, "type": "Feature", "properties": {"collection_times": [{"days": "Mon-Fri", "time": "5:00pm"}, {"days": "Sat-Sun", "time": "Closed"}], "id": "3030600025", "name": "USPS COLLECTION BOX - PO LOBBY", "address": {"city": "ATLANTA", "state": "GA", "street": "822 RALPH MCGILL BLVD NE", "postcode": "30306"}}},
{"geometry": {"type": "Point", "coordinates": [-84.3559907433, 33.7738040311]}, "type": "Feature", "properties": {"collection_times": [{"days": "Mon-Sat", "time": "1:00pm"}, {"days": "Sun", "time": "Closed"}], "id": "3030600030", "name": "USPS COLLECTION BOX - BLUE BOX", "address": {"city": "ATLANTA", "state": "GA", "street": "956 PONCE DE LEON AVE NE", "postcode": "30306"}}},
{"geometry": {"type": "Point", "coordinates": [-84.3506735531, 33.7726381572]}, "type": "Feature", "properties": {"collection_times": [{"days": "Mon-Sat", "time": "12:00pm"}, {"days": "Sun", "time": "Closed"}], "id": "3030700007", "name": "USPS COLLECTION BOX - BLUE BOX", "address": {"city": "ATLANTA", "state": "GA", "street": "675 SEMINOLE AVE NE", "postcode": "30307"}}},
{"geometry": {"type": "Point", "coordinates": [-84.3256721856, 33.7881898602]}, "type": "Feature", "properties": {"collection_times": [{"days": "Mon-Sat", "time": "12:00pm"}, {"days": "Sun", "time": "Closed"}], "id": "3030700012", "name": "USPS COLLECTION BOX - BLUE BOX", "address": {"city": "ATLANTA", "state": "GA", "street": "1593 N DECATUR RD NE", "postcode": "30307"}}},
{"geometry": {"type": "Point", "coordinates": [-84.3332779312, 33.7648466658]}, "type": "Feature", "properties": {"collection_times": [{"days": "Mon-Sat", "time": "12:00pm"}, {"days": "Sun", "time": "Closed"}], "id": "3030700018", "name": "USPS COLLECTION BOX - BLUE BOX", "address": {"city": "ATLANTA", "state": "GA", "street": "1662 MCLENDON AVE NE", "postcode": "30307"}}},
{"geometry": {"type": "Point", "coordinates": [-84.3490136513, 33.7669322224]}, "type": "Feature", "properties": {"collection_times": [{"days": "Mon-Fri", "time": "5:00pm"}, {"days": "Sat", "time": "1:30pm"}, {"days": "Sun", "time": "Closed"}], "id": "3030700032", "name": "USPS COLLECTION BOX - BLUE BOX", "address": {"city": "ATLANTA", "state": "GA", "street": "457 MORELAND AVE NE", "postcode": "30307"}}},
{"geometry": {"type": "Point", "coordinates": [-84.3873273263, 33.7732019049]}, "type": "Feature", "properties": {"collection_times": [{"days": "Mon-Sat", "time": "11:30am"}, {"days": "Sun", "time": "Closed"}], "id": "3030800003", "name": "USPS COLLECTION BOX - BLUE BOX", "address": {"city": "ATLANTA", "state": "GA", "street": "680 W PEACHTREE ST NW", "postcode": "30308"}}},
{"geometry": {"type": "Point", "coordinates": [-84.3815663161, 33.7745694055]}, "type": "Feature", "properties": {"collection_times": [{"days": "Mon-Sat", "time": "11:30am"}, {"days": "Sun", "time": "Closed"}], "id": "3030800023", "name": "USPS COLLECTION BOX - BLUE BOX", "address": {"city": "ATLANTA", "state": "GA", "street": "735 PIEDMONT AVE NE", "postcode": "30308"}}},
{"geometry": {"type": "Point", "coordinates": [-84.3819318504, 33.7699061813]}, "type": "Feature", "properties": {"collection_times": [{"days": "Mon-Fri", "time": "5:00pm"}, {"days": "Sat", "time": "3:00pm"}, {"days": "Sun", "time": "Closed"}], "id": "3030800039", "name": "USPS COLLECTION BOX - PO LOBBY", "address": {"city": "ATLANTA", "state": "GA", "street": "570 PIEDMONT AVE NE", "postcode": "30308"}}},
{"geometry": {"type": "Point", "coordinates": [-84.387487538, 33.7687593264]}, "type": "Feature", "properties": {"collection_times": [{"days": "Mon-Sat", "time": "11:30am"}, {"days": "Sun", "time": "Closed"}], "id": "3030800051", "name": "USPS COLLECTION BOX - BLUE BOX", "address": {"city": "ATLANTA", "state": "GA", "street": "524 W PEACHTREE ST NW", "postcode": "30308"}}},
{"geometry": {"type": "Point", "coordinates": [-84.3862549996, 33.769725199]}, "type": "Feature", "properties": {"collection_times": [{"days": "Mon-Sat", "time": "11:30am"}, {"days": "Sun", "time": "Closed"}], "id": "3030800077", "name": "USPS COLLECTION BOX - BLUE BOX", "address": {"city": "ATLANTA", "state": "GA", "street": "35 LINDEN AVE NE", "postcode": "30308"}}},
{"geometry": {"type": "Point", "coordinates": [-84.3775901224, 33.7761858893]}, "type": "Feature", "properties": {"collection_times": [{"days": "Mon-Sat", "time": "11:30am"}, {"days": "Sun", "time": "Closed"}], "id": "3030800090", "name": "USPS COLLECTION BOX - BLUE BOX", "address": {"city": "ATLANTA", "state": "GA", "street": "789 ARGONNE AVE NE", "postcode": "30308"}}},
{"geometry": {"type": "Point", "coordinates": [-84.3670738858, 33.7734444115]}, "type": "Feature", "properties": {"collection_times": [{"days": "Mon-Sat", "time": "11:30am"}, {"days": "Sun", "time": "Closed"}], "id": "3030800096", "name": "USPS COLLECTION BOX - BLUE BOX", "address": {"city": "ATLANTA", "state": "GA", "street": "650 PONCE DE LEON AVE NE", "postcode": "30308"}}},
{"geometry": {"type": "Point", "coordinates": [-84.3898947226, 33.7769070972]}, "type": "Feature", "properties": {"collection_times": [{"days": "Mon-Fri", "time": "11:30am"}, {"days": "Sat-Sun", "time": "Closed"}], "id": "3030800097", "name": "USPS COLLECTION BOX - BLUE BOX", "address": {"city": "ATLANTA", "state": "GA", "street": "85 5 TH ST", "postcode": "30308"}}},
{"geometry": {"type": "Point", "coordinates": [-84.3819318504, 33.7699061813]}, "type": "Feature", "properties": {"collection_times": [{"days": "Mon-Fri", "time": "5:00pm"}, {"days": "Sat", "time": "3:00pm"}, {"days": "Sun", "time": "Closed"}], "id": "3030800100", "name": "USPS COLLECTION BOX - BLUE BOX", "address": {"city": "ATLANTA", "state": "GA", "street": "570 PIEDMONT AVE NE", "postcode": "30308"}}},
{"geometry": {"type": "Point", "coordinates": [-84.3816953331, 33.7864333671]}, "type": "Feature", "properties": {"collection_times": [{"days": "Mon-Fri", "time": "2:30pm"}, {"days": "Sat-Sun", "time": "Closed"}], "id": "3030900002", "name": "USPS COLLECTION BOX - BLUE BOX", "address": {"city": "ATLANTA", "state": "GA", "street": "181 14TH ST NE", "postcode": "30309"}}},
{"geometry": {"type": "Point", "coordinates": [-84.3942180623, 33.8119118712]}, "type": "Feature", "properties": {"collection_times": [{"days": "Mon-Fri", "time": "3:00pm"}, {"days": "Sat", "time": "1:30pm"}, {"days": "Sun", "time": "Closed"}], "id": "3030900023", "name": "USPS COLLECTION BOX - BLUE BOX", "address": {"city": "ATLANTA", "state": "GA", "street": "55 BENNETT ST NW", "postcode": "30309"}}},
{"geometry": {"type": "Point", "coordinates": [-84.3929451984, 33.8098050212]}, "type": "Feature", "properties": {"collection_times": [{"days": "Mon-Fri", "time": "3:00pm"}, {"days": "Sat-Sun", "time": "Closed"}], "id": "3030900068", "name": "USPS COLLECTION BOX - BLUE BOX", "address": {"city": "ATLANTA", "state": "GA", "street": "2020 PEACHTREE RD NE", "postcode": "30309"}}},
{"geometry": {"type": "Point", "coordinates": [-84.3940865765, 33.8140025252]}, "type": "Feature", "properties": {"collection_times": [{"days": "Mon-Fri", "time": "3:00pm"}, {"days": "Sat", "time": "1:30pm"}, {"days": "Sun", "time": "Closed"}], "id": "3030900071", "name": "USPS COLLECTION BOX - BLUE BOX", "address": {"city": "ATLANTA", "state": "GA", "street": "173 COLONIAL HOMES DR NW", "postcode": "30309"}}},
{"geometry": {"type": "Point", "coordinates": [-84.3878241691, 33.7840839445]}, "type": "Feature", "properties": {"collection_times": [{"days": "Mon-Fri", "time": "5:00pm"}, {"days": "Sat", "time": "1:30pm"}, {"days": "Sun", "time": "Closed"}], "id": "3030900074", "name": "USPS COLLECTION BOX - BLUE BOX", "address": {"city": "ATLANTA", "state": "GA", "street": "1072 W PEACHTREE ST NW", "postcode": "30309"}}},
{"geometry": {"type": "Point", "coordinates": [-84.3933343919, 33.8040641214]}, "type": "Feature", "properties": {"collection_times": [{"days": "Mon-Fri", "time": "2:30pm"}, {"days": "Sat-Sun", "time": "Closed"}], "id": "3030900087", "name": "USPS COLLECTION BOX - BLUE BOX", "address": {"city": "ATLANTA", "state": "GA", "street": "1801 PEACHTREE ST NE", "postcode": "30309"}}},
{"geometry": {"type": "Point", "coordinates": [-84.3861063281, 33.7920737172]}, "type": "Feature", "properties": {"collection_times": [{"days": "Mon-Fri", "time": "2:30pm"}, {"days": "Sat", "time": "1:30pm"}, {"days": "Sun", "time": "Closed"}], "id": "3030900102", "name": "USPS COLLECTION BOX - BLUE BOX", "address": {"city": "ATLANTA", "state": "GA", "street": "1372 PEACHTREE ST NE", "postcode": "30309"}}},
{"geometry": {"type": "Point", "coordinates": [-84.3900694252, 33.8123448341]}, "type": "Feature", "properties": {"collection_times": [{"days": "Mon-Fri", "time": "3:00pm"}, {"days": "Sat", "time": "1:30pm"}, {"days": "Sun", "time": "Closed"}], "id": "3030900111", "name": "USPS COLLECTION BOX - BLUE BOX", "address": {"city": "ATLANTA", "state": "GA", "street": "67 PEACHTREE PARK DR NE", "postcode": "30309"}}},
{"geometry": {"type": "Point", "coordinates": [-84.380496111, 33.7813960585]}, "type": "Feature", "properties": {"collection_times": [{"days": "Mon-Fri", "time": "2:30pm"}, {"days": "Sat", "time": "1:30pm"}, {"days": "Sun", "time": "Closed"}], "id": "3030900114", "name": "USPS COLLECTION BOX - BLUE BOX", "address": {"city": "ATLANTA", "state": "GA", "street": "987 PIEDMONT AVE NE", "postcode": "30309"}}},
{"geometry": {"type": "Point", "coordinates": [-84.3852654288, 33.7795260036]}, "type": "Feature", "properties": {"collection_times": [{"days": "Mon-Fri", "time": "2:30pm"}, {"days": "Sat-Sun", "time": "Closed"}], "id": "3030900129", "name": "USPS COLLECTION BOX - BLUE BOX", "address": {"city": "ATLANTA", "state": "GA", "street": "60 8TH ST NE", "postcode": "30309"}}},
{"geometry": {"type": "Point", "coordinates": [-84.3878241691, 33.7840839445]}, "type": "Feature", "properties": {"collection_times": [{"days": "Mon-Fri", "time": "5:00pm"}, {"days": "Sat", "time": "1:30pm"}, {"days": "Sun", "time": "Closed"}], "id": "3030900135", "name": "USPS COLLECTION BOX - PO LOBBY", "address": {"city": "ATLANTA", "state": "GA", "street": "1072 W PEACHTREE ST NW", "postcode": "30309"}}},
{"geometry": {"type": "Point", "coordinates": [-84.3927474635, 33.8022149097]}, "type": "Feature", "properties": {"collection_times": [{"days": "Mon-Fri", "time": "2:30pm"}, {"days": "Sat", "time": "1:30pm"}, {"days": "Sun", "time": "Closed"}], "id": "3030900143", "name": "USPS COLLECTION BOX - BLUE BOX", "address": {"city": "ATLANTA", "state": "GA", "street": "1753 PEACHTREE ST NE", "postcode": "30309"}}},
{"geometry": {"type": "Point", "coordinates": [-84.3891195091, 33.7938575514]}, "type": "Feature", "properties": {"collection_times": [{"days": "Mon-Fri", "time": "2:30pm"}, {"days": "Sat-Sun", "time": "Closed"}], "id": "3030900149", "name": "USPS COLLECTION BOX - BLUE BOX", "address": {"city": "ATLANTA", "state": "GA", "street": "1440 SPRING ST NW", "postcode": "30309"}}},
{"geometry": {"type": "Point", "coordinates": [-84.3969012593, 33.7978914177]}, "type": "Feature", "properties": {"collection_times": [{"days": "Mon-Fri", "time": "2:30pm"}, {"days": "Sat", "time": "1:30pm"}, {"days": "Sun", "time": "Closed"}], "id": "3030900160", "name": "USPS COLLECTION BOX - BLUE BOX", "address": {"city": "ATLANTA", "state": "GA", "street": "1545 LORING DR NW", "postcode": "30309"}}},
{"geometry": {"type": "Point", "coordinates": [-84.3878241691, 33.7840839445]}, "type": "Feature", "properties": {"collection_times": [{"days": "Mon-Fri", "time": "5:00pm"}, {"days": "Sat", "time": "1:30pm"}, {"days": "Sun", "time": "Closed"}], "id": "3030900171", "name": "USPS COLLECTION BOX - BLUE BOX", "address": {"city": "ATLANTA", "state": "GA", "street": "1072 W PEACHTREE ST NW", "postcode": "30309"}}},
{"geometry": {"type": "Point", "coordinates": [-84.4156402662, 33.7358274994]}, "type": "Feature", "properties": {"collection_times": [{"days": "Mon-Fri", "time": "5:00pm"}, {"days": "Sat", "time": "4:00pm"}, {"days": "Sun", "time": "Closed"}], "id": "3031000012", "name": "USPS COLLECTION BOX - BLUE BOX", "address": {"city": "ATLANTA", "state": "GA", "street": "848 OGLETHORPE AVE SW", "postcode": "30310"}}},
{"geometry": {"type": "Point", "coordinates": [-84.4156402662, 33.7358274994]}, "type": "Feature", "properties": {"collection_times": [{"days": "Mon-Fri", "time": "5:00pm"}, {"days": "Sat", "time": "4:00pm"}, {"days": "Sun", "time": "Closed"}], "id": "3031000023", "name": "USPS COLLECTION BOX - BLUE BOX", "address": {"city": "ATLANTA", "state": "GA", "street": "848 OGLETHORPE AVE SW", "postcode": "30310"}}},
{"geometry": {"type": "Point", "coordinates": [-84.4345605118, 33.7385684153]}, "type": "Feature", "properties": {"collection_times": [{"days": "Mon-Sat", "time": "10:30am"}, {"days": "Sun", "time": "Closed"}], "id": "3031000052", "name": "USPS COLLECTION BOX - BLUE BOX", "address": {"city": "ATLANTA", "state": "GA", "street": "590 CASCADE AVE SW", "postcode": "30310"}}},
{"geometry": {"type": "Point", "coordinates": [-84.4156402662, 33.7358274994]}, "type": "Feature", "properties": {"collection_times": [{"days": "Mon-Fri", "time": "5:00pm"}, {"days": "Sat", "time": "4:00pm"}, {"days": "Sun", "time": "Closed"}], "id": "3031000064", "name": "USPS COLLECTION BOX - PO LOBBY", "address": {"city": "ATLANTA", "state": "GA", "street": "848 OGLETHORPE AVE SW", "postcode": "30310"}}},
{"geometry": {"type": "Point", "coordinates": [-84.4265625643, 33.728320128]}, "type": "Feature", "properties": {"collection_times": [{"days": "Mon-Sat", "time": "10:30am"}, {"days": "Sun", "time": "Closed"}], "id": "3031000068", "name": "USPS COLLECTION BOX - BLUE BOX", "address": {"city": "ATLANTA", "state": "GA", "street": "1537 HANEY PLAZA", "postcode": "30310"}}},
{"geometry": {"type": "Point", "coordinates": [-84.4678241157, 33.7519160489]}, "type": "Feature", "properties": {"collection_times": [{"days": "Mon-Sat", "time": "11:30am"}, {"days": "Sun", "time": "Closed"}], "id": "3031100008", "name": "USPS COLLECTION BOX - BLUE BOX", "address": {"city": "ATLANTA", "state": "GA", "street": "2460 MLK JR DR SW", "postcode": "30311"}}},
{"geometry": {"type": "Point", "coordinates": [-84.4868287019, 33.7522410745]}, "type": "Feature", "properties": {"collection_times": [{"days": "Mon-Sat", "time": "11:30am"}, {"days": "Sun", "time": "Closed"}], "id": "3031100012", "name": "USPS COLLECTION BOX - BLUE BOX", "address": {"city": "ATLANTA", "state": "GA", "street": "3050 MLK JR DR SW", "postcode": "30311"}}},
{"geometry": {"type": "Point", "coordinates": [-84.4738359324, 33.7538214882]}, "type": "Feature", "properties": {"collection_times": [{"days": "Mon-Sat", "time": "11:30am"}, {"days": "Sun", "time": "Closed"}], "id": "3031100015", "name": "USPS COLLECTION BOX - BLUE BOX", "address": {"city": "ATLANTA", "state": "GA", "street": "2636 MLK JR DR SW", "postcode": "30311"}}},
{"geometry": {"type": "Point", "coordinates": [-84.4724554193, 33.7535316633]}, "type": "Feature", "properties": {"collection_times": [{"days": "Mon-Sat", "time": "11:30am"}, {"days": "Sun", "time": "Closed"}], "id": "3031100016", "name": "USPS COLLECTION BOX - BLUE BOX", "address": {"city": "ATLANTA", "state": "GA", "street": "2600 MLK JR DR SW", "postcode": "30311"}}},
{"geometry": {"type": "Point", "coordinates": [-84.463008309, 33.7235128966]}, "type": "Feature", "properties": {"collection_times": [{"days": "Mon-Fri", "time": "5:00pm"}, {"days": "Sat", "time": "4:00pm"}, {"days": "Sun", "time": "Closed"}], "id": "3031100018", "name": "USPS COLLECTION BOX - PO LOBBY", "address": {"city": "ATLANTA", "state": "GA", "street": "2414 HERRING RD SW", "postcode": "30311"}}},
{"geometry": {"type": "Point", "coordinates": [-84.463008309, 33.7235128966]}, "type": "Feature", "properties": {"collection_times": [{"days": "Mon-Fri", "time": "5:00pm"}, {"days": "Sat", "time": "4:00pm"}, {"days": "Sun", "time": "Closed"}], "id": "3031100019", "name": "USPS COLLECTION BOX - BLUE BOX", "address": {"city": "ATLANTA", "state": "GA", "street": "2414 HERRING RD SW", "postcode": "30311"}}},
{"geometry": {"type": "Point", "coordinates": [-84.4557782822, 33.7070260921]}, "type": "Feature", "properties": {"collection_times": [{"days": "Mon-Sat", "time": "11:30am"}, {"days": "Sun", "time": "Closed"}], "id": "3031100021", "name": "USPS COLLECTION BOX - BLUE BOX", "address": {"city": "ATLANTA", "state": "GA", "street": "2064 CAMPBELLTON RD SW", "postcode": "30311"}}},
{"geometry": {"type": "Point", "coordinates": [-84.4995897273, 33.722853673]}, "type": "Feature", "properties": {"collection_times": [{"days": "Mon-Sat", "time": "11:30am"}, {"days": "Sun", "time": "Closed"}], "id": "3031100028", "name": "USPS COLLECTION BOX - BLUE BOX", "address": {"city": "ATLANTA", "state": "GA", "street": "3425 CASCADE RD SW", "postcode": "30311"}}},
{"geometry": {"type": "Point", "coordinates": [-84.3681480126, 33.7417955274]}, "type": "Feature", "properties": {"collection_times": [{"days": "Mon-Fri", "time": "3:00pm"}, {"days": "Sat", "time": "1:00pm"}, {"days": "Sun", "time": "Closed"}], "id": "3031200020", "name": "USPS COLLECTION BOX - BLUE BOX", "address": {"city": "ATLANTA", "state": "GA", "street": "465 BOULEVARD SE", "postcode": "30312"}}},
{"geometry": {"type": "Point", "coordinates": [-84.3657561409, 33.7338163706]}, "type": "Feature", "properties": {"collection_times": [{"days": "Mon-Sat", "time": "1:00pm"}, {"days": "Sun", "time": "Closed"}], "id": "3031200031", "name": "USPS COLLECTION BOX - BLUE BOX", "address": {"city": "ATLANTA", "state": "GA", "street": "667 ORMEWOOD AVE SE", "postcode": "30312"}}},
{"geometry": {"type": "Point", "coordinates": [-84.3798244129, 33.7367918524]}, "type": "Feature", "properties": {"collection_times": [{"days": "Mon-Sat", "time": "2:00pm"}, {"days": "Sun", "time": "Closed"}], "id": "3031200041", "name": "USPS COLLECTION BOX - BLUE BOX", "address": {"city": "ATLANTA", "state": "GA", "street": "250 GEORGIA AVE SE", "postcode": "30312"}}},
{"geometry": {"type": "Point", "coordinates": [-84.3718914739, 33.7632013721]}, "type": "Feature", "properties": {"collection_times": [{"days": "Mon-Fri", "time": "3:00pm"}, {"days": "Sat", "time": "1:30pm"}, {"days": "Sun", "time": "Closed"}], "id": "3031200043", "name": "USPS COLLECTION BOX - BLUE BOX", "address": {"city": "ATLANTA", "state": "GA", "street": "315 BOULEVARD AVE", "postcode": "30312"}}},
{"geometry": {"type": "Point", "coordinates": [-84.3719442607, 33.7512553066]}, "type": "Feature", "properties": {"collection_times": [{"days": "Mon-Fri", "time": "1:30pm"}, {"days": "Sat", "time": "12:30pm"}, {"days": "Sun", "time": "Closed"}], "id": "3031200044", "name": "USPS COLLECTION BOX - BLUE BOX", "address": {"city": "ATLANTA", "state": "GA", "street": "486 DECATUR ST SE", "postcode": "30312"}}},
{"geometry": {"type": "Point", "coordinates": [-84.3680959624, 33.7478854001]}, "type": "Feature", "properties": {"collection_times": [{"days": "Mon-Sat", "time": "1:00pm"}, {"days": "Sun", "time": "Closed"}], "id": "3031200046", "name": "USPS COLLECTION BOX - BLUE BOX", "address": {"city": "ATLANTA", "state": "GA", "street": "242 BOULEVARD SE", "postcode": "30312"}}},
{"geometry": {"type": "Point", "coordinates": [-84.3751191898, 33.7554882774]}, "type": "Feature", "properties": {"collection_times": [{"days": "Mon-Sat", "time": "2:00pm"}, {"days": "Sun", "time": "Closed"}], "id": "3031200051", "name": "USPS COLLECTION BOX - BLUE BOX", "address": {"city": "ATLANTA", "state": "GA", "street": "375 AUBURN AVE NE", "postcode": "30312"}}},
{"geometry": {"type": "Point", "coordinates": [-84.4038284209, 33.7487939126]}, "type": "Feature", "properties": {"collection_times": [{"days": "Mon-Sat", "time": "10:00am"}, {"days": "Sun", "time": "Closed"}], "id": "3031300022", "name": "USPS COLLECTION BOX - BLUE BOX", "address": {"city": "ATLANTA", "state": "GA", "street": "504 FAIR ST SW", "postcode": "30313"}}},
{"geometry": {"type": "Point", "coordinates": [-84.397261715, 33.7622925185]}, "type": "Feature", "properties": {"collection_times": [{"days": "Mon-Sat", "time": "10:00am"}, {"days": "Sun", "time": "Closed"}], "id": "3031300032", "name": "USPS COLLECTION BOX - BLUE BOX", "address": {"city": "ATLANTA", "state": "GA", "street": "1 GA DOME DR", "postcode": "30313"}}},
{"geometry": {"type": "Point", "coordinates": [-84.3919021298, 33.7742221241]}, "type": "Feature", "properties": {"collection_times": [{"days": "Mon-Sat", "time": "10:00am"}, {"days": "Sun", "time": "Closed"}], "id": "3031300038", "name": "USPS COLLECTION BOX - BLUE BOX", "address": {"city": "ATLANTA", "state": "GA", "street": "711 TECHWOOD DR NW", "postcode": "30313"}}},
{"geometry": {"type": "Point", "coordinates": [-84.4092534707, 33.7458270515]}, "type": "Feature", "properties": {"collection_times": [{"days": "Mon-Sat", "time": "10:00am"}, {"days": "Sun", "time": "Closed"}], "id": "3031400015", "name": "USPS COLLECTION BOX - BLUE BOX", "address": {"city": "ATLANTA", "state": "GA", "street": "350 SPELMAN LN SW", "postcode": "30314"}}},
{"geometry": {"type": "Point", "coordinates": [-84.4144759527, 33.754763368]}, "type": "Feature", "properties": {"collection_times": [{"days": "Mon-Sat", "time": "10:00am"}, {"days": "Sun", "time": "Closed"}], "id": "3031400022", "name": "USPS COLLECTION BOX - BLUE BOX", "address": {"city": "ATLANTA", "state": "GA", "street": "825 M L K JR DR NW", "postcode": "30314"}}},
{"geometry": {"type": "Point", "coordinates": [-84.4100543339, 33.755961461]}, "type": "Feature", "properties": {"collection_times": [{"days": "Mon-Fri", "time": "5:00pm"}, {"days": "Sat", "time": "3:30pm"}, {"days": "Sun", "time": "Closed"}], "id": "3031400054", "name": "USPS COLLECTION BOX - PO LOBBY", "address": {"city": "ATLANTA", "state": "GA", "street": "50 SUNSET AVE NW", "postcode": "30314"}}},
{"geometry": {"type": "Point", "coordinates": [-84.4100543339, 33.755961461]}, "type": "Feature", "properties": {"collection_times": [{"days": "Mon-Fri", "time": "5:00pm"}, {"days": "Sat", "time": "3:30pm"}, {"days": "Sun", "time": "Closed"}], "id": "3031400056", "name": "USPS COLLECTION BOX - BLUE BOX", "address": {"city": "ATLANTA", "state": "GA", "street": "50 SUNSET AVE NW", "postcode": "30314"}}},
{"geometry": {"type": "Point", "coordinates": [-84.433966275, 33.7554855375]}, "type": "Feature", "properties": {"collection_times": [{"days": "Mon-Sat", "time": "10:00am"}, {"days": "Sun", "time": "Closed"}], "id": "3031400065", "name": "USPS COLLECTION BOX - BLUE BOX", "address": {"city": "ATLANTA", "state": "GA", "street": "384 NORTHYARD BLVD NW", "postcode": "30314"}}},
{"geometry": {"type": "Point", "coordinates": [-84.433966275, 33.7554855375]}, "type": "Feature", "properties": {"collection_times": [{"days": "Mon-Sat", "time": "10:00am"}, {"days": "Sun", "time": "Closed"}], "id": "3031400066", "name": "USPS COLLECTION BOX - BLUE BOX", "address": {"city": "ATLANTA", "state": "GA", "street": "285 INTERNATIONAL BLVD", "postcode": "30314"}}},
{"geometry": {"type": "Point", "coordinates": [-84.37356341, 33.733729164]}, "type": "Feature", "properties": {"collection_times": [{"days": "Mon-Sat", "time": "10:00am"}, {"days": "Sun", "time": "Closed"}], "id": "3031500009", "name": "USPS COLLECTION BOX - BLUE BOX", "address": {"city": "ATLANTA", "state": "GA", "street": "800 CHEROKEE AVE SE", "postcode": "30315"}}},
{"geometry": {"type": "Point", "coordinates": [-84.3896098639, 33.6810357488]}, "type": "Feature", "properties": {"collection_times": [{"days": "Mon-Sat", "time": "10:00am"}, {"days": "Sun", "time": "Closed"}], "id": "3031500012", "name": "USPS COLLECTION BOX - BLUE BOX", "address": {"city": "ATLANTA", "state": "GA", "street": "26 CLEVELAND AVE", "postcode": "30315"}}},
{"geometry": {"type": "Point", "coordinates": [-84.3969550063, 33.6810505301]}, "type": "Feature", "properties": {"collection_times": [{"days": "Mon-Sat", "time": "10:00am"}, {"days": "Sun", "time": "Closed"}], "id": "3031500014", "name": "USPS COLLECTION BOX - BLUE BOX", "address": {"city": "ATLANTA", "state": "GA", "street": "230 CLEVELAND AVE SW", "postcode": "30315"}}},
{"geometry": {"type": "Point", "coordinates": [-84.4148039142, 33.6812907252]}, "type": "Feature", "properties": {"collection_times": [{"days": "Mon-Sat", "time": "10:00am"}, {"days": "Sun", "time": "Closed"}], "id": "3031500015", "name": "USPS COLLECTION BOX - BLUE BOX", "address": {"city": "ATLANTA", "state": "GA", "street": "777 CLEVELAND AVE SW", "postcode": "30315"}}},
{"geometry": {"type": "Point", "coordinates": [-84.3811392679, 33.7091233837]}, "type": "Feature", "properties": {"collection_times": [{"days": "Mon-Fri", "time": "5:00pm"}, {"days": "Sat", "time": "2:30pm"}, {"days": "Sun", "time": "Closed"}], "id": "3031500024", "name": "USPS COLLECTION BOX - BLUE BOX", "address": {"city": "ATLANTA", "state": "GA", "street": "1590 JONESBORO RD SE", "postcode": "30315"}}},
{"geometry": {"type": "Point", "coordinates": [-84.3898482118, 33.7210547079]}, "type": "Feature", "properties": {"collection_times": [{"days": "Mon-Sat", "time": "10:00am"}, {"days": "Sun", "time": "Closed"}], "id": "3031500054", "name": "USPS COLLECTION BOX - BLUE BOX", "address": {"city": "ATLANTA", "state": "GA", "street": "71 UNIVERSITY AVE SW", "postcode": "30315"}}},
{"geometry": {"type": "Point", "coordinates": [-84.4174394214, 33.6813223781]}, "type": "Feature", "properties": {"collection_times": [{"days": "Mon-Sat", "time": "10:00am"}, {"days": "Sun", "time": "Closed"}], "id": "3031500055", "name": "USPS COLLECTION BOX - BLUE BOX", "address": {"city": "ATLANTA", "state": "GA", "street": "844 CLEVELAND AVE", "postcode": "30315"}}},
{"geometry": {"type": "Point", "coordinates": [-84.3811392679, 33.7091233837]}, "type": "Feature", "properties": {"collection_times": [{"days": "Mon-Fri", "time": "5:00pm"}, {"days": "Sat", "time": "2:00pm"}, {"days": "Sun", "time": "Closed"}], "id": "3031500067", "name": "USPS COLLECTION BOX - PO LOBBY", "address": {"city": "ATLANTA", "state": "GA", "street": "1590 JONESBORO RD SE", "postcode": "30315"}}},
{"geometry": {"type": "Point", "coordinates": [-84.3830217687, 33.714230176]}, "type": "Feature", "properties": {"collection_times": [{"days": "Mon-Sat", "time": "10:00am"}, {"days": "Sun", "time": "Closed"}], "id": "3031500071", "name": "USPS COLLECTION BOX - BLUE BOX", "address": {"city": "ATLANTA", "state": "GA", "street": "1477 JONESBORO RD SE", "postcode": "30315"}}},
{"geometry": {"type": "Point", "coordinates": [-84.4081552492, 33.6994359135]}, "type": "Feature", "properties": {"collection_times": [{"days": "Mon-Sat", "time": "10:00am"}, {"days": "Sun", "time": "Closed"}], "id": "3031500072", "name": "USPS COLLECTION BOX - BLUE BOX", "address": {"city": "ATLANTA", "state": "GA", "street": "2053 METROPOLITAN PKWY SW", "postcode": "30315"}}},
{"geometry": {"type": "Point", "coordinates": [-84.407775955, 33.6824192681]}, "type": "Feature", "properties": {"collection_times": [{"days": "Mon-Sat", "time": "10:00am"}, {"days": "Sun", "time": "Closed"}], "id": "3031500073", "name": "USPS COLLECTION BOX - BLUE BOX", "address": {"city": "ATLANTA", "state": "GA", "street": "2685 METROPOLITAN PKWY SW", "postcode": "30315"}}},
{"geometry": {"type": "Point", "coordinates": [-84.345879993, 33.7422568814]}, "type": "Feature", "properties": {"collection_times": [{"days": "Mon-Fri", "time": "5:00pm"}, {"days": "Sat", "time": "3:00pm"}, {"days": "Sun", "time": "Closed"}], "id": "3031600005", "name": "USPS COLLECTION BOX - BLUE BOX", "address": {"city": "ATLANTA", "state": "GA", "street": "1273 METROPOLITAN AVE SE", "postcode": "30316"}}},
{"geometry": {"type": "Point", "coordinates": [-84.3107088497, 33.6877991309]}, "type": "Feature", "properties": {"collection_times": [{"days": "Mon-Sat", "time": "11:00am"}, {"days": "Sun", "time": "Closed"}], "id": "3031600012", "name": "USPS COLLECTION BOX - BLUE BOX", "address": {"city": "ATLANTA", "state": "GA", "street": "2530 BOULDERCREST RD SE", "postcode": "30316"}}},
{"geometry": {"type": "Point", "coordinates": [-84.345879993, 33.7422568814]}, "type": "Feature", "properties": {"collection_times": [{"days": "Mon-Fri", "time": "5:00pm"}, {"days": "Sat", "time": "3:00pm"}, {"days": "Sun", "time": "Closed"}], "id": "3031600021", "name": "USPS COLLECTION BOX - BLUE BOX", "address": {"city": "ATLANTA", "state": "GA", "street": "1273 METROPOLITAN AVE SE", "postcode": "30316"}}},
{"geometry": {"type": "Point", "coordinates": [-84.345879993, 33.7422568814]}, "type": "Feature", "properties": {"collection_times": [{"days": "Mon-Fri", "time": "5:00pm"}, {"days": "Sat", "time": "3:00pm"}, {"days": "Sun", "time": "Closed"}], "id": "3031600022", "name": "USPS COLLECTION BOX - PO LOBBY", "address": {"city": "ATLANTA", "state": "GA", "street": "1273 METROPOLITAN AVE SE", "postcode": "30316"}}},
{"geometry": {"type": "Point", "coordinates": [-84.3246801854, 33.7526266997]}, "type": "Feature", "properties": {"collection_times": [{"days": "Mon-Fri", "time": "5:00pm"}, {"days": "Sat", "time": "3:00pm"}, {"days": "Sun", "time": "Closed"}], "id": "3031700007", "name": "USPS COLLECTION BOX - BLUE BOX", "address": {"city": "ATLANTA", "state": "GA", "street": "1926 HOSEA L WILLIAMS DR NE", "postcode": "30317"}}},
{"geometry": {"type": "Point", "coordinates": [-84.3246801854, 33.7526266997]}, "type": "Feature", "properties": {"collection_times": [{"days": "Mon-Fri", "time": "5:00pm"}, {"days": "Sat", "time": "3:00pm"}, {"days": "Sun", "time": "Closed"}], "id": "3031700008", "name": "USPS COLLECTION BOX - PO LOBBY", "address": {"city": "ATLANTA", "state": "GA", "street": "1926 HOSEA L WILLIAMS DR NE", "postcode": "30317"}}},
{"geometry": {"type": "Point", "coordinates": [-84.4078670428, 33.7948394074]}, "type": "Feature", "properties": {"collection_times": [{"days": "Mon-Sat", "time": "12:00pm"}, {"days": "Sun", "time": "Closed"}], "id": "3031800018", "name": "USPS COLLECTION BOX - BLUE BOX", "address": {"city": "ATLANTA", "state": "GA", "street": "1465 NORTHSIDE DR NW", "postcode": "30318"}}},
{"geometry": {"type": "Point", "coordinates": [-84.4051296758, 33.7738170436]}, "type": "Feature", "properties": {"collection_times": [{"days": "Mon-Fri", "time": "5:00pm"}, {"days": "Sat", "time": "1:00pm"}, {"days": "Sun", "time": "Closed"}], "id": "3031800040", "name": "USPS COLLECTION BOX - BLUE BOX", "address": {"city": "ATLANTA", "state": "GA", "street": "794 MARIETTA ST NW", "postcode": "30318"}}},
{"geometry": {"type": "Point", "coordinates": [-84.4127786884, 33.7808946871]}, "type": "Feature", "properties": {"collection_times": [{"days": "Mon-Fri", "time": "5:00pm"}, {"days": "Sat", "time": "4:00pm"}, {"days": "Sun", "time": "Closed"}], "id": "3031800041", "name": "USPS COLLECTION BOX - BLUE BOX", "address": {"city": "ATLANTA", "state": "GA", "street": "967 BRADY AVE NW", "postcode": "30318"}}},
{"geometry": {"type": "Point", "coordinates": [-84.4157744762, 33.8008125222]}, "type": "Feature", "properties": {"collection_times": [{"days": "Mon-Sat", "time": "12:00pm"}, {"days": "Sun", "time": "Closed"}], "id": "3031800099", "name": "USPS COLLECTION BOX - BLUE BOX", "address": {"city": "ATLANTA", "state": "GA", "street": "1715 HOWELL MILL RD NW", "postcode": "30318"}}},
{"geometry": {"type": "Point", "coordinates": [-84.407631634, 33.7765603254]}, "type": "Feature", "properties": {"collection_times": [{"days": "Mon-Sat", "time": "12:00pm"}, {"days": "Sun", "time": "Closed"}], "id": "3031800112", "name": "USPS COLLECTION BOX - BLUE BOX", "address": {"city": "ATLANTA", "state": "GA", "street": "887 W MARIETTA ST NW", "postcode": "30318"}}},
{"geometry": {"type": "Point", "coordinates": [-84.4757274476, 33.8054884588]}, "type": "Feature", "properties": {"collection_times": [{"days": "Mon-Sat", "time": "12:00pm"}, {"days": "Sun", "time": "Closed"}], "id": "3031800125", "name": "USPS COLLECTION BOX - BLUE BOX", "address": {"city": "ATLANTA", "state": "GA", "street": "1800 JAMES JACKSON PKWY NW", "postcode": "30318"}}},
{"geometry": {"type": "Point", "coordinates": [-84.339134503, 33.8615812291]}, "type": "Feature", "properties": {"collection_times": [{"days": "Mon-Sat", "time": "12:00pm"}, {"days": "Sun", "time": "Closed"}], "id": "3031900004", "name": "USPS COLLECTION BOX - BLUE BOX", "address": {"city": "ATLANTA", "state": "GA", "street": "4060 PEACHTREE RD NE", "postcode": "30319"}}},
{"geometry": {"type": "Point", "coordinates": [-84.330758291, 33.8735532924]}, "type": "Feature", "properties": {"collection_times": [{"days": "Mon-Sat", "time": "12:00pm"}, {"days": "Sun", "time": "Closed"}], "id": "3031900011", "name": "USPS COLLECTION BOX - BLUE BOX", "address": {"city": "ATLANTA", "state": "GA", "street": "4484 PEACHTREE RD NE", "postcode": "30319"}}},
{"geometry": {"type": "Point", "coordinates": [-84.3111268715, 33.8652181891]}, "type": "Feature", "properties": {"collection_times": [{"days": "Mon-Fri", "time": "5:00pm"}, {"days": "Sat", "time": "1:30pm"}, {"days": "Sun", "time": "Closed"}], "id": "3031900022", "name": "USPS COLLECTION BOX - BLUE BOX", "address": {"city": "ATLANTA", "state": "GA", "street": "1920 DRESDEN DR NE", "postcode": "30319"}}},
{"geometry": {"type": "Point", "coordinates": [-84.3333843975, 33.8704032772]}, "type": "Feature", "properties": {"collection_times": [{"days": "Mon-Fri", "time": "12:00pm"}, {"days": "Sat-Sun", "time": "Closed"}], "id": "3031900023", "name": "USPS COLLECTION BOX - BLUE BOX", "address": {"city": "ATLANTA", "state": "GA", "street": "4362 PEACHTREE RD NE", "postcode": "30319"}}},
{"geometry": {"type": "Point", "coordinates": [-84.328911256, 33.8935491319]}, "type": "Feature", "properties": {"collection_times": [{"days": "Mon-Sat", "time": "12:00pm"}, {"days": "Sun", "time": "Closed"}], "id": "3031900030", "name": "USPS COLLECTION BOX - BLUE BOX", "address": {"city": "ATLANTA", "state": "GA", "street": "2036 JOHNSON FERRY RD NE", "postcode": "30319"}}},
{"geometry": {"type": "Point", "coordinates": [-84.341081697, 33.8585411303]}, "type": "Feature", "properties": {"collection_times": [{"days": "Mon-Sat", "time": "12:00pm"}, {"days": "Sun", "time": "Closed"}], "id": "3031900031", "name": "USPS COLLECTION BOX - BLUE BOX", "address": {"city": "ATLANTA", "state": "GA", "street": "3954 PEACHTREE RD NE", "postcode": "30319"}}},
{"geometry": {"type": "Point", "coordinates": [-84.3118509954, 33.8584624894]}, "type": "Feature", "properties": {"collection_times": [{"days": "Mon-Sat", "time": "12:00pm"}, {"days": "Sun", "time": "Closed"}], "id": "3031900035", "name": "USPS COLLECTION BOX - BLUE BOX", "address": {"city": "ATLANTA", "state": "GA", "street": "3400 CLAIRMONT RD NE", "postcode": "30319"}}},
{"geometry": {"type": "Point", "coordinates": [-84.3583755886, 33.8539672453]}, "type": "Feature", "properties": {"collection_times": [{"days": "Mon-Sat", "time": "12:00pm"}, {"days": "Sun", "time": "Closed"}], "id": "3031900036", "name": "USPS COLLECTION BOX - BLUE BOX", "address": {"city": "ATLANTA", "state": "GA", "street": "3637 PEACHTREE RD NE", "postcode": "30319"}}},
{"geometry": {"type": "Point", "coordinates": [-84.3253639343, 33.8903165784]}, "type": "Feature", "properties": {"collection_times": [{"days": "Mon-Sat", "time": "12:00pm"}, {"days": "Sun", "time": "Closed"}], "id": "3031900038", "name": "USPS COLLECTION BOX - BLUE BOX", "address": {"city": "ATLANTA", "state": "GA", "street": "3435 ASHFORD DUNWOODY RD NE", "postcode": "30319"}}},
{"geometry": {"type": "Point", "coordinates": [-84.3465088432, 33.8470863225]}, "type": "Feature", "properties": {"collection_times": [{"days": "Mon-Fri", "time": "12:00pm"}, {"days": "Sat-Sun", "time": "Closed"}], "id": "3031900040", "name": "USPS COLLECTION BOX - BLUE BOX", "address": {"city": "ATLANTA", "state": "GA", "street": "2180 LAKE BLVD NE", "postcode": "30319"}}},
{"geometry": {"type": "Point", "coordinates": [-84.3111268715, 33.8652181891]}, "type": "Feature", "properties": {"collection_times": [{"days": "Mon-Fri", "time": "5:00pm"}, {"days": "Sat", "time": "1:30pm"}, {"days": "Sun", "time": "Closed"}], "id": "3031900041", "name": "USPS COLLECTION BOX - BLUE BOX", "address": {"city": "ATLANTA", "state": "GA", "street": "1920 DRESDEN DR NE", "postcode": "30319"}}},
{"geometry": {"type": "Point", "coordinates": [-84.3279406199, 33.8350680263]}, "type": "Feature", "properties": {"collection_times": [{"days": "Mon-Fri", "time": "1:30pm"}, {"days": "Sat", "time": "12:00pm"}, {"days": "Sun", "time": "Closed"}], "id": "3031900044", "name": "USPS COLLECTION BOX - BLUE BOX", "address": {"city": "ATLANTA", "state": "GA", "street": "1587 NORTHEAST EXPY NE", "postcode": "30319"}}},
{"geometry": {"type": "Point", "coordinates": [-84.3279406199, 33.8350680263]}, "type": "Feature", "properties": {"collection_times": [{"days": "Mon-Fri", "time": "1:30pm"}, {"days": "Sat", "time": "12:00pm"}, {"days": "Sun", "time": "Closed"}], "id": "3031900045", "name": "USPS COLLECTION BOX - BLUE BOX", "address": {"city": "ATLANTA", "state": "GA", "street": "1587 NORTHEAST EXPY NE", "postcode": "30319"}}},
{"geometry": {"type": "Point", "coordinates": [-84.3111268715, 33.8652181891]}, "type": "Feature", "properties": {"collection_times": [{"days": "Mon-Fri", "time": "5:00pm"}, {"days": "Sat", "time": "1:00pm"}, {"days": "Sun", "time": "Closed"}], "id": "3031900046", "name": "USPS COLLECTION BOX - PO LOBBY", "address": {"city": "ATLANTA", "state": "GA", "street": "1920 DRESDEN DR NE", "postcode": "30319"}}},
{"geometry": {"type": "Point", "coordinates": [-84.3111268715, 33.8652181891]}, "type": "Feature", "properties": {"collection_times": [{"days": "Mon-Fri", "time": "5:00pm"}, {"days": "Sat", "time": "1:00pm"}, {"days": "Sun", "time": "Closed"}], "id": "3031900047", "name": "USPS COLLECTION BOX - PO LOBBY", "address": {"city": "ATLANTA", "state": "GA", "street": "1920 DRESDEN DR NE", "postcode": "30319"}}},
{"geometry": {"type": "Point", "coordinates": [-84.3933573978, 33.6511331407]}, "type": "Feature", "properties": {"collection_times": [{"days": "Mon-Sat", "time": "7:00pm"}, {"days": "Sun", "time": "Closed"}], "id": "3032100003", "name": "USPS COLLECTION BOX - BLUE BOX", "address": {"city": "ATLANTA", "state": "GA", "street": "3900 CROWN RD", "postcode": "30321"}}},
{"geometry": {"type": "Point", "coordinates": [-84.3933573978, 33.6511331407]}, "type": "Feature", "properties": {"collection_times": [{"days": "Mon-Sat", "time": "7:00pm"}, {"days": "Sun", "time": "Closed"}], "id": "3032100007", "name": "USPS COLLECTION BOX - BLUE BOX", "address": {"city": "ATLANTA", "state": "GA", "street": "3900 CROWN RD", "postcode": "30321"}}},
{"geometry": {"type": "Point", "coordinates": [-84.3933573978, 33.6511331407]}, "type": "Feature", "properties": {"collection_times": [{"days": "Mon-Sat", "time": "7:00pm"}, {"days": "Sun", "time": "Closed"}], "id": "3032100011", "name": "USPS COLLECTION BOX - PO LOBBY", "address": {"city": "ATLANTA", "state": "GA", "street": "3900 CROWN RD", "postcode": "30321"}}},
{"geometry": {"type": "Point", "coordinates": [-84.3898998466, 33.7975500021]}, "type": "Feature", "properties": {"collection_times": [{"days": "Mon-Sat", "time": "7:00pm"}, {"days": "Sun", "time": "Closed"}], "id": "3032100012", "name": "USPS COLLECTION BOX - APC", "address": {"city": "ATLANTA", "state": "GA", "street": "3900 CROWN", "postcode": "30321"}}},
{"geometry": {"type": "Point", "coordinates": [-84.3670360312, 33.8266787479]}, "type": "Feature", "properties": {"collection_times": [{"days": "Mon-Sat", "time": "12:00pm"}, {"days": "Sun", "time": "Closed"}], "id": "3032400006", "name": "USPS COLLECTION BOX - BLUE BOX", "address": {"city": "ATLANTA", "state": "GA", "street": "2625 PIEDMONT RD NE", "postcode": "30324"}}},
{"geometry": {"type": "Point", "coordinates": [-84.3676996711, 33.7918891077]}, "type": "Feature", "properties": {"collection_times": [{"days": "Mon-Sat", "time": "12:00pm"}, {"days": "Sun", "time": "Closed"}], "id": "3032400015", "name": "USPS COLLECTION BOX - BLUE BOX", "address": {"city": "ATLANTA", "state": "GA", "street": "593 DUTCH VALLEY RD NE", "postcode": "30324"}}},
{"geometry": {"type": "Point", "coordinates": [-84.3580805244, 33.8379562975]}, "type": "Feature", "properties": {"collection_times": [{"days": "Mon-Sat", "time": "12:00pm"}, {"days": "Sun", "time": "Closed"}], "id": "3032400031", "name": "USPS COLLECTION BOX - BLUE BOX", "address": {"city": "ATLANTA", "state": "GA", "street": "3033 LENOX RD NE", "postcode": "30324"}}},
{"geometry": {"type": "Point", "coordinates": [-84.3578638623, 33.8120996704]}, "type": "Feature", "properties": {"collection_times": [{"days": "Mon-Sat", "time": "12:00pm"}, {"days": "Sun", "time": "Closed"}], "id": "3032400032", "name": "USPS COLLECTION BOX - BLUE BOX", "address": {"city": "ATLANTA", "state": "GA", "street": "2128 FAULKNER RD NE", "postcode": "30324"}}},
{"geometry": {"type": "Point", "coordinates": [-84.3547557341, 33.8260600604]}, "type": "Feature", "properties": {"collection_times": [{"days": "Mon-Sat", "time": "12:00pm"}, {"days": "Sun", "time": "Closed"}], "id": "3032400054", "name": "USPS COLLECTION BOX - BLUE BOX", "address": {"city": "ATLANTA", "state": "GA", "street": "31 LENOX POINTE NE", "postcode": "30324"}}},
{"geometry": {"type": "Point", "coordinates": [-84.3624073594, 33.8227828205]}, "type": "Feature", "properties": {"collection_times": [{"days": "Mon-Fri", "time": "5:00pm"}, {"days": "Sat", "time": "3:00pm"}, {"days": "Sun", "time": "Closed"}], "id": "3032400059", "name": "USPS COLLECTION BOX - BLUE BOX", "address": {"city": "ATLANTA", "state": "GA", "street": "780 MOROSGO DR NE", "postcode": "30324"}}},
{"geometry": {"type": "Point", "coordinates": [-84.363788996, 33.829833221]}, "type": "Feature", "properties": {"collection_times": [{"days": "Mon-Sat", "time": "12:00pm"}, {"days": "Sun", "time": "Closed"}], "id": "3032400063", "name": "USPS COLLECTION BOX - BLUE BOX", "address": {"city": "ATLANTA", "state": "GA", "street": "700 MIAMI CIR NE", "postcode": "30324"}}},
{"geometry": {"type": "Point", "coordinates": [-84.3624073594, 33.8227828205]}, "type": "Feature", "properties": {"collection_times": [{"days": "Mon-Fri", "time": "5:00pm"}, {"days": "Sat", "time": "3:00pm"}, {"days": "Sun", "time": "Closed"}], "id": "3032400064", "name": "USPS COLLECTION BOX - BLUE BOX", "address": {"city": "ATLANTA", "state": "GA", "street": "780 MOROSGO DR NE", "postcode": "30324"}}},
{"geometry": {"type": "Point", "coordinates": [-84.366216723, 33.8074073029]}, "type": "Feature", "properties": {"collection_times": [{"days": "Mon-Sat", "time": "12:00pm"}, {"days": "Sun", "time": "Closed"}], "id": "3032400069", "name": "USPS COLLECTION BOX - BLUE BOX", "address": {"city": "ATLANTA", "state": "GA", "street": "1874 PIEDMONT AVE NE", "postcode": "30324"}}},
{"geometry": {"type": "Point", "coordinates": [-84.3467033325, 33.8279137571]}, "type": "Feature", "properties": {"collection_times": [{"days": "Mon-Sat", "time": "12:00pm"}, {"days": "Sun", "time": "Closed"}], "id": "3032400075", "name": "USPS COLLECTION BOX - BLUE BOX", "address": {"city": "ATLANTA", "state": "GA", "street": "2695 BUFORD HWY NE", "postcode": "30324"}}},
{"geometry": {"type": "Point", "coordinates": [-84.3624073594, 33.8227828205]}, "type": "Feature", "properties": {"collection_times": [{"days": "Mon-Fri", "time": "5:00pm"}, {"days": "Sat", "time": "3:00pm"}, {"days": "Sun", "time": "Closed"}], "id": "3032400077", "name": "USPS COLLECTION BOX - PO LOBBY", "address": {"city": "ATLANTA", "state": "GA", "street": "780 MOROSGO DR NE", "postcode": "30324"}}},
{"geometry": {"type": "Point", "coordinates": [-84.3631653894, 33.8116232292]}, "type": "Feature", "properties": {"collection_times": [{"days": "Mon-Sat", "time": "12:00pm"}, {"days": "Sun", "time": "Closed"}], "id": "3032400079", "name": "USPS COLLECTION BOX - BLUE BOX", "address": {"city": "ATLANTA", "state": "GA", "street": "2139 LIDDELL DR NE", "postcode": "30324"}}},
{"geometry": {"type": "Point", "coordinates": [-84.3695095984, 33.7965617956]}, "type": "Feature", "properties": {"collection_times": [{"days": "Mon-Sat", "time": "12:00pm"}, {"days": "Sun", "time": "Closed"}], "id": "3032400080", "name": "USPS COLLECTION BOX - BLUE BOX", "address": {"city": "ATLANTA", "state": "GA", "street": "1544 PIEDMONT RD NE", "postcode": "30324"}}},
{"geometry": {"type": "Point", "coordinates": [-84.3723965704, 33.8114574332]}, "type": "Feature", "properties": {"collection_times": [{"days": "Mon-Sat", "time": "12:00pm"}, {"days": "Sun", "time": "Closed"}], "id": "3032400081", "name": "USPS COLLECTION BOX - BLUE BOX", "address": {"city": "ATLANTA", "state": "GA", "street": "496 PLASTERS AVE NE", "postcode": "30324"}}},
{"geometry": {"type": "Point", "coordinates": [-84.3636311371, 33.8027621265]}, "type": "Feature", "properties": {"collection_times": [{"days": "Mon-Sat", "time": "12:00pm"}, {"days": "Sun", "time": "Closed"}], "id": "3032400083", "name": "USPS COLLECTION BOX - BLUE BOX", "address": {"city": "ATLANTA", "state": "GA", "street": "735 WILDWOOD PL NE", "postcode": "30324"}}},
{"geometry": {"type": "Point", "coordinates": [-84.3684724, 33.8235640103]}, "type": "Feature", "properties": {"collection_times": [{"days": "Mon-Fri", "time": "12:00pm"}, {"days": "Sat-Sun", "time": "Closed"}], "id": "3032400084", "name": "USPS COLLECTION BOX - BLUE BOX", "address": {"city": "ATLANTA", "state": "GA", "street": "575 MOROSGO DR NE", "postcode": "30324"}}},
{"geometry": {"type": "Point", "coordinates": [-84.3624073594, 33.8227828205]}, "type": "Feature", "properties": {"collection_times": [{"days": "Mon-Fri", "time": "5:00pm"}, {"days": "Sat", "time": "3:00pm"}, {"days": "Sun", "time": "Closed"}], "id": "3032400086", "name": "USPS COLLECTION BOX - APC", "address": {"city": "ATLANTA", "state": "GA", "street": "780 MOROSGO DR NE", "postcode": "30324"}}},
{"geometry": {"type": "Point", "coordinates": [-84.3644862543, 33.8488808248]}, "type": "Feature", "properties": {"collection_times": [{"days": "Mon-Sat", "time": "12:00pm"}, {"days": "Sun", "time": "Closed"}], "id": "3032600078", "name": "USPS COLLECTION BOX - BLUE BOX", "address": {"city": "ATLANTA", "state": "GA", "street": "3393 PEACHTREE RD NE", "postcode": "30326"}}},
{"geometry": {"type": "Point", "coordinates": [-84.359130089, 33.8538613306]}, "type": "Feature", "properties": {"collection_times": [{"days": "Mon-Sat", "time": "12:00pm"}, {"days": "Sun", "time": "Closed"}], "id": "3032600086", "name": "USPS COLLECTION BOX - BLUE BOX", "address": {"city": "ATLANTA", "state": "GA", "street": "3500 PEACHTREE RD NE", "postcode": "30326"}}},
{"geometry": {"type": "Point", "coordinates": [-84.4288177204, 33.849342433]}, "type": "Feature", "properties": {"collection_times": [{"days": "Mon-Fri", "time": "1:00pm"}, {"days": "Sat", "time": "12:00pm"}, {"days": "Sun", "time": "Closed"}], "id": "3032700003", "name": "USPS COLLECTION BOX - BLUE BOX", "address": {"city": "ATLANTA", "state": "GA", "street": "1262 W PACES FERRY RD NW", "postcode": "30327"}}},
{"geometry": {"type": "Point", "coordinates": [-84.4289958729, 33.8470374717]}, "type": "Feature", "properties": {"collection_times": [{"days": "Mon-Fri", "time": "1:00pm"}, {"days": "Sat", "time": "12:00pm"}, {"days": "Sun", "time": "Closed"}], "id": "3032700032", "name": "USPS COLLECTION BOX - BLUE BOX", "address": {"city": "ATLANTA", "state": "GA", "street": "3401 NORTHSIDE PKWY NW", "postcode": "30327"}}},
{"geometry": {"type": "Point", "coordinates": [-84.4128591296, 33.8087521878]}, "type": "Feature", "properties": {"collection_times": [{"days": "Mon-Fri", "time": "5:00pm"}, {"days": "Sat", "time": "4:00pm"}, {"days": "Sun", "time": "Closed"}], "id": "3032700050", "name": "USPS COLLECTION BOX - BLUE BOX", "address": {"city": "ATLANTA", "state": "GA", "street": "1984 HOWELL MILL RD NW", "postcode": "30327"}}},
{"geometry": {"type": "Point", "coordinates": [-84.4128591296, 33.8087521878]}, "type": "Feature", "properties": {"collection_times": [{"days": "Mon-Fri", "time": "5:00pm"}, {"days": "Sat", "time": "4:00pm"}, {"days": "Sun", "time": "Closed"}], "id": "3032700053", "name": "USPS COLLECTION BOX - PO LOBBY", "address": {"city": "ATLANTA", "state": "GA", "street": "1984 HOWELL MILL RD NW", "postcode": "30327"}}},
{"geometry": {"type": "Point", "coordinates": [-84.4461370914, 33.8639168891]}, "type": "Feature", "properties": {"collection_times": [{"days": "Mon-Fri", "time": "2:30pm"}, {"days": "Sat", "time": "1:00pm"}, {"days": "Sun", "time": "Closed"}], "id": "3032700055", "name": "USPS COLLECTION BOX - BLUE BOX", "address": {"city": "ATLANTA", "state": "GA", "street": "4200 NORTHSIDE PKWY NW", "postcode": "30327"}}},
{"geometry": {"type": "Point", "coordinates": [-84.4128591296, 33.8087521878]}, "type": "Feature", "properties": {"collection_times": [{"days": "Mon-Fri", "time": "5:00pm"}, {"days": "Sat", "time": "4:00pm"}, {"days": "Sun", "time": "Closed"}], "id": "3032700056", "name": "USPS COLLECTION BOX - APC", "address": {"city": "ATLANTA", "state": "GA", "street": "1984 HOWELL MILL RD NW", "postcode": "30327"}}},
{"geometry": {"type": "Point", "coordinates": [-84.3842974408, 33.9209355183]}, "type": "Feature", "properties": {"collection_times": [{"days": "Mon-Fri", "time": "5:00pm"}, {"days": "Sat", "time": "2:00pm"}, {"days": "Sun", "time": "Closed"}], "id": "3032800005", "name": "USPS COLLECTION BOX - BLUE BOX", "address": {"city": "ATLANTA", "state": "GA", "street": "6010 SANDY SPRINGS CIR STE A", "postcode": "30328"}}},
{"geometry": {"type": "Point", "coordinates": [-84.3810020447, 33.9134866427]}, "type": "Feature", "properties": {"collection_times": [{"days": "Mon-Fri", "time": "1:00pm"}, {"days": "Sat", "time": "12:00pm"}, {"days": "Sun", "time": "Closed"}], "id": "3032800010", "name": "USPS COLLECTION BOX - BLUE BOX", "address": {"city": "ATLANTA", "state": "GA", "street": "180 ALLEN RD NE", "postcode": "30328"}}},
{"geometry": {"type": "Point", "coordinates": [-84.3605747093, 33.9289810392]}, "type": "Feature", "properties": {"collection_times": [{"days": "Mon-Fri", "time": "1:00pm"}, {"days": "Sat", "time": "12:00pm"}, {"days": "Sun", "time": "Closed"}], "id": "3032800011", "name": "USPS COLLECTION BOX - BLUE BOX", "address": {"city": "ATLANTA", "state": "GA", "street": "800 MOUNT VERNON HWY", "postcode": "30328"}}},
{"geometry": {"type": "Point", "coordinates": [-84.3911093151, 33.748314149]}, "type": "Feature", "properties": {"collection_times": [{"days": "Mon-Fri", "time": "1:00pm"}, {"days": "Sat", "time": "12:00pm"}, {"days": "Sun", "time": "Closed"}], "id": "3032800013", "name": "USPS COLLECTION BOX - BLUE BOX", "address": {"city": "ATLANTA", "state": "GA", "street": "1140 HAMMOND DR", "postcode": "30328"}}},
{"geometry": {"type": "Point", "coordinates": [-84.3842974408, 33.9209355183]}, "type": "Feature", "properties": {"collection_times": [{"days": "Mon-Fri", "time": "5:00pm"}, {"days": "Sat", "time": "2:00pm"}, {"days": "Sun", "time": "Closed"}], "id": "3032800030", "name": "USPS COLLECTION BOX - BLUE BOX", "address": {"city": "ATLANTA", "state": "GA", "street": "6010 SANDY SPRINGS CIR", "postcode": "30328"}}},
{"geometry": {"type": "Point", "coordinates": [-84.3792123675, 33.9281196473]}, "type": "Feature", "properties": {"collection_times": [{"days": "Mon-Fri", "time": "1:00pm"}, {"days": "Sat", "time": "12:00pm"}, {"days": "Sun", "time": "Closed"}], "id": "3032800044", "name": "USPS COLLECTION BOX - BLUE BOX", "address": {"city": "ATLANTA", "state": "GA", "street": "6344 ROSWELL RD NE", "postcode": "30328"}}},
{"geometry": {"type": "Point", "coordinates": [-84.362312476, 33.9143064333]}, "type": "Feature", "properties": {"collection_times": [{"days": "Mon-Fri", "time": "1:00pm"}, {"days": "Sat", "time": "12:00pm"}, {"days": "Sun", "time": "Closed"}], "id": "3032800052", "name": "USPS COLLECTION BOX - BLUE BOX", "address": {"city": "ATLANTA", "state": "GA", "street": "5825 GLENRIDGE DR NE", "postcode": "30328"}}},
{"geometry": {"type": "Point", "coordinates": [-84.3617967059, 33.9122137788]}, "type": "Feature", "properties": {"collection_times": [{"days": "Mon-Fri", "time": "1:00pm"}, {"days": "Sat", "time": "12:00pm"}, {"days": "Sun", "time": "Closed"}], "id": "3032800055", "name": "USPS COLLECTION BOX - BLUE BOX", "address": {"city": "ATLANTA", "state": "GA", "street": "5775 GLENRIDGE DR NE", "postcode": "30328"}}},
{"geometry": {"type": "Point", "coordinates": [-84.3623491477, 33.9161755084]}, "type": "Feature", "properties": {"collection_times": [{"days": "Mon-Fri", "time": "1:00pm"}, {"days": "Sat", "time": "12:00pm"}, {"days": "Sun", "time": "Closed"}], "id": "3032800056", "name": "USPS COLLECTION BOX - BLUE BOX", "address": {"city": "ATLANTA", "state": "GA", "street": "5881 GLENRIDGE DR NE", "postcode": "30328"}}},
{"geometry": {"type": "Point", "coordinates": [-84.3911093151, 33.748314149]}, "type": "Feature", "properties": {"collection_times": [{"days": "Mon-Fri", "time": "1:00pm"}, {"days": "Sat", "time": "12:00pm"}, {"days": "Sun", "time": "Closed"}], "id": "3032800059", "name": "USPS COLLECTION BOX - BLUE BOX", "address": {"city": "ATLANTA", "state": "GA", "street": "5871 GLENRIDGE DR", "postcode": "30328"}}},
{"geometry": {"type": "Point", "coordinates": [-84.3620380295, 33.9190086951]}, "type": "Feature", "properties": {"collection_times": [{"days": "Mon-Fri", "time": "1:00pm"}, {"days": "Sat", "time": "12:00pm"}, {"days": "Sun", "time": "Closed"}], "id": "3032800063", "name": "USPS COLLECTION BOX - BLUE BOX", "address": {"city": "ATLANTA", "state": "GA", "street": "750 HAMMOND DR NE", "postcode": "30328"}}},
{"geometry": {"type": "Point", "coordinates": [-84.3871132107, 33.9134156652]}, "type": "Feature", "properties": {"collection_times": [{"days": "Mon-Fri", "time": "1:00pm"}, {"days": "Sat", "time": "12:00pm"}, {"days": "Sun", "time": "Closed"}], "id": "3032800077", "name": "USPS COLLECTION BOX - BLUE BOX", "address": {"city": "ATLANTA", "state": "GA", "street": "5784 LAKE FORREST DR NW", "postcode": "30328"}}},
{"geometry": {"type": "Point", "coordinates": [-84.3512399801, 33.9216963779]}, "type": "Feature", "properties": {"collection_times": [{"days": "Mon-Fri", "time": "1:00pm"}, {"days": "Sat", "time": "12:00pm"}, {"days": "Sun", "time": "Closed"}], "id": "3032800082", "name": "USPS COLLECTION BOX - BLUE BOX", "address": {"city": "ATLANTA", "state": "GA", "street": "6111 PEACHTREE DUNWOODY RD NE", "postcode": "30328"}}},
{"geometry": {"type": "Point", "coordinates": [-84.3869775149, 33.9211895803]}, "type": "Feature", "properties": {"collection_times": [{"days": "Mon-Fri", "time": "1:00pm"}, {"days": "Sat", "time": "12:00pm"}, {"days": "Sun", "time": "Closed"}], "id": "3032800087", "name": "USPS COLLECTION BOX - BLUE BOX", "address": {"city": "ATLANTA", "state": "GA", "street": "6075 LAKE FORREST DR", "postcode": "30328"}}},
{"geometry": {"type": "Point", "coordinates": [-84.3598145091, 33.9215074933]}, "type": "Feature", "properties": {"collection_times": [{"days": "Mon-Fri", "time": "1:00pm"}, {"days": "Sat", "time": "12:00pm"}, {"days": "Sun", "time": "Closed"}], "id": "3032800088", "name": "USPS COLLECTION BOX - BLUE BOX", "address": {"city": "ATLANTA", "state": "GA", "street": "6085 BARFIELD RD NE", "postcode": "30328"}}},
{"geometry": {"type": "Point", "coordinates": [-84.384589408, 33.9202063195]}, "type": "Feature", "properties": {"collection_times": [{"days": "Mon-Fri", "time": "1:00pm"}, {"days": "Sat", "time": "12:00pm"}, {"days": "Sun", "time": "Closed"}], "id": "3032800099", "name": "USPS COLLECTION BOX - BLUE BOX", "address": {"city": "ATLANTA", "state": "GA", "street": "6021 SANDY SPRINGS CIR NE", "postcode": "30328"}}},
{"geometry": {"type": "Point", "coordinates": [-84.3484020615, 33.9188856674]}, "type": "Feature", "properties": {"collection_times": [{"days": "Mon-Fri", "time": "1:00pm"}, {"days": "Sat", "time": "12:00pm"}, {"days": "Sun", "time": "Closed"}], "id": "3032800128", "name": "USPS COLLECTION BOX - BLUE BOX", "address": {"city": "ATLANTA", "state": "GA", "street": "1155 HAMMOND DR NE", "postcode": "30328"}}},
{"geometry": {"type": "Point", "coordinates": [-84.3807191695, 33.9190775694]}, "type": "Feature", "properties": {"collection_times": [{"days": "Mon-Fri", "time": "5:00pm"}, {"days": "Sat", "time": "3:00pm"}, {"days": "Sun", "time": "Closed"}], "id": "3032800147", "name": "USPS COLLECTION BOX - PO LOBBY", "address": {"city": "ATLANTA", "state": "GA", "street": "227 SANDY SPRINGS PL NE STE G", "postcode": "30328"}}},
{"geometry": {"type": "Point", "coordinates": [-84.3807191695, 33.9190775694]}, "type": "Feature", "properties": {"collection_times": [{"days": "Mon-Fri", "time": "5:00pm"}, {"days": "Sat", "time": "3:00pm"}, {"days": "Sun", "time": "Closed"}], "id": "3032800159", "name": "USPS COLLECTION BOX - BLUE BOX", "address": {"city": "ATLANTA", "state": "GA", "street": "227 SANDY SPRINGS PL NE STE G", "postcode": "30328"}}},
{"geometry": {"type": "Point", "coordinates": [-84.3807191695, 33.9190775694]}, "type": "Feature", "properties": {"collection_times": [{"days": "Mon-Fri", "time": "5:00pm"}, {"days": "Sat", "time": "3:00pm"}, {"days": "Sun", "time": "Closed"}], "id": "3032800160", "name": "USPS COLLECTION BOX - BLUE BOX", "address": {"city": "ATLANTA", "state": "GA", "street": "227 SANDY SPRINGS PL NE STE G", "postcode": "30328"}}},
{"geometry": {"type": "Point", "coordinates": [-84.3541523322, 33.945752302]}, "type": "Feature", "properties": {"collection_times": [{"days": "Mon-Fri", "time": "1:00pm"}, {"days": "Sat", "time": "11:00am"}, {"days": "Sun", "time": "Closed"}], "id": "3032800161", "name": "USPS COLLECTION BOX - BLUE BOX", "address": {"city": "ATLANTA", "state": "GA", "street": "7000 PEACHTREE DUNWOODY RD", "postcode": "30328"}}},
{"geometry": {"type": "Point", "coordinates": [-84.3818798643, 33.9214685663]}, "type": "Feature", "properties": {"collection_times": [{"days": "Mon-Fri", "time": "5:00pm"}, {"days": "Sat", "time": "3:00pm"}, {"days": "Sun", "time": "Closed"}], "id": "3032800169", "name": "USPS COLLECTION BOX - APC", "address": {"city": "ATLANTA", "state": "GA", "street": "227 SANDY SPRINGS PL NE STE G", "postcode": "30328"}}},
{"geometry": {"type": "Point", "coordinates": [-84.3620380295, 33.9190086951]}, "type": "Feature", "properties": {"collection_times": [{"days": "Mon-Fri", "time": "1:00pm"}, {"days": "Sat", "time": "12:00pm"}, {"days": "Sun", "time": "Closed"}], "id": "3032800171", "name": "USPS COLLECTION BOX - BLUE BOX", "address": {"city": "ATLANTA", "state": "GA", "street": "750 HAMMOND DR NE", "postcode": "30328"}}},
{"geometry": {"type": "Point", "coordinates": [-84.3105312412, 33.8157246126]}, "type": "Feature", "properties": {"collection_times": [{"days": "Mon-Sat", "time": "12:00pm"}, {"days": "Sun", "time": "Closed"}], "id": "3032900004", "name": "USPS COLLECTION BOX - BLUE BOX", "address": {"city": "ATLANTA", "state": "GA", "street": "2927 N DRUID HILLS RD NE", "postcode": "30329"}}},
{"geometry": {"type": "Point", "coordinates": [-84.3292529382, 33.8423751737]}, "type": "Feature", "properties": {"collection_times": [{"days": "Mon-Sat", "time": "12:00pm"}, {"days": "Sun", "time": "Closed"}], "id": "3032900019", "name": "USPS COLLECTION BOX - BLUE BOX", "address": {"city": "ATLANTA", "state": "GA", "street": "3277 BUFORD HWY NE", "postcode": "30329"}}},
{"geometry": {"type": "Point", "coordinates": [-84.3244885461, 33.8350055961]}, "type": "Feature", "properties": {"collection_times": [{"days": "Mon-Sat", "time": "12:00pm"}, {"days": "Sun", "time": "Closed"}], "id": "3032900032", "name": "USPS COLLECTION BOX - BLUE BOX", "address": {"city": "ATLANTA", "state": "GA", "street": "1935 CLIFF VALLEY WAY NE", "postcode": "30329"}}},
{"geometry": {"type": "Point", "coordinates": [-84.3307085443, 33.8320600282]}, "type": "Feature", "properties": {"collection_times": [{"days": "Mon-Fri", "time": "12:00pm"}, {"days": "Sat-Sun", "time": "Closed"}], "id": "3032900037", "name": "USPS COLLECTION BOX - BLUE BOX", "address": {"city": "ATLANTA", "state": "GA", "street": "1430 TULLIE RD NE", "postcode": "30329"}}},
{"geometry": {"type": "Point", "coordinates": [-84.3319873229, 33.8291251071]}, "type": "Feature", "properties": {"collection_times": [{"days": "Mon-Sat", "time": "12:00pm"}, {"days": "Sun", "time": "Closed"}], "id": "3032900039", "name": "USPS COLLECTION BOX - BLUE BOX", "address": {"city": "ATLANTA", "state": "GA", "street": "2250 N DRUID HILLS RD NE", "postcode": "30329"}}},
{"geometry": {"type": "Point", "coordinates": [-84.338702981, 33.832471698]}, "type": "Feature", "properties": {"collection_times": [{"days": "Mon-Sat", "time": "12:00pm"}, {"days": "Sun", "time": "Closed"}], "id": "3032900043", "name": "USPS COLLECTION BOX - BLUE BOX", "address": {"city": "ATLANTA", "state": "GA", "street": "1190 W DRUID HILLS DR NE", "postcode": "30329"}}},
{"geometry": {"type": "Point", "coordinates": [-84.3298745582, 33.829560436]}, "type": "Feature", "properties": {"collection_times": [{"days": "Mon-Fri", "time": "12:00pm"}, {"days": "Sat-Sun", "time": "Closed"}], "id": "3032900046", "name": "USPS COLLECTION BOX - BLUE BOX", "address": {"city": "ATLANTA", "state": "GA", "street": "1645 TULLIE CIR NE", "postcode": "30329"}}},
{"geometry": {"type": "Point", "coordinates": [-84.3229969038, 33.8384453799]}, "type": "Feature", "properties": {"collection_times": [{"days": "Mon-Sat", "time": "11:30am"}, {"days": "Sun", "time": "Closed"}], "id": "3032900053", "name": "USPS COLLECTION BOX - BLUE BOX", "address": {"city": "ATLANTA", "state": "GA", "street": "1746 NORTHEAST EXPY NE", "postcode": "30329"}}},
{"geometry": {"type": "Point", "coordinates": [-84.3103628331, 33.8156098009]}, "type": "Feature", "properties": {"collection_times": [{"days": "Mon-Sat", "time": "12:00pm"}, {"days": "Sun", "time": "Closed"}], "id": "3032900057", "name": "USPS COLLECTION BOX - BLUE BOX", "address": {"city": "ATLANTA", "state": "GA", "street": "2941 N DRUID HILLS RD NE", "postcode": "30329"}}},
{"geometry": {"type": "Point", "coordinates": [-84.3337854206, 33.8339870684]}, "type": "Feature", "properties": {"collection_times": [{"days": "Mon-Sat", "time": "12:00pm"}, {"days": "Sun", "time": "Closed"}], "id": "3032900075", "name": "USPS COLLECTION BOX - BLUE BOX", "address": {"city": "ATLANTA", "state": "GA", "street": "13 CORPORATE BLVD NE", "postcode": "30329"}}},
{"geometry": {"type": "Point", "coordinates": [-84.336990274, 33.8328298617]}, "type": "Feature", "properties": {"collection_times": [{"days": "Mon-Fri", "time": "12:00pm"}, {"days": "Sat-Sun", "time": "Closed"}], "id": "3032900077", "name": "USPS COLLECTION BOX - BLUE BOX", "address": {"city": "ATLANTA", "state": "GA", "street": "56 CORPORATE SQ NE", "postcode": "30329"}}},
{"geometry": {"type": "Point", "coordinates": [-84.3244527694, 33.8348198379]}, "type": "Feature", "properties": {"collection_times": [{"days": "Mon-Sat", "time": "12:00pm"}, {"days": "Sun", "time": "Closed"}], "id": "3032900083", "name": "USPS COLLECTION BOX - BLUE BOX", "address": {"city": "ATLANTA", "state": "GA", "street": "1955 CLIFF VALLEY WAY NE", "postcode": "30329"}}},
{"geometry": {"type": "Point", "coordinates": [-84.332561058, 33.8024576631]}, "type": "Feature", "properties": {"collection_times": [{"days": "Mon-Sat", "time": "12:00pm"}, {"days": "Sun", "time": "Closed"}], "id": "3032900085", "name": "USPS COLLECTION BOX - BLUE BOX", "address": {"city": "ATLANTA", "state": "GA", "street": "1825 CLIFTON RD NE", "postcode": "30329"}}},
{"geometry": {"type": "Point", "coordinates": [-84.3213975508, 33.7954290369]}, "type": "Feature", "properties": {"collection_times": [{"days": "Mon-Sat", "time": "12:00pm"}, {"days": "Sun", "time": "Closed"}], "id": "3032900091", "name": "USPS COLLECTION BOX - BLUE BOX", "address": {"city": "ATLANTA", "state": "GA", "street": "1462 CLIFTON RD", "postcode": "30329"}}},
{"geometry": {"type": "Point", "coordinates": [-84.3319275905, 33.8268569359]}, "type": "Feature", "properties": {"collection_times": [{"days": "Mon-Sat", "time": "12:00pm"}, {"days": "Sun", "time": "Closed"}], "id": "3032900099", "name": "USPS COLLECTION BOX - BLUE BOX", "address": {"city": "ATLANTA", "state": "GA", "street": "2480 BRIARCLIFF RD NE", "postcode": "30329"}}},
{"geometry": {"type": "Point", "coordinates": [-84.3140146274, 33.8421695956]}, "type": "Feature", "properties": {"collection_times": [{"days": "Mon-Fri", "time": "12:00pm"}, {"days": "Sat-Sun", "time": "Closed"}], "id": "3032900100", "name": "USPS COLLECTION BOX - BLUE BOX", "address": {"city": "ATLANTA", "state": "GA", "street": "2957 CLAIRMONT RD NE", "postcode": "30329"}}},
{"geometry": {"type": "Point", "coordinates": [-84.3150958519, 33.8450288074]}, "type": "Feature", "properties": {"collection_times": [{"days": "Mon-Sat", "time": "12:00pm"}, {"days": "Sun", "time": "Closed"}], "id": "3032900101", "name": "USPS COLLECTION BOX - BLUE BOX", "address": {"city": "ATLANTA", "state": "GA", "street": "2987 CLAIRMONT RD NE", "postcode": "30329"}}},
{"geometry": {"type": "Point", "coordinates": [-84.3209348973, 33.793484514]}, "type": "Feature", "properties": {"collection_times": [{"days": "Mon-Sat", "time": "12:00pm"}, {"days": "Sun", "time": "Closed"}], "id": "3032900104", "name": "USPS COLLECTION BOX - BLUE BOX", "address": {"city": "ATLANTA", "state": "GA", "street": "1401 CLIFTON RD", "postcode": "30329"}}},
{"geometry": {"type": "Point", "coordinates": [-84.348768453, 33.912531737]}, "type": "Feature", "properties": {"collection_times": [{"days": "Mon-Fri", "time": "12:00pm"}, {"days": "Sat-Sun", "time": "Closed"}], "id": "3032900105", "name": "USPS COLLECTION BOX - BLUE BOX", "address": {"city": "ATLANTA", "state": "GA", "street": "1200 LAKE HEARN DR NE", "postcode": "30329"}}},
{"geometry": {"type": "Point", "coordinates": [-84.5110328941, 33.6927677931]}, "type": "Feature", "properties": {"collection_times": [{"days": "Mon-Fri", "time": "5:00pm"}, {"days": "Sat", "time": "3:00pm"}, {"days": "Sun", "time": "Closed"}], "id": "3033100011", "name": "USPS COLLECTION BOX - PO LOBBY", "address": {"city": "ATLANTA", "state": "GA", "street": "2260 FAIRBURN RD SW", "postcode": "30331"}}},
{"geometry": {"type": "Point", "coordinates": [-84.5110328941, 33.6927677931]}, "type": "Feature", "properties": {"collection_times": [{"days": "Mon-Fri", "time": "5:00pm"}, {"days": "Sat", "time": "3:00pm"}, {"days": "Sun", "time": "Closed"}], "id": "3033100012", "name": "USPS COLLECTION BOX - BLUE BOX", "address": {"city": "ATLANTA", "state": "GA", "street": "2260 FAIRBURN RD SW", "postcode": "30331"}}},
{"geometry": {"type": "Point", "coordinates": [-84.5110328941, 33.6927677931]}, "type": "Feature", "properties": {"collection_times": [{"days": "Mon-Fri", "time": "5:00pm"}, {"days": "Sat", "time": "3:00pm"}, {"days": "Sun", "time": "Closed"}], "id": "3033100020", "name": "USPS COLLECTION BOX - BLUE BOX", "address": {"city": "ATLANTA", "state": "GA", "street": "2260 FAIRBURN RD SW", "postcode": "30331"}}},
{"geometry": {"type": "Point", "coordinates": [-84.4966567302, 33.7911379881]}, "type": "Feature", "properties": {"collection_times": [{"days": "Mon-Fri", "time": "12:30pm"}, {"days": "Sat-Sun", "time": "Closed"}], "id": "3033100026", "name": "USPS COLLECTION BOX - BLUE BOX", "address": {"city": "ATLANTA", "state": "GA", "street": "3200 ATLANTA INDUSTRIAL PKWY NW", "postcode": "30331"}}},
{"geometry": {"type": "Point", "coordinates": [-84.4957739064, 33.6862910927]}, "type": "Feature", "properties": {"collection_times": [{"days": "Mon-Fri", "time": "5:00pm"}, {"days": "Sat", "time": "3:00pm"}, {"days": "Sun", "time": "Closed"}], "id": "3033100028", "name": "USPS COLLECTION BOX - PO LOBBY", "address": {"city": "ATLANTA", "state": "GA", "street": "2841 GREENBRIAR PKWY SW", "postcode": "30331"}}},
{"geometry": {"type": "Point", "coordinates": [-84.5087166605, 33.7235826912]}, "type": "Feature", "properties": {"collection_times": [{"days": "Mon-Fri", "time": "11:30am"}, {"days": "Sat-Sun", "time": "Closed"}], "id": "3033100029", "name": "USPS COLLECTION BOX - BLUE BOX", "address": {"city": "ATLANTA", "state": "GA", "street": "3695 CASCADE RD SW", "postcode": "30331"}}},
{"geometry": {"type": "Point", "coordinates": [-84.3373626885, 33.8048164833]}, "type": "Feature", "properties": {"collection_times": [{"days": "Mon-Fri", "time": "5:00pm"}, {"days": "Sat-Sun", "time": "Closed"}], "id": "3033300004", "name": "USPS COLLECTION BOX - PO LOBBY", "address": {"city": "ATLANTA", "state": "GA", "street": "1799 BRIARCLIFF RD NE", "postcode": "30333"}}},
{"geometry": {"type": "Point", "coordinates": [-84.3373626885, 33.8048164833]}, "type": "Feature", "properties": {"collection_times": [{"days": "Mon-Fri", "time": "4:15pm"}, {"days": "Sat", "time": "12:00pm"}, {"days": "Sun", "time": "Closed"}], "id": "3033300005", "name": "USPS COLLECTION BOX - BLUE BOX", "address": {"city": "ATLANTA", "state": "GA", "street": "1799 BRIARCLIFF RD NE", "postcode": "30333"}}},
{"geometry": {"type": "Point", "coordinates": [-84.3863222131, 33.7504929383]}, "type": "Feature", "properties": {"collection_times": [{"days": "Mon-Fri", "time": "2:00pm"}, {"days": "Sat-Sun", "time": "Closed"}], "id": "3033400001", "name": "USPS COLLECTION BOX - BLUE BOX", "address": {"city": "ATLANTA", "state": "GA", "street": "200 PIEDMONT AVE SE", "postcode": "30334"}}},
{"geometry": {"type": "Point", "coordinates": [-84.5180654293, 33.7745831117]}, "type": "Feature", "properties": {"collection_times": [{"days": "Mon-Fri", "time": "2:00pm"}, {"days": "Sat", "time": "1:00pm"}, {"days": "Sun", "time": "Closed"}], "id": "3033600013", "name": "USPS COLLECTION BOX - BLUE BOX", "address": {"city": "ATLANTA", "state": "GA", "street": "3940 AVIATION CIR NW", "postcode": "30336"}}},
{"geometry": {"type": "Point", "coordinates": [-84.5701473905, 33.7335576733]}, "type": "Feature", "properties": {"collection_times": [{"days": "Mon-Fri", "time": "2:00pm"}, {"days": "Sat", "time": "10:00am"}, {"days": "Sun", "time": "Closed"}], "id": "3033600014", "name": "USPS COLLECTION BOX - BLUE BOX", "address": {"city": "ATLANTA", "state": "GA", "street": "1001 GREAT SOUTHWEST PKWY SW", "postcode": "30336"}}},
{"geometry": {"type": "Point", "coordinates": [-84.5211577107, 33.7667726898]}, "type": "Feature", "properties": {"collection_times": [{"days": "Mon-Fri", "time": "2:00pm"}, {"days": "Sat", "time": "10:00am"}, {"days": "Sun", "time": "Closed"}], "id": "3033600026", "name": "USPS COLLECTION BOX - BLUE BOX", "address": {"city": "ATLANTA", "state": "GA", "street": "1 WENDELL CT SW", "postcode": "30336"}}},
{"geometry": {"type": "Point", "coordinates": [-84.571659417, 33.7303796575]}, "type": "Feature", "properties": {"collection_times": [{"days": "Mon-Fri", "time": "5:00pm"}, {"days": "Sat", "time": "1:00pm"}, {"days": "Sun", "time": "Closed"}], "id": "3033600027", "name": "USPS COLLECTION BOX - BLUE BOX", "address": {"city": "ATLANTA", "state": "GA", "street": "5686 FULTON INDUSTRIAL BLVD SW", "postcode": "30336"}}},
{"geometry": {"type": "Point", "coordinates": [-84.5606970604, 33.7464540198]}, "type": "Feature", "properties": {"collection_times": [{"days": "Mon-Fri", "time": "2:00pm"}, {"days": "Sat", "time": "10:00am"}, {"days": "Sun", "time": "Closed"}], "id": "3033600028", "name": "USPS COLLECTION BOX - BLUE BOX", "address": {"city": "ATLANTA", "state": "GA", "street": "101 GREAT SOUTHWEST PKWY SW", "postcode": "30336"}}},
{"geometry": {"type": "Point", "coordinates": [-84.5653079039, 33.7394619241]}, "type": "Feature", "properties": {"collection_times": [{"days": "Mon-Fri", "time": "2:00pm"}, {"days": "Sat", "time": "10:00am"}, {"days": "Sun", "time": "Closed"}], "id": "3033600033", "name": "USPS COLLECTION BOX - BLUE BOX", "address": {"city": "ATLANTA", "state": "GA", "street": "1 COMMERCE DR & CIR", "postcode": "30336"}}},
{"geometry": {"type": "Point", "coordinates": [-84.5653079039, 33.7394619241]}, "type": "Feature", "properties": {"collection_times": [{"days": "Mon-Fri", "time": "2:00pm"}, {"days": "Sat", "time": "10:00am"}, {"days": "Sun", "time": "Closed"}], "id": "3033600036", "name": "USPS COLLECTION BOX - BLUE BOX", "address": {"city": "ATLANTA", "state": "GA", "street": "1 BOAT ROCK/FULTON INDUSTRIAL", "postcode": "30336"}}},
{"geometry": {"type": "Point", "coordinates": [-84.573039196, 33.729760968]}, "type": "Feature", "properties": {"collection_times": [{"days": "Mon-Fri", "time": "5:00pm"}, {"days": "Sat-Sun", "time": "Closed"}], "id": "3033600040", "name": "USPS COLLECTION BOX - PO LOBBY", "address": {"city": "ATLANTA", "state": "GA", "street": "5686 FULTON INDUSTRIAL BLVD SW", "postcode": "30336"}}},
{"geometry": {"type": "Point", "coordinates": [-84.4417825854, 33.6592045049]}, "type": "Feature", "properties": {"collection_times": [{"days": "Mon-Sat", "time": "12:30pm"}, {"days": "Sun", "time": "Closed"}], "id": "3033700003", "name": "USPS COLLECTION BOX - BLUE BOX", "address": {"city": "COLLEGE PARK", "state": "GA", "street": "1624 VIRGINIA AVE", "postcode": "30337"}}},
{"geometry": {"type": "Point", "coordinates": [-84.4801928428, 33.6516945329]}, "type": "Feature", "properties": {"collection_times": [{"days": "Mon-Sat", "time": "12:30pm"}, {"days": "Sun", "time": "Closed"}], "id": "3033700012", "name": "USPS COLLECTION BOX - BLUE BOX", "address": {"city": "COLLEGE PARK", "state": "GA", "street": "2802 CAMP CREEK PKWY", "postcode": "30337"}}},
{"geometry": {"type": "Point", "coordinates": [-84.4492209223, 33.6517297636]}, "type": "Feature", "properties": {"collection_times": [{"days": "Mon-Fri", "time": "5:00pm"}, {"days": "Sat", "time": "4:00pm"}, {"days": "Sun", "time": "Closed"}], "id": "3033700016", "name": "USPS COLLECTION BOX - BLUE BOX", "address": {"city": "COLLEGE PARK", "state": "GA", "street": "3799 MAIN ST", "postcode": "30337"}}},
{"geometry": {"type": "Point", "coordinates": [-84.444335421, 33.6627325843]}, "type": "Feature", "properties": {"collection_times": [{"days": "Mon-Sat", "time": "12:30pm"}, {"days": "Sun", "time": "Closed"}], "id": "3033700034", "name": "USPS COLLECTION BOX - BLUE BOX", "address": {"city": "COLLEGE PARK", "state": "GA", "street": "1662 RUGBY AVE", "postcode": "30337"}}},
{"geometry": {"type": "Point", "coordinates": [-84.444534626, 33.6522716661]}, "type": "Feature", "properties": {"collection_times": [{"days": "Mon-Sat", "time": "12:30pm"}, {"days": "Sun", "time": "Closed"}], "id": "3033700035", "name": "USPS COLLECTION BOX - BLUE BOX", "address": {"city": "COLLEGE PARK", "state": "GA", "street": "1701 COLUMBIA AVE", "postcode": "30337"}}},
{"geometry": {"type": "Point", "coordinates": [-84.4492209223, 33.6517297636]}, "type": "Feature", "properties": {"collection_times": [{"days": "Mon-Fri", "time": "5:00pm"}, {"days": "Sat", "time": "4:00pm"}, {"days": "Sun", "time": "Closed"}], "id": "3033700052", "name": "USPS COLLECTION BOX - PO LOBBY", "address": {"city": "COLLEGE PARK", "state": "GA", "street": "3799 MAIN ST", "postcode": "30337"}}},
{"geometry": {"type": "Point", "coordinates": [-84.4460528431, 33.6639591757]}, "type": "Feature", "properties": {"collection_times": [{"days": "Mon-Sat", "time": "12:30pm"}, {"days": "Sun", "time": "Closed"}], "id": "3033700056", "name": "USPS COLLECTION BOX - BLUE BOX", "address": {"city": "COLLEGE PARK", "state": "GA", "street": "3355 MAIN ST", "postcode": "30337"}}},
{"geometry": {"type": "Point", "coordinates": [-84.4429796306, 33.6415894398]}, "type": "Feature", "properties": {"collection_times": [{"days": "Mon-Fri", "time": "5:00pm"}, {"days": "Sat", "time": "1:00pm"}, {"days": "Sun", "time": "Closed"}], "id": "3033700059", "name": "USPS COLLECTION BOX - BLUE BOX", "address": {"city": "COLLEGE PARK", "state": "GA", "street": "6000 N TERMINAL PKWY", "postcode": "30337"}}},
{"geometry": {"type": "Point", "coordinates": [-84.3134586367, 33.9289644778]}, "type": "Feature", "properties": {"collection_times": [{"days": "Mon-Sat", "time": "11:30am"}, {"days": "Sun", "time": "Closed"}], "id": "3033800005", "name": "USPS COLLECTION BOX - BLUE BOX", "address": {"city": "ATLANTA", "state": "GA", "street": "4675 N SHALLOWFORD RD", "postcode": "30338"}}},
{"geometry": {"type": "Point", "coordinates": [-84.3366221562, 33.951387465]}, "type": "Feature", "properties": {"collection_times": [{"days": "Mon-Sat", "time": "11:30am"}, {"days": "Sun", "time": "Closed"}], "id": "3033800013", "name": "USPS COLLECTION BOX - BLUE BOX", "address": {"city": "ATLANTA", "state": "GA", "street": "5591 CHAMBLEE DUNWOODY RD", "postcode": "30338"}}},
{"geometry": {"type": "Point", "coordinates": [-84.3143822156, 33.9225548425]}, "type": "Feature", "properties": {"collection_times": [{"days": "Mon-Sat", "time": "11:30am"}, {"days": "Sun", "time": "Closed"}], "id": "3033800016", "name": "USPS COLLECTION BOX - BLUE BOX", "address": {"city": "ATLANTA", "state": "GA", "street": "4494 CHAMBLEE DUNWOODY RD", "postcode": "30338"}}},
{"geometry": {"type": "Point", "coordinates": [-84.3366538498, 33.9512084624]}, "type": "Feature", "properties": {"collection_times": [{"days": "Mon-Sat", "time": "11:30am"}, {"days": "Sun", "time": "Closed"}], "id": "3033800017", "name": "USPS COLLECTION BOX - BLUE BOX", "address": {"city": "ATLANTA", "state": "GA", "street": "5556 CHAMBLEE DUNWOODY RD", "postcode": "30338"}}},
{"geometry": {"type": "Point", "coordinates": [-84.3121088805, 33.9304632868]}, "type": "Feature", "properties": {"collection_times": [{"days": "Mon-Sat", "time": "11:30am"}, {"days": "Sun", "time": "Closed"}], "id": "3033800040", "name": "USPS COLLECTION BOX - BLUE BOX", "address": {"city": "ATLANTA", "state": "GA", "street": "1867 INDEPENDENCE SQ", "postcode": "30338"}}},
{"geometry": {"type": "Point", "coordinates": [-84.3120284393, 33.930314234]}, "type": "Feature", "properties": {"collection_times": [{"days": "Mon-Sat", "time": "11:30am"}, {"days": "Sun", "time": "Closed"}], "id": "3033800042", "name": "USPS COLLECTION BOX - BLUE BOX", "address": {"city": "ATLANTA", "state": "GA", "street": "1874 INDEPENDENCE SQ", "postcode": "30338"}}},
{"geometry": {"type": "Point", "coordinates": [-84.3302720324, 33.9471004217]}, "type": "Feature", "properties": {"collection_times": [{"days": "Mon-Sat", "time": "11:30am"}, {"days": "Sun", "time": "Closed"}], "id": "3033800047", "name": "USPS COLLECTION BOX - BLUE BOX", "address": {"city": "ATLANTA", "state": "GA", "street": "1713 MOUNT VERNON RD", "postcode": "30338"}}},
{"geometry": {"type": "Point", "coordinates": [-84.3072954205, 33.9240244411]}, "type": "Feature", "properties": {"collection_times": [{"days": "Mon-Sat", "time": "11:30am"}, {"days": "Sun", "time": "Closed"}], "id": "3033800050", "name": "USPS COLLECTION BOX - BLUE BOX", "address": {"city": "ATLANTA", "state": "GA", "street": "4480 N SHALLOWFORD RD", "postcode": "30338"}}},
{"geometry": {"type": "Point", "coordinates": [-84.3169613782, 33.9238446314]}, "type": "Feature", "properties": {"collection_times": [{"days": "Mon-Sat", "time": "11:30am"}, {"days": "Sun", "time": "Closed"}], "id": "3033800055", "name": "USPS COLLECTION BOX - BLUE BOX", "address": {"city": "ATLANTA", "state": "GA", "street": "1745 OLD SPRINGHOUSE LN", "postcode": "30338"}}},
{"geometry": {"type": "Point", "coordinates": [-84.3318678441, 33.9481307789]}, "type": "Feature", "properties": {"collection_times": [{"days": "Mon-Fri", "time": "5:00pm"}, {"days": "Sat", "time": "1:30pm"}, {"days": "Sun", "time": "Closed"}], "id": "3033800062", "name": "USPS COLLECTION BOX - PO LOBBY", "address": {"city": "ATLANTA", "state": "GA", "street": "1551 DUNWOODY VILLAGE PKWY", "postcode": "30338"}}},
{"geometry": {"type": "Point", "coordinates": [-84.3137797171, 33.9244222508]}, "type": "Feature", "properties": {"collection_times": [{"days": "Mon-Sat", "time": "11:30am"}, {"days": "Sun", "time": "Closed"}], "id": "3033800074", "name": "USPS COLLECTION BOX - BLUE BOX", "address": {"city": "ATLANTA", "state": "GA", "street": "11 DUNWOODY PARK", "postcode": "30338"}}},
{"geometry": {"type": "Point", "coordinates": [-84.3318678441, 33.9481307789]}, "type": "Feature", "properties": {"collection_times": [{"days": "Mon-Fri", "time": "5:00pm"}, {"days": "Sat", "time": "2:00pm"}, {"days": "Sun", "time": "Closed"}], "id": "3033800083", "name": "USPS COLLECTION BOX - BLUE BOX", "address": {"city": "ATLANTA", "state": "GA", "street": "1551 DUNWOODY VILLAGE PKWY", "postcode": "30338"}}},
{"geometry": {"type": "Point", "coordinates": [-84.3318678441, 33.9481307789]}, "type": "Feature", "properties": {"collection_times": [{"days": "Mon-Fri", "time": "5:00pm"}, {"days": "Sat", "time": "1:30pm"}, {"days": "Sun", "time": "Closed"}], "id": "3033800087", "name": "USPS COLLECTION BOX - APC", "address": {"city": "ATLANTA", "state": "GA", "street": "1551 DUNWOODY VILLAGE PKWY", "postcode": "30338"}}},
{"geometry": {"type": "Point", "coordinates": [-84.300953111, 33.9585729445]}, "type": "Feature", "properties": {"collection_times": [{"days": "Mon-Sat", "time": "11:30am"}, {"days": "Sun", "time": "Closed"}], "id": "3033800088", "name": "USPS COLLECTION BOX - BLUE BOX", "address": {"city": "ATLANTA", "state": "GA", "street": "2490 MOUNT VERNON RD", "postcode": "30338"}}},
{"geometry": {"type": "Point", "coordinates": [-84.4627016519, 33.8775693312]}, "type": "Feature", "properties": {"collection_times": [{"days": "Mon-Fri", "time": "1:00pm"}, {"days": "Sat-Sun", "time": "Closed"}], "id": "3033900041", "name": "USPS COLLECTION BOX - BLUE BOX", "address": {"city": "ATLANTA", "state": "GA", "street": "290 INTERSTATE N CIR", "postcode": "30339"}}},
{"geometry": {"type": "Point", "coordinates": [-84.4548956299, 33.9023218393]}, "type": "Feature", "properties": {"collection_times": [{"days": "Mon-Fri", "time": "1:00pm"}, {"days": "Sat", "time": "12:00pm"}, {"days": "Sun", "time": "Closed"}], "id": "3033900108", "name": "USPS COLLECTION BOX - BLUE BOX", "address": {"city": "ATLANTA", "state": "GA", "street": "2028 POWERS FERRY RD SE", "postcode": "30339"}}},
{"geometry": {"type": "Point", "coordinates": [-84.4796691031, 33.9038254168]}, "type": "Feature", "properties": {"collection_times": [{"days": "Mon-Fri", "time": "1:00pm"}, {"days": "Sat-Sun", "time": "Closed"}], "id": "3033900120", "name": "USPS COLLECTION BOX - BLUE BOX", "address": {"city": "ATLANTA", "state": "GA", "street": "1975 N PARK PL SE", "postcode": "30339"}}},
{"geometry": {"type": "Point", "coordinates": [-84.4798540335, 33.9091259477]}, "type": "Feature", "properties": {"collection_times": [{"days": "Mon-Fri", "time": "1:00pm"}, {"days": "Sat-Sun", "time": "Closed"}], "id": "3033900126", "name": "USPS COLLECTION BOX - BLUE BOX", "address": {"city": "ATLANTA", "state": "GA", "street": "1820 THE EXCHANGE SE", "postcode": "30339"}}},
{"geometry": {"type": "Point", "coordinates": [-84.4558063336, 33.8797643322]}, "type": "Feature", "properties": {"collection_times": [{"days": "Mon-Fri", "time": "1:00pm"}, {"days": "Sat-Sun", "time": "Closed"}], "id": "3033900148", "name": "USPS COLLECTION BOX - BLUE BOX", "address": {"city": "ATLANTA", "state": "GA", "street": "3200 COBB GALLERIA PKWY", "postcode": "30339"}}},
{"geometry": {"type": "Point", "coordinates": [-84.4789629232, 33.9078004548]}, "type": "Feature", "properties": {"collection_times": [{"days": "Mon-Fri", "time": "1:00pm"}, {"days": "Sat-Sun", "time": "Closed"}], "id": "3033900156", "name": "USPS COLLECTION BOX - BLUE BOX", "address": {"city": "ATLANTA", "state": "GA", "street": "1870 THE EXCHANGE SE", "postcode": "30339"}}},
{"geometry": {"type": "Point", "coordinates": [-84.4650091358, 33.9118814514]}, "type": "Feature", "properties": {"collection_times": [{"days": "Mon-Fri", "time": "1:00pm"}, {"days": "Sat", "time": "12:00pm"}, {"days": "Sun", "time": "Closed"}], "id": "3033900167", "name": "USPS COLLECTION BOX - BLUE BOX", "address": {"city": "ATLANTA", "state": "GA", "street": "1827 POWERS FERRY RD SE", "postcode": "30339"}}},
{"geometry": {"type": "Point", "coordinates": [-84.480034879, 33.90936158]}, "type": "Feature", "properties": {"collection_times": [{"days": "Mon-Fri", "time": "1:00pm"}, {"days": "Sat-Sun", "time": "Closed"}], "id": "3033900179", "name": "USPS COLLECTION BOX - BLUE BOX", "address": {"city": "ATLANTA", "state": "GA", "street": "1815 THE EXCHANGE SE", "postcode": "30339"}}},
{"geometry": {"type": "Point", "coordinates": [-84.4694103521, 33.8787975751]}, "type": "Feature", "properties": {"collection_times": [{"days": "Mon-Fri", "time": "5:00pm"}, {"days": "Sat", "time": "2:00pm"}, {"days": "Sun", "time": "Closed"}], "id": "3033900183", "name": "USPS COLLECTION BOX - PO LOBBY", "address": {"city": "ATLANTA", "state": "GA", "street": "1315 CUMBERLAND MALL SE", "postcode": "30339"}}},
{"geometry": {"type": "Point", "coordinates": [-84.4627016519, 33.8775693312]}, "type": "Feature", "properties": {"collection_times": [{"days": "Mon-Fri", "time": "1:00pm"}, {"days": "Sat", "time": "12:00pm"}, {"days": "Sun", "time": "Closed"}], "id": "3033900191", "name": "USPS COLLECTION BOX - BLUE BOX", "address": {"city": "ATLANTA", "state": "GA", "street": "120 INTERSTATE N PKWY", "postcode": "30339"}}},
{"geometry": {"type": "Point", "coordinates": [-84.4780271038, 33.9059750459]}, "type": "Feature", "properties": {"collection_times": [{"days": "Mon-Fri", "time": "1:00pm"}, {"days": "Sat-Sun", "time": "Closed"}], "id": "3033900203", "name": "USPS COLLECTION BOX - BLUE BOX", "address": {"city": "ATLANTA", "state": "GA", "street": "1945 THE EXCHANGE SE", "postcode": "30339"}}},
{"geometry": {"type": "Point", "coordinates": [-84.4842904118, 33.9074990737]}, "type": "Feature", "properties": {"collection_times": [{"days": "Mon-Fri", "time": "1:00pm"}, {"days": "Sat", "time": "12:00pm"}, {"days": "Sun", "time": "Closed"}], "id": "3033900223", "name": "USPS COLLECTION BOX - BLUE BOX", "address": {"city": "ATLANTA", "state": "GA", "street": "1810 WATER PL SE", "postcode": "30339"}}},
{"geometry": {"type": "Point", "coordinates": [-84.4784420521, 33.9069493833]}, "type": "Feature", "properties": {"collection_times": [{"days": "Mon-Fri", "time": "1:00pm"}, {"days": "Sat", "time": "12:00pm"}, {"days": "Sun", "time": "Closed"}], "id": "3033900224", "name": "USPS COLLECTION BOX - BLUE BOX", "address": {"city": "ATLANTA", "state": "GA", "street": "1900 THE EXCHANGE SE", "postcode": "30339"}}},
{"geometry": {"type": "Point", "coordinates": [-84.4754058952, 33.8691591329]}, "type": "Feature", "properties": {"collection_times": [{"days": "Mon-Fri", "time": "12:30pm"}, {"days": "Sat-Sun", "time": "Closed"}], "id": "3033900226", "name": "USPS COLLECTION BOX - BLUE BOX", "address": {"city": "ATLANTA", "state": "GA", "street": "2580 CUMBERLAND PKWY SE", "postcode": "30339"}}},
{"geometry": {"type": "Point", "coordinates": [-84.4675541767, 33.8660666316]}, "type": "Feature", "properties": {"collection_times": [{"days": "Mon-Sat", "time": "1:00pm"}, {"days": "Sun", "time": "Closed"}], "id": "3033900235", "name": "USPS COLLECTION BOX - BLUE BOX", "address": {"city": "ATLANTA", "state": "GA", "street": "2900 NEW PACES FERRY RD", "postcode": "30339"}}},
{"geometry": {"type": "Point", "coordinates": [-84.464366299, 33.879660904]}, "type": "Feature", "properties": {"collection_times": [{"days": "Mon-Sat", "time": "12:00pm"}, {"days": "Sun", "time": "Closed"}], "id": "3033900236", "name": "USPS COLLECTION BOX - BLUE BOX", "address": {"city": "ATLANTA", "state": "GA", "street": "2961 OLYMPIC INDUSTRIAL DR SE", "postcode": "30339"}}},
{"geometry": {"type": "Point", "coordinates": [-84.2448931521, 33.9030020774]}, "type": "Feature", "properties": {"collection_times": [{"days": "Mon-Sat", "time": "11:30am"}, {"days": "Sun", "time": "Closed"}], "id": "3034000006", "name": "USPS COLLECTION BOX - BLUE BOX", "address": {"city": "DORAVILLE", "state": "GA", "street": "4126 PLEASANTDALE RD", "postcode": "30340"}}},
{"geometry": {"type": "Point", "coordinates": [-84.2714787831, 33.8840336256]}, "type": "Feature", "properties": {"collection_times": [{"days": "Mon-Sat", "time": "11:30am"}, {"days": "Sun", "time": "Closed"}], "id": "3034000008", "name": "USPS COLLECTION BOX - BLUE BOX", "address": {"city": "DORAVILLE", "state": "GA", "street": "3133 CHESTNUT DR", "postcode": "30340"}}},
{"geometry": {"type": "Point", "coordinates": [-84.2661698521, 33.8864548474]}, "type": "Feature", "properties": {"collection_times": [{"days": "Mon-Sat", "time": "11:30am"}, {"days": "Sun", "time": "Closed"}], "id": "3034000010", "name": "USPS COLLECTION BOX - BLUE BOX", "address": {"city": "DORAVILLE", "state": "GA", "street": "3781 PRESIDENTIAL PKWY", "postcode": "30340"}}},
{"geometry": {"type": "Point", "coordinates": [-84.2485232879, 33.9030693806]}, "type": "Feature", "properties": {"collection_times": [{"days": "Mon-Sat", "time": "11:30am"}, {"days": "Sun", "time": "Closed"}], "id": "3034000020", "name": "USPS COLLECTION BOX - BLUE BOX", "address": {"city": "DORAVILLE", "state": "GA", "street": "3648 OAKCLIFF RD", "postcode": "30340"}}},
{"geometry": {"type": "Point", "coordinates": [-84.2730499414, 33.9002848206]}, "type": "Feature", "properties": {"collection_times": [{"days": "Mon-Sat", "time": "11:30am"}, {"days": "Sun", "time": "Closed"}], "id": "3034000022", "name": "USPS COLLECTION BOX - BLUE BOX", "address": {"city": "DORAVILLE", "state": "GA", "street": "2001 CLEARVIEW AVE", "postcode": "30340"}}},
{"geometry": {"type": "Point", "coordinates": [-84.2496349308, 33.9038754979]}, "type": "Feature", "properties": {"collection_times": [{"days": "Mon-Sat", "time": "11:30am"}, {"days": "Sun", "time": "Closed"}], "id": "3034000023", "name": "USPS COLLECTION BOX - BLUE BOX", "address": {"city": "DORAVILLE", "state": "GA", "street": "3870 OAKCLIFF INDUSTRIAL CT", "postcode": "30340"}}},
{"geometry": {"type": "Point", "coordinates": [-84.2544904982, 33.9053254088]}, "type": "Feature", "properties": {"collection_times": [{"days": "Mon-Sat", "time": "11:30am"}, {"days": "Sun", "time": "Closed"}], "id": "3034000024", "name": "USPS COLLECTION BOX - BLUE BOX", "address": {"city": "DORAVILLE", "state": "GA", "street": "3400 OAKCLIFF RD", "postcode": "30340"}}},
{"geometry": {"type": "Point", "coordinates": [-84.2640700999, 33.8937537042]}, "type": "Feature", "properties": {"collection_times": [{"days": "Mon-Fri", "time": "11:30am"}, {"days": "Sat-Sun", "time": "Closed"}], "id": "3034000028", "name": "USPS COLLECTION BOX - BLUE BOX", "address": {"city": "DORAVILLE", "state": "GA", "street": "4000 DEKALB TECHNOLOGY PKWY", "postcode": "30340"}}},
{"geometry": {"type": "Point", "coordinates": [-83.4445334408, 32.6483269665]}, "type": "Feature", "properties": {"collection_times": [{"days": "Mon-Sat", "time": "11:30am"}, {"days": "Sun", "time": "Closed"}], "id": "3034000031", "name": "USPS COLLECTION BOX - BLUE BOX", "address": {"city": "DORAVILLE", "state": "GA", "street": "5725 BUFORD HWY NE", "postcode": "30340"}}},
{"geometry": {"type": "Point", "coordinates": [-84.2711240293, 33.9053480464]}, "type": "Feature", "properties": {"collection_times": [{"days": "Mon-Fri", "time": "5:00pm"}, {"days": "Sat", "time": "4:00pm"}, {"days": "Sun", "time": "Closed"}], "id": "3034000043", "name": "USPS COLLECTION BOX - BLUE BOX", "address": {"city": "DORAVILLE", "state": "GA", "street": "4700 LONGMIRE EXT", "postcode": "30340"}}},
{"geometry": {"type": "Point", "coordinates": [-84.2546714909, 33.9013790577]}, "type": "Feature", "properties": {"collection_times": [{"days": "Mon-Sat", "time": "11:30am"}, {"days": "Sun", "time": "Closed"}], "id": "3034000044", "name": "USPS COLLECTION BOX - BLUE BOX", "address": {"city": "DORAVILLE", "state": "GA", "street": "3211 OAKCLIFF INDUSTRIAL ST", "postcode": "30340"}}},
{"geometry": {"type": "Point", "coordinates": [-84.2434889798, 33.8994200776]}, "type": "Feature", "properties": {"collection_times": [{"days": "Mon-Fri", "time": "11:30am"}, {"days": "Sat-Sun", "time": "Closed"}], "id": "3034000057", "name": "USPS COLLECTION BOX - BLUE BOX", "address": {"city": "DORAVILLE", "state": "GA", "street": "3957 PLEASANTDALE RD", "postcode": "30340"}}},
{"geometry": {"type": "Point", "coordinates": [-84.284233885, 33.8930447013]}, "type": "Feature", "properties": {"collection_times": [{"days": "Mon-Sat", "time": "11:30am"}, {"days": "Sun", "time": "Closed"}], "id": "3034000060", "name": "USPS COLLECTION BOX - BLUE BOX", "address": {"city": "DORAVILLE", "state": "GA", "street": "5150 BUFORD HWY NE", "postcode": "30340"}}},
{"geometry": {"type": "Point", "coordinates": [-84.265480187, 33.8870936452]}, "type": "Feature", "properties": {"collection_times": [{"days": "Mon-Sat", "time": "11:30am"}, {"days": "Sun", "time": "Closed"}], "id": "3034000064", "name": "USPS COLLECTION BOX - BLUE BOX", "address": {"city": "DORAVILLE", "state": "GA", "street": "3785 PRESIDENTIAL PKWY", "postcode": "30340"}}},
{"geometry": {"type": "Point", "coordinates": [-84.2711240293, 33.9053480464]}, "type": "Feature", "properties": {"collection_times": [{"days": "Mon-Fri", "time": "5:00pm"}, {"days": "Sat", "time": "4:00pm"}, {"days": "Sun", "time": "Closed"}], "id": "3034000068", "name": "USPS COLLECTION BOX - BLUE BOX", "address": {"city": "DORAVILLE", "state": "GA", "street": "4700 LONGMIRE EXT", "postcode": "30340"}}},
{"geometry": {"type": "Point", "coordinates": [-84.2711240293, 33.9053480464]}, "type": "Feature", "properties": {"collection_times": [{"days": "Mon-Fri", "time": "5:00pm"}, {"days": "Sat", "time": "4:00pm"}, {"days": "Sun", "time": "Closed"}], "id": "3034000071", "name": "USPS COLLECTION BOX - PO LOBBY", "address": {"city": "DORAVILLE", "state": "GA", "street": "4700 LONGMIRE EXT", "postcode": "30340"}}},
{"geometry": {"type": "Point", "coordinates": [-84.2449511171, 33.9156041392]}, "type": "Feature", "properties": {"collection_times": [{"days": "Mon-Sat", "time": "11:30am"}, {"days": "Sun", "time": "Closed"}], "id": "3034000072", "name": "USPS COLLECTION BOX - BLUE BOX", "address": {"city": "DORAVILLE", "state": "GA", "street": "2395 PLEASANTDALE RD", "postcode": "30340"}}},
{"geometry": {"type": "Point", "coordinates": [-84.2483918012, 33.8855295198]}, "type": "Feature", "properties": {"collection_times": [{"days": "Mon-Fri", "time": "5:00pm"}, {"days": "Sat", "time": "11:00am"}, {"days": "Sun", "time": "Closed"}], "id": "3034100005", "name": "USPS COLLECTION BOX - BLUE BOX", "address": {"city": "CHAMBLEE", "state": "GA", "street": "3579 CHAMBLEE TUCKER RD", "postcode": "30341"}}},
{"geometry": {"type": "Point", "coordinates": [-84.2903767414, 33.8818200142]}, "type": "Feature", "properties": {"collection_times": [{"days": "Mon-Sat", "time": "11:30am"}, {"days": "Sun", "time": "Closed"}], "id": "3034100014", "name": "USPS COLLECTION BOX - BLUE BOX", "address": {"city": "CHAMBLEE", "state": "GA", "street": "4800 BUFORD HWY", "postcode": "30341"}}},
{"geometry": {"type": "Point", "coordinates": [-84.2986195994, 33.8959670204]}, "type": "Feature", "properties": {"collection_times": [{"days": "Mon-Fri", "time": "5:00pm"}, {"days": "Sat", "time": "3:00pm"}, {"days": "Sun", "time": "Closed"}], "id": "3034100020", "name": "USPS COLLECTION BOX - BLUE BOX", "address": {"city": "CHAMBLEE", "state": "GA", "street": "3545 BROAD ST", "postcode": "30341"}}},
{"geometry": {"type": "Point", "coordinates": [-84.298870624, 33.896202473]}, "type": "Feature", "properties": {"collection_times": [{"days": "Mon-Fri", "time": "5:00pm"}, {"days": "Sat", "time": "3:00pm"}, {"days": "Sun", "time": "Closed"}], "id": "3034100030", "name": "USPS COLLECTION BOX - BLUE BOX", "address": {"city": "CHAMBLEE", "state": "GA", "street": "3545 BROAD ST", "postcode": "30341"}}},
{"geometry": {"type": "Point", "coordinates": [-84.2986195994, 33.8959670204]}, "type": "Feature", "properties": {"collection_times": [{"days": "Mon-Fri", "time": "5:00pm"}, {"days": "Sat", "time": "3:00pm"}, {"days": "Sun", "time": "Closed"}], "id": "3034100040", "name": "USPS COLLECTION BOX - BLUE BOX", "address": {"city": "CHAMBLEE", "state": "GA", "street": "3545 BROAD ST", "postcode": "30341"}}},
{"geometry": {"type": "Point", "coordinates": [-84.2677266261, 33.8715188075]}, "type": "Feature", "properties": {"collection_times": [{"days": "Mon-Fri", "time": "11:30am"}, {"days": "Sat", "time": "11:00am"}, {"days": "Sun", "time": "Closed"}], "id": "3034100042", "name": "USPS COLLECTION BOX - BLUE BOX", "address": {"city": "CHAMBLEE", "state": "GA", "street": "2951 FLOWERS RD S", "postcode": "30341"}}},
{"geometry": {"type": "Point", "coordinates": [-84.2677266261, 33.8715188075]}, "type": "Feature", "properties": {"collection_times": [{"days": "Mon-Fri", "time": "11:30am"}, {"days": "Sat", "time": "11:00am"}, {"days": "Sun", "time": "Closed"}], "id": "3034100043", "name": "USPS COLLECTION BOX - BLUE BOX", "address": {"city": "CHAMBLEE", "state": "GA", "street": "2951 FLOWERS RD S", "postcode": "30341"}}},
{"geometry": {"type": "Point", "coordinates": [-84.2505059757, 33.8687812488]}, "type": "Feature", "properties": {"collection_times": [{"days": "Mon-Fri", "time": "11:30am"}, {"days": "Sat", "time": "11:00am"}, {"days": "Sun", "time": "Closed"}], "id": "3034100048", "name": "USPS COLLECTION BOX - BLUE BOX", "address": {"city": "CHAMBLEE", "state": "GA", "street": "2853 HENDERSON MILL RD", "postcode": "30341"}}},
{"geometry": {"type": "Point", "coordinates": [-84.2770184397, 33.8742704639]}, "type": "Feature", "properties": {"collection_times": [{"days": "Mon-Fri", "time": "11:30am"}, {"days": "Sat", "time": "11:00am"}, {"days": "Sun", "time": "Closed"}], "id": "3034100064", "name": "USPS COLLECTION BOX - BLUE BOX", "address": {"city": "CHAMBLEE", "state": "GA", "street": "3300 NORTHEAST EXPY NE", "postcode": "30341"}}},
{"geometry": {"type": "Point", "coordinates": [-84.2747317066, 33.8757555216]}, "type": "Feature", "properties": {"collection_times": [{"days": "Mon-Fri", "time": "11:30am"}, {"days": "Sat", "time": "11:00am"}, {"days": "Sun", "time": "Closed"}], "id": "3034100071", "name": "USPS COLLECTION BOX - BLUE BOX", "address": {"city": "CHAMBLEE", "state": "GA", "street": "3375 NORTHEAST EXPY NE", "postcode": "30341"}}},
{"geometry": {"type": "Point", "coordinates": [-84.2942663104, 33.9175323623]}, "type": "Feature", "properties": {"collection_times": [{"days": "Mon-Fri", "time": "11:30am"}, {"days": "Sat", "time": "11:00am"}, {"days": "Sun", "time": "Closed"}], "id": "3034100083", "name": "USPS COLLECTION BOX - BLUE BOX", "address": {"city": "CHAMBLEE", "state": "GA", "street": "2215 PERIMETER PARK DR", "postcode": "30341"}}},
{"geometry": {"type": "Point", "coordinates": [-84.2483918012, 33.8855295198]}, "type": "Feature", "properties": {"collection_times": [{"days": "Mon-Fri", "time": "5:00pm"}, {"days": "Sat", "time": "11:00am"}, {"days": "Sun", "time": "Closed"}], "id": "3034100093", "name": "USPS COLLECTION BOX - BLUE BOX", "address": {"city": "CHAMBLEE", "state": "GA", "street": "3579 CHAMBLEE TUCKER RD", "postcode": "30341"}}},
{"geometry": {"type": "Point", "coordinates": [-84.3159911997, 33.9179097076]}, "type": "Feature", "properties": {"collection_times": [{"days": "Mon-Fri", "time": "11:30am"}, {"days": "Sat", "time": "11:00am"}, {"days": "Sun", "time": "Closed"}], "id": "3034100101", "name": "USPS COLLECTION BOX - BLUE BOX", "address": {"city": "CHAMBLEE", "state": "GA", "street": "4360 CHAMBLEE DUNWOODY RD", "postcode": "30341"}}},
{"geometry": {"type": "Point", "coordinates": [-84.2711240842, 33.8760034049]}, "type": "Feature", "properties": {"collection_times": [{"days": "Mon-Fri", "time": "11:30am"}, {"days": "Sat", "time": "11:00am"}, {"days": "Sun", "time": "Closed"}], "id": "3034100104", "name": "USPS COLLECTION BOX - BLUE BOX", "address": {"city": "CHAMBLEE", "state": "GA", "street": "2888 WOODCOCK BLVD", "postcode": "30341"}}},
{"geometry": {"type": "Point", "coordinates": [-84.2986195994, 33.8959670204]}, "type": "Feature", "properties": {"collection_times": [{"days": "Mon-Fri", "time": "5:00pm"}, {"days": "Sat", "time": "3:00pm"}, {"days": "Sun", "time": "Closed"}], "id": "3034100110", "name": "USPS COLLECTION BOX - PO LOBBY", "address": {"city": "CHAMBLEE", "state": "GA", "street": "3545 BROAD ST", "postcode": "30341"}}},
{"geometry": {"type": "Point", "coordinates": [-84.2986195994, 33.8959670204]}, "type": "Feature", "properties": {"collection_times": [{"days": "Mon-Fri", "time": "5:00pm"}, {"days": "Sat", "time": "3:00pm"}, {"days": "Sun", "time": "Closed"}], "id": "3034100112", "name": "USPS COLLECTION BOX - PO LOBBY", "address": {"city": "CHAMBLEE", "state": "GA", "street": "3545 BROAD ST", "postcode": "30341"}}},
{"geometry": {"type": "Point", "coordinates": [-84.2986195994, 33.8959670204]}, "type": "Feature", "properties": {"collection_times": [{"days": "Mon-Fri", "time": "5:00pm"}, {"days": "Sat", "time": "3:00pm"}, {"days": "Sun", "time": "Closed"}], "id": "3034100113", "name": "USPS COLLECTION BOX - PO LOBBY", "address": {"city": "CHAMBLEE", "state": "GA", "street": "3545 BROAD ST", "postcode": "30341"}}},
{"geometry": {"type": "Point", "coordinates": [-84.3083376073, 33.8765345535]}, "type": "Feature", "properties": {"collection_times": [{"days": "Mon-Fri", "time": "11:30am"}, {"days": "Sat", "time": "11:00am"}, {"days": "Sun", "time": "Closed"}], "id": "3034100114", "name": "USPS COLLECTION BOX - BLUE BOX", "address": {"city": "CHAMBLEE", "state": "GA", "street": "1954 AIRPORT RD", "postcode": "30341"}}},
{"geometry": {"type": "Point", "coordinates": [-84.2677266261, 33.8715188075]}, "type": "Feature", "properties": {"collection_times": [{"days": "Mon-Fri", "time": "11:30am"}, {"days": "Sat", "time": "11:00am"}, {"days": "Sun", "time": "Closed"}], "id": "3034100116", "name": "USPS COLLECTION BOX - BLUE BOX", "address": {"city": "CHAMBLEE", "state": "GA", "street": "2951 FLOWERS RD S", "postcode": "30341"}}},
{"geometry": {"type": "Point", "coordinates": [-84.2721993939, 33.8759939413]}, "type": "Feature", "properties": {"collection_times": [{"days": "Mon-Fri", "time": "11:30am"}, {"days": "Sat", "time": "11:00am"}, {"days": "Sun", "time": "Closed"}], "id": "3034100123", "name": "USPS COLLECTION BOX - BLUE BOX", "address": {"city": "CHAMBLEE", "state": "GA", "street": "2872 WOODCOCK BLVD", "postcode": "30341"}}},
{"geometry": {"type": "Point", "coordinates": [-84.2691372491, 33.8780730849]}, "type": "Feature", "properties": {"collection_times": [{"days": "Mon-Fri", "time": "11:30am"}, {"days": "Sat", "time": "11:00am"}, {"days": "Sun", "time": "Closed"}], "id": "3034100125", "name": "USPS COLLECTION BOX - BLUE BOX", "address": {"city": "CHAMBLEE", "state": "GA", "street": "2900 CHAMBLEE TUCKER RD", "postcode": "30341"}}},
{"geometry": {"type": "Point", "coordinates": [-84.2986195994, 33.8959670204]}, "type": "Feature", "properties": {"collection_times": [{"days": "Mon-Fri", "time": "5:00pm"}, {"days": "Sat", "time": "3:00pm"}, {"days": "Sun", "time": "Closed"}], "id": "3034100129", "name": "USPS COLLECTION BOX - APC", "address": {"city": "CHAMBLEE", "state": "GA", "street": "3545 BROAD ST", "postcode": "30341"}}},
{"geometry": {"type": "Point", "coordinates": [-84.264161558, 33.876323183]}, "type": "Feature", "properties": {"collection_times": [{"days": "Mon-Fri", "time": "11:30am"}, {"days": "Sat", "time": "11:00am"}, {"days": "Sun", "time": "Closed"}], "id": "3034100131", "name": "USPS COLLECTION BOX - BLUE BOX", "address": {"city": "CHAMBLEE", "state": "GA", "street": "3001 MERCER UNIVERSITY DR", "postcode": "30341"}}},
{"geometry": {"type": "Point", "coordinates": [-84.381710416, 33.886852286]}, "type": "Feature", "properties": {"collection_times": [{"days": "Mon-Sat", "time": "11:30am"}, {"days": "Sun", "time": "Closed"}], "id": "3034200003", "name": "USPS COLLECTION BOX - BLUE BOX", "address": {"city": "ATLANTA", "state": "GA", "street": "4840 ROSWELL RD", "postcode": "30342"}}},
{"geometry": {"type": "Point", "coordinates": [-84.352857442, 33.904728417]}, "type": "Feature", "properties": {"collection_times": [{"days": "Mon-Fri", "time": "11:30am"}, {"days": "Sat-Sun", "time": "Closed"}], "id": "3034200007", "name": "USPS COLLECTION BOX - BLUE BOX", "address": {"city": "ATLANTA", "state": "GA", "street": "5555 PEACHTREE DUNWOODY RD", "postcode": "30342"}}},
{"geometry": {"type": "Point", "coordinates": [-84.356041236, 33.907789284]}, "type": "Feature", "properties": {"collection_times": [{"days": "Mon-Sat", "time": "11:30am"}, {"days": "Sun", "time": "Closed"}], "id": "3034200009", "name": "USPS COLLECTION BOX - BLUE BOX", "address": {"city": "ATLANTA", "state": "GA", "street": "960 JOHNSON FERRY RD", "postcode": "30342"}}},
{"geometry": {"type": "Point", "coordinates": [-84.3765789611, 33.9027394605]}, "type": "Feature", "properties": {"collection_times": [{"days": "Mon-Fri", "time": "5:00pm"}, {"days": "Sat", "time": "3:45pm"}, {"days": "Sun", "time": "Closed"}], "id": "3034200011", "name": "USPS COLLECTION BOX - BLUE BOX", "address": {"city": "ATLANTA", "state": "GA", "street": "5400 GLENRIDGE DR NE", "postcode": "30342"}}},
{"geometry": {"type": "Point", "coordinates": [-84.380997852, 33.871479455]}, "type": "Feature", "properties": {"collection_times": [{"days": "Mon-Fri", "time": "11:30am"}, {"days": "Sat-Sun", "time": "Closed"}], "id": "3034200013", "name": "USPS COLLECTION BOX - BLUE BOX", "address": {"city": "ATLANTA", "state": "GA", "street": "4279 ROSWELL RD NE", "postcode": "30342"}}},
{"geometry": {"type": "Point", "coordinates": [-84.379801211, 33.879330839]}, "type": "Feature", "properties": {"collection_times": [{"days": "Mon-Fri", "time": "11:30am"}, {"days": "Sat-Sun", "time": "Closed"}], "id": "3034200018", "name": "USPS COLLECTION BOX - BLUE BOX", "address": {"city": "ATLANTA", "state": "GA", "street": "4540 ROSWELL RD", "postcode": "30342"}}},
{"geometry": {"type": "Point", "coordinates": [-84.355419772, 33.907803406]}, "type": "Feature", "properties": {"collection_times": [{"days": "Mon-Fri", "time": "11:30am"}, {"days": "Sat-Sun", "time": "Closed"}], "id": "3034200021", "name": "USPS COLLECTION BOX - BLUE BOX", "address": {"city": "ATLANTA", "state": "GA", "street": "993 JOHNSON FERRY RD BLDG C", "postcode": "30342"}}},
{"geometry": {"type": "Point", "coordinates": [-84.355419772, 33.907803406]}, "type": "Feature", "properties": {"collection_times": [{"days": "Mon-Fri", "time": "11:30am"}, {"days": "Sat-Sun", "time": "Closed"}], "id": "3034200023", "name": "USPS COLLECTION BOX - BLUE BOX", "address": {"city": "ATLANTA", "state": "GA", "street": "993 JOHNSON FERRY RD BLDG F", "postcode": "30342"}}},
{"geometry": {"type": "Point", "coordinates": [-84.355505705, 33.907850765]}, "type": "Feature", "properties": {"collection_times": [{"days": "Mon-Sat", "time": "11:30am"}, {"days": "Sun", "time": "Closed"}], "id": "3034200027", "name": "USPS COLLECTION BOX - BLUE BOX", "address": {"city": "ATLANTA", "state": "GA", "street": "980 JOHNSON FERRY RD", "postcode": "30342"}}},
{"geometry": {"type": "Point", "coordinates": [-84.354713652, 33.906109389]}, "type": "Feature", "properties": {"collection_times": [{"days": "Mon-Fri", "time": "11:30am"}, {"days": "Sat-Sun", "time": "Closed"}], "id": "3034200031", "name": "USPS COLLECTION BOX - BLUE BOX", "address": {"city": "ATLANTA", "state": "GA", "street": "5455 MERIDIAN MARKS RD", "postcode": "30342"}}},
{"geometry": {"type": "Point", "coordinates": [-84.351922809, 33.909136444]}, "type": "Feature", "properties": {"collection_times": [{"days": "Mon-Fri", "time": "11:30am"}, {"days": "Sat-Sun", "time": "Closed"}], "id": "3034200039", "name": "USPS COLLECTION BOX - BLUE BOX", "address": {"city": "ATLANTA", "state": "GA", "street": "5669 PEACHTREE DUNWOODY RD", "postcode": "30342"}}},
{"geometry": {"type": "Point", "coordinates": [-84.353038184, 33.911633963]}, "type": "Feature", "properties": {"collection_times": [{"days": "Mon-Fri", "time": "11:30am"}, {"days": "Sat-Sun", "time": "Closed"}], "id": "3034200047", "name": "USPS COLLECTION BOX - BLUE BOX", "address": {"city": "ATLANTA", "state": "GA", "street": "5775 PEACHTREE DUNWOODY RD NE", "postcode": "30342"}}},
{"geometry": {"type": "Point", "coordinates": [-84.350730475, 33.912552041]}, "type": "Feature", "properties": {"collection_times": [{"days": "Mon-Fri", "time": "11:30am"}, {"days": "Sat-Sun", "time": "Closed"}], "id": "3034200055", "name": "USPS COLLECTION BOX - BLUE BOX", "address": {"city": "ATLANTA", "state": "GA", "street": "1150 LAKE HEARN DR", "postcode": "30342"}}},
{"geometry": {"type": "Point", "coordinates": [-84.352551293, 33.912542967]}, "type": "Feature", "properties": {"collection_times": [{"days": "Mon-Fri", "time": "11:30am"}, {"days": "Sat-Sun", "time": "Closed"}], "id": "3034200057", "name": "USPS COLLECTION BOX - BLUE BOX", "address": {"city": "ATLANTA", "state": "GA", "street": "1100 LAKE HEARN DR", "postcode": "30342"}}},
{"geometry": {"type": "Point", "coordinates": [-84.353123267, 33.911442818]}, "type": "Feature", "properties": {"collection_times": [{"days": "Mon-Fri", "time": "11:30am"}, {"days": "Sat-Sun", "time": "Closed"}], "id": "3034200062", "name": "USPS COLLECTION BOX - BLUE BOX", "address": {"city": "ATLANTA", "state": "GA", "street": "5780 PEACHTREE DUNWOODY RD", "postcode": "30342"}}},
{"geometry": {"type": "Point", "coordinates": [-84.382623554, 33.855001108]}, "type": "Feature", "properties": {"collection_times": [{"days": "Mon-Sat", "time": "11:30am"}, {"days": "Sun", "time": "Closed"}], "id": "3034200063", "name": "USPS COLLECTION BOX - BLUE BOX", "address": {"city": "ATLANTA", "state": "GA", "street": "3655 ROSWELL RD NE", "postcode": "30342"}}},
{"geometry": {"type": "Point", "coordinates": [-84.380528912, 33.875529984]}, "type": "Feature", "properties": {"collection_times": [{"days": "Mon-Fri", "time": "11:30am"}, {"days": "Sat-Sun", "time": "Closed"}], "id": "3034200066", "name": "USPS COLLECTION BOX - BLUE BOX", "address": {"city": "ATLANTA", "state": "GA", "street": "4413 ROSWELL RD NE", "postcode": "30342"}}},
{"geometry": {"type": "Point", "coordinates": [-84.379787737, 33.881997114]}, "type": "Feature", "properties": {"collection_times": [{"days": "Mon-Fri", "time": "11:30am"}, {"days": "Sat-Sun", "time": "Closed"}], "id": "3034200067", "name": "USPS COLLECTION BOX - BLUE BOX", "address": {"city": "ATLANTA", "state": "GA", "street": "4651 ROSWELL RD", "postcode": "30342"}}},
{"geometry": {"type": "Point", "coordinates": [-84.3765789611, 33.9027394605]}, "type": "Feature", "properties": {"collection_times": [{"days": "Mon-Fri", "time": "5:00pm"}, {"days": "Sat", "time": "3:45pm"}, {"days": "Sun", "time": "Closed"}], "id": "3034200068", "name": "USPS COLLECTION BOX - BLUE BOX", "address": {"city": "ATLANTA", "state": "GA", "street": "5400 GLENRIDGE DR NE", "postcode": "30342"}}},
{"geometry": {"type": "Point", "coordinates": [-84.378510971, 33.903737212]}, "type": "Feature", "properties": {"collection_times": [{"days": "Mon-Fri", "time": "11:30am"}, {"days": "Sat-Sun", "time": "Closed"}], "id": "3034200072", "name": "USPS COLLECTION BOX - BLUE BOX", "address": {"city": "ATLANTA", "state": "GA", "street": "5457 ROSWELL RD", "postcode": "30342"}}},
{"geometry": {"type": "Point", "coordinates": [-84.381455556, 33.857856795]}, "type": "Feature", "properties": {"collection_times": [{"days": "Mon-Fri", "time": "11:30am"}, {"days": "Sat-Sun", "time": "Closed"}], "id": "3034200074", "name": "USPS COLLECTION BOX - BLUE BOX", "address": {"city": "ATLANTA", "state": "GA", "street": "3736 ROSWELL RD NE", "postcode": "30342"}}},
{"geometry": {"type": "Point", "coordinates": [-84.381520822, 33.888727948]}, "type": "Feature", "properties": {"collection_times": [{"days": "Mon-Fri", "time": "11:30am"}, {"days": "Sat-Sun", "time": "Closed"}], "id": "3034200076", "name": "USPS COLLECTION BOX - BLUE BOX", "address": {"city": "ATLANTA", "state": "GA", "street": "4920 ROSWELL RD", "postcode": "30342"}}},
{"geometry": {"type": "Point", "coordinates": [-84.3765789611, 33.9027394605]}, "type": "Feature", "properties": {"collection_times": [{"days": "Mon-Fri", "time": "5:00pm"}, {"days": "Sat", "time": "3:45pm"}, {"days": "Sun", "time": "Closed"}], "id": "3034200078", "name": "USPS COLLECTION BOX - BLUE BOX", "address": {"city": "ATLANTA", "state": "GA", "street": "5400 GLENRIDGE DR NE", "postcode": "30342"}}},
{"geometry": {"type": "Point", "coordinates": [-84.381221436, 33.893407143]}, "type": "Feature", "properties": {"collection_times": [{"days": "Mon-Fri", "time": "11:30am"}, {"days": "Sat-Sun", "time": "Closed"}], "id": "3034200079", "name": "USPS COLLECTION BOX - BLUE BOX", "address": {"city": "ATLANTA", "state": "GA", "street": "5064 ROSWELL RD", "postcode": "30342"}}},
{"geometry": {"type": "Point", "coordinates": [-84.378774039, 33.908598948]}, "type": "Feature", "properties": {"collection_times": [{"days": "Mon-Fri", "time": "11:30am"}, {"days": "Sat-Sun", "time": "Closed"}], "id": "3034200081", "name": "USPS COLLECTION BOX - BLUE BOX", "address": {"city": "ATLANTA", "state": "GA", "street": "5600 ROSWELL RD", "postcode": "30342"}}},
{"geometry": {"type": "Point", "coordinates": [-84.381214639, 33.877476057]}, "type": "Feature", "properties": {"collection_times": [{"days": "Mon-Fri", "time": "11:30am"}, {"days": "Sat-Sun", "time": "Closed"}], "id": "3034200086", "name": "USPS COLLECTION BOX - BLUE BOX", "address": {"city": "ATLANTA", "state": "GA", "street": "173 W WIEUCA RD NE", "postcode": "30342"}}},
{"geometry": {"type": "Point", "coordinates": [-84.378648098, 33.876232162]}, "type": "Feature", "properties": {"collection_times": [{"days": "Mon-Fri", "time": "11:30am"}, {"days": "Sat-Sun", "time": "Closed"}], "id": "3034200090", "name": "USPS COLLECTION BOX - BLUE BOX", "address": {"city": "ATLANTA", "state": "GA", "street": "245 W WIEUCA RD NE", "postcode": "30342"}}},
{"geometry": {"type": "Point", "coordinates": [-84.384764814, 33.877267429]}, "type": "Feature", "properties": {"collection_times": [{"days": "Mon-Fri", "time": "11:30am"}, {"days": "Sat-Sun", "time": "Closed"}], "id": "3034200091", "name": "USPS COLLECTION BOX - BLUE BOX", "address": {"city": "ATLANTA", "state": "GA", "street": "80 W WIEUCA RD NE", "postcode": "30342"}}},
{"geometry": {"type": "Point", "coordinates": [-84.356574815, 33.907578757]}, "type": "Feature", "properties": {"collection_times": [{"days": "Mon-Fri", "time": "11:30am"}, {"days": "Sat-Sun", "time": "Closed"}], "id": "3034200106", "name": "USPS COLLECTION BOX - BLUE BOX", "address": {"city": "ATLANTA", "state": "GA", "street": "975 JOHNSON FERRY RD", "postcode": "30342"}}},
{"geometry": {"type": "Point", "coordinates": [-84.380482692, 33.860865061]}, "type": "Feature", "properties": {"collection_times": [{"days": "Mon-Fri", "time": "11:30am"}, {"days": "Sat-Sun", "time": "Closed"}], "id": "3034200110", "name": "USPS COLLECTION BOX - BLUE BOX", "address": {"city": "ATLANTA", "state": "GA", "street": "3872 ROSWELL RD NE", "postcode": "30342"}}},
{"geometry": {"type": "Point", "coordinates": [-84.377754209, 33.875704467]}, "type": "Feature", "properties": {"collection_times": [{"days": "Mon-Fri", "time": "11:30am"}, {"days": "Sat-Sun", "time": "Closed"}], "id": "3034200112", "name": "USPS COLLECTION BOX - BLUE BOX", "address": {"city": "ATLANTA", "state": "GA", "street": "300 W WIEUCA RD NE", "postcode": "30342"}}},
{"geometry": {"type": "Point", "coordinates": [-84.3765789611, 33.9027394605]}, "type": "Feature", "properties": {"collection_times": [{"days": "Mon-Fri", "time": "5:00pm"}, {"days": "Sat", "time": "3:45pm"}, {"days": "Sun", "time": "Closed"}], "id": "3034200114", "name": "USPS COLLECTION BOX - PO LOBBY", "address": {"city": "ATLANTA", "state": "GA", "street": "5400 GLENRIDGE DR NE", "postcode": "30342"}}},
{"geometry": {"type": "Point", "coordinates": [-84.360976672, 33.909627356]}, "type": "Feature", "properties": {"collection_times": [{"days": "Mon-Fri", "time": "11:30am"}, {"days": "Sat-Sun", "time": "Closed"}], "id": "3034200117", "name": "USPS COLLECTION BOX - BLUE BOX", "address": {"city": "ATLANTA", "state": "GA", "street": "100 GLENRIDGE POINT PKWY", "postcode": "30342"}}},
{"geometry": {"type": "Point", "coordinates": [-84.352864564, 33.903643972]}, "type": "Feature", "properties": {"collection_times": [{"days": "Mon-Sat", "time": "11:30am"}, {"days": "Sun", "time": "Closed"}], "id": "3034200118", "name": "USPS COLLECTION BOX - BLUE BOX", "address": {"city": "ATLANTA", "state": "GA", "street": "5505 PEACHTREE DUNWOODY RD", "postcode": "30342"}}},
{"geometry": {"type": "Point", "coordinates": [-84.383899998, 33.877456244]}, "type": "Feature", "properties": {"collection_times": [{"days": "Mon-Fri", "time": "11:30am"}, {"days": "Sat-Sun", "time": "Closed"}], "id": "3034200122", "name": "USPS COLLECTION BOX - BLUE BOX", "address": {"city": "ATLANTA", "state": "GA", "street": "90 W WIEUCA RD NE", "postcode": "30342"}}},
{"geometry": {"type": "Point", "coordinates": [-84.3815317422, 33.8964197502]}, "type": "Feature", "properties": {"collection_times": [{"days": "Mon-Fri", "time": "11:30am"}, {"days": "Sat-Sun", "time": "Closed"}], "id": "3034200123", "name": "USPS COLLECTION BOX - BLUE BOX", "address": {"city": "ATLANTA", "state": "GA", "street": "5180 ROSWELL RD", "postcode": "30342"}}},
{"geometry": {"type": "Point", "coordinates": [-84.3765789611, 33.9027394605]}, "type": "Feature", "properties": {"collection_times": [{"days": "Mon-Fri", "time": "5:00pm"}, {"days": "Sat", "time": "3:00pm"}, {"days": "Sun", "time": "Closed"}], "id": "3034200125", "name": "USPS COLLECTION BOX - APC", "address": {"city": "ATLANTA", "state": "GA", "street": "5400 GLENRIDGE DR NE", "postcode": "30342"}}},
{"geometry": {"type": "Point", "coordinates": [-84.3876084676, 33.7607860973]}, "type": "Feature", "properties": {"collection_times": [{"days": "Mon-Fri", "time": "5:00pm"}, {"days": "Sat-Sun", "time": "Closed"}], "id": "3034300001", "name": "USPS COLLECTION BOX - PO LOBBY", "address": {"city": "ATLANTA", "state": "GA", "street": "240 PEACHTREE ST NW", "postcode": "30343"}}},
{"geometry": {"type": "Point", "coordinates": [-84.4259714132, 33.6813901344]}, "type": "Feature", "properties": {"collection_times": [{"days": "Mon-Sat", "time": "11:30am"}, {"days": "Sun", "time": "Closed"}], "id": "3034400015", "name": "USPS COLLECTION BOX - BLUE BOX", "address": {"city": "EAST POINT", "state": "GA", "street": "1136 CLEVELAND AVE", "postcode": "30344"}}},
{"geometry": {"type": "Point", "coordinates": [-84.4275621266, 33.6812422239]}, "type": "Feature", "properties": {"collection_times": [{"days": "Mon-Sat", "time": "11:30am"}, {"days": "Sun", "time": "Closed"}], "id": "3034400016", "name": "USPS COLLECTION BOX - BLUE BOX", "address": {"city": "EAST POINT", "state": "GA", "street": "1170 CLEVELAND AVE", "postcode": "30344"}}},
{"geometry": {"type": "Point", "coordinates": [-84.4282884634, 33.6625597529]}, "type": "Feature", "properties": {"collection_times": [{"days": "Mon-Sat", "time": "11:30am"}, {"days": "Sun", "time": "Closed"}], "id": "3034400018", "name": "USPS COLLECTION BOX - BLUE BOX", "address": {"city": "EAST POINT", "state": "GA", "street": "3401 NORMAN BERRY DR", "postcode": "30344"}}},
{"geometry": {"type": "Point", "coordinates": [-84.4953543254, 33.6620419649]}, "type": "Feature", "properties": {"collection_times": [{"days": "Mon-Sat", "time": "11:30am"}, {"days": "Sun", "time": "Closed"}], "id": "3034400041", "name": "USPS COLLECTION BOX - BLUE BOX", "address": {"city": "EAST POINT", "state": "GA", "street": "3485 N DESERT DR", "postcode": "30344"}}},
{"geometry": {"type": "Point", "coordinates": [-84.5022973344, 33.6580477911]}, "type": "Feature", "properties": {"collection_times": [{"days": "Mon-Sat", "time": "11:30am"}, {"days": "Sun", "time": "Closed"}], "id": "3034400042", "name": "USPS COLLECTION BOX - BLUE BOX", "address": {"city": "EAST POINT", "state": "GA", "street": "3645 MARKETPLACE BLVD", "postcode": "30344"}}},
{"geometry": {"type": "Point", "coordinates": [-84.4418688323, 33.6793755146]}, "type": "Feature", "properties": {"collection_times": [{"days": "Mon-Sat", "time": "11:30am"}, {"days": "Sun", "time": "Closed"}], "id": "3034400049", "name": "USPS COLLECTION BOX - BLUE BOX", "address": {"city": "EAST POINT", "state": "GA", "street": "2777 E POINT ST", "postcode": "30344"}}},
{"geometry": {"type": "Point", "coordinates": [-84.4427903574, 33.6760395704]}, "type": "Feature", "properties": {"collection_times": [{"days": "Mon-Fri", "time": "5:00pm"}, {"days": "Sat", "time": "2:00pm"}, {"days": "Sun", "time": "Closed"}], "id": "3034400071", "name": "USPS COLLECTION BOX - BLUE BOX", "address": {"city": "EAST POINT", "state": "GA", "street": "2905 E POINT ST", "postcode": "30344"}}},
{"geometry": {"type": "Point", "coordinates": [-84.4427903574, 33.6760395704]}, "type": "Feature", "properties": {"collection_times": [{"days": "Mon-Fri", "time": "5:00pm"}, {"days": "Sat", "time": "2:00pm"}, {"days": "Sun", "time": "Closed"}], "id": "3034400076", "name": "USPS COLLECTION BOX - PO LOBBY", "address": {"city": "EAST POINT", "state": "GA", "street": "2905 E POINT ST", "postcode": "30344"}}},
{"geometry": {"type": "Point", "coordinates": [-84.2556625621, 33.8466987766]}, "type": "Feature", "properties": {"collection_times": [{"days": "Mon-Sat", "time": "12:00pm"}, {"days": "Sun", "time": "Closed"}], "id": "3034500001", "name": "USPS COLLECTION BOX - BLUE BOX", "address": {"city": "ATLANTA", "state": "GA", "street": "2080C HENDERSON MILL RD NE", "postcode": "30345"}}},
{"geometry": {"type": "Point", "coordinates": [-84.2492168671, 33.8480701949]}, "type": "Feature", "properties": {"collection_times": [{"days": "Mon-Sat", "time": "12:00pm"}, {"days": "Sun", "time": "Closed"}], "id": "3034500005", "name": "USPS COLLECTION BOX - BLUE BOX", "address": {"city": "ATLANTA", "state": "GA", "street": "2150 PARKLAKE DR NE", "postcode": "30345"}}},
{"geometry": {"type": "Point", "coordinates": [-84.3104058581, 33.8454849696]}, "type": "Feature", "properties": {"collection_times": [{"days": "Mon-Sat", "time": "12:00pm"}, {"days": "Sun", "time": "Closed"}], "id": "3034500009", "name": "USPS COLLECTION BOX - BLUE BOX", "address": {"city": "ATLANTA", "state": "GA", "street": "1925 CENTURY BLVD NE", "postcode": "30345"}}},
{"geometry": {"type": "Point", "coordinates": [-84.2591773816, 33.8531001364]}, "type": "Feature", "properties": {"collection_times": [{"days": "Mon-Sat", "time": "12:00pm"}, {"days": "Sun", "time": "Closed"}], "id": "3034500019", "name": "USPS COLLECTION BOX - BLUE BOX", "address": {"city": "ATLANTA", "state": "GA", "street": "2300 HENDERSON MILL RD NE", "postcode": "30345"}}},
{"geometry": {"type": "Point", "coordinates": [-84.2590271458, 33.8521514033]}, "type": "Feature", "properties": {"collection_times": [{"days": "Mon-Sat", "time": "12:00pm"}, {"days": "Sun", "time": "Closed"}], "id": "3034500020", "name": "USPS COLLECTION BOX - BLUE BOX", "address": {"city": "ATLANTA", "state": "GA", "street": "2296 HENDERSON MILL RD NE", "postcode": "30345"}}},
{"geometry": {"type": "Point", "coordinates": [-84.2582792862, 33.8524386697]}, "type": "Feature", "properties": {"collection_times": [{"days": "Mon-Fri", "time": "5:00pm"}, {"days": "Sat", "time": "1:30pm"}, {"days": "Sun", "time": "Closed"}], "id": "3034500022", "name": "USPS COLLECTION BOX - BLUE BOX", "address": {"city": "ATLANTA", "state": "GA", "street": "3212 NORTHLAKE PKWY NE", "postcode": "30345"}}},
{"geometry": {"type": "Point", "coordinates": [-84.3129641598, 33.8462590847]}, "type": "Feature", "properties": {"collection_times": [{"days": "Mon-Sat", "time": "12:00pm"}, {"days": "Sun", "time": "Closed"}], "id": "3034500023", "name": "USPS COLLECTION BOX - BLUE BOX", "address": {"city": "ATLANTA", "state": "GA", "street": "2600 CENTURY PKWY NE", "postcode": "30345"}}},
{"geometry": {"type": "Point", "coordinates": [-84.310046983, 33.8456060914]}, "type": "Feature", "properties": {"collection_times": [{"days": "Mon-Sat", "time": "12:00pm"}, {"days": "Sun", "time": "Closed"}], "id": "3034500028", "name": "USPS COLLECTION BOX - BLUE BOX", "address": {"city": "ATLANTA", "state": "GA", "street": "1900 CENTURY BLVD NE", "postcode": "30345"}}},
{"geometry": {"type": "Point", "coordinates": [-84.2492984913, 33.8530859409]}, "type": "Feature", "properties": {"collection_times": [{"days": "Mon-Fri", "time": "12:00pm"}, {"days": "Sat-Sun", "time": "Closed"}], "id": "3034500029", "name": "USPS COLLECTION BOX - BLUE BOX", "address": {"city": "ATLANTA", "state": "GA", "street": "2300 PARKLAKE DR NE", "postcode": "30345"}}},
{"geometry": {"type": "Point", "coordinates": [-84.2625287006, 33.8543569711]}, "type": "Feature", "properties": {"collection_times": [{"days": "Mon-Fri", "time": "5:00pm"}, {"days": "Sat", "time": "2:00pm"}, {"days": "Sun", "time": "Closed"}], "id": "3034500062", "name": "USPS COLLECTION BOX - BLUE BOX", "address": {"city": "ATLANTA", "state": "GA", "street": "3104 BRIARCLIFF RD NE", "postcode": "30345"}}},
{"geometry": {"type": "Point", "coordinates": [-84.2625287006, 33.8543569711]}, "type": "Feature", "properties": {"collection_times": [{"days": "Mon-Fri", "time": "5:00pm"}, {"days": "Sat", "time": "2:00pm"}, {"days": "Sun", "time": "Closed"}], "id": "3034500063", "name": "USPS COLLECTION BOX - BLUE BOX", "address": {"city": "ATLANTA", "state": "GA", "street": "3104 BRIARCLIFF RD NE", "postcode": "30345"}}},
{"geometry": {"type": "Point", "coordinates": [-84.2625287006, 33.8543569711]}, "type": "Feature", "properties": {"collection_times": [{"days": "Mon-Fri", "time": "5:00pm"}, {"days": "Sat", "time": "2:00pm"}, {"days": "Sun", "time": "Closed"}], "id": "3034500069", "name": "USPS COLLECTION BOX - PO LOBBY", "address": {"city": "ATLANTA", "state": "GA", "street": "3104 BRIARCLIFF RD NE", "postcode": "30345"}}},
{"geometry": {"type": "Point", "coordinates": [-84.2582792862, 33.8524386697]}, "type": "Feature", "properties": {"collection_times": [{"days": "Mon-Fri", "time": "5:00pm"}, {"days": "Sat", "time": "1:30pm"}, {"days": "Sun", "time": "Closed"}], "id": "3034500073", "name": "USPS COLLECTION BOX - BLUE BOX", "address": {"city": "ATLANTA", "state": "GA", "street": "3212 NORTHLAKE PKWY NE", "postcode": "30345"}}},
{"geometry": {"type": "Point", "coordinates": [-84.2948483262, 33.8574108389]}, "type": "Feature", "properties": {"collection_times": [{"days": "Mon-Sat", "time": "11:30am"}, {"days": "Sun", "time": "Closed"}], "id": "3034500074", "name": "USPS COLLECTION BOX - BLUE BOX", "address": {"city": "ATLANTA", "state": "GA", "street": "2700 NORTHEAST EXPY NE", "postcode": "30345"}}},
{"geometry": {"type": "Point", "coordinates": [-84.2625287006, 33.8543569711]}, "type": "Feature", "properties": {"collection_times": [{"days": "Mon-Fri", "time": "5:00pm"}, {"days": "Sat", "time": "2:00pm"}, {"days": "Sun", "time": "Closed"}], "id": "3034500076", "name": "USPS COLLECTION BOX - APC", "address": {"city": "ATLANTA", "state": "GA", "street": "3104 BRIARCLIFF RD NE", "postcode": "30345"}}},
{"geometry": {"type": "Point", "coordinates": [-84.3140801235, 33.8458902561]}, "type": "Feature", "properties": {"collection_times": [{"days": "Mon-Sat", "time": "12:00pm"}, {"days": "Sun", "time": "Closed"}], "id": "3034500077", "name": "USPS COLLECTION BOX - BLUE BOX", "address": {"city": "ATLANTA", "state": "GA", "street": "1790 CENTURY BLVD NE", "postcode": "30345"}}},
{"geometry": {"type": "Point", "coordinates": [-84.3381732838, 33.9237974214]}, "type": "Feature", "properties": {"collection_times": [{"days": "Mon-Sat", "time": "11:30am"}, {"days": "Sun", "time": "Closed"}], "id": "3034600001", "name": "USPS COLLECTION BOX - BLUE BOX", "address": {"city": "ATLANTA", "state": "GA", "street": "4400 ASHFORD DUNWOODY RD NE", "postcode": "30346"}}},
{"geometry": {"type": "Point", "coordinates": [-84.3454383053, 33.9238946544]}, "type": "Feature", "properties": {"collection_times": [{"days": "Mon-Sat", "time": "11:30am"}, {"days": "Sun", "time": "Closed"}], "id": "3034600028", "name": "USPS COLLECTION BOX - BLUE BOX", "address": {"city": "ATLANTA", "state": "GA", "street": "223 PERIMETER CENTER PKWY NE", "postcode": "30346"}}},
{"geometry": {"type": "Point", "coordinates": [-84.3369522017, 33.9215816309]}, "type": "Feature", "properties": {"collection_times": [{"days": "Mon-Sat", "time": "11:30am"}, {"days": "Sun", "time": "Closed"}], "id": "3034600038", "name": "USPS COLLECTION BOX - BLUE BOX", "address": {"city": "ATLANTA", "state": "GA", "street": "1 RAVINIA DR", "postcode": "30346"}}},
{"geometry": {"type": "Point", "coordinates": [-84.4059186251, 33.6260340378]}, "type": "Feature", "properties": {"collection_times": [{"days": "Mon-Fri", "time": "2:00pm"}, {"days": "Sat-Sun", "time": "Closed"}], "id": "3034900007", "name": "USPS COLLECTION BOX - BLUE BOX", "address": {"city": "ATLANTA", "state": "GA", "street": "4694 AVIATION PKWY", "postcode": "30349"}}},
{"geometry": {"type": "Point", "coordinates": [-84.4355494655, 33.6065005106]}, "type": "Feature", "properties": {"collection_times": [{"days": "Mon-Fri", "time": "2:00pm"}, {"days": "Sat-Sun", "time": "Closed"}], "id": "3034900009", "name": "USPS COLLECTION BOX - BLUE BOX", "address": {"city": "ATLANTA", "state": "GA", "street": "5436 RIVERDALE RD", "postcode": "30349"}}},
{"geometry": {"type": "Point", "coordinates": [-84.4716722014, 33.6051224382]}, "type": "Feature", "properties": {"collection_times": [{"days": "Mon-Fri", "time": "2:00pm"}, {"days": "Sat", "time": "1:00pm"}, {"days": "Sun", "time": "Closed"}], "id": "3034900011", "name": "USPS COLLECTION BOX - BLUE BOX", "address": {"city": "ATLANTA", "state": "GA", "street": "5520 OLD NATIONAL HWY", "postcode": "30349"}}},
{"geometry": {"type": "Point", "coordinates": [-84.4686794143, 33.5903519377]}, "type": "Feature", "properties": {"collection_times": [{"days": "Mon-Fri", "time": "2:00pm"}, {"days": "Sat", "time": "1:00pm"}, {"days": "Sun", "time": "Closed"}], "id": "3034900018", "name": "USPS COLLECTION BOX - BLUE BOX", "address": {"city": "ATLANTA", "state": "GA", "street": "6055 OLD NATIONAL HWY", "postcode": "30349"}}},
{"geometry": {"type": "Point", "coordinates": [-84.4468514555, 33.6144322504]}, "type": "Feature", "properties": {"collection_times": [{"days": "Mon-Fri", "time": "2:00pm"}, {"days": "Sat-Sun", "time": "Closed"}], "id": "3034900028", "name": "USPS COLLECTION BOX - BLUE BOX", "address": {"city": "ATLANTA", "state": "GA", "street": "1895 PHOENIX BLVD", "postcode": "30349"}}},
{"geometry": {"type": "Point", "coordinates": [-84.4414027476, 33.6142878875]}, "type": "Feature", "properties": {"collection_times": [{"days": "Mon-Fri", "time": "2:00pm"}, {"days": "Sat-Sun", "time": "Closed"}], "id": "3034900029", "name": "USPS COLLECTION BOX - BLUE BOX", "address": {"city": "ATLANTA", "state": "GA", "street": "1600 PHOENIX BLVD", "postcode": "30349"}}},
{"geometry": {"type": "Point", "coordinates": [-84.4054144249, 33.6124322437]}, "type": "Feature", "properties": {"collection_times": [{"days": "Mon-Fri", "time": "2:00pm"}, {"days": "Sat-Sun", "time": "Closed"}], "id": "3034900031", "name": "USPS COLLECTION BOX - BLUE BOX", "address": {"city": "ATLANTA", "state": "GA", "street": "485 OAK PL", "postcode": "30349"}}},
{"geometry": {"type": "Point", "coordinates": [-84.4479125697, 33.6139720794]}, "type": "Feature", "properties": {"collection_times": [{"days": "Mon-Fri", "time": "2:00pm"}, {"days": "Sat-Sun", "time": "Closed"}], "id": "3034900034", "name": "USPS COLLECTION BOX - BLUE BOX", "address": {"city": "ATLANTA", "state": "GA", "street": "1800 PHOENIX BLVD", "postcode": "30349"}}},
{"geometry": {"type": "Point", "coordinates": [-84.4457229126, 33.6147114287]}, "type": "Feature", "properties": {"collection_times": [{"days": "Mon-Fri", "time": "2:00pm"}, {"days": "Sat-Sun", "time": "Closed"}], "id": "3034900042", "name": "USPS COLLECTION BOX - BLUE BOX", "address": {"city": "ATLANTA", "state": "GA", "street": "1745 PHOENIX BLVD", "postcode": "30349"}}},
{"geometry": {"type": "Point", "coordinates": [-84.4399378105, 33.6145776942]}, "type": "Feature", "properties": {"collection_times": [{"days": "Mon-Fri", "time": "2:00pm"}, {"days": "Sat-Sun", "time": "Closed"}], "id": "3034900045", "name": "USPS COLLECTION BOX - BLUE BOX", "address": {"city": "ATLANTA", "state": "GA", "street": "1587 PHOENIX BLVD", "postcode": "30349"}}},
{"geometry": {"type": "Point", "coordinates": [-84.4657986385, 33.6163252841]}, "type": "Feature", "properties": {"collection_times": [{"days": "Mon-Fri", "time": "5:00pm"}, {"days": "Sat", "time": "3:30pm"}, {"days": "Sun", "time": "Closed"}], "id": "3034900049", "name": "USPS COLLECTION BOX - PO LOBBY", "address": {"city": "ATLANTA", "state": "GA", "street": "2385 GODBY RD", "postcode": "30349"}}},
{"geometry": {"type": "Point", "coordinates": [-84.4054904782, 33.6205812711]}, "type": "Feature", "properties": {"collection_times": [{"days": "Mon-Fri", "time": "2:00pm"}, {"days": "Sat-Sun", "time": "Closed"}], "id": "3034900050", "name": "USPS COLLECTION BOX - BLUE BOX", "address": {"city": "ATLANTA", "state": "GA", "street": "510 PLAZA DR", "postcode": "30349"}}},
{"geometry": {"type": "Point", "coordinates": [-84.471955507, 33.6014678083]}, "type": "Feature", "properties": {"collection_times": [{"days": "Mon-Fri", "time": "2:00pm"}, {"days": "Sat", "time": "1:00pm"}, {"days": "Sun", "time": "Closed"}], "id": "3034900051", "name": "USPS COLLECTION BOX - BLUE BOX", "address": {"city": "ATLANTA", "state": "GA", "street": "5655 OLD NATIONAL HWY", "postcode": "30349"}}},
{"geometry": {"type": "Point", "coordinates": [-84.3517557502, 33.9908012918]}, "type": "Feature", "properties": {"collection_times": [{"days": "Mon-Fri", "time": "1:00pm"}, {"days": "Sat", "time": "12:00pm"}, {"days": "Sun", "time": "Closed"}], "id": "3035000002", "name": "USPS COLLECTION BOX - BLUE BOX", "address": {"city": "ATLANTA", "state": "GA", "street": "8613 ROSWELL RD", "postcode": "30350"}}},
{"geometry": {"type": "Point", "coordinates": [-84.3479145562, 33.9872832288]}, "type": "Feature", "properties": {"collection_times": [{"days": "Mon-Fri", "time": "5:00pm"}, {"days": "Sat", "time": "3:30pm"}, {"days": "Sun", "time": "Closed"}], "id": "3035000004", "name": "USPS COLLECTION BOX - BLUE BOX", "address": {"city": "ATLANTA", "state": "GA", "street": "1185 HIGHTOWER TRL", "postcode": "30350"}}},
{"geometry": {"type": "Point", "coordinates": [-84.3479145562, 33.9872832288]}, "type": "Feature", "properties": {"collection_times": [{"days": "Mon-Fri", "time": "5:00pm"}, {"days": "Sat", "time": "3:30pm"}, {"days": "Sun", "time": "Closed"}], "id": "3035000005", "name": "USPS COLLECTION BOX - BLUE BOX", "address": {"city": "ATLANTA", "state": "GA", "street": "1185 HIGHTOWER TRL", "postcode": "30350"}}},
{"geometry": {"type": "Point", "coordinates": [-84.3477813906, 33.9872290669]}, "type": "Feature", "properties": {"collection_times": [{"days": "Mon-Fri", "time": "5:00pm"}, {"days": "Sat", "time": "3:30pm"}, {"days": "Sun", "time": "Closed"}], "id": "3035000006", "name": "USPS COLLECTION BOX - BLUE BOX", "address": {"city": "ATLANTA", "state": "GA", "street": "1185 HIGHTOWER TRL", "postcode": "30350"}}},
{"geometry": {"type": "Point", "coordinates": [-84.3598270792, 33.9701728533]}, "type": "Feature", "properties": {"collection_times": [{"days": "Mon-Fri", "time": "1:00pm"}, {"days": "Sat", "time": "12:00pm"}, {"days": "Sun", "time": "Closed"}], "id": "3035000008", "name": "USPS COLLECTION BOX - BLUE BOX", "address": {"city": "ATLANTA", "state": "GA", "street": "7840 ROSWELL RD", "postcode": "30350"}}},
{"geometry": {"type": "Point", "coordinates": [-84.346544816, 33.987076154]}, "type": "Feature", "properties": {"collection_times": [{"days": "Mon-Fri", "time": "1:00pm"}, {"days": "Sat", "time": "12:00pm"}, {"days": "Sun", "time": "Closed"}], "id": "3035000012", "name": "USPS COLLECTION BOX - BLUE BOX", "address": {"city": "ATLANTA", "state": "GA", "street": "1215 HIGHTOWER TRL", "postcode": "30350"}}},
{"geometry": {"type": "Point", "coordinates": [-84.3502231138, 33.9825051343]}, "type": "Feature", "properties": {"collection_times": [{"days": "Mon-Fri", "time": "1:00pm"}, {"days": "Sat", "time": "12:00pm"}, {"days": "Sun", "time": "Closed"}], "id": "3035000019", "name": "USPS COLLECTION BOX - BLUE BOX", "address": {"city": "ATLANTA", "state": "GA", "street": "8351 ROSWELL RD", "postcode": "30350"}}},
{"geometry": {"type": "Point", "coordinates": [-84.3507604154, 33.9790100506]}, "type": "Feature", "properties": {"collection_times": [{"days": "Mon-Fri", "time": "1:00pm"}, {"days": "Sat", "time": "12:00pm"}, {"days": "Sun", "time": "Closed"}], "id": "3035000020", "name": "USPS COLLECTION BOX - BLUE BOX", "address": {"city": "ATLANTA", "state": "GA", "street": "8215 ROSWELL RD", "postcode": "30350"}}},
{"geometry": {"type": "Point", "coordinates": [-84.3516504669, 33.9824223934]}, "type": "Feature", "properties": {"collection_times": [{"days": "Mon-Fri", "time": "1:00pm"}, {"days": "Sat", "time": "12:00pm"}, {"days": "Sun", "time": "Closed"}], "id": "3035000021", "name": "USPS COLLECTION BOX - BLUE BOX", "address": {"city": "ATLANTA", "state": "GA", "street": "500 SUGARMILL RD", "postcode": "30350"}}},
{"geometry": {"type": "Point", "coordinates": [-84.3401990769, 33.9789807995]}, "type": "Feature", "properties": {"collection_times": [{"days": "Mon-Fri", "time": "1:00pm"}, {"days": "Sat", "time": "12:00pm"}, {"days": "Sun", "time": "Closed"}], "id": "3035000022", "name": "USPS COLLECTION BOX - BLUE BOX", "address": {"city": "ATLANTA", "state": "GA", "street": "500 SUGAR MILL RD", "postcode": "30350"}}},
{"geometry": {"type": "Point", "coordinates": [-84.3540861794, 33.9748715663]}, "type": "Feature", "properties": {"collection_times": [{"days": "Mon-Fri", "time": "1:00pm"}, {"days": "Sat", "time": "12:00pm"}, {"days": "Sun", "time": "Closed"}], "id": "3035000025", "name": "USPS COLLECTION BOX - BLUE BOX", "address": {"city": "ATLANTA", "state": "GA", "street": "8060 ROSWELL RD", "postcode": "30350"}}},
{"geometry": {"type": "Point", "coordinates": [-84.3420472767, 33.989693856]}, "type": "Feature", "properties": {"collection_times": [{"days": "Mon-Fri", "time": "1:00pm"}, {"days": "Sat", "time": "12:00pm"}, {"days": "Sun", "time": "Closed"}], "id": "3035000026", "name": "USPS COLLECTION BOX - BLUE BOX", "address": {"city": "ATLANTA", "state": "GA", "street": "8595 DUNWOODY PL", "postcode": "30350"}}},
{"geometry": {"type": "Point", "coordinates": [-84.3440499555, 33.9907918281]}, "type": "Feature", "properties": {"collection_times": [{"days": "Mon-Fri", "time": "1:00pm"}, {"days": "Sat", "time": "12:00pm"}, {"days": "Sun", "time": "Closed"}], "id": "3035000028", "name": "USPS COLLECTION BOX - BLUE BOX", "address": {"city": "ATLANTA", "state": "GA", "street": "8601 DUNWOODY PL STE 600", "postcode": "30350"}}},
{"geometry": {"type": "Point", "coordinates": [-84.3506931565, 33.9979943613]}, "type": "Feature", "properties": {"collection_times": [{"days": "Mon-Fri", "time": "1:00pm"}, {"days": "Sat", "time": "12:00pm"}, {"days": "Sun", "time": "Closed"}], "id": "3035000034", "name": "USPS COLLECTION BOX - BLUE BOX", "address": {"city": "ATLANTA", "state": "GA", "street": "8800 ROSWELL RD", "postcode": "30350"}}},
{"geometry": {"type": "Point", "coordinates": [-84.3517569332, 33.9908426953]}, "type": "Feature", "properties": {"collection_times": [{"days": "Mon-Fri", "time": "1:00pm"}, {"days": "Sat", "time": "12:00pm"}, {"days": "Sun", "time": "Closed"}], "id": "3035000043", "name": "USPS COLLECTION BOX - BLUE BOX", "address": {"city": "ATLANTA", "state": "GA", "street": "8610 ROSWELL RD", "postcode": "30350"}}},
{"geometry": {"type": "Point", "coordinates": [-84.3473933954, 33.9934521339]}, "type": "Feature", "properties": {"collection_times": [{"days": "Mon-Fri", "time": "1:00pm"}, {"days": "Sat", "time": "12:00pm"}, {"days": "Sun", "time": "Closed"}], "id": "3035000048", "name": "USPS COLLECTION BOX - BLUE BOX", "address": {"city": "ATLANTA", "state": "GA", "street": "8701 DUNWOODY PL", "postcode": "30350"}}},
{"geometry": {"type": "Point", "coordinates": [-84.3480791137, 33.9817173499]}, "type": "Feature", "properties": {"collection_times": [{"days": "Mon-Fri", "time": "1:00pm"}, {"days": "Sat", "time": "12:00pm"}, {"days": "Sun", "time": "Closed"}], "id": "3035000051", "name": "USPS COLLECTION BOX - BLUE BOX", "address": {"city": "ATLANTA", "state": "GA", "street": "365 NORTHRIDGE RD", "postcode": "30350"}}},
{"geometry": {"type": "Point", "coordinates": [-84.3480791137, 33.9817173499]}, "type": "Feature", "properties": {"collection_times": [{"days": "Mon-Fri", "time": "1:00pm"}, {"days": "Sat", "time": "12:00pm"}, {"days": "Sun", "time": "Closed"}], "id": "3035000059", "name": "USPS COLLECTION BOX - BLUE BOX", "address": {"city": "ATLANTA", "state": "GA", "street": "365 NORTHRIDGE RD", "postcode": "30350"}}},
{"geometry": {"type": "Point", "coordinates": [-84.3452246338, 33.9868289156]}, "type": "Feature", "properties": {"collection_times": [{"days": "Mon-Fri", "time": "1:00pm"}, {"days": "Sat", "time": "12:00pm"}, {"days": "Sun", "time": "Closed"}], "id": "3035000067", "name": "USPS COLLECTION BOX - BLUE BOX", "address": {"city": "ATLANTA", "state": "GA", "street": "1303 HIGHTOWER TRL", "postcode": "30350"}}},
{"geometry": {"type": "Point", "coordinates": [-84.3405140912, 33.9909692719]}, "type": "Feature", "properties": {"collection_times": [{"days": "Mon-Fri", "time": "1:00pm"}, {"days": "Sat", "time": "12:00pm"}, {"days": "Sun", "time": "Closed"}], "id": "3035000070", "name": "USPS COLLECTION BOX - BLUE BOX", "address": {"city": "ATLANTA", "state": "GA", "street": "8607 ROBERTS DR", "postcode": "30350"}}},
{"geometry": {"type": "Point", "coordinates": [-84.3494371506, 33.9956691679]}, "type": "Feature", "properties": {"collection_times": [{"days": "Mon-Fri", "time": "1:00pm"}, {"days": "Sat", "time": "12:00pm"}, {"days": "Sun", "time": "Closed"}], "id": "3035000071", "name": "USPS COLLECTION BOX - BLUE BOX", "address": {"city": "ATLANTA", "state": "GA", "street": "8735 DUNWOODY PL", "postcode": "30350"}}},
{"geometry": {"type": "Point", "coordinates": [-84.3477813906, 33.9872290669]}, "type": "Feature", "properties": {"collection_times": [{"days": "Mon-Fri", "time": "5:00pm"}, {"days": "Sat", "time": "3:30pm"}, {"days": "Sun", "time": "Closed"}], "id": "3035000087", "name": "USPS COLLECTION BOX - PO LOBBY", "address": {"city": "ATLANTA", "state": "GA", "street": "1185 HIGHTOWER TRL", "postcode": "30350"}}},
{"geometry": {"type": "Point", "coordinates": [-84.3440499555, 33.9907918281]}, "type": "Feature", "properties": {"collection_times": [{"days": "Mon-Fri", "time": "1:00pm"}, {"days": "Sat", "time": "12:00pm"}, {"days": "Sun", "time": "Closed"}], "id": "3035000094", "name": "USPS COLLECTION BOX - BLUE BOX", "address": {"city": "ATLANTA", "state": "GA", "street": "8601 DUNWOODY PL STE 300", "postcode": "30350"}}},
{"geometry": {"type": "Point", "coordinates": [-84.3947622234, 33.6487002057]}, "type": "Feature", "properties": {"collection_times": [{"days": "Mon-Fri", "time": "3:00pm"}, {"days": "Sat", "time": "1:00pm"}, {"days": "Sun", "time": "Closed"}], "id": "3035400002", "name": "USPS COLLECTION BOX - BLUE BOX", "address": {"city": "HAPEVILLE", "state": "GA", "street": "400 TRADEPORT BLVD", "postcode": "30354"}}},
{"geometry": {"type": "Point", "coordinates": [-84.393736598, 33.6501079269]}, "type": "Feature", "properties": {"collection_times": [{"days": "Mon-Fri", "time": "3:00pm"}, {"days": "Sat", "time": "1:00pm"}, {"days": "Sun", "time": "Closed"}], "id": "3035400008", "name": "USPS COLLECTION BOX - BLUE BOX", "address": {"city": "HAPEVILLE", "state": "GA", "street": "200 TRADEPORT BLVD", "postcode": "30354"}}},
{"geometry": {"type": "Point", "coordinates": [-84.4081665021, 33.6597231101]}, "type": "Feature", "properties": {"collection_times": [{"days": "Mon-Fri", "time": "3:00pm"}, {"days": "Sat", "time": "1:00pm"}, {"days": "Sun", "time": "Closed"}], "id": "3035400010", "name": "USPS COLLECTION BOX - BLUE BOX", "address": {"city": "HAPEVILLE", "state": "GA", "street": "3468 N FULTON AVE", "postcode": "30354"}}},
{"geometry": {"type": "Point", "coordinates": [-84.4094013406, 33.6586713668]}, "type": "Feature", "properties": {"collection_times": [{"days": "Mon-Fri", "time": "5:00pm"}, {"days": "Sat", "time": "2:30pm"}, {"days": "Sun", "time": "Closed"}], "id": "3035400025", "name": "USPS COLLECTION BOX - BLUE BOX", "address": {"city": "HAPEVILLE", "state": "GA", "street": "650 S CENTRAL AVE", "postcode": "30354"}}},
{"geometry": {"type": "Point", "coordinates": [-84.4094013406, 33.6586713668]}, "type": "Feature", "properties": {"collection_times": [{"days": "Mon-Fri", "time": "5:00pm"}, {"days": "Sat", "time": "2:30pm"}, {"days": "Sun", "time": "Closed"}], "id": "3035400027", "name": "USPS COLLECTION BOX - PO LOBBY", "address": {"city": "HAPEVILLE", "state": "GA", "street": "650 S CENTRAL AVE", "postcode": "30354"}}},
{"geometry": {"type": "Point", "coordinates": [-84.4234300509, 33.6589103245]}, "type": "Feature", "properties": {"collection_times": [{"days": "Mon-Fri", "time": "3:00pm"}, {"days": "Sat-Sun", "time": "Closed"}], "id": "3035400044", "name": "USPS COLLECTION BOX - BLUE BOX", "address": {"city": "HAPEVILLE", "state": "GA", "street": "1025 VIRGINIA AVE", "postcode": "30354"}}},
{"geometry": {"type": "Point", "coordinates": [-84.3874057293, 33.6590525963]}, "type": "Feature", "properties": {"collection_times": [{"days": "Mon-Fri", "time": "5:00pm"}, {"days": "Sat", "time": "1:00pm"}, {"days": "Sun", "time": "Closed"}], "id": "3035400050", "name": "USPS COLLECTION BOX - BLUE BOX", "address": {"city": "HAPEVILLE", "state": "GA", "street": "2310 CHARLES W. GRANT PKWY", "postcode": "30354"}}},
{"geometry": {"type": "Point", "coordinates": [-84.3964149979, 33.6362911445]}, "type": "Feature", "properties": {"collection_times": [{"days": "Mon-Fri", "time": "3:00pm"}, {"days": "Sat-Sun", "time": "Closed"}], "id": "3035400052", "name": "USPS COLLECTION BOX - BLUE BOX", "address": {"city": "HAPEVILLE", "state": "GA", "street": "4244 INTERNATIONAL PKWY", "postcode": "30354"}}},
{"geometry": {"type": "Point", "coordinates": [-84.3933080791, 33.6628512344]}, "type": "Feature", "properties": {"collection_times": [{"days": "Mon-Fri", "time": "3:00pm"}, {"days": "Sat-Sun", "time": "Closed"}], "id": "3035400053", "name": "USPS COLLECTION BOX - BLUE BOX", "address": {"city": "HAPEVILLE", "state": "GA", "street": "1001 VIRGINIA AVE", "postcode": "30354"}}},
{"geometry": {"type": "Point", "coordinates": [-84.3692942998, 33.8369752227]}, "type": "Feature", "properties": {"collection_times": [{"days": "Mon-Sat", "time": "5:00pm"}, {"days": "Sun", "time": "Closed"}], "id": "3035500000", "name": "USPS COLLECTION BOX - PO LOBBY", "address": {"city": "ATLANTA", "state": "GA", "street": "575 PHARR RD NE", "postcode": "30355"}}},
{"geometry": {"type": "Point", "coordinates": [-84.3692942998, 33.8369752227]}, "type": "Feature", "properties": {"collection_times": [{"days": "Mon-Sat", "time": "5:00pm"}, {"days": "Sun", "time": "Closed"}], "id": "3035500001", "name": "USPS COLLECTION BOX - APC", "address": {"city": "ATLANTA", "state": "GA", "street": "575 PHARR RD NE", "postcode": "30355"}}},
{"geometry": {"type": "Point", "coordinates": [-84.2702485741, 33.9406564781]}, "type": "Feature", "properties": {"collection_times": [{"days": "Mon-Sat", "time": "11:30am"}, {"days": "Sun", "time": "Closed"}], "id": "3036000004", "name": "USPS COLLECTION BOX - BLUE BOX", "address": {"city": "DORAVILLE", "state": "GA", "street": "4947 WINTERS CHAPEL RD", "postcode": "30360"}}},
{"geometry": {"type": "Point", "coordinates": [-84.2701434112, 33.9283434243]}, "type": "Feature", "properties": {"collection_times": [{"days": "Mon-Sat", "time": "11:30am"}, {"days": "Sun", "time": "Closed"}], "id": "3036000007", "name": "USPS COLLECTION BOX - BLUE BOX", "address": {"city": "DORAVILLE", "state": "GA", "street": "6715 PEACHTREE INDUSTRIAL BLVD", "postcode": "30360"}}},
{"geometry": {"type": "Point", "coordinates": [-84.2589502535, 33.9287373497]}, "type": "Feature", "properties": {"collection_times": [{"days": "Mon-Sat", "time": "11:30am"}, {"days": "Sun", "time": "Closed"}], "id": "3036000008", "name": "USPS COLLECTION BOX - BLUE BOX", "address": {"city": "DORAVILLE", "state": "GA", "street": "7055 AMWILER IND DR", "postcode": "30360"}}},
{"geometry": {"type": "Point", "coordinates": [-84.2705018478, 33.9439087984]}, "type": "Feature", "properties": {"collection_times": [{"days": "Mon-Sat", "time": "11:30am"}, {"days": "Sun", "time": "Closed"}], "id": "3036000011", "name": "USPS COLLECTION BOX - BLUE BOX", "address": {"city": "DORAVILLE", "state": "GA", "street": "5076 WINTERS CHAPEL RD", "postcode": "30360"}}},
{"geometry": {"type": "Point", "coordinates": [-84.2627913212, 33.9292117162]}, "type": "Feature", "properties": {"collection_times": [{"days": "Mon-Sat", "time": "11:30am"}, {"days": "Sun", "time": "Closed"}], "id": "3036000012", "name": "USPS COLLECTION BOX - BLUE BOX", "address": {"city": "DORAVILLE", "state": "GA", "street": "3050 AMWILER RD", "postcode": "30360"}}},
{"geometry": {"type": "Point", "coordinates": [-84.2798330597, 33.9086229799]}, "type": "Feature", "properties": {"collection_times": [{"days": "Mon-Sat", "time": "11:30am"}, {"days": "Sun", "time": "Closed"}], "id": "3036000013", "name": "USPS COLLECTION BOX - BLUE BOX", "address": {"city": "DORAVILLE", "state": "GA", "street": "3990 FLOWERS RD", "postcode": "30360"}}},
{"geometry": {"type": "Point", "coordinates": [-84.2553879568, 33.9256552782]}, "type": "Feature", "properties": {"collection_times": [{"days": "Mon-Sat", "time": "11:30am"}, {"days": "Sun", "time": "Closed"}], "id": "3036000018", "name": "USPS COLLECTION BOX - BLUE BOX", "address": {"city": "DORAVILLE", "state": "GA", "street": "2845 AMWILER RD", "postcode": "30360"}}},
{"geometry": {"type": "Point", "coordinates": [-84.2777374083, 33.9241807902]}, "type": "Feature", "properties": {"collection_times": [{"days": "Mon-Sat", "time": "11:30am"}, {"days": "Sun", "time": "Closed"}], "id": "3036000022", "name": "USPS COLLECTION BOX - BLUE BOX", "address": {"city": "DORAVILLE", "state": "GA", "street": "2684 PEACHTREE SQ", "postcode": "30360"}}},
{"geometry": {"type": "Point", "coordinates": [-84.4051296758, 33.7738170436]}, "type": "Feature", "properties": {"collection_times": [{"days": "Mon-Fri", "time": "5:00pm"}, {"days": "Sat-Sun", "time": "Closed"}], "id": "3037700000", "name": "USPS COLLECTION BOX - PO LOBBY", "address": {"city": "ATLANTA", "state": "GA", "street": "794 MARIETTA ST NW", "postcode": "30377"}}}
]}
