{"type": "FeatureCollection", "features": [
{"geometry": {"type": "Point", "coordinates": [-82.3340791148, 32.5974230368]}, "type": "Feature", "properties": {"collection_times": [{"days": "Mon-Fri", "time": "5:15pm"}, {"days": "Sat-Sun", "time": "Closed"}], "id": "3040100004", "name": "USPS COLLECTION BOX - BLUE BOX", "address": {"city": "SWAINSBORO", "state": "GA", "street": "101 N MAIN ST", "postcode": "30401"}}},
{"geometry": {"type": "Point", "coordinates": [-82.318733295, 32.5992740484]}, "type": "Feature", "properties": {"collection_times": [{"days": "Mon-Fri", "time": "5:00pm"}, {"days": "Sat-Sun", "time": "Closed"}], "id": "3040100015", "name": "USPS COLLECTION BOX - BLUE BOX", "address": {"city": "SWAINSBORO", "state": "GA", "street": "133 ANDERSON DR", "postcode": "30401"}}},
{"geometry": {"type": "Point", "coordinates": [-82.3346001644, 32.5950102454]}, "type": "Feature", "properties": {"collection_times": [{"days": "Mon-Fri", "time": "6:30pm"}, {"days": "Sat", "time": "5:00pm"}, {"days": "Sun", "time": "Closed"}], "id": "3040100016", "name": "USPS COLLECTION BOX - BLUE BOX", "address": {"city": "SWAINSBORO", "state": "GA", "street": "211 W MORING ST", "postcode": "30401"}}},
{"geometry": {"type": "Point", "coordinates": [-82.3459718566, 32.5941575407]}, "type": "Feature", "properties": {"collection_times": [{"days": "Mon-Fri", "time": "5:15pm"}, {"days": "Sat-Sun", "time": "Closed"}], "id": "3040100017", "name": "USPS COLLECTION BOX - BLUE BOX", "address": {"city": "SWAINSBORO", "state": "GA", "street": "545 W CHURCH ST", "postcode": "30401"}}},
{"geometry": {"type": "Point", "coordinates": [-82.3346001644, 32.5950102454]}, "type": "Feature", "properties": {"collection_times": [{"days": "Mon-Fri", "time": "6:30pm"}, {"days": "Sat", "time": "5:00pm"}, {"days": "Sun", "time": "Closed"}], "id": "3040100018", "name": "USPS COLLECTION BOX - PO LOBBY", "address": {"city": "SWAINSBORO", "state": "GA", "street": "211 W MORING ST", "postcode": "30401"}}},
{"geometry": {"type": "Point", "coordinates": [-82.3458371213, 32.6013349859]}, "type": "Feature", "properties": {"collection_times": [{"days": "Mon-Fri", "time": "5:00pm"}, {"days": "Sat-Sun", "time": "Closed"}], "id": "3040100020", "name": "USPS COLLECTION BOX - BLUE BOX", "address": {"city": "SWAINSBORO", "state": "GA", "street": "708 EMPIRE EXPY", "postcode": "30401"}}},
{"geometry": {"type": "Point", "coordinates": [-82.3337384485, 32.5969636077]}, "type": "Feature", "properties": {"collection_times": [{"days": "Mon-Fri", "time": "5:15pm"}, {"days": "Sat-Sun", "time": "Closed"}], "id": "3040100022", "name": "USPS COLLECTION BOX - BLUE BOX", "address": {"city": "SWAINSBORO", "state": "GA", "street": "125 S MAIN ST", "postcode": "30401"}}},
{"geometry": {"type": "Point", "coordinates": [-82.4663356148, 32.2165299501]}, "type": "Feature", "properties": {"collection_times": [{"days": "Mon-Fri", "time": "1:00pm"}, {"days": "Sat", "time": "10:45am"}, {"days": "Sun", "time": "Closed"}], "id": "3041000001", "name": "USPS COLLECTION BOX - BLUE BOX", "address": {"city": "AILEY", "state": "GA", "street": "129 RAILROAD ST", "postcode": "30410"}}},
{"geometry": {"type": "Point", "coordinates": [-82.4663356148, 32.2165299501]}, "type": "Feature", "properties": {"collection_times": [{"days": "Mon-Fri", "time": "12:45pm"}, {"days": "Sat", "time": "10:45am"}, {"days": "Sun", "time": "Closed"}], "id": "3041000002", "name": "USPS COLLECTION BOX - PO LOBBY", "address": {"city": "AILEY", "state": "GA", "street": "129 RAILROAD ST", "postcode": "30410"}}},
{"geometry": {"type": "Point", "coordinates": [-82.8066048048, 32.1408244645]}, "type": "Feature", "properties": {"collection_times": [{"days": "Mon-Fri", "time": "4:30pm"}, {"days": "Sat", "time": "12:00pm"}, {"days": "Sun", "time": "Closed"}], "id": "3041100001", "name": "USPS COLLECTION BOX - BLUE BOX", "address": {"city": "ALAMO", "state": "GA", "street": "14 W RAILROAD AVE", "postcode": "30411"}}},
{"geometry": {"type": "Point", "coordinates": [-82.8066048048, 32.1408244645]}, "type": "Feature", "properties": {"collection_times": [{"days": "Mon-Fri", "time": "4:30pm"}, {"days": "Sat", "time": "12:00pm"}, {"days": "Sun", "time": "Closed"}], "id": "3041100002", "name": "USPS COLLECTION BOX - PO LOBBY", "address": {"city": "ALAMO", "state": "GA", "street": "14 W RAILROAD AVE", "postcode": "30411"}}},
{"geometry": {"type": "Point", "coordinates": [-82.4789681665, 32.0750481534]}, "type": "Feature", "properties": {"collection_times": [{"days": "Mon-Fri", "time": "4:15pm"}, {"days": "Sat", "time": "10:30am"}, {"days": "Sun", "time": "Closed"}], "id": "3041200000", "name": "USPS COLLECTION BOX - PO LOBBY", "address": {"city": "ALSTON", "state": "GA", "street": "5133 GA HIGHWAY 135", "postcode": "30412"}}},
{"geometry": {"type": "Point", "coordinates": [-82.4789681665, 32.0750481534]}, "type": "Feature", "properties": {"collection_times": [{"days": "Mon-Fri", "time": "4:15pm"}, {"days": "Sat", "time": "10:30am"}, {"days": "Sun", "time": "Closed"}], "id": "3041200001", "name": "USPS COLLECTION BOX - BLUE BOX", "address": {"city": "ALSTON", "state": "GA", "street": "5133 GA HIGHWAY 135", "postcode": "30412"}}},
{"geometry": {"type": "Point", "coordinates": [-82.4743548349, 32.8787204522]}, "type": "Feature", "properties": {"collection_times": [{"days": "Mon-Fri", "time": "1:00pm"}, {"days": "Sat", "time": "10:00am"}, {"days": "Sun", "time": "Closed"}], "id": "3041300001", "name": "USPS COLLECTION BOX - BLUE BOX", "address": {"city": "BARTOW", "state": "GA", "street": "1031 N RAILROAD AVE", "postcode": "30413"}}},
{"geometry": {"type": "Point", "coordinates": [-82.4743548349, 32.8787204522]}, "type": "Feature", "properties": {"collection_times": [{"days": "Mon-Fri", "time": "1:00pm"}, {"days": "Sat", "time": "10:00am"}, {"days": "Sun", "time": "Closed"}], "id": "3041300002", "name": "USPS COLLECTION BOX - PO LOBBY", "address": {"city": "BARTOW", "state": "GA", "street": "1031 N RAILROAD AVE", "postcode": "30413"}}},
{"geometry": {"type": "Point", "coordinates": [-84.8993837932, 31.5944163191]}, "type": "Feature", "properties": {"collection_times": [{"days": "Mon-Fri", "time": "11:00am"}, {"days": "Sat", "time": "10:15am"}, {"days": "Sun", "time": "Closed"}], "id": "3041400001", "name": "USPS COLLECTION BOX - BLUE BOX", "address": {"city": "BELLVILLE", "state": "GA", "street": "1355A JOHN B GORDON ST", "postcode": "30414"}}},
{"geometry": {"type": "Point", "coordinates": [-81.6627229632, 32.379874577]}, "type": "Feature", "properties": {"collection_times": [{"days": "Mon-Fri", "time": "5:00pm"}, {"days": "Sat", "time": "11:30am"}, {"days": "Sun", "time": "Closed"}], "id": "3041500001", "name": "USPS COLLECTION BOX - PO LOBBY", "address": {"city": "BROOKLET", "state": "GA", "street": "129 E LEE ST", "postcode": "30415"}}},
{"geometry": {"type": "Point", "coordinates": [-81.6627229632, 32.379874577]}, "type": "Feature", "properties": {"collection_times": [{"days": "Mon-Fri", "time": "5:00pm"}, {"days": "Sat", "time": "11:30am"}, {"days": "Sun", "time": "Closed"}], "id": "3041500003", "name": "USPS COLLECTION BOX - BLUE BOX", "address": {"city": "BROOKLET", "state": "GA", "street": "129 E LEE ST", "postcode": "30415"}}},
{"geometry": {"type": "Point", "coordinates": [-81.6627229632, 32.379874577]}, "type": "Feature", "properties": {"collection_times": [{"days": "Mon-Fri", "time": "5:00pm"}, {"days": "Sat", "time": "11:30am"}, {"days": "Sun", "time": "Closed"}], "id": "3041500004", "name": "USPS COLLECTION BOX - BLUE BOX", "address": {"city": "BROOKLET", "state": "GA", "street": "129 E LEE ST", "postcode": "30415"}}},
{"geometry": {"type": "Point", "coordinates": [-81.9071435859, 32.1613546335]}, "type": "Feature", "properties": {"collection_times": [{"days": "Mon-Fri", "time": "5:00pm"}, {"days": "Sat", "time": "1:00pm"}, {"days": "Sun", "time": "Closed"}], "id": "3041700001", "name": "USPS COLLECTION BOX - BLUE BOX", "address": {"city": "CLAXTON", "state": "GA", "street": "7 COURTHOUSE ST", "postcode": "30417"}}},
{"geometry": {"type": "Point", "coordinates": [-81.9071435859, 32.1613546335]}, "type": "Feature", "properties": {"collection_times": [{"days": "Mon-Fri", "time": "5:00pm"}, {"days": "Sat", "time": "1:00pm"}, {"days": "Sun", "time": "Closed"}], "id": "3041700004", "name": "USPS COLLECTION BOX - PO LOBBY", "address": {"city": "CLAXTON", "state": "GA", "street": "7 COURTHOUSE ST", "postcode": "30417"}}},
{"geometry": {"type": "Point", "coordinates": [-82.1224065798, 32.2868550615]}, "type": "Feature", "properties": {"collection_times": [{"days": "Mon-Fri", "time": "2:00pm"}, {"days": "Sat", "time": "10:00am"}, {"days": "Sun", "time": "Closed"}], "id": "3042000001", "name": "USPS COLLECTION BOX - BLUE BOX", "address": {"city": "COBBTOWN", "state": "GA", "street": "6888 MAIN ST", "postcode": "30420"}}},
{"geometry": {"type": "Point", "coordinates": [-82.1224065798, 32.2868550615]}, "type": "Feature", "properties": {"collection_times": [{"days": "Mon-Fri", "time": "1:30pm"}, {"days": "Sat", "time": "10:00am"}, {"days": "Sun", "time": "Closed"}], "id": "3042000002", "name": "USPS COLLECTION BOX - PO LOBBY", "address": {"city": "COBBTOWN", "state": "GA", "street": "6888 MAIN ST", "postcode": "30420"}}},
{"geometry": {"type": "Point", "coordinates": [-82.1117915951, 32.1761042799]}, "type": "Feature", "properties": {"collection_times": [{"days": "Mon-Fri", "time": "4:30pm"}, {"days": "Sat", "time": "10:00am"}, {"days": "Sun", "time": "Closed"}], "id": "3042100001", "name": "USPS COLLECTION BOX - BLUE BOX", "address": {"city": "COLLINS", "state": "GA", "street": "225 S MAIN ST", "postcode": "30421"}}},
{"geometry": {"type": "Point", "coordinates": [-82.1117915951, 32.1761042799]}, "type": "Feature", "properties": {"collection_times": [{"days": "Mon-Fri", "time": "4:30pm"}, {"days": "Sat", "time": "10:00am"}, {"days": "Sun", "time": "Closed"}], "id": "3042100002", "name": "USPS COLLECTION BOX - PO LOBBY", "address": {"city": "COLLINS", "state": "GA", "street": "225 S MAIN ST", "postcode": "30421"}}},
{"geometry": {"type": "Point", "coordinates": [-81.907657078, 32.1612610361]}, "type": "Feature", "properties": {"collection_times": [{"days": "Mon-Fri", "time": "12:00pm"}, {"days": "Sat", "time": "11:30am"}, {"days": "Sun", "time": "Closed"}], "id": "3042300001", "name": "USPS COLLECTION BOX - BLUE BOX", "address": {"city": "DAISY", "state": "GA", "street": "306 RAILROAD ST", "postcode": "30423"}}},
{"geometry": {"type": "Point", "coordinates": [-81.907657078, 32.1612610361]}, "type": "Feature", "properties": {"collection_times": [{"days": "Mon-Fri", "time": "11:45am"}, {"days": "Sat", "time": "12:00pm"}, {"days": "Sun", "time": "Closed"}], "id": "3042300002", "name": "USPS COLLECTION BOX - PO LOBBY", "address": {"city": "DAISY", "state": "GA", "street": "306 RAILROAD ST", "postcode": "30423"}}},
{"geometry": {"type": "Point", "coordinates": [-81.7115020784, 32.573300056]}, "type": "Feature", "properties": {"collection_times": [{"days": "Mon-Fri", "time": "4:30pm"}, {"days": "Sat", "time": "11:30am"}, {"days": "Sun", "time": "Closed"}], "id": "3042400001", "name": "USPS COLLECTION BOX - BLUE BOX", "address": {"city": "DOVER", "state": "GA", "street": "6516 STATESBORO HWY", "postcode": "30424"}}},
{"geometry": {"type": "Point", "coordinates": [-81.7115020784, 32.573300056]}, "type": "Feature", "properties": {"collection_times": [{"days": "Mon-Fri", "time": "4:30pm"}, {"days": "Sat", "time": "11:30am"}, {"days": "Sun", "time": "Closed"}], "id": "3042400002", "name": "USPS COLLECTION BOX - PO LOBBY", "address": {"city": "DOVER", "state": "GA", "street": "6516 STATESBORO HWY", "postcode": "30424"}}},
{"geometry": {"type": "Point", "coordinates": [-82.0967604028, 32.6498249978]}, "type": "Feature", "properties": {"collection_times": [{"days": "Mon-Fri", "time": "4:30pm"}, {"days": "Sat", "time": "9:30am"}, {"days": "Sun", "time": "Closed"}], "id": "3042500001", "name": "USPS COLLECTION BOX - BLUE BOX", "address": {"city": "GARFIELD", "state": "GA", "street": "213 MONROE ST", "postcode": "30425"}}},
{"geometry": {"type": "Point", "coordinates": [-82.0967604028, 32.6498249978]}, "type": "Feature", "properties": {"collection_times": [{"days": "Mon-Fri", "time": "4:30pm"}, {"days": "Sat", "time": "9:30am"}, {"days": "Sun", "time": "Closed"}], "id": "3042500002", "name": "USPS COLLECTION BOX - PO LOBBY", "address": {"city": "GARFIELD", "state": "GA", "street": "213 MONROE ST", "postcode": "30425"}}},
{"geometry": {"type": "Point", "coordinates": [-81.7187525889, 33.0365149534]}, "type": "Feature", "properties": {"collection_times": [{"days": "Mon-Fri", "time": "3:45pm"}, {"days": "Sat", "time": "11:00am"}, {"days": "Sun", "time": "Closed"}], "id": "3042600001", "name": "USPS COLLECTION BOX - BLUE BOX", "address": {"city": "GIRARD", "state": "GA", "street": "10280 GA HIGHWAY 23 S", "postcode": "30426"}}},
{"geometry": {"type": "Point", "coordinates": [-81.7187525889, 33.0365149534]}, "type": "Feature", "properties": {"collection_times": [{"days": "Mon-Fri", "time": "12:30pm"}, {"days": "Sat", "time": "11:00am"}, {"days": "Sun", "time": "Closed"}], "id": "3042600002", "name": "USPS COLLECTION BOX - PO LOBBY", "address": {"city": "GIRARD", "state": "GA", "street": "10280 GA HIGHWAY 23 S", "postcode": "30426"}}},
{"geometry": {"type": "Point", "coordinates": [-81.9285651257, 31.936611836]}, "type": "Feature", "properties": {"collection_times": [{"days": "Mon-Fri", "time": "2:30pm"}, {"days": "Sat", "time": "2:00pm"}, {"days": "Sun", "time": "Closed"}], "id": "3042700003", "name": "USPS COLLECTION BOX - BLUE BOX", "address": {"city": "GLENNVILLE", "state": "GA", "street": "114 E BARNARD ST", "postcode": "30427"}}},
{"geometry": {"type": "Point", "coordinates": [-81.9559068826, 31.9476367348]}, "type": "Feature", "properties": {"collection_times": [{"days": "Mon-Fri", "time": "4:45pm"}, {"days": "Sat", "time": "3:30pm"}, {"days": "Sun", "time": "Closed"}], "id": "3042700008", "name": "USPS COLLECTION BOX - PO LOBBY", "address": {"city": "GLENNVILLE", "state": "GA", "street": "206 S VETERANS BLVD", "postcode": "30427"}}},
{"geometry": {"type": "Point", "coordinates": [-81.9559068826, 31.9476367348]}, "type": "Feature", "properties": {"collection_times": [{"days": "Mon-Fri", "time": "5:00pm"}, {"days": "Sat", "time": "3:15pm"}, {"days": "Sun", "time": "Closed"}], "id": "3042700009", "name": "USPS COLLECTION BOX - BLUE BOX", "address": {"city": "GLENNVILLE", "state": "GA", "street": "206 S VETERANS BLVD", "postcode": "30427"}}},
{"geometry": {"type": "Point", "coordinates": [-81.9559068826, 31.9476367348]}, "type": "Feature", "properties": {"collection_times": [{"days": "Mon-Fri", "time": "5:00pm"}, {"days": "Sat", "time": "3:15pm"}, {"days": "Sun", "time": "Closed"}], "id": "3042700016", "name": "USPS COLLECTION BOX - BLUE BOX", "address": {"city": "GLENNVILLE", "state": "GA", "street": "206 S VETERANS BLVD", "postcode": "30427"}}},
{"geometry": {"type": "Point", "coordinates": [-82.6798295789, 32.1409409689]}, "type": "Feature", "properties": {"collection_times": [{"days": "Mon-Fri", "time": "3:30pm"}, {"days": "Sat", "time": "10:15am"}, {"days": "Sun", "time": "Closed"}], "id": "3042800001", "name": "USPS COLLECTION BOX - BLUE BOX", "address": {"city": "GLENWOOD", "state": "GA", "street": "5 N THIRD ST", "postcode": "30428"}}},
{"geometry": {"type": "Point", "coordinates": [-82.6798295789, 32.1409409689]}, "type": "Feature", "properties": {"collection_times": [{"days": "Mon-Fri", "time": "3:30pm"}, {"days": "Sat", "time": "10:15am"}, {"days": "Sun", "time": "Closed"}], "id": "3042800002", "name": "USPS COLLECTION BOX - PO LOBBY", "address": {"city": "GLENWOOD", "state": "GA", "street": "5 N THIRD ST", "postcode": "30428"}}},
{"geometry": {"type": "Point", "coordinates": [-81.9323787427, 32.1591878383]}, "type": "Feature", "properties": {"collection_times": [{"days": "Mon-Fri", "time": "4:30pm"}, {"days": "Sat", "time": "11:30am"}, {"days": "Sun", "time": "Closed"}], "id": "3042900002", "name": "USPS COLLECTION BOX - BLUE BOX", "address": {"city": "HAGAN", "state": "GA", "street": "5272 NW US HIGHWAY 280", "postcode": "30429"}}},
{"geometry": {"type": "Point", "coordinates": [-81.9323787427, 32.1591878383]}, "type": "Feature", "properties": {"collection_times": [{"days": "Mon-Fri", "time": "4:30pm"}, {"days": "Sat", "time": "11:30am"}, {"days": "Sun", "time": "Closed"}], "id": "3042900003", "name": "USPS COLLECTION BOX - PO LOBBY", "address": {"city": "HAGAN", "state": "GA", "street": "5272 NW US HIGHWAY 280", "postcode": "30429"}}},
{"geometry": {"type": "Point", "coordinates": [-82.4096805288, 33.0001632359]}, "type": "Feature", "properties": {"collection_times": [{"days": "Mon-Fri", "time": "5:00pm"}, {"days": "Sat", "time": "12:30pm"}, {"days": "Sun", "time": "Closed"}], "id": "3043400007", "name": "USPS COLLECTION BOX - BLUE BOX", "address": {"city": "LOUISVILLE", "state": "GA", "street": "131 W BROAD ST", "postcode": "30434"}}},
{"geometry": {"type": "Point", "coordinates": [-82.4096805288, 33.0001632359]}, "type": "Feature", "properties": {"collection_times": [{"days": "Mon-Fri", "time": "5:00pm"}, {"days": "Sat", "time": "12:30pm"}, {"days": "Sun", "time": "Closed"}], "id": "3043400010", "name": "USPS COLLECTION BOX - PO LOBBY", "address": {"city": "LOUISVILLE", "state": "GA", "street": "131 W BROAD ST", "postcode": "30434"}}},
{"geometry": {"type": "Point", "coordinates": [-82.2918629195, 32.1408784543]}, "type": "Feature", "properties": {"collection_times": [{"days": "Mon-Fri", "time": "12:15pm"}, {"days": "Sat-Sun", "time": "Closed"}], "id": "3043600003", "name": "USPS COLLECTION BOX - BLUE BOX", "address": {"city": "LYONS", "state": "GA", "street": "100 COURTHOUSE SQ", "postcode": "30436"}}},
{"geometry": {"type": "Point", "coordinates": [-82.3271266019, 32.1992346004]}, "type": "Feature", "properties": {"collection_times": [{"days": "Mon-Sat", "time": "9:15am"}, {"days": "Sun", "time": "Closed"}], "id": "3043600006", "name": "USPS COLLECTION BOX - BLUE BOX", "address": {"city": "LYONS", "state": "GA", "street": "178 S VICTORY DR", "postcode": "30436"}}},
{"geometry": {"type": "Point", "coordinates": [-82.3304538074, 32.203054578]}, "type": "Feature", "properties": {"collection_times": [{"days": "Mon-Fri", "time": "12:15pm"}, {"days": "Sat-Sun", "time": "Closed"}], "id": "3043600012", "name": "USPS COLLECTION BOX - BLUE BOX", "address": {"city": "LYONS", "state": "GA", "street": "357 NW BROAD ST", "postcode": "30436"}}},
{"geometry": {"type": "Point", "coordinates": [-82.3220907103, 32.2052731915]}, "type": "Feature", "properties": {"collection_times": [{"days": "Mon-Fri", "time": "5:00pm"}, {"days": "Sat", "time": "10:00am"}, {"days": "Sun", "time": "Closed"}], "id": "3043600014", "name": "USPS COLLECTION BOX - BLUE BOX", "address": {"city": "LYONS", "state": "GA", "street": "101 W COLUMBIA AVE", "postcode": "30436"}}},
{"geometry": {"type": "Point", "coordinates": [-82.3219936686, 32.2047635847]}, "type": "Feature", "properties": {"collection_times": [{"days": "Mon-Fri", "time": "5:00pm"}, {"days": "Sat", "time": "10:00am"}, {"days": "Sun", "time": "Closed"}], "id": "3043600015", "name": "USPS COLLECTION BOX - PO LOBBY", "address": {"city": "LYONS", "state": "GA", "street": "131 N STATE ST", "postcode": "30436"}}},
{"geometry": {"type": "Point", "coordinates": [-82.0616886853, 32.3956191048]}, "type": "Feature", "properties": {"collection_times": [{"days": "Mon-Fri", "time": "5:00pm"}, {"days": "Sat", "time": "12:15pm"}, {"days": "Sun", "time": "Closed"}], "id": "3043900007", "name": "USPS COLLECTION BOX - BLUE BOX", "address": {"city": "METTER", "state": "GA", "street": "205 S ROUNTREE ST", "postcode": "30439"}}},
{"geometry": {"type": "Point", "coordinates": [-82.0616886853, 32.3956191048]}, "type": "Feature", "properties": {"collection_times": [{"days": "Mon-Fri", "time": "5:00pm"}, {"days": "Sat", "time": "12:15pm"}, {"days": "Sun", "time": "Closed"}], "id": "3043900015", "name": "USPS COLLECTION BOX - PO LOBBY", "address": {"city": "METTER", "state": "GA", "street": "205 S ROUNTREE ST", "postcode": "30439"}}},
{"geometry": {"type": "Point", "coordinates": [-82.2355682958, 32.8177845482]}, "type": "Feature", "properties": {"collection_times": [{"days": "Mon-Fri", "time": "4:30pm"}, {"days": "Sat", "time": "11:30am"}, {"days": "Sun", "time": "Closed"}], "id": "3044100001", "name": "USPS COLLECTION BOX - BLUE BOX", "address": {"city": "MIDVILLE", "state": "GA", "street": "238 N RAILROAD ST", "postcode": "30441"}}},
{"geometry": {"type": "Point", "coordinates": [-82.2355682958, 32.8177845482]}, "type": "Feature", "properties": {"collection_times": [{"days": "Mon-Fri", "time": "4:30pm"}, {"days": "Sat", "time": "11:30am"}, {"days": "Sun", "time": "Closed"}], "id": "3044100002", "name": "USPS COLLECTION BOX - PO LOBBY", "address": {"city": "MIDVILLE", "state": "GA", "street": "238 N RAILROAD ST", "postcode": "30441"}}},
{"geometry": {"type": "Point", "coordinates": [-81.939384668, 32.8038304909]}, "type": "Feature", "properties": {"collection_times": [{"days": "Mon-Fri", "time": "5:00pm"}, {"days": "Sat-Sun", "time": "Closed"}], "id": "3044200001", "name": "USPS COLLECTION BOX - BLUE BOX", "address": {"city": "MILLEN", "state": "GA", "street": "200 DANIEL ST", "postcode": "30442"}}},
{"geometry": {"type": "Point", "coordinates": [-81.939225264, 32.8029029631]}, "type": "Feature", "properties": {"collection_times": [{"days": "Mon-Fri", "time": "5:00pm"}, {"days": "Sat", "time": "12:00pm"}, {"days": "Sun", "time": "Closed"}], "id": "3044200003", "name": "USPS COLLECTION BOX - BLUE BOX", "address": {"city": "MILLEN", "state": "GA", "street": "126 DANIEL ST", "postcode": "30442"}}},
{"geometry": {"type": "Point", "coordinates": [-81.9320689992, 32.8036737097]}, "type": "Feature", "properties": {"collection_times": [{"days": "Mon-Fri", "time": "5:00pm"}, {"days": "Sat", "time": "12:00pm"}, {"days": "Sun", "time": "Closed"}], "id": "3044200006", "name": "USPS COLLECTION BOX - PO LOBBY", "address": {"city": "MILLEN", "state": "GA", "street": "608 E WINTHROPE AVE", "postcode": "30442"}}},
{"geometry": {"type": "Point", "coordinates": [-81.939225264, 32.8029029631]}, "type": "Feature", "properties": {"collection_times": [{"days": "Mon-Fri", "time": "5:00pm"}, {"days": "Sat", "time": "12:00pm"}, {"days": "Sun", "time": "Closed"}], "id": "3044200007", "name": "USPS COLLECTION BOX - BLUE BOX", "address": {"city": "MILLEN", "state": "GA", "street": "126 DANIEL ST", "postcode": "30442"}}},
{"geometry": {"type": "Point", "coordinates": [-82.5951044957, 32.1738890505]}, "type": "Feature", "properties": {"collection_times": [{"days": "Mon-Fri", "time": "4:30pm"}, {"days": "Sat", "time": "12:00pm"}, {"days": "Sun", "time": "Closed"}], "id": "3044500001", "name": "USPS COLLECTION BOX - BLUE BOX", "address": {"city": "MOUNT VERNON", "state": "GA", "street": "120 W CHURCH ST", "postcode": "30445"}}},
{"geometry": {"type": "Point", "coordinates": [-82.5951044957, 32.1738890505]}, "type": "Feature", "properties": {"collection_times": [{"days": "Mon-Fri", "time": "4:30pm"}, {"days": "Sat", "time": "12:00pm"}, {"days": "Sun", "time": "Closed"}], "id": "3044500002", "name": "USPS COLLECTION BOX - PO LOBBY", "address": {"city": "MOUNT VERNON", "state": "GA", "street": "120 W CHURCH ST", "postcode": "30445"}}},
{"geometry": {"type": "Point", "coordinates": [-81.5050384932, 32.5892592822]}, "type": "Feature", "properties": {"collection_times": [{"days": "Mon-Fri", "time": "3:30pm"}, {"days": "Sat", "time": "12:00pm"}, {"days": "Sun", "time": "Closed"}], "id": "3044600001", "name": "USPS COLLECTION BOX - BLUE BOX", "address": {"city": "NEWINGTON", "state": "GA", "street": "120 OLIVER HWY", "postcode": "30446"}}},
{"geometry": {"type": "Point", "coordinates": [-81.5050384932, 32.5892592822]}, "type": "Feature", "properties": {"collection_times": [{"days": "Mon-Fri", "time": "3:45pm"}, {"days": "Sat", "time": "11:45am"}, {"days": "Sun", "time": "Closed"}], "id": "3044600002", "name": "USPS COLLECTION BOX - PO LOBBY", "address": {"city": "NEWINGTON", "state": "GA", "street": "120 OLIVER HWY", "postcode": "30446"}}},
{"geometry": {"type": "Point", "coordinates": [-82.3394563765, 32.5000392007]}, "type": "Feature", "properties": {"collection_times": [{"days": "Mon-Fri", "time": "5:00pm"}, {"days": "Sat", "time": "10:45am"}, {"days": "Sun", "time": "Closed"}], "id": "3044800001", "name": "USPS COLLECTION BOX - BLUE BOX", "address": {"city": "NUNEZ", "state": "GA", "street": "8451 GA HIGHWAY 297", "postcode": "30448"}}},
{"geometry": {"type": "Point", "coordinates": [-82.3394563765, 32.5000392007]}, "type": "Feature", "properties": {"collection_times": [{"days": "Mon-Fri", "time": "12:15pm"}, {"days": "Sat", "time": "10:45am"}, {"days": "Sun", "time": "Closed"}], "id": "3044800002", "name": "USPS COLLECTION BOX - PO LOBBY", "address": {"city": "NUNEZ", "state": "GA", "street": "8451 GA HIGHWAY 297", "postcode": "30448"}}},
{"geometry": {"type": "Point", "coordinates": [-81.5329562882, 32.5216900405]}, "type": "Feature", "properties": {"collection_times": [{"days": "Mon-Fri", "time": "12:45pm"}, {"days": "Sat", "time": "11:30am"}, {"days": "Sun", "time": "Closed"}], "id": "3044900002", "name": "USPS COLLECTION BOX - BLUE BOX", "address": {"city": "OLIVER", "state": "GA", "street": "6185 EFFINGHAM HWY", "postcode": "30449"}}},
{"geometry": {"type": "Point", "coordinates": [-81.5329562882, 32.5216900405]}, "type": "Feature", "properties": {"collection_times": [{"days": "Mon-Fri", "time": "12:45pm"}, {"days": "Sat", "time": "11:30am"}, {"days": "Sun", "time": "Closed"}], "id": "3044900003", "name": "USPS COLLECTION BOX - PO LOBBY", "address": {"city": "OLIVER", "state": "GA", "street": "6185 EFFINGHAM HWY", "postcode": "30449"}}},
{"geometry": {"type": "Point", "coordinates": [-81.9635273834, 32.5437136648]}, "type": "Feature", "properties": {"collection_times": [{"days": "Mon-Fri", "time": "4:30pm"}, {"days": "Sat", "time": "10:30am"}, {"days": "Sun", "time": "Closed"}], "id": "3045000001", "name": "USPS COLLECTION BOX - BLUE BOX", "address": {"city": "PORTAL", "state": "GA", "street": "27310 US HIGHWAY 80 W", "postcode": "30450"}}},
{"geometry": {"type": "Point", "coordinates": [-81.9635273834, 32.5437136648]}, "type": "Feature", "properties": {"collection_times": [{"days": "Mon-Fri", "time": "4:30pm"}, {"days": "Sat", "time": "10:30am"}, {"days": "Sun", "time": "Closed"}], "id": "3045000003", "name": "USPS COLLECTION BOX - PO LOBBY", "address": {"city": "PORTAL", "state": "GA", "street": "27310 US HIGHWAY 80 W", "postcode": "30450"}}},
{"geometry": {"type": "Point", "coordinates": [-81.9568673877, 32.3906311478]}, "type": "Feature", "properties": {"collection_times": [{"days": "Mon-Fri", "time": "4:15pm"}, {"days": "Sat", "time": "10:45am"}, {"days": "Sun", "time": "Closed"}], "id": "3045100001", "name": "USPS COLLECTION BOX - BLUE BOX", "address": {"city": "PULASKI", "state": "GA", "street": "105 E RAILROAD ST", "postcode": "30451"}}},
{"geometry": {"type": "Point", "coordinates": [-81.9568673877, 32.3906311478]}, "type": "Feature", "properties": {"collection_times": [{"days": "Mon-Fri", "time": "4:00pm"}, {"days": "Sat", "time": "10:45am"}, {"days": "Sun", "time": "Closed"}], "id": "3045100002", "name": "USPS COLLECTION BOX - PO LOBBY", "address": {"city": "PULASKI", "state": "GA", "street": "105 E RAILROAD ST", "postcode": "30451"}}},
{"geometry": {"type": "Point", "coordinates": [-81.8787596467, 32.3620013645]}, "type": "Feature", "properties": {"collection_times": [{"days": "Mon-Fri", "time": "4:30pm"}, {"days": "Sat", "time": "10:30am"}, {"days": "Sun", "time": "Closed"}], "id": "3045200001", "name": "USPS COLLECTION BOX - BLUE BOX", "address": {"city": "REGISTER", "state": "GA", "street": "2981 GA HIGHWAY 46", "postcode": "30452"}}},
{"geometry": {"type": "Point", "coordinates": [-81.8787596467, 32.3620013645]}, "type": "Feature", "properties": {"collection_times": [{"days": "Mon-Fri", "time": "4:30pm"}, {"days": "Sat", "time": "10:30am"}, {"days": "Sun", "time": "Closed"}], "id": "3045200002", "name": "USPS COLLECTION BOX - PO LOBBY", "address": {"city": "REGISTER", "state": "GA", "street": "2981 GA HIGHWAY 46", "postcode": "30452"}}},
{"geometry": {"type": "Point", "coordinates": [-82.1191207891, 32.0853715865]}, "type": "Feature", "properties": {"collection_times": [{"days": "Mon-Fri", "time": "4:00pm"}, {"days": "Sat", "time": "12:00pm"}, {"days": "Sun", "time": "Closed"}], "id": "3045300002", "name": "USPS COLLECTION BOX - PO LOBBY", "address": {"city": "REIDSVILLE", "state": "GA", "street": "111 JAMES ST", "postcode": "30453"}}},
{"geometry": {"type": "Point", "coordinates": [-82.1191207891, 32.0853715865]}, "type": "Feature", "properties": {"collection_times": [{"days": "Mon-Fri", "time": "4:00pm"}, {"days": "Sat", "time": "12:00pm"}, {"days": "Sun", "time": "Closed"}], "id": "3045300003", "name": "USPS COLLECTION BOX - BLUE BOX", "address": {"city": "REIDSVILLE", "state": "GA", "street": "111 JAMES ST", "postcode": "30453"}}},
{"geometry": {"type": "Point", "coordinates": [-82.698149532, 32.442316855]}, "type": "Feature", "properties": {"collection_times": [{"days": "Mon-Fri", "time": "10:00am"}, {"days": "Sat", "time": "11:15am"}, {"days": "Sun", "time": "Closed"}], "id": "3045400001", "name": "USPS COLLECTION BOX - BLUE BOX", "address": {"city": "ROCKLEDGE", "state": "GA", "street": "2155 ROCKLEDGE RD", "postcode": "30454"}}},
{"geometry": {"type": "Point", "coordinates": [-82.698149532, 32.442316855]}, "type": "Feature", "properties": {"collection_times": [{"days": "Mon-Fri", "time": "10:00am"}, {"days": "Sat", "time": "11:15am"}, {"days": "Sun", "time": "Closed"}], "id": "3045400002", "name": "USPS COLLECTION BOX - PO LOBBY", "address": {"city": "ROCKLEDGE", "state": "GA", "street": "2155 ROCKLEDGE RD", "postcode": "30454"}}},
{"geometry": {"type": "Point", "coordinates": [-81.8138824256, 32.7072772411]}, "type": "Feature", "properties": {"collection_times": [{"days": "Mon-Fri", "time": "4:00pm"}, {"days": "Sat", "time": "11:30am"}, {"days": "Sun", "time": "Closed"}], "id": "3045500001", "name": "USPS COLLECTION BOX - BLUE BOX", "address": {"city": "ROCKY FORD", "state": "GA", "street": "151 MAIN ST", "postcode": "30455"}}},
{"geometry": {"type": "Point", "coordinates": [-81.8138824256, 32.7072772411]}, "type": "Feature", "properties": {"collection_times": [{"days": "Mon-Fri", "time": "4:00pm"}, {"days": "Sat", "time": "11:45am"}, {"days": "Sun", "time": "Closed"}], "id": "3045500002", "name": "USPS COLLECTION BOX - PO LOBBY", "address": {"city": "ROCKY FORD", "state": "GA", "street": "151 MAIN ST", "postcode": "30455"}}},
{"geometry": {"type": "Point", "coordinates": [-81.7825711655, 32.9796033669]}, "type": "Feature", "properties": {"collection_times": [{"days": "Mon-Fri", "time": "4:30pm"}, {"days": "Sat", "time": "11:00am"}, {"days": "Sun", "time": "Closed"}], "id": "3045600001", "name": "USPS COLLECTION BOX - BLUE BOX", "address": {"city": "SARDIS", "state": "GA", "street": "932 PERRY AVE", "postcode": "30456"}}},
{"geometry": {"type": "Point", "coordinates": [-81.7825711655, 32.9796033669]}, "type": "Feature", "properties": {"collection_times": [{"days": "Mon-Fri", "time": "4:30pm"}, {"days": "Sat", "time": "11:00am"}, {"days": "Sun", "time": "Closed"}], "id": "3045600003", "name": "USPS COLLECTION BOX - PO LOBBY", "address": {"city": "SARDIS", "state": "GA", "street": "932 PERRY AVE", "postcode": "30456"}}},
{"geometry": {"type": "Point", "coordinates": [-82.5663301682, 32.40239951]}, "type": "Feature", "properties": {"collection_times": [{"days": "Mon-Fri", "time": "4:15pm"}, {"days": "Sat", "time": "11:00am"}, {"days": "Sun", "time": "Closed"}], "id": "3045700010", "name": "USPS COLLECTION BOX - BLUE BOX", "address": {"city": "SOPERTON", "state": "GA", "street": "5059 S THIRD ST", "postcode": "30457"}}},
{"geometry": {"type": "Point", "coordinates": [-82.5663301682, 32.40239951]}, "type": "Feature", "properties": {"collection_times": [{"days": "Mon-Fri", "time": "4:15pm"}, {"days": "Sat", "time": "11:00am"}, {"days": "Sun", "time": "Closed"}], "id": "3045700011", "name": "USPS COLLECTION BOX - PO LOBBY", "address": {"city": "SOPERTON", "state": "GA", "street": "5059 S THIRD ST", "postcode": "30457"}}},
{"geometry": {"type": "Point", "coordinates": [-81.7820166735, 32.449592563]}, "type": "Feature", "properties": {"collection_times": [{"days": "Mon-Fri", "time": "4:00pm"}, {"days": "Sat", "time": "10:00am"}, {"days": "Sun", "time": "Closed"}], "id": "3045800003", "name": "USPS COLLECTION BOX - BLUE BOX", "address": {"city": "STATESBORO", "state": "GA", "street": "23 COURTLAND ST", "postcode": "30458"}}},
{"geometry": {"type": "Point", "coordinates": [-81.7601197888, 32.436778902]}, "type": "Feature", "properties": {"collection_times": [{"days": "Mon-Fri", "time": "4:00pm"}, {"days": "Sat", "time": "10:00am"}, {"days": "Sun", "time": "Closed"}], "id": "3045800008", "name": "USPS COLLECTION BOX - BLUE BOX", "address": {"city": "STATESBORO", "state": "GA", "street": "718 NORTHSIDE DR E", "postcode": "30458"}}},
{"geometry": {"type": "Point", "coordinates": [-81.7609648947, 32.4374347485]}, "type": "Feature", "properties": {"collection_times": [{"days": "Mon-Fri", "time": "4:00pm"}, {"days": "Sat", "time": "10:00am"}, {"days": "Sun", "time": "Closed"}], "id": "3045800020", "name": "USPS COLLECTION BOX - BLUE BOX", "address": {"city": "STATESBORO", "state": "GA", "street": "715 NORTHSIDE DR E", "postcode": "30458"}}},
{"geometry": {"type": "Point", "coordinates": [-81.7838659485, 32.4593088612]}, "type": "Feature", "properties": {"collection_times": [{"days": "Mon-Sat", "time": "11:00am"}, {"days": "Sun", "time": "Closed"}], "id": "3045800023", "name": "USPS COLLECTION BOX - BLUE BOX", "address": {"city": "STATESBORO", "state": "GA", "street": "301 N MAIN ST", "postcode": "30458"}}},
{"geometry": {"type": "Point", "coordinates": [-81.7825664571, 32.4488271643]}, "type": "Feature", "properties": {"collection_times": [{"days": "Mon-Fri", "time": "4:00pm"}, {"days": "Sat", "time": "10:00am"}, {"days": "Sun", "time": "Closed"}], "id": "3045800027", "name": "USPS COLLECTION BOX - BLUE BOX", "address": {"city": "STATESBORO", "state": "GA", "street": "50 E MAIN ST", "postcode": "30458"}}},
{"geometry": {"type": "Point", "coordinates": [-81.7857882924, 32.4490592635]}, "type": "Feature", "properties": {"collection_times": [{"days": "Mon-Sat", "time": "5:15pm"}, {"days": "Sun", "time": "Closed"}], "id": "3045800028", "name": "USPS COLLECTION BOX - PO LOBBY", "address": {"city": "STATESBORO", "state": "GA", "street": "1 S COLLEGE ST", "postcode": "30458"}}},
{"geometry": {"type": "Point", "coordinates": [-81.7857882924, 32.4490592635]}, "type": "Feature", "properties": {"collection_times": [{"days": "Mon-Sat", "time": "5:15pm"}, {"days": "Sun", "time": "Closed"}], "id": "3045800036", "name": "USPS COLLECTION BOX - BLUE BOX", "address": {"city": "STATESBORO", "state": "GA", "street": "1 S COLLEGE ST", "postcode": "30458"}}},
{"geometry": {"type": "Point", "coordinates": [-81.7685601889, 32.4149798566]}, "type": "Feature", "properties": {"collection_times": [{"days": "Mon-Fri", "time": "4:00pm"}, {"days": "Sat", "time": "9:30am"}, {"days": "Sun", "time": "Closed"}], "id": "3045800037", "name": "USPS COLLECTION BOX - BLUE BOX", "address": {"city": "STATESBORO", "state": "GA", "street": "1499 FAIR RD", "postcode": "30458"}}},
{"geometry": {"type": "Point", "coordinates": [-81.7664286942, 32.4119195726]}, "type": "Feature", "properties": {"collection_times": [{"days": "Mon-Sat", "time": "9:30am"}, {"days": "Sun", "time": "Closed"}], "id": "3045800038", "name": "USPS COLLECTION BOX - BLUE BOX", "address": {"city": "STATESBORO", "state": "GA", "street": "1601 FAIR RD", "postcode": "30458"}}},
{"geometry": {"type": "Point", "coordinates": [-81.7685601889, 32.4149798566]}, "type": "Feature", "properties": {"collection_times": [{"days": "Mon-Fri", "time": "4:00pm"}, {"days": "Sat", "time": "9:30am"}, {"days": "Sun", "time": "Closed"}], "id": "3045800039", "name": "USPS COLLECTION BOX - BLUE BOX", "address": {"city": "STATESBORO", "state": "GA", "street": "1499 FAIR RD", "postcode": "30458"}}},
{"geometry": {"type": "Point", "coordinates": [-81.7857882924, 32.4490592635]}, "type": "Feature", "properties": {"collection_times": [{"days": "Mon-Sat", "time": "5:00pm"}, {"days": "Sun", "time": "Closed"}], "id": "3045800040", "name": "USPS COLLECTION BOX - APC", "address": {"city": "STATESBORO", "state": "GA", "street": "1 S COLLEGE ST", "postcode": "30458"}}},
{"geometry": {"type": "Point", "coordinates": [-82.2154535124, 32.4403578503]}, "type": "Feature", "properties": {"collection_times": [{"days": "Mon-Fri", "time": "4:30pm"}, {"days": "Sat", "time": "10:30am"}, {"days": "Sun", "time": "Closed"}], "id": "3046400000", "name": "USPS COLLECTION BOX - BLUE BOX", "address": {"city": "STILLMORE", "state": "GA", "street": "205 N 2ND ST", "postcode": "30464"}}},
{"geometry": {"type": "Point", "coordinates": [-82.2154535124, 32.4403578503]}, "type": "Feature", "properties": {"collection_times": [{"days": "Mon-Fri", "time": "4:30pm"}, {"days": "Sat", "time": "10:30am"}, {"days": "Sun", "time": "Closed"}], "id": "3046400001", "name": "USPS COLLECTION BOX - PO LOBBY", "address": {"city": "STILLMORE", "state": "GA", "street": "205 N 2ND ST", "postcode": "30464"}}},
{"geometry": {"type": "Point", "coordinates": [-81.645415557, 32.7497550511]}, "type": "Feature", "properties": {"collection_times": [{"days": "Mon-Fri", "time": "4:30pm"}, {"days": "Sat", "time": "10:00am"}, {"days": "Sun", "time": "Closed"}], "id": "3046700001", "name": "USPS COLLECTION BOX - BLUE BOX", "address": {"city": "SYLVANIA", "state": "GA", "street": "216 MIMS RD", "postcode": "30467"}}},
{"geometry": {"type": "Point", "coordinates": [-81.6364900535, 32.7500858565]}, "type": "Feature", "properties": {"collection_times": [{"days": "Mon-Fri", "time": "5:00pm"}, {"days": "Sat", "time": "12:30pm"}, {"days": "Sun", "time": "Closed"}], "id": "3046700002", "name": "USPS COLLECTION BOX - BLUE BOX", "address": {"city": "SYLVANIA", "state": "GA", "street": "113 S MAIN ST", "postcode": "30467"}}},
{"geometry": {"type": "Point", "coordinates": [-81.6360684079, 32.7502497739]}, "type": "Feature", "properties": {"collection_times": [{"days": "Mon-Fri", "time": "5:00pm"}, {"days": "Sat", "time": "12:30pm"}, {"days": "Sun", "time": "Closed"}], "id": "3046700004", "name": "USPS COLLECTION BOX - BLUE BOX", "address": {"city": "SYLVANIA", "state": "GA", "street": "112 S MAIN ST", "postcode": "30467"}}},
{"geometry": {"type": "Point", "coordinates": [-81.645415557, 32.7497550511]}, "type": "Feature", "properties": {"collection_times": [{"days": "Mon-Fri", "time": "4:30pm"}, {"days": "Sat", "time": "10:00am"}, {"days": "Sun", "time": "Closed"}], "id": "3046700005", "name": "USPS COLLECTION BOX - BLUE BOX", "address": {"city": "SYLVANIA", "state": "GA", "street": "216 MIMS RD", "postcode": "30467"}}},
{"geometry": {"type": "Point", "coordinates": [-81.636898783, 32.7509597793]}, "type": "Feature", "properties": {"collection_times": [{"days": "Mon-Fri", "time": "4:15pm"}, {"days": "Sat", "time": "11:00am"}, {"days": "Sun", "time": "Closed"}], "id": "3046700007", "name": "USPS COLLECTION BOX - BLUE BOX", "address": {"city": "SYLVANIA", "state": "GA", "street": "125 N MAIN ST", "postcode": "30467"}}},
{"geometry": {"type": "Point", "coordinates": [-81.6447851236, 32.7469773978]}, "type": "Feature", "properties": {"collection_times": [{"days": "Mon-Fri", "time": "4:15pm"}, {"days": "Sat", "time": "10:15am"}, {"days": "Sun", "time": "Closed"}], "id": "3046700008", "name": "USPS COLLECTION BOX - BLUE BOX", "address": {"city": "SYLVANIA", "state": "GA", "street": "613 W OGEECHEE ST", "postcode": "30467"}}},
{"geometry": {"type": "Point", "coordinates": [-81.6364900535, 32.7500858565]}, "type": "Feature", "properties": {"collection_times": [{"days": "Mon-Fri", "time": "5:00pm"}, {"days": "Sat", "time": "12:30pm"}, {"days": "Sun", "time": "Closed"}], "id": "3046700009", "name": "USPS COLLECTION BOX - BLUE BOX", "address": {"city": "SYLVANIA", "state": "GA", "street": "113 S MAIN ST", "postcode": "30467"}}},
{"geometry": {"type": "Point", "coordinates": [-81.6360684079, 32.7502497739]}, "type": "Feature", "properties": {"collection_times": [{"days": "Mon-Fri", "time": "5:00pm"}, {"days": "Sat", "time": "12:30pm"}, {"days": "Sun", "time": "Closed"}], "id": "3046700010", "name": "USPS COLLECTION BOX - BLUE BOX", "address": {"city": "SYLVANIA", "state": "GA", "street": "112 S MAIN ST", "postcode": "30467"}}},
{"geometry": {"type": "Point", "coordinates": [-81.6364900535, 32.7500858565]}, "type": "Feature", "properties": {"collection_times": [{"days": "Mon-Fri", "time": "5:00pm"}, {"days": "Sat", "time": "12:30pm"}, {"days": "Sun", "time": "Closed"}], "id": "3046700011", "name": "USPS COLLECTION BOX - PO LOBBY", "address": {"city": "SYLVANIA", "state": "GA", "street": "113 S MAIN ST", "postcode": "30467"}}},
{"geometry": {"type": "Point", "coordinates": [-82.5585639846, 32.3165879992]}, "type": "Feature", "properties": {"collection_times": [{"days": "Mon-Fri", "time": "3:30pm"}, {"days": "Sat", "time": "10:30am"}, {"days": "Sun", "time": "Closed"}], "id": "3047000002", "name": "USPS COLLECTION BOX - BLUE BOX", "address": {"city": "TARRYTOWN", "state": "GA", "street": "431 MAIN ST", "postcode": "30470"}}},
{"geometry": {"type": "Point", "coordinates": [-82.5585639846, 32.3165879992]}, "type": "Feature", "properties": {"collection_times": [{"days": "Mon-Fri", "time": "3:30pm"}, {"days": "Sat", "time": "10:30am"}, {"days": "Sun", "time": "Closed"}], "id": "3047000003", "name": "USPS COLLECTION BOX - PO LOBBY", "address": {"city": "TARRYTOWN", "state": "GA", "street": "431 MAIN ST", "postcode": "30470"}}},
{"geometry": {"type": "Point", "coordinates": [-82.1581632612, 32.5872460922]}, "type": "Feature", "properties": {"collection_times": [{"days": "Mon-Fri", "time": "5:00pm"}, {"days": "Sat", "time": "12:00pm"}, {"days": "Sun", "time": "Closed"}], "id": "3047100001", "name": "USPS COLLECTION BOX - BLUE BOX", "address": {"city": "TWIN CITY", "state": "GA", "street": "227 OLD SWAINSBORO RD", "postcode": "30471"}}},
{"geometry": {"type": "Point", "coordinates": [-82.1581632612, 32.5872460922]}, "type": "Feature", "properties": {"collection_times": [{"days": "Mon-Fri", "time": "5:00pm"}, {"days": "Sat", "time": "12:00pm"}, {"days": "Sun", "time": "Closed"}], "id": "3047100002", "name": "USPS COLLECTION BOX - PO LOBBY", "address": {"city": "TWIN CITY", "state": "GA", "street": "227 OLD SWAINSBORO RD", "postcode": "30471"}}},
{"geometry": {"type": "Point", "coordinates": [-82.5086486898, 32.0369633772]}, "type": "Feature", "properties": {"collection_times": [{"days": "Mon-Fri", "time": "4:00pm"}, {"days": "Sat", "time": "10:30am"}, {"days": "Sun", "time": "Closed"}], "id": "3047300001", "name": "USPS COLLECTION BOX - BLUE BOX", "address": {"city": "UVALDA", "state": "GA", "street": "121 N RAILROAD ST", "postcode": "30473"}}},
{"geometry": {"type": "Point", "coordinates": [-82.4934524218, 32.0302944945]}, "type": "Feature", "properties": {"collection_times": [{"days": "Mon-Fri", "time": "4:00pm"}, {"days": "Sat", "time": "10:30am"}, {"days": "Sun", "time": "Closed"}], "id": "3047300003", "name": "USPS COLLECTION BOX - PO LOBBY", "address": {"city": "UVALDA", "state": "GA", "street": "121 N RAILROAD ST", "postcode": "30473"}}},
{"geometry": {"type": "Point", "coordinates": [-82.414530054, 32.2121853122]}, "type": "Feature", "properties": {"collection_times": [{"days": "Mon-Sat", "time": "9:30am"}, {"days": "Sun", "time": "Closed"}], "id": "3047400006", "name": "USPS COLLECTION BOX - BLUE BOX", "address": {"city": "VIDALIA", "state": "GA", "street": "610 JACKSON ST", "postcode": "30474"}}},
{"geometry": {"type": "Point", "coordinates": [-82.4115035715, 32.2262773081]}, "type": "Feature", "properties": {"collection_times": [{"days": "Mon-Sat", "time": "2:00pm"}, {"days": "Sun", "time": "Closed"}], "id": "3047400008", "name": "USPS COLLECTION BOX - BLUE BOX", "address": {"city": "VIDALIA", "state": "GA", "street": "300 NORTH ST W", "postcode": "30474"}}},
{"geometry": {"type": "Point", "coordinates": [-82.4138644668, 32.2162937961]}, "type": "Feature", "properties": {"collection_times": [{"days": "Mon-Sat", "time": "5:00pm"}, {"days": "Sun", "time": "Closed"}], "id": "3047400011", "name": "USPS COLLECTION BOX - BLUE BOX", "address": {"city": "VIDALIA", "state": "GA", "street": "310 CHURCH ST", "postcode": "30474"}}},
{"geometry": {"type": "Point", "coordinates": [-82.4021608007, 32.2128760349]}, "type": "Feature", "properties": {"collection_times": [{"days": "Mon-Fri", "time": "12:00pm"}, {"days": "Sat", "time": "2:00pm"}, {"days": "Sun", "time": "Closed"}], "id": "3047400012", "name": "USPS COLLECTION BOX - BLUE BOX", "address": {"city": "VIDALIA", "state": "GA", "street": "904 E 1ST ST", "postcode": "30474"}}},
{"geometry": {"type": "Point", "coordinates": [-82.389869276, 32.2092641878]}, "type": "Feature", "properties": {"collection_times": [{"days": "Mon-Fri", "time": "12:00pm"}, {"days": "Sat", "time": "10:00am"}, {"days": "Sun", "time": "Closed"}], "id": "3047400015", "name": "USPS COLLECTION BOX - BLUE BOX", "address": {"city": "VIDALIA", "state": "GA", "street": "201 MAPLE DR", "postcode": "30474"}}},
{"geometry": {"type": "Point", "coordinates": [-82.4106864144, 32.2149433266]}, "type": "Feature", "properties": {"collection_times": [{"days": "Mon-Fri", "time": "12:00pm"}, {"days": "Sat", "time": "10:00am"}, {"days": "Sun", "time": "Closed"}], "id": "3047400016", "name": "USPS COLLECTION BOX - BLUE BOX", "address": {"city": "VIDALIA", "state": "GA", "street": "201 MAPLE DR", "postcode": "30474"}}},
{"geometry": {"type": "Point", "coordinates": [-82.4138644668, 32.2162937961]}, "type": "Feature", "properties": {"collection_times": [{"days": "Mon-Fri", "time": "5:00pm"}, {"days": "Sat", "time": "7:30am"}, {"days": "Sun", "time": "Closed"}], "id": "3047400017", "name": "USPS COLLECTION BOX - BLUE BOX", "address": {"city": "VIDALIA", "state": "GA", "street": "310 CHURCH ST", "postcode": "30474"}}},
{"geometry": {"type": "Point", "coordinates": [-82.4138644668, 32.2162937961]}, "type": "Feature", "properties": {"collection_times": [{"days": "Mon-Sat", "time": "5:00pm"}, {"days": "Sun", "time": "Closed"}], "id": "3047400018", "name": "USPS COLLECTION BOX - PO LOBBY", "address": {"city": "VIDALIA", "state": "GA", "street": "310 CHURCH ST", "postcode": "30474"}}},
{"geometry": {"type": "Point", "coordinates": [-82.4112850339, 32.2175853542]}, "type": "Feature", "properties": {"collection_times": [{"days": "Mon-Fri", "time": "4:45pm"}, {"days": "Sat-Sun", "time": "Closed"}], "id": "3047400019", "name": "USPS COLLECTION BOX - BLUE BOX", "address": {"city": "VIDALIA", "state": "GA", "street": "114 JACKSON ST", "postcode": "30474"}}},
{"geometry": {"type": "Point", "coordinates": [-82.4101083129, 32.8621872267]}, "type": "Feature", "properties": {"collection_times": [{"days": "Mon-Fri", "time": "5:00pm"}, {"days": "Sat", "time": "12:00pm"}, {"days": "Sun", "time": "Closed"}], "id": "3047700001", "name": "USPS COLLECTION BOX - BLUE BOX", "address": {"city": "WADLEY", "state": "GA", "street": "113 RAILROAD AVE", "postcode": "30477"}}},
{"geometry": {"type": "Point", "coordinates": [-82.4101083129, 32.8621872267]}, "type": "Feature", "properties": {"collection_times": [{"days": "Mon-Fri", "time": "5:00pm"}, {"days": "Sat", "time": "12:00pm"}, {"days": "Sun", "time": "Closed"}], "id": "3047700002", "name": "USPS COLLECTION BOX - PO LOBBY", "address": {"city": "WADLEY", "state": "GA", "street": "113 RAILROAD AVE", "postcode": "30477"}}}
]}
