{"type": "FeatureCollection", "features": [
{"geometry": {"type": "Point", "coordinates": [-83.8308598803, 34.3178019066]}, "type": "Feature", "properties": {"collection_times": [{"days": "Mon-Sat", "time": "11:30am"}, {"days": "Sun", "time": "Closed"}], "id": "3050100004", "name": "USPS COLLECTION BOX - BLUE BOX", "address": {"city": "GAINESVILLE", "state": "GA", "street": "1210 THOMPSON BRIDGE RD", "postcode": "30501"}}},
{"geometry": {"type": "Point", "coordinates": [-83.828702698, 34.2990749131]}, "type": "Feature", "properties": {"collection_times": [{"days": "Mon-Sat", "time": "11:30am"}, {"days": "Sun", "time": "Closed"}], "id": "3050100012", "name": "USPS COLLECTION BOX - BLUE BOX", "address": {"city": "GAINESVILLE", "state": "GA", "street": "332 WASHINGTON ST NW", "postcode": "30501"}}},
{"geometry": {"type": "Point", "coordinates": [-83.8253698042, 34.3047798574]}, "type": "Feature", "properties": {"collection_times": [{"days": "Mon-Sat", "time": "11:30am"}, {"days": "Sun", "time": "Closed"}], "id": "3050100013", "name": "USPS COLLECTION BOX - BLUE BOX", "address": {"city": "GAINESVILLE", "state": "GA", "street": "415 GREEN STREET PL", "postcode": "30501"}}},
{"geometry": {"type": "Point", "coordinates": [-83.8143339435, 34.3118433423]}, "type": "Feature", "properties": {"collection_times": [{"days": "Mon-Sat", "time": "11:30am"}, {"days": "Sun", "time": "Closed"}], "id": "3050100024", "name": "USPS COLLECTION BOX - BLUE BOX", "address": {"city": "GAINESVILLE", "state": "GA", "street": "601 S ENOTA DR NE", "postcode": "30501"}}},
{"geometry": {"type": "Point", "coordinates": [-83.7973762268, 34.3201027618]}, "type": "Feature", "properties": {"collection_times": [{"days": "Mon-Sat", "time": "11:30am"}, {"days": "Sun", "time": "Closed"}], "id": "3050100030", "name": "USPS COLLECTION BOX - BLUE BOX", "address": {"city": "GAINESVILLE", "state": "GA", "street": "669 LANIER PARK DR", "postcode": "30501"}}},
{"geometry": {"type": "Point", "coordinates": [-83.836547547, 34.2857531823]}, "type": "Feature", "properties": {"collection_times": [{"days": "Mon-Sat", "time": "12:30pm"}, {"days": "Sun", "time": "Closed"}], "id": "3050100031", "name": "USPS COLLECTION BOX - BLUE BOX", "address": {"city": "GAINESVILLE", "state": "GA", "street": "1029 AIRPORT PKWY", "postcode": "30501"}}},
{"geometry": {"type": "Point", "coordinates": [-83.8279451644, 34.2969418353]}, "type": "Feature", "properties": {"collection_times": [{"days": "Mon-Sat", "time": "11:30am"}, {"days": "Sun", "time": "Closed"}], "id": "3050100043", "name": "USPS COLLECTION BOX - BLUE BOX", "address": {"city": "GAINESVILLE", "state": "GA", "street": "319 E ACADEMY ST", "postcode": "30501"}}},
{"geometry": {"type": "Point", "coordinates": [-83.8257861693, 34.3041221692]}, "type": "Feature", "properties": {"collection_times": [{"days": "Mon-Fri", "time": "5:00pm"}, {"days": "Sat", "time": "12:00pm"}, {"days": "Sun", "time": "Closed"}], "id": "3050100047", "name": "USPS COLLECTION BOX - BLUE BOX", "address": {"city": "GAINESVILLE", "state": "GA", "street": "364 GREEN ST NE", "postcode": "30501"}}},
{"geometry": {"type": "Point", "coordinates": [-83.8257861693, 34.3041221692]}, "type": "Feature", "properties": {"collection_times": [{"days": "Mon-Fri", "time": "5:00pm"}, {"days": "Sat", "time": "12:00pm"}, {"days": "Sun", "time": "Closed"}], "id": "3050100049", "name": "USPS COLLECTION BOX - BLUE BOX", "address": {"city": "GAINESVILLE", "state": "GA", "street": "364 GREEN ST NE", "postcode": "30501"}}},
{"geometry": {"type": "Point", "coordinates": [-83.8190485172, 34.2961569178]}, "type": "Feature", "properties": {"collection_times": [{"days": "Mon-Sat", "time": "11:30am"}, {"days": "Sun", "time": "Closed"}], "id": "3050100055", "name": "USPS COLLECTION BOX - BLUE BOX", "address": {"city": "GAINESVILLE", "state": "GA", "street": "675 EE BUTLER PKWY", "postcode": "30501"}}},
{"geometry": {"type": "Point", "coordinates": [-83.8257861693, 34.3041221692]}, "type": "Feature", "properties": {"collection_times": [{"days": "Mon-Fri", "time": "5:00pm"}, {"days": "Sat", "time": "12:00pm"}, {"days": "Sun", "time": "Closed"}], "id": "3050100062", "name": "USPS COLLECTION BOX - BLUE BOX", "address": {"city": "GAINESVILLE", "state": "GA", "street": "364 GREEN ST NE", "postcode": "30501"}}},
{"geometry": {"type": "Point", "coordinates": [-83.8257861693, 34.3041221692]}, "type": "Feature", "properties": {"collection_times": [{"days": "Mon-Fri", "time": "5:00pm"}, {"days": "Sat", "time": "12:00pm"}, {"days": "Sun", "time": "Closed"}], "id": "3050100063", "name": "USPS COLLECTION BOX - BLUE BOX", "address": {"city": "GAINESVILLE", "state": "GA", "street": "364 GREEN ST NE", "postcode": "30501"}}},
{"geometry": {"type": "Point", "coordinates": [-83.8257861693, 34.3041221692]}, "type": "Feature", "properties": {"collection_times": [{"days": "Mon-Fri", "time": "5:00pm"}, {"days": "Sat", "time": "12:00pm"}, {"days": "Sun", "time": "Closed"}], "id": "3050100064", "name": "USPS COLLECTION BOX - BLUE BOX", "address": {"city": "GAINESVILLE", "state": "GA", "street": "364 GREEN ST NE", "postcode": "30501"}}},
{"geometry": {"type": "Point", "coordinates": [-83.8416863207, 34.2862062556]}, "type": "Feature", "properties": {"collection_times": [{"days": "Mon-Sat", "time": "12:30pm"}, {"days": "Sun", "time": "Closed"}], "id": "3050100066", "name": "USPS COLLECTION BOX - BLUE BOX", "address": {"city": "GAINESVILLE", "state": "GA", "street": "1500 BROWNS BRIDGE RD", "postcode": "30501"}}},
{"geometry": {"type": "Point", "coordinates": [-83.8344300504, 34.2893032422]}, "type": "Feature", "properties": {"collection_times": [{"days": "Mon-Sat", "time": "12:30pm"}, {"days": "Sun", "time": "Closed"}], "id": "3050100072", "name": "USPS COLLECTION BOX - BLUE BOX", "address": {"city": "GAINESVILLE", "state": "GA", "street": "1075 JESSE JEWELL PKWY", "postcode": "30501"}}},
{"geometry": {"type": "Point", "coordinates": [-83.8069463648, 34.3294232955]}, "type": "Feature", "properties": {"collection_times": [{"days": "Mon-Fri", "time": "4:30pm"}, {"days": "Sat", "time": "12:00pm"}, {"days": "Sun", "time": "Closed"}], "id": "3050100077", "name": "USPS COLLECTION BOX - BLUE BOX", "address": {"city": "GAINESVILLE", "state": "GA", "street": "2490 LIMESTONE PKWY", "postcode": "30501"}}},
{"geometry": {"type": "Point", "coordinates": [-83.8069463648, 34.3294232955]}, "type": "Feature", "properties": {"collection_times": [{"days": "Mon-Fri", "time": "4:30pm"}, {"days": "Sat", "time": "12:00pm"}, {"days": "Sun", "time": "Closed"}], "id": "3050100078", "name": "USPS COLLECTION BOX - BLUE BOX", "address": {"city": "GAINESVILLE", "state": "GA", "street": "2490 LIMESTONE PKWY", "postcode": "30501"}}},
{"geometry": {"type": "Point", "coordinates": [-83.8257861693, 34.3041221692]}, "type": "Feature", "properties": {"collection_times": [{"days": "Mon-Fri", "time": "5:00pm"}, {"days": "Sat", "time": "12:00pm"}, {"days": "Sun", "time": "Closed"}], "id": "3050100083", "name": "USPS COLLECTION BOX - PO LOBBY", "address": {"city": "GAINESVILLE", "state": "GA", "street": "364 GREEN ST NE", "postcode": "30501"}}},
{"geometry": {"type": "Point", "coordinates": [-83.8307005951, 34.2920108118]}, "type": "Feature", "properties": {"collection_times": [{"days": "Mon-Fri", "time": "4:30pm"}, {"days": "Sat-Sun", "time": "Closed"}], "id": "3050100095", "name": "USPS COLLECTION BOX - BLUE BOX", "address": {"city": "GAINESVILLE", "state": "GA", "street": "725 JESSE JEWEL PKWY", "postcode": "30501"}}},
{"geometry": {"type": "Point", "coordinates": [-83.5737361722, 34.4675771331]}, "type": "Feature", "properties": {"collection_times": [{"days": "Mon-Fri", "time": "4:30pm"}, {"days": "Sat", "time": "12:00pm"}, {"days": "Sun", "time": "Closed"}], "id": "3051000001", "name": "USPS COLLECTION BOX - BLUE BOX", "address": {"city": "ALTO", "state": "GA", "street": "3753 GAINESVILLE HWY", "postcode": "30510"}}},
{"geometry": {"type": "Point", "coordinates": [-83.5737361722, 34.4675771331]}, "type": "Feature", "properties": {"collection_times": [{"days": "Mon-Fri", "time": "4:30pm"}, {"days": "Sat", "time": "12:00pm"}, {"days": "Sun", "time": "Closed"}], "id": "3051000002", "name": "USPS COLLECTION BOX - PO LOBBY", "address": {"city": "ALTO", "state": "GA", "street": "3753 GAINESVILLE HWY", "postcode": "30510"}}},
{"geometry": {"type": "Point", "coordinates": [-83.5378393558, 34.4914359985]}, "type": "Feature", "properties": {"collection_times": [{"days": "Mon-Fri", "time": "4:30pm"}, {"days": "Sat", "time": "12:00pm"}, {"days": "Sun", "time": "Closed"}], "id": "3051100001", "name": "USPS COLLECTION BOX - BLUE BOX", "address": {"city": "BALDWIN", "state": "GA", "street": "1090 WILLINGHAM AVE", "postcode": "30511"}}},
{"geometry": {"type": "Point", "coordinates": [-83.472144549, 34.4534362294]}, "type": "Feature", "properties": {"collection_times": [{"days": "Mon-Fri", "time": "4:30pm"}, {"days": "Sat", "time": "12:00pm"}, {"days": "Sun", "time": "Closed"}], "id": "3051100002", "name": "USPS COLLECTION BOX - PO LOBBY", "address": {"city": "BALDWIN", "state": "GA", "street": "1090 WILLIAMHAM & HWY 23", "postcode": "30511"}}},
{"geometry": {"type": "Point", "coordinates": [-83.9539096847, 34.8805221676]}, "type": "Feature", "properties": {"collection_times": [{"days": "Mon-Fri", "time": "5:00pm"}, {"days": "Sat", "time": "12:00pm"}, {"days": "Sun", "time": "Closed"}], "id": "3051200004", "name": "USPS COLLECTION BOX - BLUE BOX", "address": {"city": "BLAIRSVILLE", "state": "GA", "street": "345 YOUNG HARRIS ST", "postcode": "30512"}}},
{"geometry": {"type": "Point", "coordinates": [-83.9539096847, 34.8805221676]}, "type": "Feature", "properties": {"collection_times": [{"days": "Mon-Fri", "time": "5:00pm"}, {"days": "Sat", "time": "12:00pm"}, {"days": "Sun", "time": "Closed"}], "id": "3051200010", "name": "USPS COLLECTION BOX - PO LOBBY", "address": {"city": "BLAIRSVILLE", "state": "GA", "street": "345 YOUNG HARRIS ST", "postcode": "30512"}}},
{"geometry": {"type": "Point", "coordinates": [-83.9539096847, 34.8805221676]}, "type": "Feature", "properties": {"collection_times": [{"days": "Mon-Fri", "time": "5:00pm"}, {"days": "Sat", "time": "12:00pm"}, {"days": "Sun", "time": "Closed"}], "id": "3051200011", "name": "USPS COLLECTION BOX - BLUE BOX", "address": {"city": "BLAIRSVILLE", "state": "GA", "street": "345 YOUNG HARRIS ST", "postcode": "30512"}}},
{"geometry": {"type": "Point", "coordinates": [-83.9611009635, 34.879115918]}, "type": "Feature", "properties": {"collection_times": [{"days": "Mon-Fri", "time": "10:00am"}, {"days": "Sat-Sun", "time": "Closed"}], "id": "3051200012", "name": "USPS COLLECTION BOX - BLUE BOX", "address": {"city": "BLAIRSVILLE", "state": "GA", "street": "114 COURTHOUSE ST", "postcode": "30512"}}},
{"geometry": {"type": "Point", "coordinates": [-83.9539096847, 34.8805221676]}, "type": "Feature", "properties": {"collection_times": [{"days": "Mon-Fri", "time": "5:00pm"}, {"days": "Sat", "time": "12:00pm"}, {"days": "Sun", "time": "Closed"}], "id": "3051200015", "name": "USPS COLLECTION BOX - PO LOBBY", "address": {"city": "BLAIRSVILLE", "state": "GA", "street": "345 YOUNG HARRIS ST", "postcode": "30512"}}},
{"geometry": {"type": "Point", "coordinates": [-84.3254329916, 34.865320904]}, "type": "Feature", "properties": {"collection_times": [{"days": "Mon-Sat", "time": "10:00am"}, {"days": "Sun", "time": "Closed"}], "id": "3051300001", "name": "USPS COLLECTION BOX - BLUE BOX", "address": {"city": "BLUE RIDGE", "state": "GA", "street": "274 W MAIN ST", "postcode": "30513"}}},
{"geometry": {"type": "Point", "coordinates": [-84.3672007457, 34.8927031733]}, "type": "Feature", "properties": {"collection_times": [{"days": "Mon-Fri", "time": "4:30pm"}, {"days": "Sat", "time": "1:15pm"}, {"days": "Sun", "time": "Closed"}], "id": "3051300002", "name": "USPS COLLECTION BOX - BLUE BOX", "address": {"city": "BLUE RIDGE", "state": "GA", "street": "273 ORVIN LANCE DR", "postcode": "30513"}}},
{"geometry": {"type": "Point", "coordinates": [-84.3170684069, 34.8716379077]}, "type": "Feature", "properties": {"collection_times": [{"days": "Mon-Sat", "time": "9:30am"}, {"days": "Sun", "time": "Closed"}], "id": "3051300003", "name": "USPS COLLECTION BOX - BLUE BOX", "address": {"city": "BLUE RIDGE", "state": "GA", "street": "4153 E FIRST ST", "postcode": "30513"}}},
{"geometry": {"type": "Point", "coordinates": [-84.3260928417, 34.862018357]}, "type": "Feature", "properties": {"collection_times": [{"days": "Mon-Sat", "time": "9:00am"}, {"days": "Sun", "time": "Closed"}], "id": "3051300004", "name": "USPS COLLECTION BOX - BLUE BOX", "address": {"city": "BLUE RIDGE", "state": "GA", "street": "2672 E FIRST ST", "postcode": "30513"}}},
{"geometry": {"type": "Point", "coordinates": [-84.3271008591, 34.8635862456]}, "type": "Feature", "properties": {"collection_times": [{"days": "Mon-Sat", "time": "10:00am"}, {"days": "Sun", "time": "Closed"}], "id": "3051300005", "name": "USPS COLLECTION BOX - BLUE BOX", "address": {"city": "BLUE RIDGE", "state": "GA", "street": "400 W MAIN ST", "postcode": "30513"}}},
{"geometry": {"type": "Point", "coordinates": [-84.3373414935, 34.8401000493]}, "type": "Feature", "properties": {"collection_times": [{"days": "Mon-Sat", "time": "10:00am"}, {"days": "Sun", "time": "Closed"}], "id": "3051300006", "name": "USPS COLLECTION BOX - BLUE BOX", "address": {"city": "BLUE RIDGE", "state": "GA", "street": "5679 APPALACHIAN HWY", "postcode": "30513"}}},
{"geometry": {"type": "Point", "coordinates": [-84.3672007457, 34.8927031733]}, "type": "Feature", "properties": {"collection_times": [{"days": "Mon-Fri", "time": "4:30pm"}, {"days": "Sat", "time": "1:15pm"}, {"days": "Sun", "time": "Closed"}], "id": "3051300007", "name": "USPS COLLECTION BOX - PO LOBBY", "address": {"city": "BLUE RIDGE", "state": "GA", "street": "273 ORVIN LANCE DR", "postcode": "30513"}}},
{"geometry": {"type": "Point", "coordinates": [-84.3672007457, 34.8927031733]}, "type": "Feature", "properties": {"collection_times": [{"days": "Mon-Sat", "time": "10:00am"}, {"days": "Sun", "time": "Closed"}], "id": "3051300008", "name": "USPS COLLECTION BOX - BLUE BOX", "address": {"city": "BLUE RIDGE", "state": "GA", "street": "101 RIVERSTONE VIS", "postcode": "30513"}}},
{"geometry": {"type": "Point", "coordinates": [-84.3672007457, 34.8927031733]}, "type": "Feature", "properties": {"collection_times": [{"days": "Mon-Fri", "time": "4:30pm"}, {"days": "Sat", "time": "1:15pm"}, {"days": "Sun", "time": "Closed"}], "id": "3051300009", "name": "USPS COLLECTION BOX - BLUE BOX", "address": {"city": "BLUE RIDGE", "state": "GA", "street": "273 ORVIN LANCE DR", "postcode": "30513"}}},
{"geometry": {"type": "Point", "coordinates": [-83.0834280374, 34.3725661081]}, "type": "Feature", "properties": {"collection_times": [{"days": "Mon-Fri", "time": "3:00pm"}, {"days": "Sat", "time": "9:00am"}, {"days": "Sun", "time": "Closed"}], "id": "3051600001", "name": "USPS COLLECTION BOX - BLUE BOX", "address": {"city": "BOWERSVILLE", "state": "GA", "street": "1130 W MAIN ST", "postcode": "30516"}}},
{"geometry": {"type": "Point", "coordinates": [-83.0834280374, 34.3725661081]}, "type": "Feature", "properties": {"collection_times": [{"days": "Mon-Fri", "time": "1:00pm"}, {"days": "Sat", "time": "9:00am"}, {"days": "Sun", "time": "Closed"}], "id": "3051600002", "name": "USPS COLLECTION BOX - PO LOBBY", "address": {"city": "BOWERSVILLE", "state": "GA", "street": "1130 W MAIN ST", "postcode": "30516"}}},
{"geometry": {"type": "Point", "coordinates": [-83.7632482545, 34.1103666439]}, "type": "Feature", "properties": {"collection_times": [{"days": "Mon-Fri", "time": "4:30pm"}, {"days": "Sat", "time": "12:00pm"}, {"days": "Sun", "time": "Closed"}], "id": "3051700001", "name": "USPS COLLECTION BOX - BLUE BOX", "address": {"city": "BRASELTON", "state": "GA", "street": "5216 HIGHWAY 53", "postcode": "30517"}}},
{"geometry": {"type": "Point", "coordinates": [-83.814159836, 34.102451794]}, "type": "Feature", "properties": {"collection_times": [{"days": "Mon-Sat", "time": "10:00am"}, {"days": "Sun", "time": "Closed"}], "id": "3051700002", "name": "USPS COLLECTION BOX - BLUE BOX", "address": {"city": "BRASELTON", "state": "GA", "street": "2095 HIGHWAY 211 NW STE 2F", "postcode": "30517"}}},
{"geometry": {"type": "Point", "coordinates": [-83.7632482545, 34.1103666439]}, "type": "Feature", "properties": {"collection_times": [{"days": "Mon-Fri", "time": "4:30pm"}, {"days": "Sat", "time": "12:00pm"}, {"days": "Sun", "time": "Closed"}], "id": "3051700003", "name": "USPS COLLECTION BOX - PO LOBBY", "address": {"city": "BRASELTON", "state": "GA", "street": "5216 HIGHWAY 53", "postcode": "30517"}}},
{"geometry": {"type": "Point", "coordinates": [-83.7722719579, 34.1118322808]}, "type": "Feature", "properties": {"collection_times": [{"days": "Mon-Fri", "time": "3:45pm"}, {"days": "Sat", "time": "12:00pm"}, {"days": "Sun", "time": "Closed"}], "id": "3051700004", "name": "USPS COLLECTION BOX - BLUE BOX", "address": {"city": "BRASELTON", "state": "GA", "street": "544 JESSE CRONIC RD", "postcode": "30517"}}},
{"geometry": {"type": "Point", "coordinates": [-83.7632675163, 34.1304512786]}, "type": "Feature", "properties": {"collection_times": [{"days": "Mon-Fri", "time": "10:00am"}, {"days": "Sat-Sun", "time": "Closed"}], "id": "3051700007", "name": "USPS COLLECTION BOX - BLUE BOX", "address": {"city": "BRASELTON", "state": "GA", "street": "1400 RIVER PL", "postcode": "30517"}}},
{"geometry": {"type": "Point", "coordinates": [-84.0217954733, 34.1018439599]}, "type": "Feature", "properties": {"collection_times": [{"days": "Mon-Sat", "time": "12:00pm"}, {"days": "Sun", "time": "Closed"}], "id": "3051800006", "name": "USPS COLLECTION BOX - BLUE BOX", "address": {"city": "SUGAR HILL", "state": "GA", "street": "4700 NELSON BROGDON BLVD", "postcode": "30518"}}},
{"geometry": {"type": "Point", "coordinates": [-84.0168941681, 34.1012429072]}, "type": "Feature", "properties": {"collection_times": [{"days": "Mon-Sat", "time": "12:00pm"}, {"days": "Sun", "time": "Closed"}], "id": "3051800007", "name": "USPS COLLECTION BOX - BLUE BOX", "address": {"city": "SUGAR HILL", "state": "GA", "street": "4550 ATWATER CT", "postcode": "30518"}}},
{"geometry": {"type": "Point", "coordinates": [-84.0001938359, 34.1093129057]}, "type": "Feature", "properties": {"collection_times": [{"days": "Mon-Fri", "time": "5:00pm"}, {"days": "Sat", "time": "4:00pm"}, {"days": "Sun", "time": "Closed"}], "id": "3051800009", "name": "USPS COLLECTION BOX - BLUE BOX", "address": {"city": "SUGAR HILL", "state": "GA", "street": "2030 BUFORD HWY", "postcode": "30518"}}},
{"geometry": {"type": "Point", "coordinates": [-84.0001938359, 34.1093129057]}, "type": "Feature", "properties": {"collection_times": [{"days": "Mon-Fri", "time": "5:00pm"}, {"days": "Sat", "time": "4:00pm"}, {"days": "Sun", "time": "Closed"}], "id": "3051800010", "name": "USPS COLLECTION BOX - BLUE BOX", "address": {"city": "SUGAR HILL", "state": "GA", "street": "2030 BUFORD HWY", "postcode": "30518"}}},
{"geometry": {"type": "Point", "coordinates": [-84.011157022, 34.0978815543]}, "type": "Feature", "properties": {"collection_times": [{"days": "Mon-Sat", "time": "12:00pm"}, {"days": "Sun", "time": "Closed"}], "id": "3051800015", "name": "USPS COLLECTION BOX - BLUE BOX", "address": {"city": "SUGAR HILL", "state": "GA", "street": "1605 BUFORD HWY", "postcode": "30518"}}},
{"geometry": {"type": "Point", "coordinates": [-84.0059377089, 34.1190341775]}, "type": "Feature", "properties": {"collection_times": [{"days": "Mon-Sat", "time": "12:00pm"}, {"days": "Sun", "time": "Closed"}], "id": "3051800016", "name": "USPS COLLECTION BOX - BLUE BOX", "address": {"city": "SUGAR HILL", "state": "GA", "street": "95 SCOTT ST", "postcode": "30518"}}},
{"geometry": {"type": "Point", "coordinates": [-84.034263323, 34.1064727587]}, "type": "Feature", "properties": {"collection_times": [{"days": "Mon-Fri", "time": "3:30pm"}, {"days": "Sat", "time": "12:00pm"}, {"days": "Sun", "time": "Closed"}], "id": "3051800017", "name": "USPS COLLECTION BOX - BLUE BOX", "address": {"city": "SUGAR HILL", "state": "GA", "street": "5039 W BROAD ST", "postcode": "30518"}}},
{"geometry": {"type": "Point", "coordinates": [-84.0001938359, 34.1093129057]}, "type": "Feature", "properties": {"collection_times": [{"days": "Mon-Fri", "time": "12:00pm"}, {"days": "Sat", "time": "4:00pm"}, {"days": "Sun", "time": "Closed"}], "id": "3051800018", "name": "USPS COLLECTION BOX - PO LOBBY", "address": {"city": "SUGAR HILL", "state": "GA", "street": "2030 BUFORD HWY", "postcode": "30518"}}},
{"geometry": {"type": "Point", "coordinates": [-84.0166169384, 34.0925784389]}, "type": "Feature", "properties": {"collection_times": [{"days": "Mon-Sat", "time": "12:00pm"}, {"days": "Sun", "time": "Closed"}], "id": "3051800019", "name": "USPS COLLECTION BOX - BLUE BOX", "address": {"city": "SUGAR HILL", "state": "GA", "street": "1400 BUFORD HWY", "postcode": "30518"}}},
{"geometry": {"type": "Point", "coordinates": [-84.0765925686, 34.1183813723]}, "type": "Feature", "properties": {"collection_times": [{"days": "Mon-Sat", "time": "9:30am"}, {"days": "Sun", "time": "Closed"}], "id": "3051800020", "name": "USPS COLLECTION BOX - BLUE BOX", "address": {"city": "SUGAR HILL", "state": "GA", "street": "5885 CUMMING HWY", "postcode": "30518"}}},
{"geometry": {"type": "Point", "coordinates": [-84.0001938359, 34.1093129057]}, "type": "Feature", "properties": {"collection_times": [{"days": "Mon-Fri", "time": "5:00pm"}, {"days": "Sat", "time": "4:00pm"}, {"days": "Sun", "time": "Closed"}], "id": "3051800026", "name": "USPS COLLECTION BOX - BLUE BOX", "address": {"city": "SUGAR HILL", "state": "GA", "street": "2030 BUFORD HWY", "postcode": "30518"}}},
{"geometry": {"type": "Point", "coordinates": [-84.0137264089, 34.0992786289]}, "type": "Feature", "properties": {"collection_times": [{"days": "Mon-Sat", "time": "12:00pm"}, {"days": "Sun", "time": "Closed"}], "id": "3051800027", "name": "USPS COLLECTION BOX - BLUE BOX", "address": {"city": "SUGAR HILL", "state": "GA", "street": "4474 COMMERCE DR", "postcode": "30518"}}},
{"geometry": {"type": "Point", "coordinates": [-84.0001938359, 34.1093129057]}, "type": "Feature", "properties": {"collection_times": [{"days": "Mon-Fri", "time": "5:00pm"}, {"days": "Sat", "time": "4:00pm"}, {"days": "Sun", "time": "Closed"}], "id": "3051800028", "name": "USPS COLLECTION BOX - APC", "address": {"city": "SUGAR HILL", "state": "GA", "street": "2030 BUFORD HWY", "postcode": "30518"}}},
{"geometry": {"type": "Point", "coordinates": [-83.9811394383, 34.0686944078]}, "type": "Feature", "properties": {"collection_times": [{"days": "Mon-Sat", "time": "9:30am"}, {"days": "Sun", "time": "Closed"}], "id": "3051900002", "name": "USPS COLLECTION BOX - BLUE BOX", "address": {"city": "BUFORD", "state": "GA", "street": "3205 WOODWARD CROSSING BLVD", "postcode": "30519"}}},
{"geometry": {"type": "Point", "coordinates": [-83.9865722596, 34.067931517]}, "type": "Feature", "properties": {"collection_times": [{"days": "Mon-Sat", "time": "10:00am"}, {"days": "Sun", "time": "Closed"}], "id": "3051900003", "name": "USPS COLLECTION BOX - BLUE BOX", "address": {"city": "BUFORD", "state": "GA", "street": "3276 BUFORD DR", "postcode": "30519"}}},
{"geometry": {"type": "Point", "coordinates": [-83.9234701888, 34.0815862946]}, "type": "Feature", "properties": {"collection_times": [{"days": "Mon-Fri", "time": "4:00pm"}, {"days": "Sat", "time": "3:00pm"}, {"days": "Sun", "time": "Closed"}], "id": "3051900006", "name": "USPS COLLECTION BOX - BLUE BOX", "address": {"city": "BUFORD", "state": "GA", "street": "2766 HAMILTON MILL RD", "postcode": "30519"}}},
{"geometry": {"type": "Point", "coordinates": [-83.9909992986, 34.0856531221]}, "type": "Feature", "properties": {"collection_times": [{"days": "Mon-Sat", "time": "10:00am"}, {"days": "Sun", "time": "Closed"}], "id": "3051900007", "name": "USPS COLLECTION BOX - BLUE BOX", "address": {"city": "BUFORD", "state": "GA", "street": "3795 BUFORD DR", "postcode": "30519"}}},
{"geometry": {"type": "Point", "coordinates": [-83.1105872238, 34.3458638452]}, "type": "Feature", "properties": {"collection_times": [{"days": "Mon-Fri", "time": "5:00pm"}, {"days": "Sat", "time": "12:00pm"}, {"days": "Sun", "time": "Closed"}], "id": "3052000001", "name": "USPS COLLECTION BOX - BLUE BOX", "address": {"city": "CANON", "state": "GA", "street": "46 DEPOT ST", "postcode": "30520"}}},
{"geometry": {"type": "Point", "coordinates": [-83.1105872238, 34.3458638452]}, "type": "Feature", "properties": {"collection_times": [{"days": "Mon-Fri", "time": "5:00pm"}, {"days": "Sat", "time": "12:00pm"}, {"days": "Sun", "time": "Closed"}], "id": "3052000002", "name": "USPS COLLECTION BOX - PO LOBBY", "address": {"city": "CANON", "state": "GA", "street": "46 DEPOT ST", "postcode": "30520"}}},
{"geometry": {"type": "Point", "coordinates": [-84.3579713262, 34.7796314188]}, "type": "Feature", "properties": {"collection_times": [{"days": "Mon-Fri", "time": "4:00pm"}, {"days": "Sat", "time": "9:00am"}, {"days": "Sun", "time": "Closed"}], "id": "3052200001", "name": "USPS COLLECTION BOX - BLUE BOX", "address": {"city": "CHERRYLOG", "state": "GA", "street": "300 CHERRY LOG ST", "postcode": "30522"}}},
{"geometry": {"type": "Point", "coordinates": [-84.3579713262, 34.7796314188]}, "type": "Feature", "properties": {"collection_times": [{"days": "Mon-Fri", "time": "4:00pm"}, {"days": "Sat", "time": "9:00am"}, {"days": "Sun", "time": "Closed"}], "id": "3052200002", "name": "USPS COLLECTION BOX - PO LOBBY", "address": {"city": "CHERRYLOG", "state": "GA", "street": "300 CHERRY LOG ST", "postcode": "30522"}}},
{"geometry": {"type": "Point", "coordinates": [-83.5099345888, 34.662761906]}, "type": "Feature", "properties": {"collection_times": [{"days": "Mon-Sat", "time": "10:00am"}, {"days": "Sun", "time": "Closed"}], "id": "3052300001", "name": "USPS COLLECTION BOX - BLUE BOX", "address": {"city": "CLARKESVILLE", "state": "GA", "street": "1 TOWN SQ", "postcode": "30523"}}},
{"geometry": {"type": "Point", "coordinates": [-83.5170942012, 34.6010873125]}, "type": "Feature", "properties": {"collection_times": [{"days": "Mon-Fri", "time": "5:00pm"}, {"days": "Sat", "time": "1:15pm"}, {"days": "Sun", "time": "Closed"}], "id": "3052300005", "name": "USPS COLLECTION BOX - BLUE BOX", "address": {"city": "CLARKESVILLE", "state": "GA", "street": "250 WASHINGTON ST", "postcode": "30523"}}},
{"geometry": {"type": "Point", "coordinates": [-83.5170942012, 34.6010873125]}, "type": "Feature", "properties": {"collection_times": [{"days": "Mon-Fri", "time": "5:00pm"}, {"days": "Sat", "time": "1:15pm"}, {"days": "Sun", "time": "Closed"}], "id": "3052300006", "name": "USPS COLLECTION BOX - PO LOBBY", "address": {"city": "CLARKESVILLE", "state": "GA", "street": "250 WASHINGTON ST", "postcode": "30523"}}},
{"geometry": {"type": "Point", "coordinates": [-83.4030328331, 34.8788083519]}, "type": "Feature", "properties": {"collection_times": [{"days": "Mon-Fri", "time": "1:30pm"}, {"days": "Sat-Sun", "time": "Closed"}], "id": "3052500001", "name": "USPS COLLECTION BOX - BLUE BOX", "address": {"city": "CLAYTON", "state": "GA", "street": "25 COURTHOUSE SQ", "postcode": "30525"}}},
{"geometry": {"type": "Point", "coordinates": [-83.4007396768, 34.8800795355]}, "type": "Feature", "properties": {"collection_times": [{"days": "Mon-Fri", "time": "4:30pm"}, {"days": "Sat", "time": "12:00pm"}, {"days": "Sun", "time": "Closed"}], "id": "3052500002", "name": "USPS COLLECTION BOX - BLUE BOX", "address": {"city": "CLAYTON", "state": "GA", "street": "125 N MAIN ST", "postcode": "30525"}}},
{"geometry": {"type": "Point", "coordinates": [-83.4007396768, 34.8800795355]}, "type": "Feature", "properties": {"collection_times": [{"days": "Mon-Fri", "time": "4:30pm"}, {"days": "Sat", "time": "12:00pm"}, {"days": "Sun", "time": "Closed"}], "id": "3052500005", "name": "USPS COLLECTION BOX - BLUE BOX", "address": {"city": "CLAYTON", "state": "GA", "street": "125 N MAIN ST", "postcode": "30525"}}},
{"geometry": {"type": "Point", "coordinates": [-83.4007396768, 34.8800795355]}, "type": "Feature", "properties": {"collection_times": [{"days": "Mon-Fri", "time": "4:30pm"}, {"days": "Sat", "time": "12:00pm"}, {"days": "Sun", "time": "Closed"}], "id": "3052500006", "name": "USPS COLLECTION BOX - PO LOBBY", "address": {"city": "CLAYTON", "state": "GA", "street": "125 N MAIN ST", "postcode": "30525"}}},
{"geometry": {"type": "Point", "coordinates": [-83.8053351352, 34.4464490583]}, "type": "Feature", "properties": {"collection_times": [{"days": "Mon-Fri", "time": "11:00am"}, {"days": "Sat-Sun", "time": "Closed"}], "id": "3052700001", "name": "USPS COLLECTION BOX - BLUE BOX", "address": {"city": "CLERMONT", "state": "GA", "street": "5205 CLEVELAND HWY", "postcode": "30527"}}},
{"geometry": {"type": "Point", "coordinates": [-83.7735419695, 34.4783389018]}, "type": "Feature", "properties": {"collection_times": [{"days": "Mon-Fri", "time": "4:30pm"}, {"days": "Sat", "time": "11:30am"}, {"days": "Sun", "time": "Closed"}], "id": "3052700002", "name": "USPS COLLECTION BOX - BLUE BOX", "address": {"city": "CLERMONT", "state": "GA", "street": "430 MAIN ST", "postcode": "30527"}}},
{"geometry": {"type": "Point", "coordinates": [-83.7735419695, 34.4783389018]}, "type": "Feature", "properties": {"collection_times": [{"days": "Mon-Fri", "time": "4:30pm"}, {"days": "Sat", "time": "11:30am"}, {"days": "Sun", "time": "Closed"}], "id": "3052700003", "name": "USPS COLLECTION BOX - PO LOBBY", "address": {"city": "CLERMONT", "state": "GA", "street": "430 MAIN ST", "postcode": "30527"}}},
{"geometry": {"type": "Point", "coordinates": [-83.7640041066, 34.602714842]}, "type": "Feature", "properties": {"collection_times": [{"days": "Mon-Fri", "time": "5:00pm"}, {"days": "Sat", "time": "1:00pm"}, {"days": "Sun", "time": "Closed"}], "id": "3052800003", "name": "USPS COLLECTION BOX - BLUE BOX", "address": {"city": "CLEVELAND", "state": "GA", "street": "116 HELEN HWY", "postcode": "30528"}}},
{"geometry": {"type": "Point", "coordinates": [-83.7640041066, 34.602714842]}, "type": "Feature", "properties": {"collection_times": [{"days": "Mon-Fri", "time": "5:00pm"}, {"days": "Sat", "time": "1:00pm"}, {"days": "Sun", "time": "Closed"}], "id": "3052800004", "name": "USPS COLLECTION BOX - BLUE BOX", "address": {"city": "CLEVELAND", "state": "GA", "street": "116 HELEN HWY", "postcode": "30528"}}},
{"geometry": {"type": "Point", "coordinates": [-83.7640041066, 34.602714842]}, "type": "Feature", "properties": {"collection_times": [{"days": "Mon-Fri", "time": "5:00pm"}, {"days": "Sat", "time": "1:00pm"}, {"days": "Sun", "time": "Closed"}], "id": "3052800005", "name": "USPS COLLECTION BOX - BLUE BOX", "address": {"city": "CLEVELAND", "state": "GA", "street": "116 HELEN HWY", "postcode": "30528"}}},
{"geometry": {"type": "Point", "coordinates": [-83.763248627, 34.5962803688]}, "type": "Feature", "properties": {"collection_times": [{"days": "Mon-Fri", "time": "9:00am"}, {"days": "Sat-Sun", "time": "Closed"}], "id": "3052800007", "name": "USPS COLLECTION BOX - BLUE BOX", "address": {"city": "CLEVELAND", "state": "GA", "street": "59 S MAIN ST", "postcode": "30528"}}},
{"geometry": {"type": "Point", "coordinates": [-83.7615204592, 34.591412528]}, "type": "Feature", "properties": {"collection_times": [{"days": "Mon-Sat", "time": "9:00am"}, {"days": "Sun", "time": "Closed"}], "id": "3052800008", "name": "USPS COLLECTION BOX - BLUE BOX", "address": {"city": "CLEVELAND", "state": "GA", "street": "897 S MAIN ST", "postcode": "30528"}}},
{"geometry": {"type": "Point", "coordinates": [-83.7647987625, 34.6022194787]}, "type": "Feature", "properties": {"collection_times": [{"days": "Mon-Sat", "time": "9:00am"}, {"days": "Sun", "time": "Closed"}], "id": "3052800009", "name": "USPS COLLECTION BOX - BLUE BOX", "address": {"city": "CLEVELAND", "state": "GA", "street": "55 HELEN HWY", "postcode": "30528"}}},
{"geometry": {"type": "Point", "coordinates": [-83.7640041066, 34.602714842]}, "type": "Feature", "properties": {"collection_times": [{"days": "Mon-Fri", "time": "5:00pm"}, {"days": "Sat", "time": "1:00pm"}, {"days": "Sun", "time": "Closed"}], "id": "3052800010", "name": "USPS COLLECTION BOX - PO LOBBY", "address": {"city": "CLEVELAND", "state": "GA", "street": "116 HELEN HWY", "postcode": "30528"}}},
{"geometry": {"type": "Point", "coordinates": [-83.4574586302, 34.2025956481]}, "type": "Feature", "properties": {"collection_times": [{"days": "Mon-Fri", "time": "5:00pm"}, {"days": "Sat", "time": "4:00pm"}, {"days": "Sun", "time": "Closed"}], "id": "3052900001", "name": "USPS COLLECTION BOX - BLUE BOX", "address": {"city": "COMMERCE", "state": "GA", "street": "424 LITTLE ST", "postcode": "30529"}}},
{"geometry": {"type": "Point", "coordinates": [-83.4578995153, 34.2040251219]}, "type": "Feature", "properties": {"collection_times": [{"days": "Mon-Fri", "time": "2:00pm"}, {"days": "Sat", "time": "1:00pm"}, {"days": "Sun", "time": "Closed"}], "id": "3052900002", "name": "USPS COLLECTION BOX - BLUE BOX", "address": {"city": "COMMERCE", "state": "GA", "street": "1758 N BROAD ST", "postcode": "30529"}}},
{"geometry": {"type": "Point", "coordinates": [-83.4579977424, 34.203757108]}, "type": "Feature", "properties": {"collection_times": [{"days": "Mon-Fri", "time": "2:00pm"}, {"days": "Sat", "time": "1:00pm"}, {"days": "Sun", "time": "Closed"}], "id": "3052900004", "name": "USPS COLLECTION BOX - BLUE BOX", "address": {"city": "COMMERCE", "state": "GA", "street": "1721 N ELM ST", "postcode": "30529"}}},
{"geometry": {"type": "Point", "coordinates": [-83.4574586302, 34.2025956481]}, "type": "Feature", "properties": {"collection_times": [{"days": "Mon-Fri", "time": "5:00pm"}, {"days": "Sat", "time": "4:00pm"}, {"days": "Sun", "time": "Closed"}], "id": "3052900013", "name": "USPS COLLECTION BOX - BLUE BOX", "address": {"city": "COMMERCE", "state": "GA", "street": "424 LITTLE ST", "postcode": "30529"}}},
{"geometry": {"type": "Point", "coordinates": [-83.4574586302, 34.2025956481]}, "type": "Feature", "properties": {"collection_times": [{"days": "Mon-Fri", "time": "5:00pm"}, {"days": "Sat", "time": "4:00pm"}, {"days": "Sun", "time": "Closed"}], "id": "3052900020", "name": "USPS COLLECTION BOX - PO LOBBY", "address": {"city": "COMMERCE", "state": "GA", "street": "424 LITTLE ST", "postcode": "30529"}}},
{"geometry": {"type": "Point", "coordinates": [-83.4559436402, 34.2023642327]}, "type": "Feature", "properties": {"collection_times": [{"days": "Mon-Fri", "time": "2:00pm"}, {"days": "Sat", "time": "1:00pm"}, {"days": "Sun", "time": "Closed"}], "id": "3052900022", "name": "USPS COLLECTION BOX - BLUE BOX", "address": {"city": "COMMERCE", "state": "GA", "street": "27 SYCAMORE ST", "postcode": "30529"}}},
{"geometry": {"type": "Point", "coordinates": [-83.4598289025, 34.2485286836]}, "type": "Feature", "properties": {"collection_times": [{"days": "Mon-Sat", "time": "10:00am"}, {"days": "Sun", "time": "Closed"}], "id": "3052900024", "name": "USPS COLLECTION BOX - BLUE BOX", "address": {"city": "COMMERCE", "state": "GA", "street": "30983 HIGHWAY 441 S", "postcode": "30529"}}},
{"geometry": {"type": "Point", "coordinates": [-83.5256353989, 34.5031989656]}, "type": "Feature", "properties": {"collection_times": [{"days": "Mon-Fri", "time": "1:45pm"}, {"days": "Sat", "time": "12:00pm"}, {"days": "Sun", "time": "Closed"}], "id": "3053100001", "name": "USPS COLLECTION BOX - BLUE BOX", "address": {"city": "CORNELIA", "state": "GA", "street": "448 N MAIN ST", "postcode": "30531"}}},
{"geometry": {"type": "Point", "coordinates": [-83.5428130315, 34.540833725]}, "type": "Feature", "properties": {"collection_times": [{"days": "Mon-Fri", "time": "1:45pm"}, {"days": "Sat", "time": "10:00am"}, {"days": "Sun", "time": "Closed"}], "id": "3053100005", "name": "USPS COLLECTION BOX - BLUE BOX", "address": {"city": "CORNELIA", "state": "GA", "street": "343 HABERSHAM VILLAGE CIR", "postcode": "30531"}}},
{"geometry": {"type": "Point", "coordinates": [-83.5471619983, 34.5118818149]}, "type": "Feature", "properties": {"collection_times": [{"days": "Mon-Fri", "time": "1:45pm"}, {"days": "Sat", "time": "11:00am"}, {"days": "Sun", "time": "Closed"}], "id": "3053100007", "name": "USPS COLLECTION BOX - BLUE BOX", "address": {"city": "CORNELIA", "state": "GA", "street": "1275 LEVEL GROVE RD", "postcode": "30531"}}},
{"geometry": {"type": "Point", "coordinates": [-83.5294717522, 34.5154154574]}, "type": "Feature", "properties": {"collection_times": [{"days": "Mon-Fri", "time": "5:00pm"}, {"days": "Sat", "time": "12:00pm"}, {"days": "Sun", "time": "Closed"}], "id": "3053100011", "name": "USPS COLLECTION BOX - BLUE BOX", "address": {"city": "CORNELIA", "state": "GA", "street": "407 CORNELIA PLAZA DR", "postcode": "30531"}}},
{"geometry": {"type": "Point", "coordinates": [-83.5294717522, 34.5154154574]}, "type": "Feature", "properties": {"collection_times": [{"days": "Mon-Fri", "time": "4:45pm"}, {"days": "Sat", "time": "12:00pm"}, {"days": "Sun", "time": "Closed"}], "id": "3053100015", "name": "USPS COLLECTION BOX - PO LOBBY", "address": {"city": "CORNELIA", "state": "GA", "street": "407 CORNELIA PLAZA DR", "postcode": "30531"}}},
{"geometry": {"type": "Point", "coordinates": [-83.5294717522, 34.5154154574]}, "type": "Feature", "properties": {"collection_times": [{"days": "Mon-Fri", "time": "4:45pm"}, {"days": "Sat", "time": "12:00pm"}, {"days": "Sun", "time": "Closed"}], "id": "3053100016", "name": "USPS COLLECTION BOX - PO LOBBY", "address": {"city": "CORNELIA", "state": "GA", "street": "407 CORNELIA PLAZA DR", "postcode": "30531"}}},
{"geometry": {"type": "Point", "coordinates": [-84.0099670868, 34.5741958515]}, "type": "Feature", "properties": {"collection_times": [{"days": "Mon-Fri", "time": "5:00pm"}, {"days": "Sat", "time": "12:00pm"}, {"days": "Sun", "time": "Closed"}], "id": "3053300001", "name": "USPS COLLECTION BOX - BLUE BOX", "address": {"city": "DAHLONEGA", "state": "GA", "street": "72 ALICIA LN", "postcode": "30533"}}},
{"geometry": {"type": "Point", "coordinates": [-83.9742620274, 34.5391086941]}, "type": "Feature", "properties": {"collection_times": [{"days": "Mon-Sat", "time": "2:00pm"}, {"days": "Sun", "time": "Closed"}], "id": "3053300003", "name": "USPS COLLECTION BOX - BLUE BOX", "address": {"city": "DAHLONEGA", "state": "GA", "street": "420 WALMART WAY", "postcode": "30533"}}},
{"geometry": {"type": "Point", "coordinates": [-83.9858691434, 34.5320490871]}, "type": "Feature", "properties": {"collection_times": [{"days": "Mon-Sat", "time": "2:00pm"}, {"days": "Sun", "time": "Closed"}], "id": "3053300004", "name": "USPS COLLECTION BOX - BLUE BOX", "address": {"city": "DAHLONEGA", "state": "GA", "street": "60 W MAIN ST", "postcode": "30533"}}},
{"geometry": {"type": "Point", "coordinates": [-83.9813416079, 34.5345452601]}, "type": "Feature", "properties": {"collection_times": [{"days": "Mon-Fri", "time": "2:00pm"}, {"days": "Sat", "time": "9:00am"}, {"days": "Sun", "time": "Closed"}], "id": "3053300006", "name": "USPS COLLECTION BOX - BLUE BOX", "address": {"city": "DAHLONEGA", "state": "GA", "street": "99 COURTHOUSE HL", "postcode": "30533"}}},
{"geometry": {"type": "Point", "coordinates": [-83.9843820111, 34.5327156241]}, "type": "Feature", "properties": {"collection_times": [{"days": "Mon-Sat", "time": "2:00pm"}, {"days": "Sun", "time": "Closed"}], "id": "3053300007", "name": "USPS COLLECTION BOX - BLUE BOX", "address": {"city": "DAHLONEGA", "state": "GA", "street": "13 S PARK ST", "postcode": "30533"}}},
{"geometry": {"type": "Point", "coordinates": [-84.0099670868, 34.5741958515]}, "type": "Feature", "properties": {"collection_times": [{"days": "Mon-Fri", "time": "4:30pm"}, {"days": "Sat", "time": "12:00pm"}, {"days": "Sun", "time": "Closed"}], "id": "3053300008", "name": "USPS COLLECTION BOX - PO LOBBY", "address": {"city": "DAHLONEGA", "state": "GA", "street": "72 ALICIA LN", "postcode": "30533"}}},
{"geometry": {"type": "Point", "coordinates": [-83.9869836382, 34.4429464776]}, "type": "Feature", "properties": {"collection_times": [{"days": "Mon-Sat", "time": "12:00pm"}, {"days": "Sun", "time": "Closed"}], "id": "3053300009", "name": "USPS COLLECTION BOX - BLUE BOX", "address": {"city": "DAHLONEGA", "state": "GA", "street": "10 ETHAN ALLEN DR", "postcode": "30533"}}},
{"geometry": {"type": "Point", "coordinates": [-84.1518367327, 34.4201557612]}, "type": "Feature", "properties": {"collection_times": [{"days": "Mon-Sat", "time": "12:00pm"}, {"days": "Sun", "time": "Closed"}], "id": "3053400001", "name": "USPS COLLECTION BOX - BLUE BOX", "address": {"city": "DAWSONVILLE", "state": "GA", "street": "156 POWER CENTER DR", "postcode": "30534"}}},
{"geometry": {"type": "Point", "coordinates": [-84.1273993018, 34.4216195684]}, "type": "Feature", "properties": {"collection_times": [{"days": "Mon-Fri", "time": "4:30pm"}, {"days": "Sat", "time": "12:00pm"}, {"days": "Sun", "time": "Closed"}], "id": "3053400002", "name": "USPS COLLECTION BOX - BLUE BOX", "address": {"city": "DAWSONVILLE", "state": "GA", "street": "452 HIGHWAY 53 E", "postcode": "30534"}}},
{"geometry": {"type": "Point", "coordinates": [-84.0386791849, 34.3635789918]}, "type": "Feature", "properties": {"collection_times": [{"days": "Mon-Fri", "time": "1:00pm"}, {"days": "Sat", "time": "12:00pm"}, {"days": "Sun", "time": "Closed"}], "id": "3053400003", "name": "USPS COLLECTION BOX - BLUE BOX", "address": {"city": "DAWSONVILLE", "state": "GA", "street": "66 S 400 CENTER LN", "postcode": "30534"}}},
{"geometry": {"type": "Point", "coordinates": [-84.0386791849, 34.3635789918]}, "type": "Feature", "properties": {"collection_times": [{"days": "Mon-Fri", "time": "1:00pm"}, {"days": "Sat", "time": "12:00pm"}, {"days": "Sun", "time": "Closed"}], "id": "3053400004", "name": "USPS COLLECTION BOX - BLUE BOX", "address": {"city": "DAWSONVILLE", "state": "GA", "street": "66 S 400 CENTER LN", "postcode": "30534"}}},
{"geometry": {"type": "Point", "coordinates": [-84.1273993018, 34.4216195684]}, "type": "Feature", "properties": {"collection_times": [{"days": "Mon-Fri", "time": "4:30pm"}, {"days": "Sat", "time": "12:00pm"}, {"days": "Sun", "time": "Closed"}], "id": "3053400006", "name": "USPS COLLECTION BOX - PO LOBBY", "address": {"city": "DAWSONVILLE", "state": "GA", "street": "452 HIGHWAY 53 E", "postcode": "30534"}}},
{"geometry": {"type": "Point", "coordinates": [-84.1273993018, 34.4216195684]}, "type": "Feature", "properties": {"collection_times": [{"days": "Mon-Fri", "time": "4:30pm"}, {"days": "Sat", "time": "12:00pm"}, {"days": "Sun", "time": "Closed"}], "id": "3053400007", "name": "USPS COLLECTION BOX - BLUE BOX", "address": {"city": "DAWSONVILLE", "state": "GA", "street": "452 HIGHWAY 53 E", "postcode": "30534"}}},
{"geometry": {"type": "Point", "coordinates": [-84.0236333894, 34.3820447273]}, "type": "Feature", "properties": {"collection_times": [{"days": "Mon-Sat", "time": "12:00pm"}, {"days": "Sun", "time": "Closed"}], "id": "3053400008", "name": "USPS COLLECTION BOX - BLUE BOX", "address": {"city": "DAWSONVILLE", "state": "GA", "street": "1322 HIGHWAY 400 N", "postcode": "30534"}}},
{"geometry": {"type": "Point", "coordinates": [-84.0338949126, 34.3610537193]}, "type": "Feature", "properties": {"collection_times": [{"days": "Mon-Sat", "time": "12:00pm"}, {"days": "Sun", "time": "Closed"}], "id": "3053400010", "name": "USPS COLLECTION BOX - BLUE BOX", "address": {"city": "DAWSONVILLE", "state": "GA", "street": "6625 HIGHWAY 53 E", "postcode": "30534"}}},
{"geometry": {"type": "Point", "coordinates": [-84.1273993018, 34.4216195684]}, "type": "Feature", "properties": {"collection_times": [{"days": "Mon-Fri", "time": "4:30pm"}, {"days": "Sat", "time": "12:00pm"}, {"days": "Sun", "time": "Closed"}], "id": "3053400011", "name": "USPS COLLECTION BOX - PO LOBBY", "address": {"city": "DAWSONVILLE", "state": "GA", "street": "452 HIGHWAY 53 E", "postcode": "30534"}}},
{"geometry": {"type": "Point", "coordinates": [-83.5736575516, 34.5857043325]}, "type": "Feature", "properties": {"collection_times": [{"days": "Mon-Fri", "time": "3:00pm"}, {"days": "Sat", "time": "12:00pm"}, {"days": "Sun", "time": "Closed"}], "id": "3053500001", "name": "USPS COLLECTION BOX - BLUE BOX", "address": {"city": "DEMOREST", "state": "GA", "street": "550 GEORGIA ST", "postcode": "30535"}}},
{"geometry": {"type": "Point", "coordinates": [-83.5736575516, 34.5857043325]}, "type": "Feature", "properties": {"collection_times": [{"days": "Mon-Fri", "time": "3:00pm"}, {"days": "Sat", "time": "12:00pm"}, {"days": "Sun", "time": "Closed"}], "id": "3053500003", "name": "USPS COLLECTION BOX - PO LOBBY", "address": {"city": "DEMOREST", "state": "GA", "street": "550 GEORGIA ST", "postcode": "30535"}}},
{"geometry": {"type": "Point", "coordinates": [-83.5736575516, 34.5857043325]}, "type": "Feature", "properties": {"collection_times": [{"days": "Mon-Fri", "time": "3:00pm"}, {"days": "Sat", "time": "12:00pm"}, {"days": "Sun", "time": "Closed"}], "id": "3053500004", "name": "USPS COLLECTION BOX - PO LOBBY", "address": {"city": "DEMOREST", "state": "GA", "street": "550 GEORGIA ST", "postcode": "30535"}}},
{"geometry": {"type": "Point", "coordinates": [-83.3836050474, 34.9765102086]}, "type": "Feature", "properties": {"collection_times": [{"days": "Mon-Fri", "time": "4:30pm"}, {"days": "Sat", "time": "11:30am"}, {"days": "Sun", "time": "Closed"}], "id": "3053700002", "name": "USPS COLLECTION BOX - BLUE BOX", "address": {"city": "DILLARD", "state": "GA", "street": "6971 HIGHWAY 441 N", "postcode": "30537"}}},
{"geometry": {"type": "Point", "coordinates": [-83.3836050474, 34.9765102086]}, "type": "Feature", "properties": {"collection_times": [{"days": "Mon-Fri", "time": "4:30pm"}, {"days": "Sat", "time": "11:30am"}, {"days": "Sun", "time": "Closed"}], "id": "3053700003", "name": "USPS COLLECTION BOX - PO LOBBY", "address": {"city": "DILLARD", "state": "GA", "street": "6971 HIGHWAY 441 N", "postcode": "30537"}}},
{"geometry": {"type": "Point", "coordinates": [-83.2676324919, 34.4882099425]}, "type": "Feature", "properties": {"collection_times": [{"days": "Mon-Fri", "time": "4:30pm"}, {"days": "Sat", "time": "11:30am"}, {"days": "Sun", "time": "Closed"}], "id": "3053800001", "name": "USPS COLLECTION BOX - BLUE BOX", "address": {"city": "EASTANOLLEE", "state": "GA", "street": "36 EASTANOLLEE SCHOOL RD", "postcode": "30538"}}},
{"geometry": {"type": "Point", "coordinates": [-83.2676324919, 34.4882099425]}, "type": "Feature", "properties": {"collection_times": [{"days": "Mon-Fri", "time": "4:30pm"}, {"days": "Sat", "time": "11:30am"}, {"days": "Sun", "time": "Closed"}], "id": "3053800002", "name": "USPS COLLECTION BOX - PO LOBBY", "address": {"city": "EASTANOLLEE", "state": "GA", "street": "36 EASTANOLLEE SCHOOL RD", "postcode": "30538"}}},
{"geometry": {"type": "Point", "coordinates": [-84.4790818965, 34.6751474749]}, "type": "Feature", "properties": {"collection_times": [{"days": "Mon-Fri", "time": "4:30pm"}, {"days": "Sat", "time": "11:30am"}, {"days": "Sun", "time": "Closed"}], "id": "3053900001", "name": "USPS COLLECTION BOX - BLUE BOX", "address": {"city": "EAST ELLIJAY", "state": "GA", "street": "230 OLD ORCHARD SQ", "postcode": "30539"}}},
{"geometry": {"type": "Point", "coordinates": [-84.4834150442, 34.6859522629]}, "type": "Feature", "properties": {"collection_times": [{"days": "Mon-Fri", "time": "5:00pm"}, {"days": "Sat", "time": "12:00pm"}, {"days": "Sun", "time": "Closed"}], "id": "3054000009", "name": "USPS COLLECTION BOX - BLUE BOX", "address": {"city": "ELLIJAY", "state": "GA", "street": "801 INDUSTRIAL BLVD", "postcode": "30540"}}},
{"geometry": {"type": "Point", "coordinates": [-84.4808255866, 34.6985373596]}, "type": "Feature", "properties": {"collection_times": [{"days": "Mon-Fri", "time": "12:00pm"}, {"days": "Sat", "time": "9:00am"}, {"days": "Sun", "time": "Closed"}], "id": "3054000013", "name": "USPS COLLECTION BOX - BLUE BOX", "address": {"city": "ELLIJAY", "state": "GA", "street": "9 S SIDE SQ", "postcode": "30540"}}},
{"geometry": {"type": "Point", "coordinates": [-84.4834150442, 34.6859522629]}, "type": "Feature", "properties": {"collection_times": [{"days": "Mon-Fri", "time": "5:00pm"}, {"days": "Sat", "time": "12:00pm"}, {"days": "Sun", "time": "Closed"}], "id": "3054000017", "name": "USPS COLLECTION BOX - BLUE BOX", "address": {"city": "ELLIJAY", "state": "GA", "street": "801 INDUSTRIAL BLVD", "postcode": "30540"}}},
{"geometry": {"type": "Point", "coordinates": [-84.4834150442, 34.6859522629]}, "type": "Feature", "properties": {"collection_times": [{"days": "Mon-Fri", "time": "4:45pm"}, {"days": "Sat", "time": "12:00pm"}, {"days": "Sun", "time": "Closed"}], "id": "3054000018", "name": "USPS COLLECTION BOX - PO LOBBY", "address": {"city": "ELLIJAY", "state": "GA", "street": "801 INDUSTRIAL BLVD", "postcode": "30540"}}},
{"geometry": {"type": "Point", "coordinates": [-84.4899205758, 34.6583452433]}, "type": "Feature", "properties": {"collection_times": [{"days": "Mon-Sat", "time": "9:00am"}, {"days": "Sun", "time": "Closed"}], "id": "3054000021", "name": "USPS COLLECTION BOX - BLUE BOX", "address": {"city": "ELLIJAY", "state": "GA", "street": "150 HIGHLAND PKWY", "postcode": "30540"}}},
{"geometry": {"type": "Point", "coordinates": [-84.5159098867, 34.6525521074]}, "type": "Feature", "properties": {"collection_times": [{"days": "Mon-Sat", "time": "9:00am"}, {"days": "Sun", "time": "Closed"}], "id": "3054000022", "name": "USPS COLLECTION BOX - BLUE BOX", "address": {"city": "ELLIJAY", "state": "GA", "street": "634 BEAVER LAKE DR", "postcode": "30540"}}},
{"geometry": {"type": "Point", "coordinates": [-84.3858353158, 34.9511694089]}, "type": "Feature", "properties": {"collection_times": [{"days": "Mon-Fri", "time": "4:15pm"}, {"days": "Sat", "time": "12:00pm"}, {"days": "Sun", "time": "Closed"}], "id": "3054100001", "name": "USPS COLLECTION BOX - BLUE BOX", "address": {"city": "EPWORTH", "state": "GA", "street": "685 MADOLA RD", "postcode": "30541"}}},
{"geometry": {"type": "Point", "coordinates": [-84.3858353158, 34.9511694089]}, "type": "Feature", "properties": {"collection_times": [{"days": "Mon-Fri", "time": "4:15pm"}, {"days": "Sat", "time": "12:00pm"}, {"days": "Sun", "time": "Closed"}], "id": "3054100003", "name": "USPS COLLECTION BOX - PO LOBBY", "address": {"city": "EPWORTH", "state": "GA", "street": "685 MADOLA RD", "postcode": "30541"}}},
{"geometry": {"type": "Point", "coordinates": [-83.9220813949, 34.1877864357]}, "type": "Feature", "properties": {"collection_times": [{"days": "Mon-Fri", "time": "4:15pm"}, {"days": "Sat", "time": "12:15pm"}, {"days": "Sun", "time": "Closed"}], "id": "3054200002", "name": "USPS COLLECTION BOX - BLUE BOX", "address": {"city": "FLOWERY BRANCH", "state": "GA", "street": "4915 ATLANTA HWY", "postcode": "30542"}}},
{"geometry": {"type": "Point", "coordinates": [-83.9220813949, 34.1877864357]}, "type": "Feature", "properties": {"collection_times": [{"days": "Mon-Fri", "time": "4:15pm"}, {"days": "Sat", "time": "12:15pm"}, {"days": "Sun", "time": "Closed"}], "id": "3054200003", "name": "USPS COLLECTION BOX - BLUE BOX", "address": {"city": "FLOWERY BRANCH", "state": "GA", "street": "4915 ATLANTA HWY", "postcode": "30542"}}},
{"geometry": {"type": "Point", "coordinates": [-83.8620250985, 34.2183869635]}, "type": "Feature", "properties": {"collection_times": [{"days": "Mon-Sat", "time": "10:00am"}, {"days": "Sun", "time": "Closed"}], "id": "3054200004", "name": "USPS COLLECTION BOX - BLUE BOX", "address": {"city": "FLOWERY BRANCH", "state": "GA", "street": "3446 WINDER HWY", "postcode": "30542"}}},
{"geometry": {"type": "Point", "coordinates": [-83.9110349241, 34.1770155943]}, "type": "Feature", "properties": {"collection_times": [{"days": "Mon-Sat", "time": "9:30am"}, {"days": "Sun", "time": "Closed"}], "id": "3054200005", "name": "USPS COLLECTION BOX - BLUE BOX", "address": {"city": "FLOWERY BRANCH", "state": "GA", "street": "5900 SPOUT SPRINGS RD", "postcode": "30542"}}},
{"geometry": {"type": "Point", "coordinates": [-83.9220813949, 34.1877864357]}, "type": "Feature", "properties": {"collection_times": [{"days": "Mon-Fri", "time": "4:30pm"}, {"days": "Sat", "time": "12:15pm"}, {"days": "Sun", "time": "Closed"}], "id": "3054200006", "name": "USPS COLLECTION BOX - PO LOBBY", "address": {"city": "FLOWERY BRANCH", "state": "GA", "street": "4915 ATLANTA HWY", "postcode": "30542"}}},
{"geometry": {"type": "Point", "coordinates": [-83.9220813949, 34.1877864357]}, "type": "Feature", "properties": {"collection_times": [{"days": "Mon-Fri", "time": "4:30pm"}, {"days": "Sat", "time": "12:15pm"}, {"days": "Sun", "time": "Closed"}], "id": "3054200007", "name": "USPS COLLECTION BOX - PO LOBBY", "address": {"city": "FLOWERY BRANCH", "state": "GA", "street": "4915 ATLANTA HWY", "postcode": "30542"}}},
{"geometry": {"type": "Point", "coordinates": [-83.6335066891, 34.3075629195]}, "type": "Feature", "properties": {"collection_times": [{"days": "Mon-Fri", "time": "4:30pm"}, {"days": "Sat", "time": "12:00pm"}, {"days": "Sun", "time": "Closed"}], "id": "3054300001", "name": "USPS COLLECTION BOX - BLUE BOX", "address": {"city": "GILLSVILLE", "state": "GA", "street": "6310 HIGHWAY 52", "postcode": "30543"}}},
{"geometry": {"type": "Point", "coordinates": [-83.6335066891, 34.3075629195]}, "type": "Feature", "properties": {"collection_times": [{"days": "Mon-Fri", "time": "4:30pm"}, {"days": "Sat", "time": "12:00pm"}, {"days": "Sun", "time": "Closed"}], "id": "3054300002", "name": "USPS COLLECTION BOX - PO LOBBY", "address": {"city": "GILLSVILLE", "state": "GA", "street": "6310 HIGHWAY 52", "postcode": "30543"}}},
{"geometry": {"type": "Point", "coordinates": [-83.7196896307, 34.6974512071]}, "type": "Feature", "properties": {"collection_times": [{"days": "Mon-Fri", "time": "4:00pm"}, {"days": "Sat", "time": "12:00pm"}, {"days": "Sun", "time": "Closed"}], "id": "3054500002", "name": "USPS COLLECTION BOX - BLUE BOX", "address": {"city": "HELEN", "state": "GA", "street": "7976 S MAIN ST", "postcode": "30545"}}},
{"geometry": {"type": "Point", "coordinates": [-83.7196896307, 34.6974512071]}, "type": "Feature", "properties": {"collection_times": [{"days": "Mon-Fri", "time": "4:00pm"}, {"days": "Sat", "time": "12:00pm"}, {"days": "Sun", "time": "Closed"}], "id": "3054500004", "name": "USPS COLLECTION BOX - PO LOBBY", "address": {"city": "HELEN", "state": "GA", "street": "7976 S MAIN ST", "postcode": "30545"}}},
{"geometry": {"type": "Point", "coordinates": [-83.7585890198, 34.9506870436]}, "type": "Feature", "properties": {"collection_times": [{"days": "Mon-Sat", "time": "10:00am"}, {"days": "Sun", "time": "Closed"}], "id": "3054600001", "name": "USPS COLLECTION BOX - BLUE BOX", "address": {"city": "HIAWASSEE", "state": "GA", "street": "236 N MAIN ST", "postcode": "30546"}}},
{"geometry": {"type": "Point", "coordinates": [-83.75817523, 34.949758304]}, "type": "Feature", "properties": {"collection_times": [{"days": "Mon-Fri", "time": "5:00pm"}, {"days": "Sat", "time": "12:00pm"}, {"days": "Sun", "time": "Closed"}], "id": "3054600002", "name": "USPS COLLECTION BOX - BLUE BOX", "address": {"city": "HIAWASSEE", "state": "GA", "street": "118 N MAIN ST", "postcode": "30546"}}},
{"geometry": {"type": "Point", "coordinates": [-83.5021642791, 34.3325021108]}, "type": "Feature", "properties": {"collection_times": [{"days": "Mon-Fri", "time": "4:30pm"}, {"days": "Sat", "time": "12:00pm"}, {"days": "Sun", "time": "Closed"}], "id": "3054700002", "name": "USPS COLLECTION BOX - PO LOBBY", "address": {"city": "HOMER", "state": "GA", "street": "106 GRIFFIN ST", "postcode": "30547"}}},
{"geometry": {"type": "Point", "coordinates": [-83.5021642791, 34.3325021108]}, "type": "Feature", "properties": {"collection_times": [{"days": "Mon-Fri", "time": "4:30pm"}, {"days": "Sat", "time": "12:00pm"}, {"days": "Sun", "time": "Closed"}], "id": "3054700003", "name": "USPS COLLECTION BOX - BLUE BOX", "address": {"city": "HOMER", "state": "GA", "street": "106 GRIFFIN ST", "postcode": "30547"}}},
{"geometry": {"type": "Point", "coordinates": [-83.7616144801, 34.0993528943]}, "type": "Feature", "properties": {"collection_times": [{"days": "Mon-Fri", "time": "3:45pm"}, {"days": "Sat", "time": "10:45am"}, {"days": "Sun", "time": "Closed"}], "id": "3054800001", "name": "USPS COLLECTION BOX - BLUE BOX", "address": {"city": "HOSCHTON", "state": "GA", "street": "20 E JEFFERSON ST", "postcode": "30548"}}},
{"geometry": {"type": "Point", "coordinates": [-83.7616144801, 34.0993528943]}, "type": "Feature", "properties": {"collection_times": [{"days": "Mon-Fri", "time": "3:45pm"}, {"days": "Sat", "time": "10:45am"}, {"days": "Sun", "time": "Closed"}], "id": "3054800002", "name": "USPS COLLECTION BOX - PO LOBBY", "address": {"city": "HOSCHTON", "state": "GA", "street": "20 E JEFFERSON ST", "postcode": "30548"}}},
{"geometry": {"type": "Point", "coordinates": [-83.5735702933, 34.1173016961]}, "type": "Feature", "properties": {"collection_times": [{"days": "Mon-Sat", "time": "10:30am"}, {"days": "Sun", "time": "Closed"}], "id": "3054900002", "name": "USPS COLLECTION BOX - BLUE BOX", "address": {"city": "JEFFERSON", "state": "GA", "street": "15 LEE ST", "postcode": "30549"}}},
{"geometry": {"type": "Point", "coordinates": [-83.5765159699, 34.1160507087]}, "type": "Feature", "properties": {"collection_times": [{"days": "Mon-Fri", "time": "5:00pm"}, {"days": "Sat", "time": "12:00pm"}, {"days": "Sun", "time": "Closed"}], "id": "3054900004", "name": "USPS COLLECTION BOX - BLUE BOX", "address": {"city": "JEFFERSON", "state": "GA", "street": "216 LEE ST", "postcode": "30549"}}},
{"geometry": {"type": "Point", "coordinates": [-83.5765159699, 34.1160507087]}, "type": "Feature", "properties": {"collection_times": [{"days": "Mon-Fri", "time": "5:00pm"}, {"days": "Sat", "time": "12:00pm"}, {"days": "Sun", "time": "Closed"}], "id": "3054900005", "name": "USPS COLLECTION BOX - BLUE BOX", "address": {"city": "JEFFERSON", "state": "GA", "street": "216 LEE ST", "postcode": "30549"}}},
{"geometry": {"type": "Point", "coordinates": [-83.5900687487, 34.1314179484]}, "type": "Feature", "properties": {"collection_times": [{"days": "Mon-Fri", "time": "10:00am"}, {"days": "Sat", "time": "9:30am"}, {"days": "Sun", "time": "Closed"}], "id": "3054900010", "name": "USPS COLLECTION BOX - BLUE BOX", "address": {"city": "JEFFERSON", "state": "GA", "street": "1325 WASHINGTON ST", "postcode": "30549"}}},
{"geometry": {"type": "Point", "coordinates": [-83.5771192496, 34.10315163]}, "type": "Feature", "properties": {"collection_times": [{"days": "Mon-Fri", "time": "10:30am"}, {"days": "Sat-Sun", "time": "Closed"}], "id": "3054900011", "name": "USPS COLLECTION BOX - BLUE BOX", "address": {"city": "JEFFERSON", "state": "GA", "street": "5000 JACKSON PKWY", "postcode": "30549"}}},
{"geometry": {"type": "Point", "coordinates": [-83.5765159699, 34.1160507087]}, "type": "Feature", "properties": {"collection_times": [{"days": "Mon-Fri", "time": "5:00pm"}, {"days": "Sat", "time": "12:00pm"}, {"days": "Sun", "time": "Closed"}], "id": "3054900012", "name": "USPS COLLECTION BOX - PO LOBBY", "address": {"city": "JEFFERSON", "state": "GA", "street": "216 LEE ST", "postcode": "30549"}}},
{"geometry": {"type": "Point", "coordinates": [-83.57663261, 34.115985817]}, "type": "Feature", "properties": {"collection_times": [{"days": "Mon-Fri", "time": "5:00pm"}, {"days": "Sat", "time": "12:00pm"}, {"days": "Sun", "time": "Closed"}], "id": "3054900013", "name": "USPS COLLECTION BOX - PO LOBBY", "address": {"city": "JEFFERSON", "state": "GA", "street": "216 LEE ST", "postcode": "30549"}}},
{"geometry": {"type": "Point", "coordinates": [-83.4446395719, 34.7698109528]}, "type": "Feature", "properties": {"collection_times": [{"days": "Mon-Fri", "time": "4:15pm"}, {"days": "Sat", "time": "11:15am"}, {"days": "Sun", "time": "Closed"}], "id": "3055200001", "name": "USPS COLLECTION BOX - BLUE BOX", "address": {"city": "LAKEMONT", "state": "GA", "street": "17 LAKEMONT INDUSTRIAL DR", "postcode": "30552"}}},
{"geometry": {"type": "Point", "coordinates": [-83.4446395719, 34.7698109528]}, "type": "Feature", "properties": {"collection_times": [{"days": "Mon-Fri", "time": "4:15pm"}, {"days": "Sat", "time": "11:15am"}, {"days": "Sun", "time": "Closed"}], "id": "3055200002", "name": "USPS COLLECTION BOX - PO LOBBY", "address": {"city": "LAKEMONT", "state": "GA", "street": "17 LAKEMONT INDUSTRIAL DR", "postcode": "30552"}}},
{"geometry": {"type": "Point", "coordinates": [-83.1047218558, 34.435932959]}, "type": "Feature", "properties": {"collection_times": [{"days": "Mon-Fri", "time": "5:00pm"}, {"days": "Sat", "time": "12:00pm"}, {"days": "Sun", "time": "Closed"}], "id": "3055300002", "name": "USPS COLLECTION BOX - BLUE BOX", "address": {"city": "LAVONIA", "state": "GA", "street": "5825 VICKERY ST", "postcode": "30553"}}},
{"geometry": {"type": "Point", "coordinates": [-83.1047218558, 34.435932959]}, "type": "Feature", "properties": {"collection_times": [{"days": "Mon-Fri", "time": "4:30pm"}, {"days": "Sat", "time": "12:00pm"}, {"days": "Sun", "time": "Closed"}], "id": "3055300012", "name": "USPS COLLECTION BOX - PO LOBBY", "address": {"city": "LAVONIA", "state": "GA", "street": "5825 VICKERY ST", "postcode": "30553"}}},
{"geometry": {"type": "Point", "coordinates": [-83.6709474874, 34.3863945992]}, "type": "Feature", "properties": {"collection_times": [{"days": "Mon-Fri", "time": "4:30pm"}, {"days": "Sat", "time": "12:00pm"}, {"days": "Sun", "time": "Closed"}], "id": "3055400001", "name": "USPS COLLECTION BOX - BLUE BOX", "address": {"city": "LULA", "state": "GA", "street": "5815 MCLEOD ST", "postcode": "30554"}}},
{"geometry": {"type": "Point", "coordinates": [-83.6709474874, 34.3863945992]}, "type": "Feature", "properties": {"collection_times": [{"days": "Mon-Fri", "time": "4:30pm"}, {"days": "Sat", "time": "12:00pm"}, {"days": "Sun", "time": "Closed"}], "id": "3055400003", "name": "USPS COLLECTION BOX - PO LOBBY", "address": {"city": "LULA", "state": "GA", "street": "5815 MCLEOD ST", "postcode": "30554"}}},
{"geometry": {"type": "Point", "coordinates": [-84.3714990917, 34.9865772393]}, "type": "Feature", "properties": {"collection_times": [{"days": "Mon-Fri", "time": "4:15pm"}, {"days": "Sat", "time": "12:30pm"}, {"days": "Sun", "time": "Closed"}], "id": "3055500001", "name": "USPS COLLECTION BOX - BLUE BOX", "address": {"city": "MCCAYSVILLE", "state": "GA", "street": "175 BLUERIDGE DR", "postcode": "30555"}}},
{"geometry": {"type": "Point", "coordinates": [-84.3714990917, 34.9865772393]}, "type": "Feature", "properties": {"collection_times": [{"days": "Mon-Fri", "time": "4:15pm"}, {"days": "Sat", "time": "12:30pm"}, {"days": "Sun", "time": "Closed"}], "id": "3055500002", "name": "USPS COLLECTION BOX - PO LOBBY", "address": {"city": "MCCAYSVILLE", "state": "GA", "street": "175 BLUERIDGE DR", "postcode": "30555"}}},
{"geometry": {"type": "Point", "coordinates": [-83.1870910312, 34.4833863774]}, "type": "Feature", "properties": {"collection_times": [{"days": "Mon-Fri", "time": "3:30pm"}, {"days": "Sat", "time": "10:45am"}, {"days": "Sun", "time": "Closed"}], "id": "3055700002", "name": "USPS COLLECTION BOX - BLUE BOX", "address": {"city": "MARTIN", "state": "GA", "street": "11274 GA HIGHWAY 17", "postcode": "30557"}}},
{"geometry": {"type": "Point", "coordinates": [-83.1870910312, 34.4833863774]}, "type": "Feature", "properties": {"collection_times": [{"days": "Mon-Fri", "time": "3:30pm"}, {"days": "Sat", "time": "10:45am"}, {"days": "Sun", "time": "Closed"}], "id": "3055700003", "name": "USPS COLLECTION BOX - PO LOBBY", "address": {"city": "MARTIN", "state": "GA", "street": "11274 GA HIGHWAY 17", "postcode": "30557"}}},
{"geometry": {"type": "Point", "coordinates": [-83.5572559785, 34.2629215417]}, "type": "Feature", "properties": {"collection_times": [{"days": "Mon-Fri", "time": "4:30pm"}, {"days": "Sat", "time": "12:00pm"}, {"days": "Sun", "time": "Closed"}], "id": "3055800001", "name": "USPS COLLECTION BOX - BLUE BOX", "address": {"city": "MAYSVILLE", "state": "GA", "street": "3 HOMER ST", "postcode": "30558"}}},
{"geometry": {"type": "Point", "coordinates": [-83.5572559785, 34.2629215417]}, "type": "Feature", "properties": {"collection_times": [{"days": "Mon-Fri", "time": "4:30pm"}, {"days": "Sat", "time": "12:00pm"}, {"days": "Sun", "time": "Closed"}], "id": "3055800002", "name": "USPS COLLECTION BOX - PO LOBBY", "address": {"city": "MAYSVILLE", "state": "GA", "street": "3 HOMER ST", "postcode": "30558"}}},
{"geometry": {"type": "Point", "coordinates": [-84.2774896575, 34.9145982479]}, "type": "Feature", "properties": {"collection_times": [{"days": "Mon-Fri", "time": "4:15pm"}, {"days": "Sat", "time": "12:00pm"}, {"days": "Sun", "time": "Closed"}], "id": "3055900001", "name": "USPS COLLECTION BOX - BLUE BOX", "address": {"city": "MINERAL BLUFF", "state": "GA", "street": "8590 LAKEWOOD HWY", "postcode": "30559"}}},
{"geometry": {"type": "Point", "coordinates": [-84.2774896575, 34.9145982479]}, "type": "Feature", "properties": {"collection_times": [{"days": "Mon-Fri", "time": "4:15pm"}, {"days": "Sat", "time": "12:00pm"}, {"days": "Sun", "time": "Closed"}], "id": "3055900002", "name": "USPS COLLECTION BOX - PO LOBBY", "address": {"city": "MINERAL BLUFF", "state": "GA", "street": "8590 LAKEWOOD HWY", "postcode": "30559"}}},
{"geometry": {"type": "Point", "coordinates": [-84.2341686185, 34.8676869577]}, "type": "Feature", "properties": {"collection_times": [{"days": "Mon-Fri", "time": "4:30pm"}, {"days": "Sat", "time": "12:00pm"}, {"days": "Sun", "time": "Closed"}], "id": "3056000001", "name": "USPS COLLECTION BOX - BLUE BOX", "address": {"city": "MORGANTON", "state": "GA", "street": "12304 MORGANTON HWY", "postcode": "30560"}}},
{"geometry": {"type": "Point", "coordinates": [-84.2341686185, 34.8676869577]}, "type": "Feature", "properties": {"collection_times": [{"days": "Mon-Fri", "time": "4:30pm"}, {"days": "Sat", "time": "12:00pm"}, {"days": "Sun", "time": "Closed"}], "id": "3056000002", "name": "USPS COLLECTION BOX - PO LOBBY", "address": {"city": "MORGANTON", "state": "GA", "street": "12304 MORGANTON HWY", "postcode": "30560"}}},
{"geometry": {"type": "Point", "coordinates": [-83.3852069436, 34.9195700552]}, "type": "Feature", "properties": {"collection_times": [{"days": "Mon-Fri", "time": "4:15pm"}, {"days": "Sat", "time": "9:30am"}, {"days": "Sun", "time": "Closed"}], "id": "3056200001", "name": "USPS COLLECTION BOX - BLUE BOX", "address": {"city": "MOUNTAIN CITY", "state": "GA", "street": "23 DOTSON ST", "postcode": "30562"}}},
{"geometry": {"type": "Point", "coordinates": [-83.3852069436, 34.9195700552]}, "type": "Feature", "properties": {"collection_times": [{"days": "Mon-Fri", "time": "4:00pm"}, {"days": "Sat", "time": "9:30am"}, {"days": "Sun", "time": "Closed"}], "id": "3056200002", "name": "USPS COLLECTION BOX - PO LOBBY", "address": {"city": "MOUNTAIN CITY", "state": "GA", "street": "23 DOTSON ST", "postcode": "30562"}}},
{"geometry": {"type": "Point", "coordinates": [-83.5018412331, 34.5153133417]}, "type": "Feature", "properties": {"collection_times": [{"days": "Mon-Fri", "time": "4:45pm"}, {"days": "Sat", "time": "12:15pm"}, {"days": "Sun", "time": "Closed"}], "id": "3056300001", "name": "USPS COLLECTION BOX - BLUE BOX", "address": {"city": "MOUNT AIRY", "state": "GA", "street": "877 DICKS HILL PKWY", "postcode": "30563"}}},
{"geometry": {"type": "Point", "coordinates": [-83.5018412331, 34.5153133417]}, "type": "Feature", "properties": {"collection_times": [{"days": "Mon-Fri", "time": "4:45pm"}, {"days": "Sat", "time": "12:15pm"}, {"days": "Sun", "time": "Closed"}], "id": "3056300002", "name": "USPS COLLECTION BOX - PO LOBBY", "address": {"city": "MOUNT AIRY", "state": "GA", "street": "877 DICKS HILL PKWY", "postcode": "30563"}}},
{"geometry": {"type": "Point", "coordinates": [-83.904034173, 34.416093967]}, "type": "Feature", "properties": {"collection_times": [{"days": "Mon-Fri", "time": "4:30pm"}, {"days": "Sat", "time": "12:00pm"}, {"days": "Sun", "time": "Closed"}], "id": "3056400001", "name": "USPS COLLECTION BOX - BLUE BOX", "address": {"city": "MURRAYVILLE", "state": "GA", "street": "5341 THOMPSON BRIDGE RD", "postcode": "30564"}}},
{"geometry": {"type": "Point", "coordinates": [-83.4300046387, 34.1157733375]}, "type": "Feature", "properties": {"collection_times": [{"days": "Mon-Fri", "time": "4:00pm"}, {"days": "Sat", "time": "12:30pm"}, {"days": "Sun", "time": "Closed"}], "id": "3056500001", "name": "USPS COLLECTION BOX - BLUE BOX", "address": {"city": "NICHOLSON", "state": "GA", "street": "156 LAKEVIEW DR", "postcode": "30565"}}},
{"geometry": {"type": "Point", "coordinates": [-83.428472988, 34.114389977]}, "type": "Feature", "properties": {"collection_times": [{"days": "Mon-Fri", "time": "4:00pm"}, {"days": "Sat", "time": "12:30pm"}, {"days": "Sun", "time": "Closed"}], "id": "3056500004", "name": "USPS COLLECTION BOX - PO LOBBY", "address": {"city": "NICHOLSON", "state": "GA", "street": "156 LAKEVIEW DR", "postcode": "30565"}}},
{"geometry": {"type": "Point", "coordinates": [-83.8842763923, 34.2311288692]}, "type": "Feature", "properties": {"collection_times": [{"days": "Mon-Fri", "time": "4:45pm"}, {"days": "Sat", "time": "12:00pm"}, {"days": "Sun", "time": "Closed"}], "id": "3056600001", "name": "USPS COLLECTION BOX - BLUE BOX", "address": {"city": "OAKWOOD", "state": "GA", "street": "3803 MAIN ST", "postcode": "30566"}}},
{"geometry": {"type": "Point", "coordinates": [-83.8754272709, 34.2367380993]}, "type": "Feature", "properties": {"collection_times": [{"days": "Mon-Fri", "time": "4:00pm"}, {"days": "Sat", "time": "11:00am"}, {"days": "Sun", "time": "Closed"}], "id": "3056600005", "name": "USPS COLLECTION BOX - BLUE BOX", "address": {"city": "OAKWOOD", "state": "GA", "street": "4103 WINDER HWY", "postcode": "30566"}}},
{"geometry": {"type": "Point", "coordinates": [-83.8842763923, 34.2311288692]}, "type": "Feature", "properties": {"collection_times": [{"days": "Mon-Fri", "time": "4:45pm"}, {"days": "Sat", "time": "12:00pm"}, {"days": "Sun", "time": "Closed"}], "id": "3056600006", "name": "USPS COLLECTION BOX - PO LOBBY", "address": {"city": "OAKWOOD", "state": "GA", "street": "3803 MAIN ST", "postcode": "30566"}}},
{"geometry": {"type": "Point", "coordinates": [-83.8754272709, 34.2367380993]}, "type": "Feature", "properties": {"collection_times": [{"days": "Mon-Fri", "time": "4:00pm"}, {"days": "Sat", "time": "11:00am"}, {"days": "Sun", "time": "Closed"}], "id": "3056600007", "name": "USPS COLLECTION BOX - PO LOBBY", "address": {"city": "OAKWOOD", "state": "GA", "street": "4103 WINDER HWY", "postcode": "30566"}}},
{"geometry": {"type": "Point", "coordinates": [-83.6780252274, 34.1624142704]}, "type": "Feature", "properties": {"collection_times": [{"days": "Mon-Fri", "time": "3:30pm"}, {"days": "Sat", "time": "10:00am"}, {"days": "Sun", "time": "Closed"}], "id": "3056700001", "name": "USPS COLLECTION BOX - BLUE BOX", "address": {"city": "PENDERGRASS", "state": "GA", "street": "12 RAILROAD ST", "postcode": "30567"}}},
{"geometry": {"type": "Point", "coordinates": [-83.6780252274, 34.1624142704]}, "type": "Feature", "properties": {"collection_times": [{"days": "Mon-Fri", "time": "3:30pm"}, {"days": "Sat", "time": "10:00am"}, {"days": "Sun", "time": "Closed"}], "id": "3056700002", "name": "USPS COLLECTION BOX - PO LOBBY", "address": {"city": "PENDERGRASS", "state": "GA", "street": "12 RAILROAD ST", "postcode": "30567"}}},
{"geometry": {"type": "Point", "coordinates": [-83.3877451843, 34.9616989075]}, "type": "Feature", "properties": {"collection_times": [{"days": "Mon-Fri", "time": "4:30pm"}, {"days": "Sat", "time": "11:30am"}, {"days": "Sun", "time": "Closed"}], "id": "3056800001", "name": "USPS COLLECTION BOX - BLUE BOX", "address": {"city": "RABUN GAP", "state": "GA", "street": "5664 HIGHWAY 441 N", "postcode": "30568"}}},
{"geometry": {"type": "Point", "coordinates": [-83.3877451843, 34.9616989075]}, "type": "Feature", "properties": {"collection_times": [{"days": "Mon-Fri", "time": "4:30pm"}, {"days": "Sat", "time": "11:30am"}, {"days": "Sun", "time": "Closed"}], "id": "3056800002", "name": "USPS COLLECTION BOX - PO LOBBY", "address": {"city": "RABUN GAP", "state": "GA", "street": "5664 HIGHWAY 441 N", "postcode": "30568"}}},
{"geometry": {"type": "Point", "coordinates": [-83.6750430147, 34.6854747476]}, "type": "Feature", "properties": {"collection_times": [{"days": "Mon-Fri", "time": "4:30pm"}, {"days": "Sat", "time": "12:00pm"}, {"days": "Sun", "time": "Closed"}], "id": "3057100001", "name": "USPS COLLECTION BOX - BLUE BOX", "address": {"city": "SAUTE NACOCHE", "state": "GA", "street": "93 HIGHWAY 255 N", "postcode": "30571"}}},
{"geometry": {"type": "Point", "coordinates": [-83.6750430147, 34.6854747476]}, "type": "Feature", "properties": {"collection_times": [{"days": "Mon-Fri", "time": "4:30pm"}, {"days": "Sat", "time": "12:00pm"}, {"days": "Sun", "time": "Closed"}], "id": "3057100002", "name": "USPS COLLECTION BOX - PO LOBBY", "address": {"city": "SAUTE NACOCHE", "state": "GA", "street": "93 HIGHWAY 255 N", "postcode": "30571"}}},
{"geometry": {"type": "Point", "coordinates": [-84.0192245443, 34.6842493376]}, "type": "Feature", "properties": {"collection_times": [{"days": "Mon-Fri", "time": "4:15pm"}, {"days": "Sat", "time": "9:30am"}, {"days": "Sun", "time": "Closed"}], "id": "3057200001", "name": "USPS COLLECTION BOX - BLUE BOX", "address": {"city": "SUCHES", "state": "GA", "street": "2078 STATE HIGHWAY 60", "postcode": "30572"}}},
{"geometry": {"type": "Point", "coordinates": [-84.0192245443, 34.6842493376]}, "type": "Feature", "properties": {"collection_times": [{"days": "Mon-Fri", "time": "4:15pm"}, {"days": "Sat", "time": "9:30am"}, {"days": "Sun", "time": "Closed"}], "id": "3057200002", "name": "USPS COLLECTION BOX - PO LOBBY", "address": {"city": "SUCHES", "state": "GA", "street": "2078 STATE HIGHWAY 60", "postcode": "30572"}}},
{"geometry": {"type": "Point", "coordinates": [-83.3943805603, 34.7366602446]}, "type": "Feature", "properties": {"collection_times": [{"days": "Mon-Fri", "time": "1:00pm"}, {"days": "Sat", "time": "9:00am"}, {"days": "Sun", "time": "Closed"}], "id": "3057300001", "name": "USPS COLLECTION BOX - BLUE BOX", "address": {"city": "TALLULAH FALLS", "state": "GA", "street": "235 MAIN ST", "postcode": "30573"}}},
{"geometry": {"type": "Point", "coordinates": [-83.7206585691, 34.1848921634]}, "type": "Feature", "properties": {"collection_times": [{"days": "Mon-Fri", "time": "3:30pm"}, {"days": "Sat", "time": "10:30am"}, {"days": "Sun", "time": "Closed"}], "id": "3057500001", "name": "USPS COLLECTION BOX - BLUE BOX", "address": {"city": "TALMO", "state": "GA", "street": "526 MAIN ST", "postcode": "30575"}}},
{"geometry": {"type": "Point", "coordinates": [-83.7206585691, 34.1848921634]}, "type": "Feature", "properties": {"collection_times": [{"days": "Mon-Fri", "time": "1:00pm"}, {"days": "Sat", "time": "10:30am"}, {"days": "Sun", "time": "Closed"}], "id": "3057500002", "name": "USPS COLLECTION BOX - PO LOBBY", "address": {"city": "TALMO", "state": "GA", "street": "526 MAIN ST", "postcode": "30575"}}},
{"geometry": {"type": "Point", "coordinates": [-83.4331412807, 34.835108286]}, "type": "Feature", "properties": {"collection_times": [{"days": "Mon-Fri", "time": "4:30pm"}, {"days": "Sat", "time": "11:30am"}, {"days": "Sun", "time": "Closed"}], "id": "3057600001", "name": "USPS COLLECTION BOX - BLUE BOX", "address": {"city": "TIGER", "state": "GA", "street": "3278 OLD HWY 441 SW", "postcode": "30576"}}},
{"geometry": {"type": "Point", "coordinates": [-83.4331412807, 34.835108286]}, "type": "Feature", "properties": {"collection_times": [{"days": "Mon-Fri", "time": "4:30pm"}, {"days": "Sat", "time": "11:30am"}, {"days": "Sun", "time": "Closed"}], "id": "3057600002", "name": "USPS COLLECTION BOX - PO LOBBY", "address": {"city": "TIGER", "state": "GA", "street": "3278 OLD HWY 441 SW", "postcode": "30576"}}},
{"geometry": {"type": "Point", "coordinates": [-83.3761506304, 34.5426743152]}, "type": "Feature", "properties": {"collection_times": [{"days": "Mon-Fri", "time": "5:00pm"}, {"days": "Sat", "time": "1:00pm"}, {"days": "Sun", "time": "Closed"}], "id": "3057700002", "name": "USPS COLLECTION BOX - BLUE BOX", "address": {"city": "TOCCOA", "state": "GA", "street": "41 FALLS RD", "postcode": "30577"}}},
{"geometry": {"type": "Point", "coordinates": [-83.2952538528, 34.5644734358]}, "type": "Feature", "properties": {"collection_times": [{"days": "Mon-Sat", "time": "1:00pm"}, {"days": "Sun", "time": "Closed"}], "id": "3057700003", "name": "USPS COLLECTION BOX - BLUE BOX", "address": {"city": "TOCCOA", "state": "GA", "street": "1161 BIG A RD S", "postcode": "30577"}}},
{"geometry": {"type": "Point", "coordinates": [-83.3761506304, 34.5426743152]}, "type": "Feature", "properties": {"collection_times": [{"days": "Mon-Fri", "time": "5:00pm"}, {"days": "Sat", "time": "1:00pm"}, {"days": "Sun", "time": "Closed"}], "id": "3057700008", "name": "USPS COLLECTION BOX - BLUE BOX", "address": {"city": "TOCCOA", "state": "GA", "street": "41 FALLS RD", "postcode": "30577"}}},
{"geometry": {"type": "Point", "coordinates": [-83.4261736291, 34.68597185]}, "type": "Feature", "properties": {"collection_times": [{"days": "Mon-Fri", "time": "4:00pm"}, {"days": "Sat", "time": "11:45am"}, {"days": "Sun", "time": "Closed"}], "id": "3058000001", "name": "USPS COLLECTION BOX - BLUE BOX", "address": {"city": "TURNERVILLE", "state": "GA", "street": "1083 THACKER RD", "postcode": "30580"}}},
{"geometry": {"type": "Point", "coordinates": [-83.4261736291, 34.68597185]}, "type": "Feature", "properties": {"collection_times": [{"days": "Mon-Fri", "time": "4:00pm"}, {"days": "Sat", "time": "11:45am"}, {"days": "Sun", "time": "Closed"}], "id": "3058000002", "name": "USPS COLLECTION BOX - PO LOBBY", "address": {"city": "TURNERVILLE", "state": "GA", "street": "1083 THACKER RD", "postcode": "30580"}}},
{"geometry": {"type": "Point", "coordinates": [-83.4234471427, 34.8201863062]}, "type": "Feature", "properties": {"collection_times": [{"days": "Mon-Fri", "time": "1:00pm"}, {"days": "Sat", "time": "9:00am"}, {"days": "Sun", "time": "Closed"}], "id": "3058100001", "name": "USPS COLLECTION BOX - BLUE BOX", "address": {"city": "WILEY", "state": "GA", "street": "6089 HIGHWAY 441 S", "postcode": "30581"}}},
{"geometry": {"type": "Point", "coordinates": [-83.4234471427, 34.8201863062]}, "type": "Feature", "properties": {"collection_times": [{"days": "Mon-Fri", "time": "1:00pm"}, {"days": "Sat-Sun", "time": "Closed"}], "id": "3058100002", "name": "USPS COLLECTION BOX - PO LOBBY", "address": {"city": "WILEY", "state": "GA", "street": "6089 HIGHWAY 441 S", "postcode": "30581"}}},
{"geometry": {"type": "Point", "coordinates": [-83.844101238, 34.932544541]}, "type": "Feature", "properties": {"collection_times": [{"days": "Mon-Fri", "time": "4:30pm"}, {"days": "Sat", "time": "12:15pm"}, {"days": "Sun", "time": "Closed"}], "id": "3058200001", "name": "USPS COLLECTION BOX - BLUE BOX", "address": {"city": "YOUNG HARRIS", "state": "GA", "street": "5171 COLLEGE ST", "postcode": "30582"}}},
{"geometry": {"type": "Point", "coordinates": [-83.844101238, 34.932544541]}, "type": "Feature", "properties": {"collection_times": [{"days": "Mon-Fri", "time": "4:30pm"}, {"days": "Sat", "time": "12:15pm"}, {"days": "Sun", "time": "Closed"}], "id": "3058200002", "name": "USPS COLLECTION BOX - PO LOBBY", "address": {"city": "YOUNG HARRIS", "state": "GA", "street": "5171 COLLEGE ST", "postcode": "30582"}}}
]}
