{"type": "FeatureCollection", "features": [
{"geometry": {"type": "Point", "coordinates": [-83.3778093484, 33.9602843264]}, "type": "Feature", "properties": {"collection_times": [{"days": "Mon-Fri", "time": "4:30pm"}, {"days": "Sat", "time": "1:00pm"}, {"days": "Sun", "time": "Closed"}], "id": "3060100003", "name": "USPS COLLECTION BOX - BLUE BOX", "address": {"city": "ATHENS", "state": "GA", "street": "455 N LUMPKIN ST", "postcode": "30601"}}},
{"geometry": {"type": "Point", "coordinates": [-83.3756407091, 33.9588211791]}, "type": "Feature", "properties": {"collection_times": [{"days": "Mon-Fri", "time": "1:30pm"}, {"days": "Sat-Sun", "time": "Closed"}], "id": "3060100009", "name": "USPS COLLECTION BOX - BLUE BOX", "address": {"city": "ATHENS", "state": "GA", "street": "220 COLLEGE AVE", "postcode": "30601"}}},
{"geometry": {"type": "Point", "coordinates": [-83.3769372321, 33.9582356144]}, "type": "Feature", "properties": {"collection_times": [{"days": "Mon-Fri", "time": "1:30pm"}, {"days": "Sat-Sun", "time": "Closed"}], "id": "3060100011", "name": "USPS COLLECTION BOX - BLUE BOX", "address": {"city": "ATHENS", "state": "GA", "street": "101 E CLAYTON ST", "postcode": "30601"}}},
{"geometry": {"type": "Point", "coordinates": [-83.3740957647, 33.959747436]}, "type": "Feature", "properties": {"collection_times": [{"days": "Mon-Fri", "time": "1:30pm"}, {"days": "Sat-Sun", "time": "Closed"}], "id": "3060100014", "name": "USPS COLLECTION BOX - BLUE BOX", "address": {"city": "ATHENS", "state": "GA", "street": "325 E WASHINGTON ST", "postcode": "30601"}}},
{"geometry": {"type": "Point", "coordinates": [-83.3415704238, 33.9682247189]}, "type": "Feature", "properties": {"collection_times": [{"days": "Mon-Sat", "time": "5:30pm"}, {"days": "Sun", "time": "Closed"}], "id": "3060100019", "name": "USPS COLLECTION BOX - BLUE BOX", "address": {"city": "ATHENS", "state": "GA", "street": "575 OLYMPIC DR", "postcode": "30601"}}},
{"geometry": {"type": "Point", "coordinates": [-83.3415704238, 33.9682247189]}, "type": "Feature", "properties": {"collection_times": [{"days": "Mon-Sat", "time": "5:30pm"}, {"days": "Sun", "time": "Closed"}], "id": "3060100027", "name": "USPS COLLECTION BOX - BLUE BOX", "address": {"city": "ATHENS", "state": "GA", "street": "575 OLYMPIC DR", "postcode": "30601"}}},
{"geometry": {"type": "Point", "coordinates": [-83.3778093484, 33.9602843264]}, "type": "Feature", "properties": {"collection_times": [{"days": "Mon-Fri", "time": "4:30pm"}, {"days": "Sat", "time": "1:00pm"}, {"days": "Sun", "time": "Closed"}], "id": "3060100030", "name": "USPS COLLECTION BOX - BLUE BOX", "address": {"city": "ATHENS", "state": "GA", "street": "455 N LUMPKIN ST", "postcode": "30601"}}},
{"geometry": {"type": "Point", "coordinates": [-83.3415704238, 33.9682247189]}, "type": "Feature", "properties": {"collection_times": [{"days": "Mon-Sat", "time": "5:30pm"}, {"days": "Sun", "time": "Closed"}], "id": "3060100034", "name": "USPS COLLECTION BOX - PO LOBBY", "address": {"city": "ATHENS", "state": "GA", "street": "575 OLYMPIC DR", "postcode": "30601"}}},
{"geometry": {"type": "Point", "coordinates": [-83.3773813429, 33.9599523469]}, "type": "Feature", "properties": {"collection_times": [{"days": "Mon-Fri", "time": "4:30pm"}, {"days": "Sat-Sun", "time": "Closed"}], "id": "3060100037", "name": "USPS COLLECTION BOX - PO LOBBY", "address": {"city": "ATHENS", "state": "GA", "street": "115 E HANCOCK AVE", "postcode": "30601"}}},
{"geometry": {"type": "Point", "coordinates": [-83.3773813429, 33.9599523469]}, "type": "Feature", "properties": {"collection_times": [{"days": "Mon-Fri", "time": "4:30pm"}, {"days": "Sat-Sun", "time": "Closed"}], "id": "3060100038", "name": "USPS COLLECTION BOX - PO LOBBY", "address": {"city": "ATHENS", "state": "GA", "street": "115 E HANCOCK AVE", "postcode": "30601"}}},
{"geometry": {"type": "Point", "coordinates": [-83.3773813429, 33.9599523469]}, "type": "Feature", "properties": {"collection_times": [{"days": "Mon-Fri", "time": "4:30pm"}, {"days": "Sat-Sun", "time": "Closed"}], "id": "3060100043", "name": "USPS COLLECTION BOX - PO LOBBY", "address": {"city": "ATHENS", "state": "GA", "street": "115 E HANCOCK AVE", "postcode": "30601"}}},
{"geometry": {"type": "Point", "coordinates": [-83.3415704238, 33.9682247189]}, "type": "Feature", "properties": {"collection_times": [{"days": "Mon-Sat", "time": "5:30pm"}, {"days": "Sun", "time": "Closed"}], "id": "3060100044", "name": "USPS COLLECTION BOX - PO LOBBY", "address": {"city": "ATHENS", "state": "GA", "street": "575 OLYMPIC DR", "postcode": "30601"}}},
{"geometry": {"type": "Point", "coordinates": [-83.3415704238, 33.9682247189]}, "type": "Feature", "properties": {"collection_times": [{"days": "Mon-Sat", "time": "5:30pm"}, {"days": "Sun", "time": "Closed"}], "id": "3060100045", "name": "USPS COLLECTION BOX - PO LOBBY", "address": {"city": "ATHENS", "state": "GA", "street": "575 OLYMPIC DR", "postcode": "30601"}}},
{"geometry": {"type": "Point", "coordinates": [-83.3415704238, 33.9682247189]}, "type": "Feature", "properties": {"collection_times": [{"days": "Mon-Sat", "time": "5:30pm"}, {"days": "Sun", "time": "Closed"}], "id": "3060100046", "name": "USPS COLLECTION BOX - PO LOBBY", "address": {"city": "ATHENS", "state": "GA", "street": "575 OLYMPIC DR", "postcode": "30601"}}},
{"geometry": {"type": "Point", "coordinates": [-83.34353179, 33.9202488505]}, "type": "Feature", "properties": {"collection_times": [{"days": "Mon-Fri", "time": "12:00pm"}, {"days": "Sat-Sun", "time": "Closed"}], "id": "3060500002", "name": "USPS COLLECTION BOX - BLUE BOX", "address": {"city": "ATHENS", "state": "GA", "street": "2301 COLLEGE STATION RD", "postcode": "30605"}}},
{"geometry": {"type": "Point", "coordinates": [-83.3872644639, 33.9518819418]}, "type": "Feature", "properties": {"collection_times": [{"days": "Mon-Fri", "time": "1:00pm"}, {"days": "Sat-Sun", "time": "Closed"}], "id": "3060500007", "name": "USPS COLLECTION BOX - BLUE BOX", "address": {"city": "ATHENS", "state": "GA", "street": "337 S MILLEDGE AVE", "postcode": "30605"}}},
{"geometry": {"type": "Point", "coordinates": [-83.3389013948, 33.9259766648]}, "type": "Feature", "properties": {"collection_times": [{"days": "Mon-Fri", "time": "12:00pm"}, {"days": "Sat-Sun", "time": "Closed"}], "id": "3060500023", "name": "USPS COLLECTION BOX - BLUE BOX", "address": {"city": "ATHENS", "state": "GA", "street": "1055 GAINES SCHOOL RD", "postcode": "30605"}}},
{"geometry": {"type": "Point", "coordinates": [-83.3182390598, 33.9365340679]}, "type": "Feature", "properties": {"collection_times": [{"days": "Mon-Fri", "time": "12:30pm"}, {"days": "Sat-Sun", "time": "Closed"}], "id": "3060500041", "name": "USPS COLLECTION BOX - BLUE BOX", "address": {"city": "ATHENS", "state": "GA", "street": "4375 LEXINGTON RD", "postcode": "30605"}}},
{"geometry": {"type": "Point", "coordinates": [-83.3876071335, 33.9370584639]}, "type": "Feature", "properties": {"collection_times": [{"days": "Mon-Fri", "time": "5:00pm"}, {"days": "Sat-Sun", "time": "Closed"}], "id": "3060600004", "name": "USPS COLLECTION BOX - BLUE BOX", "address": {"city": "ATHENS", "state": "GA", "street": "1695 S LUMPKIN ST", "postcode": "30606"}}},
{"geometry": {"type": "Point", "coordinates": [-83.4090344577, 33.9458524]}, "type": "Feature", "properties": {"collection_times": [{"days": "Mon-Fri", "time": "5:00pm"}, {"days": "Sat", "time": "3:30pm"}, {"days": "Sun", "time": "Closed"}], "id": "3060600008", "name": "USPS COLLECTION BOX - BLUE BOX", "address": {"city": "ATHENS", "state": "GA", "street": "196 ALPS RD", "postcode": "30606"}}},
{"geometry": {"type": "Point", "coordinates": [-83.3936382468, 33.9620447423]}, "type": "Feature", "properties": {"collection_times": [{"days": "Mon-Fri", "time": "12:00pm"}, {"days": "Sat-Sun", "time": "Closed"}], "id": "3060600012", "name": "USPS COLLECTION BOX - BLUE BOX", "address": {"city": "ATHENS", "state": "GA", "street": "1010 PRINCE AVE", "postcode": "30606"}}},
{"geometry": {"type": "Point", "coordinates": [-83.4554646544, 33.9389885334]}, "type": "Feature", "properties": {"collection_times": [{"days": "Mon-Fri", "time": "11:30am"}, {"days": "Sat-Sun", "time": "Closed"}], "id": "3060600015", "name": "USPS COLLECTION BOX - BLUE BOX", "address": {"city": "ATHENS", "state": "GA", "street": "3505 ATLANTA HWY", "postcode": "30606"}}},
{"geometry": {"type": "Point", "coordinates": [-83.4639763584, 33.9471984934]}, "type": "Feature", "properties": {"collection_times": [{"days": "Mon-Fri", "time": "4:00pm"}, {"days": "Sat-Sun", "time": "Closed"}], "id": "3060600018", "name": "USPS COLLECTION BOX - BLUE BOX", "address": {"city": "ATHENS", "state": "GA", "street": "405 HUNTINGTON RD", "postcode": "30606"}}},
{"geometry": {"type": "Point", "coordinates": [-83.4138769562, 33.9628391677]}, "type": "Feature", "properties": {"collection_times": [{"days": "Mon-Fri", "time": "12:00pm"}, {"days": "Sat-Sun", "time": "Closed"}], "id": "3060600025", "name": "USPS COLLECTION BOX - BLUE BOX", "address": {"city": "ATHENS", "state": "GA", "street": "820 HAWTHORNE AVE", "postcode": "30606"}}},
{"geometry": {"type": "Point", "coordinates": [-83.3980436764, 33.9623529535]}, "type": "Feature", "properties": {"collection_times": [{"days": "Mon-Fri", "time": "11:30am"}, {"days": "Sat-Sun", "time": "Closed"}], "id": "3060600035", "name": "USPS COLLECTION BOX - BLUE BOX", "address": {"city": "ATHENS", "state": "GA", "street": "1199 PRINCE AVE", "postcode": "30606"}}},
{"geometry": {"type": "Point", "coordinates": [-83.4138769562, 33.9628391677]}, "type": "Feature", "properties": {"collection_times": [{"days": "Mon-Fri", "time": "12:00pm"}, {"days": "Sat-Sun", "time": "Closed"}], "id": "3060600040", "name": "USPS COLLECTION BOX - BLUE BOX", "address": {"city": "ATHENS", "state": "GA", "street": "820 HAWTHORNE AVE", "postcode": "30606"}}},
{"geometry": {"type": "Point", "coordinates": [-83.4569231976, 33.9392288099]}, "type": "Feature", "properties": {"collection_times": [{"days": "Mon-Fri", "time": "11:30am"}, {"days": "Sat-Sun", "time": "Closed"}], "id": "3060600044", "name": "USPS COLLECTION BOX - BLUE BOX", "address": {"city": "ATHENS", "state": "GA", "street": "3620 ATLANTA HWY", "postcode": "30606"}}},
{"geometry": {"type": "Point", "coordinates": [-83.4090344577, 33.9458524]}, "type": "Feature", "properties": {"collection_times": [{"days": "Mon-Fri", "time": "5:30pm"}, {"days": "Sat", "time": "3:30pm"}, {"days": "Sun", "time": "Closed"}], "id": "3060600046", "name": "USPS COLLECTION BOX - PO LOBBY", "address": {"city": "ATHENS", "state": "GA", "street": "196 ALPS RD", "postcode": "30606"}}},
{"geometry": {"type": "Point", "coordinates": [-83.4147398688, 33.9693554287]}, "type": "Feature", "properties": {"collection_times": [{"days": "Mon-Fri", "time": "12:00pm"}, {"days": "Sat-Sun", "time": "Closed"}], "id": "3060600048", "name": "USPS COLLECTION BOX - BLUE BOX", "address": {"city": "ATHENS", "state": "GA", "street": "100 HAWTHORNE LN", "postcode": "30606"}}},
{"geometry": {"type": "Point", "coordinates": [-83.4090344577, 33.9458524]}, "type": "Feature", "properties": {"collection_times": [{"days": "Mon-Fri", "time": "5:30pm"}, {"days": "Sat", "time": "3:30pm"}, {"days": "Sun", "time": "Closed"}], "id": "3060600049", "name": "USPS COLLECTION BOX - PO LOBBY", "address": {"city": "ATHENS", "state": "GA", "street": "196 ALPS RD", "postcode": "30606"}}},
{"geometry": {"type": "Point", "coordinates": [-83.4147398688, 33.9693554287]}, "type": "Feature", "properties": {"collection_times": [{"days": "Mon-Fri", "time": "12:00pm"}, {"days": "Sat-Sun", "time": "Closed"}], "id": "3060600051", "name": "USPS COLLECTION BOX - BLUE BOX", "address": {"city": "ATHENS", "state": "GA", "street": "100 HAWTHORNE LN", "postcode": "30606"}}},
{"geometry": {"type": "Point", "coordinates": [-83.3997281196, 33.9629709992]}, "type": "Feature", "properties": {"collection_times": [{"days": "Mon-Fri", "time": "12:00pm"}, {"days": "Sat-Sun", "time": "Closed"}], "id": "3060600060", "name": "USPS COLLECTION BOX - BLUE BOX", "address": {"city": "ATHENS", "state": "GA", "street": "1270 PRINCE AVE", "postcode": "30606"}}},
{"geometry": {"type": "Point", "coordinates": [-83.4093680522, 33.9680943944]}, "type": "Feature", "properties": {"collection_times": [{"days": "Mon-Fri", "time": "12:00pm"}, {"days": "Sat-Sun", "time": "Closed"}], "id": "3060600061", "name": "USPS COLLECTION BOX - BLUE BOX", "address": {"city": "ATHENS", "state": "GA", "street": "855 SUNSET DR", "postcode": "30606"}}},
{"geometry": {"type": "Point", "coordinates": [-83.4253273516, 33.9625628783]}, "type": "Feature", "properties": {"collection_times": [{"days": "Mon-Fri", "time": "11:30am"}, {"days": "Sat-Sun", "time": "Closed"}], "id": "3060600064", "name": "USPS COLLECTION BOX - BLUE BOX", "address": {"city": "ATHENS", "state": "GA", "street": "1500 OGLETHORPE AVE", "postcode": "30606"}}},
{"geometry": {"type": "Point", "coordinates": [-83.4010268361, 33.9466058486]}, "type": "Feature", "properties": {"collection_times": [{"days": "Mon-Fri", "time": "12:00pm"}, {"days": "Sat-Sun", "time": "Closed"}], "id": "3060600066", "name": "USPS COLLECTION BOX - BLUE BOX", "address": {"city": "ATHENS", "state": "GA", "street": "1230 BAXTER ST", "postcode": "30606"}}},
{"geometry": {"type": "Point", "coordinates": [-83.445069704, 33.915799599]}, "type": "Feature", "properties": {"collection_times": [{"days": "Mon-Fri", "time": "11:30am"}, {"days": "Sat-Sun", "time": "Closed"}], "id": "3060600068", "name": "USPS COLLECTION BOX - BLUE BOX", "address": {"city": "ATHENS", "state": "GA", "street": "1911 EPPS BRIDGE PKWY", "postcode": "30606"}}},
{"geometry": {"type": "Point", "coordinates": [-83.4090344577, 33.9458524]}, "type": "Feature", "properties": {"collection_times": [{"days": "Mon-Fri", "time": "5:30pm"}, {"days": "Sat", "time": "3:30pm"}, {"days": "Sun", "time": "Closed"}], "id": "3060600069", "name": "USPS COLLECTION BOX - APC", "address": {"city": "ATHENS", "state": "GA", "street": "196 ALPS RD", "postcode": "30606"}}},
{"geometry": {"type": "Point", "coordinates": [-83.4218474045, 33.9446726821]}, "type": "Feature", "properties": {"collection_times": [{"days": "Mon-Fri", "time": "5:00pm"}, {"days": "Sat", "time": "3:30pm"}, {"days": "Sun", "time": "Closed"}], "id": "3060600072", "name": "USPS COLLECTION BOX - BLUE BOX", "address": {"city": "ATHENS", "state": "GA", "street": "196 ALPS RD", "postcode": "30606"}}},
{"geometry": {"type": "Point", "coordinates": [-83.2209621168, 33.9007030618]}, "type": "Feature", "properties": {"collection_times": [{"days": "Mon-Fri", "time": "4:30pm"}, {"days": "Sat", "time": "9:30am"}, {"days": "Sun", "time": "Closed"}], "id": "3061900001", "name": "USPS COLLECTION BOX - BLUE BOX", "address": {"city": "ARNOLDSVILLE", "state": "GA", "street": "162 YANCEY RD", "postcode": "30619"}}},
{"geometry": {"type": "Point", "coordinates": [-83.2209621168, 33.9007030618]}, "type": "Feature", "properties": {"collection_times": [{"days": "Mon-Fri", "time": "2:00pm"}, {"days": "Sat", "time": "9:30am"}, {"days": "Sun", "time": "Closed"}], "id": "3061900003", "name": "USPS COLLECTION BOX - PO LOBBY", "address": {"city": "ARNOLDSVILLE", "state": "GA", "street": "162 YANCEY RD", "postcode": "30619"}}},
{"geometry": {"type": "Point", "coordinates": [-83.714461897, 33.9270833105]}, "type": "Feature", "properties": {"collection_times": [{"days": "Mon-Sat", "time": "12:00pm"}, {"days": "Sun", "time": "Closed"}], "id": "3062000001", "name": "USPS COLLECTION BOX - BLUE BOX", "address": {"city": "BETHLEHEM", "state": "GA", "street": "820 CHRISTMAS AVE", "postcode": "30620"}}},
{"geometry": {"type": "Point", "coordinates": [-83.714461897, 33.9270833105]}, "type": "Feature", "properties": {"collection_times": [{"days": "Mon-Sat", "time": "12:00pm"}, {"days": "Sun", "time": "Closed"}], "id": "3062000002", "name": "USPS COLLECTION BOX - PO LOBBY", "address": {"city": "BETHLEHEM", "state": "GA", "street": "820 CHRISTMAS AVE", "postcode": "30620"}}},
{"geometry": {"type": "Point", "coordinates": [-83.4398367493, 33.8206317453]}, "type": "Feature", "properties": {"collection_times": [{"days": "Mon-Fri", "time": "4:00pm"}, {"days": "Sat", "time": "11:30am"}, {"days": "Sun", "time": "Closed"}], "id": "3062100001", "name": "USPS COLLECTION BOX - BLUE BOX", "address": {"city": "BISHOP", "state": "GA", "street": "4861 MACON HWY", "postcode": "30621"}}},
{"geometry": {"type": "Point", "coordinates": [-83.4398367493, 33.8206317453]}, "type": "Feature", "properties": {"collection_times": [{"days": "Mon-Fri", "time": "4:00pm"}, {"days": "Sat", "time": "11:30am"}, {"days": "Sun", "time": "Closed"}], "id": "3062100002", "name": "USPS COLLECTION BOX - PO LOBBY", "address": {"city": "BISHOP", "state": "GA", "street": "4861 MACON HWY", "postcode": "30621"}}},
{"geometry": {"type": "Point", "coordinates": [-83.5584881448, 33.946882133]}, "type": "Feature", "properties": {"collection_times": [{"days": "Mon-Fri", "time": "4:15pm"}, {"days": "Sat", "time": "11:15am"}, {"days": "Sun", "time": "Closed"}], "id": "3062200001", "name": "USPS COLLECTION BOX - BLUE BOX", "address": {"city": "BOGART", "state": "GA", "street": "1551 ATLANTA HWY", "postcode": "30622"}}},
{"geometry": {"type": "Point", "coordinates": [-83.5584881448, 33.946882133]}, "type": "Feature", "properties": {"collection_times": [{"days": "Mon-Fri", "time": "4:15pm"}, {"days": "Sat", "time": "11:15am"}, {"days": "Sun", "time": "Closed"}], "id": "3062200006", "name": "USPS COLLECTION BOX - PO LOBBY", "address": {"city": "BOGART", "state": "GA", "street": "1551 ATLANTA HWY", "postcode": "30622"}}},
{"geometry": {"type": "Point", "coordinates": [-83.5257130187, 33.7463121105]}, "type": "Feature", "properties": {"collection_times": [{"days": "Mon-Fri", "time": "4:15pm"}, {"days": "Sat", "time": "11:15am"}, {"days": "Sun", "time": "Closed"}], "id": "3062300001", "name": "USPS COLLECTION BOX - BLUE BOX", "address": {"city": "BOSTWICK", "state": "GA", "street": "5940 BOSTWICK RD", "postcode": "30623"}}},
{"geometry": {"type": "Point", "coordinates": [-83.5257130187, 33.7463121105]}, "type": "Feature", "properties": {"collection_times": [{"days": "Mon-Fri", "time": "1:00pm"}, {"days": "Sat", "time": "11:15am"}, {"days": "Sun", "time": "Closed"}], "id": "3062300002", "name": "USPS COLLECTION BOX - PO LOBBY", "address": {"city": "BOSTWICK", "state": "GA", "street": "5940 BOSTWICK RD", "postcode": "30623"}}},
{"geometry": {"type": "Point", "coordinates": [-83.0367360682, 34.2138650207]}, "type": "Feature", "properties": {"collection_times": [{"days": "Mon-Fri", "time": "4:30pm"}, {"days": "Sat", "time": "11:30am"}, {"days": "Sun", "time": "Closed"}], "id": "3062400002", "name": "USPS COLLECTION BOX - BLUE BOX", "address": {"city": "BOWMAN", "state": "GA", "street": "21 W CHURCH ST", "postcode": "30624"}}},
{"geometry": {"type": "Point", "coordinates": [-83.0367360682, 34.2138650207]}, "type": "Feature", "properties": {"collection_times": [{"days": "Mon-Fri", "time": "4:30pm"}, {"days": "Sat", "time": "11:30am"}, {"days": "Sun", "time": "Closed"}], "id": "3062400003", "name": "USPS COLLECTION BOX - PO LOBBY", "address": {"city": "BOWMAN", "state": "GA", "street": "21 W CHURCH ST", "postcode": "30624"}}},
{"geometry": {"type": "Point", "coordinates": [-83.3641993027, 33.5690769968]}, "type": "Feature", "properties": {"collection_times": [{"days": "Mon-Fri", "time": "3:45pm"}, {"days": "Sat", "time": "10:45am"}, {"days": "Sun", "time": "Closed"}], "id": "3062500001", "name": "USPS COLLECTION BOX - BLUE BOX", "address": {"city": "BUCKHEAD", "state": "GA", "street": "1010 RAILROAD ST", "postcode": "30625"}}},
{"geometry": {"type": "Point", "coordinates": [-83.0153713557, 34.058389348]}, "type": "Feature", "properties": {"collection_times": [{"days": "Mon-Fri", "time": "4:30pm"}, {"days": "Sat", "time": "8:30am"}, {"days": "Sun", "time": "Closed"}], "id": "3062700001", "name": "USPS COLLECTION BOX - BLUE BOX", "address": {"city": "CARLTON", "state": "GA", "street": "5751 HIGHWAY 72 E", "postcode": "30627"}}},
{"geometry": {"type": "Point", "coordinates": [-83.0153713557, 34.058389348]}, "type": "Feature", "properties": {"collection_times": [{"days": "Mon-Fri", "time": "12:00pm"}, {"days": "Sat", "time": "8:30am"}, {"days": "Sun", "time": "Closed"}], "id": "3062700002", "name": "USPS COLLECTION BOX - PO LOBBY", "address": {"city": "CARLTON", "state": "GA", "street": "5751 HIGHWAY 72 E", "postcode": "30627"}}},
{"geometry": {"type": "Point", "coordinates": [-83.213591015, 34.0410671066]}, "type": "Feature", "properties": {"collection_times": [{"days": "Mon-Fri", "time": "4:15pm"}, {"days": "Sat", "time": "11:45am"}, {"days": "Sun", "time": "Closed"}], "id": "3062800001", "name": "USPS COLLECTION BOX - BLUE BOX", "address": {"city": "COLBERT", "state": "GA", "street": "85 S 4TH ST", "postcode": "30628"}}},
{"geometry": {"type": "Point", "coordinates": [-83.213591015, 34.0410671066]}, "type": "Feature", "properties": {"collection_times": [{"days": "Mon-Fri", "time": "4:15pm"}, {"days": "Sat", "time": "11:45am"}, {"days": "Sun", "time": "Closed"}], "id": "3062800002", "name": "USPS COLLECTION BOX - PO LOBBY", "address": {"city": "COLBERT", "state": "GA", "street": "85 S 4TH ST", "postcode": "30628"}}},
{"geometry": {"type": "Point", "coordinates": [-83.1080778877, 34.0593383003]}, "type": "Feature", "properties": {"collection_times": [{"days": "Mon-Fri", "time": "4:30pm"}, {"days": "Sat", "time": "12:00pm"}, {"days": "Sun", "time": "Closed"}], "id": "3062900002", "name": "USPS COLLECTION BOX - PO LOBBY", "address": {"city": "COMER", "state": "GA", "street": "10 HIGHWAY 72 E", "postcode": "30629"}}},
{"geometry": {"type": "Point", "coordinates": [-83.1080778877, 34.0593383003]}, "type": "Feature", "properties": {"collection_times": [{"days": "Mon-Fri", "time": "4:30pm"}, {"days": "Sat", "time": "12:00pm"}, {"days": "Sun", "time": "Closed"}], "id": "3062900003", "name": "USPS COLLECTION BOX - BLUE BOX", "address": {"city": "COMER", "state": "GA", "street": "10 HIGHWAY 72 E", "postcode": "30629"}}},
{"geometry": {"type": "Point", "coordinates": [-83.1402582988, 33.8892803001]}, "type": "Feature", "properties": {"collection_times": [{"days": "Mon-Fri", "time": "4:30pm"}, {"days": "Sat", "time": "12:00pm"}, {"days": "Sun", "time": "Closed"}], "id": "3063000001", "name": "USPS COLLECTION BOX - BLUE BOX", "address": {"city": "CRAWFORD", "state": "GA", "street": "1089 ATHENS RD", "postcode": "30630"}}},
{"geometry": {"type": "Point", "coordinates": [-83.1402582988, 33.8892803001]}, "type": "Feature", "properties": {"collection_times": [{"days": "Mon-Fri", "time": "4:30pm"}, {"days": "Sat", "time": "12:00pm"}, {"days": "Sun", "time": "Closed"}], "id": "3063000002", "name": "USPS COLLECTION BOX - PO LOBBY", "address": {"city": "CRAWFORD", "state": "GA", "street": "1089 ATHENS RD", "postcode": "30630"}}},
{"geometry": {"type": "Point", "coordinates": [-82.8945918525, 33.5541687133]}, "type": "Feature", "properties": {"collection_times": [{"days": "Mon-Fri", "time": "4:00pm"}, {"days": "Sat", "time": "10:00am"}, {"days": "Sun", "time": "Closed"}], "id": "3063100001", "name": "USPS COLLECTION BOX - BLUE BOX", "address": {"city": "CRAWFORDVILLE", "state": "GA", "street": "139 BROAD ST NE", "postcode": "30631"}}},
{"geometry": {"type": "Point", "coordinates": [-82.8945918525, 33.5541687133]}, "type": "Feature", "properties": {"collection_times": [{"days": "Mon-Fri", "time": "3:30pm"}, {"days": "Sat", "time": "10:00am"}, {"days": "Sun", "time": "Closed"}], "id": "3063100002", "name": "USPS COLLECTION BOX - PO LOBBY", "address": {"city": "CRAWFORDVILLE", "state": "GA", "street": "139 BROAD ST NE", "postcode": "30631"}}},
{"geometry": {"type": "Point", "coordinates": [-83.217804388, 34.1292527194]}, "type": "Feature", "properties": {"collection_times": [{"days": "Mon-Fri", "time": "4:30pm"}, {"days": "Sat", "time": "12:00pm"}, {"days": "Sun", "time": "Closed"}], "id": "3063300001", "name": "USPS COLLECTION BOX - BLUE BOX", "address": {"city": "DANIELSVILLE", "state": "GA", "street": "44 GENERAL DANIEL AVE S", "postcode": "30633"}}},
{"geometry": {"type": "Point", "coordinates": [-83.217804388, 34.1292527194]}, "type": "Feature", "properties": {"collection_times": [{"days": "Mon-Fri", "time": "4:30pm"}, {"days": "Sat", "time": "11:45am"}, {"days": "Sun", "time": "Closed"}], "id": "3063300002", "name": "USPS COLLECTION BOX - PO LOBBY", "address": {"city": "DANIELSVILLE", "state": "GA", "street": "44 GENERAL DANIEL AVE S", "postcode": "30633"}}},
{"geometry": {"type": "Point", "coordinates": [-82.9767363276, 34.2471012858]}, "type": "Feature", "properties": {"collection_times": [{"days": "Mon-Fri", "time": "4:15pm"}, {"days": "Sat", "time": "9:00am"}, {"days": "Sun", "time": "Closed"}], "id": "3063400001", "name": "USPS COLLECTION BOX - BLUE BOX", "address": {"city": "DEWY ROSE", "state": "GA", "street": "2189 BOWMAN HWY NW", "postcode": "30634"}}},
{"geometry": {"type": "Point", "coordinates": [-82.9767363276, 34.2471012858]}, "type": "Feature", "properties": {"collection_times": [{"days": "Mon-Fri", "time": "12:30pm"}, {"days": "Sat", "time": "9:00am"}, {"days": "Sun", "time": "Closed"}], "id": "3063400002", "name": "USPS COLLECTION BOX - PO LOBBY", "address": {"city": "DEWY ROSE", "state": "GA", "street": "2189 BOWMAN HWY NW", "postcode": "30634"}}},
{"geometry": {"type": "Point", "coordinates": [-82.8633606773, 34.1084426978]}, "type": "Feature", "properties": {"collection_times": [{"days": "Mon-Fri", "time": "5:00pm"}, {"days": "Sat", "time": "12:00pm"}, {"days": "Sun", "time": "Closed"}], "id": "3063500001", "name": "USPS COLLECTION BOX - BLUE BOX", "address": {"city": "ELBERTON", "state": "GA", "street": "204 HEARD ST", "postcode": "30635"}}},
{"geometry": {"type": "Point", "coordinates": [-82.808143515, 34.1037881417]}, "type": "Feature", "properties": {"collection_times": [{"days": "Mon-Fri", "time": "3:30pm"}, {"days": "Sat", "time": "8:30am"}, {"days": "Sun", "time": "Closed"}], "id": "3063500002", "name": "USPS COLLECTION BOX - BLUE BOX", "address": {"city": "ELBERTON", "state": "GA", "street": "1 N PUBLIC SQ", "postcode": "30635"}}},
{"geometry": {"type": "Point", "coordinates": [-82.8718518881, 34.1114959054]}, "type": "Feature", "properties": {"collection_times": [{"days": "Mon-Fri", "time": "3:30pm"}, {"days": "Sat", "time": "8:30am"}, {"days": "Sun", "time": "Closed"}], "id": "3063500006", "name": "USPS COLLECTION BOX - BLUE BOX", "address": {"city": "ELBERTON", "state": "GA", "street": "45 FOREST AVE", "postcode": "30635"}}},
{"geometry": {"type": "Point", "coordinates": [-82.8633606773, 34.1084426978]}, "type": "Feature", "properties": {"collection_times": [{"days": "Mon-Fri", "time": "5:00pm"}, {"days": "Sat", "time": "12:00pm"}, {"days": "Sun", "time": "Closed"}], "id": "3063500010", "name": "USPS COLLECTION BOX - BLUE BOX", "address": {"city": "ELBERTON", "state": "GA", "street": "204 HEARD ST", "postcode": "30635"}}},
{"geometry": {"type": "Point", "coordinates": [-82.857629739, 34.1077589238]}, "type": "Feature", "properties": {"collection_times": [{"days": "Mon-Sat", "time": "8:30am"}, {"days": "Sun", "time": "Closed"}], "id": "3063500012", "name": "USPS COLLECTION BOX - BLUE BOX", "address": {"city": "ELBERTON", "state": "GA", "street": "884 ELBERT ST", "postcode": "30635"}}},
{"geometry": {"type": "Point", "coordinates": [-82.8633606773, 34.1084426978]}, "type": "Feature", "properties": {"collection_times": [{"days": "Mon-Fri", "time": "5:00pm"}, {"days": "Sat", "time": "12:00pm"}, {"days": "Sun", "time": "Closed"}], "id": "3063500023", "name": "USPS COLLECTION BOX - PO LOBBY", "address": {"city": "ELBERTON", "state": "GA", "street": "204 HEARD ST", "postcode": "30635"}}},
{"geometry": {"type": "Point", "coordinates": [-83.4229313977, 33.7711099103]}, "type": "Feature", "properties": {"collection_times": [{"days": "Mon-Fri", "time": "4:00pm"}, {"days": "Sat", "time": "8:30am"}, {"days": "Sun", "time": "Closed"}], "id": "3063800001", "name": "USPS COLLECTION BOX - BLUE BOX", "address": {"city": "FARMINGTON", "state": "GA", "street": "1011 SALEM RD", "postcode": "30638"}}},
{"geometry": {"type": "Point", "coordinates": [-83.4229313977, 33.7711099103]}, "type": "Feature", "properties": {"collection_times": [{"days": "Mon-Fri", "time": "1:00pm"}, {"days": "Sat", "time": "8:30am"}, {"days": "Sun", "time": "Closed"}], "id": "3063800002", "name": "USPS COLLECTION BOX - PO LOBBY", "address": {"city": "FARMINGTON", "state": "GA", "street": "1011 SALEM RD", "postcode": "30638"}}},
{"geometry": {"type": "Point", "coordinates": [-83.1593899858, 34.2860023988]}, "type": "Feature", "properties": {"collection_times": [{"days": "Mon-Fri", "time": "4:45pm"}, {"days": "Sat", "time": "12:00pm"}, {"days": "Sun", "time": "Closed"}], "id": "3063900001", "name": "USPS COLLECTION BOX - BLUE BOX", "address": {"city": "FRANKLIN SPRINGS", "state": "GA", "street": "310 W MAIN ST", "postcode": "30639"}}},
{"geometry": {"type": "Point", "coordinates": [-83.620484026, 33.780150618]}, "type": "Feature", "properties": {"collection_times": [{"days": "Mon-Fri", "time": "4:00pm"}, {"days": "Sat", "time": "9:30am"}, {"days": "Sun", "time": "Closed"}], "id": "3064100001", "name": "USPS COLLECTION BOX - PO LOBBY", "address": {"city": "GOOD HOPE", "state": "GA", "street": "110 PLEASANT VALLEY RD", "postcode": "30641"}}},
{"geometry": {"type": "Point", "coordinates": [-83.1811209996, 33.5758664879]}, "type": "Feature", "properties": {"collection_times": [{"days": "Mon-Fri", "time": "12:00pm"}, {"days": "Sat", "time": "11:00am"}, {"days": "Sun", "time": "Closed"}], "id": "3064200002", "name": "USPS COLLECTION BOX - BLUE BOX", "address": {"city": "GREENSBORO", "state": "GA", "street": "104 N EAST ST", "postcode": "30642"}}},
{"geometry": {"type": "Point", "coordinates": [-83.1827477034, 33.5749489478]}, "type": "Feature", "properties": {"collection_times": [{"days": "Mon-Fri", "time": "4:00pm"}, {"days": "Sat", "time": "1:00pm"}, {"days": "Sun", "time": "Closed"}], "id": "3064200005", "name": "USPS COLLECTION BOX - PO LOBBY", "address": {"city": "GREENSBORO", "state": "GA", "street": "115 S MAIN ST", "postcode": "30642"}}},
{"geometry": {"type": "Point", "coordinates": [-83.1917284734, 33.5491207768]}, "type": "Feature", "properties": {"collection_times": [{"days": "Mon-Fri", "time": "12:00pm"}, {"days": "Sat", "time": "11:00am"}, {"days": "Sun", "time": "Closed"}], "id": "3064200006", "name": "USPS COLLECTION BOX - BLUE BOX", "address": {"city": "GREENSBORO", "state": "GA", "street": "1110 PARK DR", "postcode": "30642"}}},
{"geometry": {"type": "Point", "coordinates": [-83.1917284734, 33.5491207768]}, "type": "Feature", "properties": {"collection_times": [{"days": "Mon-Fri", "time": "12:00pm"}, {"days": "Sat", "time": "11:00am"}, {"days": "Sun", "time": "Closed"}], "id": "3064200007", "name": "USPS COLLECTION BOX - BLUE BOX", "address": {"city": "GREENSBORO", "state": "GA", "street": "1020 BROWNS FORD RD", "postcode": "30642"}}},
{"geometry": {"type": "Point", "coordinates": [-83.2444423071, 33.4683704534]}, "type": "Feature", "properties": {"collection_times": [{"days": "Mon-Fri", "time": "12:00pm"}, {"days": "Sat", "time": "11:00am"}, {"days": "Sun", "time": "Closed"}], "id": "3064200008", "name": "USPS COLLECTION BOX - BLUE BOX", "address": {"city": "GREENSBORO", "state": "GA", "street": "1060 SALEM WALK DR", "postcode": "30642"}}},
{"geometry": {"type": "Point", "coordinates": [-82.9327136278, 34.3535940774]}, "type": "Feature", "properties": {"collection_times": [{"days": "Mon-Fri", "time": "4:30pm"}, {"days": "Sat", "time": "3:30pm"}, {"days": "Sun", "time": "Closed"}], "id": "3064300018", "name": "USPS COLLECTION BOX - PO LOBBY", "address": {"city": "HARTWELL", "state": "GA", "street": "184 W FRANKLIN ST", "postcode": "30643"}}},
{"geometry": {"type": "Point", "coordinates": [-82.9327136278, 34.3535940774]}, "type": "Feature", "properties": {"collection_times": [{"days": "Mon-Fri", "time": "5:00pm"}, {"days": "Sat", "time": "3:30pm"}, {"days": "Sun", "time": "Closed"}], "id": "3064300024", "name": "USPS COLLECTION BOX - BLUE BOX", "address": {"city": "HARTWELL", "state": "GA", "street": "184 W FRANKLIN ST", "postcode": "30643"}}},
{"geometry": {"type": "Point", "coordinates": [-83.5053170375, 33.8188980141]}, "type": "Feature", "properties": {"collection_times": [{"days": "Mon-Fri", "time": "12:00pm"}, {"days": "Sat", "time": "9:00am"}, {"days": "Sun", "time": "Closed"}], "id": "3064500002", "name": "USPS COLLECTION BOX - PO LOBBY", "address": {"city": "HIGH SHOALS", "state": "GA", "street": "103 JEFFERSON RD", "postcode": "30645"}}},
{"geometry": {"type": "Point", "coordinates": [-83.5053170375, 33.8188980141]}, "type": "Feature", "properties": {"collection_times": [{"days": "Mon-Fri", "time": "4:00pm"}, {"days": "Sat", "time": "9:00am"}, {"days": "Sun", "time": "Closed"}], "id": "3064500003", "name": "USPS COLLECTION BOX - BLUE BOX", "address": {"city": "HIGH SHOALS", "state": "GA", "street": "103 JEFFERSON RD", "postcode": "30645"}}},
{"geometry": {"type": "Point", "coordinates": [-83.294167267, 34.0148724321]}, "type": "Feature", "properties": {"collection_times": [{"days": "Mon-Fri", "time": "4:30pm"}, {"days": "Sat", "time": "11:30am"}, {"days": "Sun", "time": "Closed"}], "id": "3064600002", "name": "USPS COLLECTION BOX - BLUE BOX", "address": {"city": "HULL", "state": "GA", "street": "10310 HIGHWAY 72 W", "postcode": "30646"}}},
{"geometry": {"type": "Point", "coordinates": [-83.3151186493, 34.0326091389]}, "type": "Feature", "properties": {"collection_times": [{"days": "Mon-Fri", "time": "10:00am"}, {"days": "Sat-Sun", "time": "Closed"}], "id": "3064600003", "name": "USPS COLLECTION BOX - BLUE BOX", "address": {"city": "HULL", "state": "GA", "street": "9151 HIGHWAY 29 S", "postcode": "30646"}}},
{"geometry": {"type": "Point", "coordinates": [-83.294167267, 34.0148724321]}, "type": "Feature", "properties": {"collection_times": [{"days": "Mon-Fri", "time": "4:30pm"}, {"days": "Sat", "time": "11:30am"}, {"days": "Sun", "time": "Closed"}], "id": "3064600004", "name": "USPS COLLECTION BOX - PO LOBBY", "address": {"city": "HULL", "state": "GA", "street": "10310 HIGHWAY 72 W", "postcode": "30646"}}},
{"geometry": {"type": "Point", "coordinates": [-83.2920428572, 34.1728640262]}, "type": "Feature", "properties": {"collection_times": [{"days": "Mon-Fri", "time": "4:15pm"}, {"days": "Sat", "time": "11:15am"}, {"days": "Sun", "time": "Closed"}], "id": "3064700001", "name": "USPS COLLECTION BOX - BLUE BOX", "address": {"city": "ILA", "state": "GA", "street": "61 N MAIN ST HWY 106", "postcode": "30647"}}},
{"geometry": {"type": "Point", "coordinates": [-83.2920428572, 34.1728640262]}, "type": "Feature", "properties": {"collection_times": [{"days": "Mon-Fri", "time": "4:15pm"}, {"days": "Sat", "time": "11:15am"}, {"days": "Sun", "time": "Closed"}], "id": "3064700002", "name": "USPS COLLECTION BOX - PO LOBBY", "address": {"city": "ILA", "state": "GA", "street": "61 N MAIN ST HWY 106", "postcode": "30647"}}},
{"geometry": {"type": "Point", "coordinates": [-83.1118214103, 33.8690315209]}, "type": "Feature", "properties": {"collection_times": [{"days": "Mon-Fri", "time": "4:30pm"}, {"days": "Sat", "time": "12:00pm"}, {"days": "Sun", "time": "Closed"}], "id": "3064800001", "name": "USPS COLLECTION BOX - BLUE BOX", "address": {"city": "LEXINGTON", "state": "GA", "street": "118 BOGGS ST", "postcode": "30648"}}},
{"geometry": {"type": "Point", "coordinates": [-83.1118214103, 33.8690315209]}, "type": "Feature", "properties": {"collection_times": [{"days": "Mon-Fri", "time": "4:30pm"}, {"days": "Sat", "time": "12:00pm"}, {"days": "Sun", "time": "Closed"}], "id": "3064800002", "name": "USPS COLLECTION BOX - PO LOBBY", "address": {"city": "LEXINGTON", "state": "GA", "street": "118 BOGGS ST", "postcode": "30648"}}},
{"geometry": {"type": "Point", "coordinates": [-83.4681060724, 33.5944407643]}, "type": "Feature", "properties": {"collection_times": [{"days": "Mon-Fri", "time": "5:00pm"}, {"days": "Sat", "time": "3:00pm"}, {"days": "Sun", "time": "Closed"}], "id": "3065000001", "name": "USPS COLLECTION BOX - BLUE BOX", "address": {"city": "MADISON", "state": "GA", "street": "310 HANCOCK ST", "postcode": "30650"}}},
{"geometry": {"type": "Point", "coordinates": [-83.4681060724, 33.5944407643]}, "type": "Feature", "properties": {"collection_times": [{"days": "Mon-Fri", "time": "5:00pm"}, {"days": "Sat", "time": "3:00pm"}, {"days": "Sun", "time": "Closed"}], "id": "3065000002", "name": "USPS COLLECTION BOX - BLUE BOX", "address": {"city": "MADISON", "state": "GA", "street": "310 HANCOCK ST", "postcode": "30650"}}},
{"geometry": {"type": "Point", "coordinates": [-83.478411042, 33.5642281072]}, "type": "Feature", "properties": {"collection_times": [{"days": "Mon-Sat", "time": "12:00pm"}, {"days": "Sun", "time": "Closed"}], "id": "3065000005", "name": "USPS COLLECTION BOX - BLUE BOX", "address": {"city": "MADISON", "state": "GA", "street": "1502 EATONTON RD", "postcode": "30650"}}},
{"geometry": {"type": "Point", "coordinates": [-83.4681060724, 33.5944407643]}, "type": "Feature", "properties": {"collection_times": [{"days": "Mon-Fri", "time": "5:00pm"}, {"days": "Sat", "time": "3:00pm"}, {"days": "Sun", "time": "Closed"}], "id": "3065000006", "name": "USPS COLLECTION BOX - BLUE BOX", "address": {"city": "MADISON", "state": "GA", "street": "310 HANCOCK ST", "postcode": "30650"}}},
{"geometry": {"type": "Point", "coordinates": [-83.4681861176, 33.5953790303]}, "type": "Feature", "properties": {"collection_times": [{"days": "Mon-Fri", "time": "5:00pm"}, {"days": "Sat", "time": "3:00pm"}, {"days": "Sun", "time": "Closed"}], "id": "3065000008", "name": "USPS COLLECTION BOX - PO LOBBY", "address": {"city": "MADISON", "state": "GA", "street": "120 S MAIN ST", "postcode": "30650"}}},
{"geometry": {"type": "Point", "coordinates": [-83.7104252317, 33.7938117546]}, "type": "Feature", "properties": {"collection_times": [{"days": "Mon-Fri", "time": "5:00pm"}, {"days": "Sat", "time": "3:45pm"}, {"days": "Sun", "time": "Closed"}], "id": "3065500007", "name": "USPS COLLECTION BOX - BLUE BOX", "address": {"city": "MONROE", "state": "GA", "street": "302 E WASHINGTON ST", "postcode": "30655"}}},
{"geometry": {"type": "Point", "coordinates": [-83.7104252317, 33.7938117546]}, "type": "Feature", "properties": {"collection_times": [{"days": "Mon-Fri", "time": "5:00pm"}, {"days": "Sat", "time": "3:45pm"}, {"days": "Sun", "time": "Closed"}], "id": "3065500008", "name": "USPS COLLECTION BOX - BLUE BOX", "address": {"city": "MONROE", "state": "GA", "street": "302 E WASHINGTON ST", "postcode": "30655"}}},
{"geometry": {"type": "Point", "coordinates": [-83.7104252317, 33.7938117546]}, "type": "Feature", "properties": {"collection_times": [{"days": "Mon-Fri", "time": "5:00pm"}, {"days": "Sat", "time": "3:45pm"}, {"days": "Sun", "time": "Closed"}], "id": "3065500021", "name": "USPS COLLECTION BOX - PO LOBBY", "address": {"city": "MONROE", "state": "GA", "street": "302 E WASHINGTON ST", "postcode": "30655"}}},
{"geometry": {"type": "Point", "coordinates": [-83.74338588, 33.7942561819]}, "type": "Feature", "properties": {"collection_times": [{"days": "Mon-Sat", "time": "2:30pm"}, {"days": "Sun", "time": "Closed"}], "id": "3065500022", "name": "USPS COLLECTION BOX - BLUE BOX", "address": {"city": "MONROE", "state": "GA", "street": "150 HIGHWAY 138 NW", "postcode": "30655"}}},
{"geometry": {"type": "Point", "coordinates": [-82.8825529225, 33.7884244316]}, "type": "Feature", "properties": {"collection_times": [{"days": "Mon-Fri", "time": "4:00pm"}, {"days": "Sat", "time": "9:00am"}, {"days": "Sun", "time": "Closed"}], "id": "3066000001", "name": "USPS COLLECTION BOX - BLUE BOX", "address": {"city": "RAYLE", "state": "GA", "street": "5008 LEXINGTON RD", "postcode": "30660"}}},
{"geometry": {"type": "Point", "coordinates": [-82.8825529225, 33.7884244316]}, "type": "Feature", "properties": {"collection_times": [{"days": "Mon-Fri", "time": "12:00pm"}, {"days": "Sat", "time": "9:00am"}, {"days": "Sun", "time": "Closed"}], "id": "3066000002", "name": "USPS COLLECTION BOX - PO LOBBY", "address": {"city": "RAYLE", "state": "GA", "street": "5008 LEXINGTON RD", "postcode": "30660"}}},
{"geometry": {"type": "Point", "coordinates": [-83.1105267996, 34.2796574664]}, "type": "Feature", "properties": {"collection_times": [{"days": "Mon-Fri", "time": "5:00pm"}, {"days": "Sat", "time": "2:30pm"}, {"days": "Sun", "time": "Closed"}], "id": "3066200007", "name": "USPS COLLECTION BOX - BLUE BOX", "address": {"city": "ROYSTON", "state": "GA", "street": "804 CHURCH ST", "postcode": "30662"}}},
{"geometry": {"type": "Point", "coordinates": [-83.1105267996, 34.2796574664]}, "type": "Feature", "properties": {"collection_times": [{"days": "Mon-Fri", "time": "4:45pm"}, {"days": "Sat", "time": "2:30pm"}, {"days": "Sun", "time": "Closed"}], "id": "3066200009", "name": "USPS COLLECTION BOX - PO LOBBY", "address": {"city": "ROYSTON", "state": "GA", "street": "804 CHURCH ST", "postcode": "30662"}}},
{"geometry": {"type": "Point", "coordinates": [-83.6118060881, 33.6249512263]}, "type": "Feature", "properties": {"collection_times": [{"days": "Mon-Fri", "time": "4:30pm"}, {"days": "Sat", "time": "11:30am"}, {"days": "Sun", "time": "Closed"}], "id": "3066300001", "name": "USPS COLLECTION BOX - BLUE BOX", "address": {"city": "RUTLEDGE", "state": "GA", "street": "131 NEWBORN RD", "postcode": "30663"}}},
{"geometry": {"type": "Point", "coordinates": [-83.6118060881, 33.6249512263]}, "type": "Feature", "properties": {"collection_times": [{"days": "Mon-Fri", "time": "4:30pm"}, {"days": "Sat", "time": "11:30am"}, {"days": "Sun", "time": "Closed"}], "id": "3066300002", "name": "USPS COLLECTION BOX - PO LOBBY", "address": {"city": "RUTLEDGE", "state": "GA", "street": "131 NEWBORN RD", "postcode": "30663"}}},
{"geometry": {"type": "Point", "coordinates": [-82.79428957, 33.5601439944]}, "type": "Feature", "properties": {"collection_times": [{"days": "Mon-Fri", "time": "11:00am"}, {"days": "Sat", "time": "9:00am"}, {"days": "Sun", "time": "Closed"}], "id": "3066400001", "name": "USPS COLLECTION BOX - PO LOBBY", "address": {"city": "SHARON", "state": "GA", "street": "116 RAYTOWN RD NE", "postcode": "30664"}}},
{"geometry": {"type": "Point", "coordinates": [-82.79428957, 33.5601439944]}, "type": "Feature", "properties": {"collection_times": [{"days": "Mon-Fri", "time": "4:00pm"}, {"days": "Sat", "time": "9:00am"}, {"days": "Sun", "time": "Closed"}], "id": "3066400002", "name": "USPS COLLECTION BOX - BLUE BOX", "address": {"city": "SHARON", "state": "GA", "street": "116 RAYTOWN RD NE", "postcode": "30664"}}},
{"geometry": {"type": "Point", "coordinates": [-83.0808930346, 33.5364388497]}, "type": "Feature", "properties": {"collection_times": [{"days": "Mon-Fri", "time": "4:15pm"}, {"days": "Sat", "time": "9:30am"}, {"days": "Sun", "time": "Closed"}], "id": "3066500001", "name": "USPS COLLECTION BOX - BLUE BOX", "address": {"city": "SILOAM", "state": "GA", "street": "4490 HIGHWAY 15 S", "postcode": "30665"}}},
{"geometry": {"type": "Point", "coordinates": [-83.5956147344, 33.9642294804]}, "type": "Feature", "properties": {"collection_times": [{"days": "Mon-Fri", "time": "4:30pm"}, {"days": "Sat", "time": "12:00pm"}, {"days": "Sun", "time": "Closed"}], "id": "3066600002", "name": "USPS COLLECTION BOX - BLUE BOX", "address": {"city": "STATHAM", "state": "GA", "street": "1972 RAILROAD ST", "postcode": "30666"}}},
{"geometry": {"type": "Point", "coordinates": [-83.5956147344, 33.9642294804]}, "type": "Feature", "properties": {"collection_times": [{"days": "Mon-Fri", "time": "4:30pm"}, {"days": "Sat", "time": "12:00pm"}, {"days": "Sun", "time": "Closed"}], "id": "3066600004", "name": "USPS COLLECTION BOX - PO LOBBY", "address": {"city": "STATHAM", "state": "GA", "street": "1972 RAILROAD ST", "postcode": "30666"}}},
{"geometry": {"type": "Point", "coordinates": [-83.1706553901, 33.7720192127]}, "type": "Feature", "properties": {"collection_times": [{"days": "Mon-Fri", "time": "4:30pm"}, {"days": "Sat", "time": "9:00am"}, {"days": "Sun", "time": "Closed"}], "id": "3066700001", "name": "USPS COLLECTION BOX - BLUE BOX", "address": {"city": "STEPHENS", "state": "GA", "street": "187 RAILROAD RD", "postcode": "30667"}}},
{"geometry": {"type": "Point", "coordinates": [-83.1706553901, 33.7720192127]}, "type": "Feature", "properties": {"collection_times": [{"days": "Mon-Fri", "time": "1:00pm"}, {"days": "Sat-Sun", "time": "Closed"}], "id": "3066700002", "name": "USPS COLLECTION BOX - PO LOBBY", "address": {"city": "STEPHENS", "state": "GA", "street": "187 RAILROAD RD", "postcode": "30667"}}},
{"geometry": {"type": "Point", "coordinates": [-82.7412543536, 33.8671248065]}, "type": "Feature", "properties": {"collection_times": [{"days": "Mon-Fri", "time": "3:45pm"}, {"days": "Sat", "time": "9:30am"}, {"days": "Sun", "time": "Closed"}], "id": "3066800001", "name": "USPS COLLECTION BOX - BLUE BOX", "address": {"city": "TIGNALL", "state": "GA", "street": "128 S HULIN AVE", "postcode": "30668"}}},
{"geometry": {"type": "Point", "coordinates": [-82.7412543536, 33.8671248065]}, "type": "Feature", "properties": {"collection_times": [{"days": "Mon-Fri", "time": "3:45pm"}, {"days": "Sat", "time": "9:30am"}, {"days": "Sun", "time": "Closed"}], "id": "3066800002", "name": "USPS COLLECTION BOX - PO LOBBY", "address": {"city": "TIGNALL", "state": "GA", "street": "128 S HULIN AVE", "postcode": "30668"}}},
{"geometry": {"type": "Point", "coordinates": [-83.0762009484, 33.6143360917]}, "type": "Feature", "properties": {"collection_times": [{"days": "Mon-Fri", "time": "5:00pm"}, {"days": "Sat", "time": "12:00pm"}, {"days": "Sun", "time": "Closed"}], "id": "3066900001", "name": "USPS COLLECTION BOX - BLUE BOX", "address": {"city": "UNION POINT", "state": "GA", "street": "103 FLUKER ST", "postcode": "30669"}}},
{"geometry": {"type": "Point", "coordinates": [-83.0762009484, 33.6143360917]}, "type": "Feature", "properties": {"collection_times": [{"days": "Mon-Fri", "time": "5:00pm"}, {"days": "Sat", "time": "12:00pm"}, {"days": "Sun", "time": "Closed"}], "id": "3066900002", "name": "USPS COLLECTION BOX - PO LOBBY", "address": {"city": "UNION POINT", "state": "GA", "street": "103 FLUKER ST", "postcode": "30669"}}},
{"geometry": {"type": "Point", "coordinates": [-82.7387945632, 33.7378373846]}, "type": "Feature", "properties": {"collection_times": [{"days": "Mon-Fri", "time": "5:00pm"}, {"days": "Sat", "time": "1:00pm"}, {"days": "Sun", "time": "Closed"}], "id": "3067300012", "name": "USPS COLLECTION BOX - BLUE BOX", "address": {"city": "WASHINGTON", "state": "GA", "street": "215 E COURT ST", "postcode": "30673"}}},
{"geometry": {"type": "Point", "coordinates": [-82.7387945632, 33.7378373846]}, "type": "Feature", "properties": {"collection_times": [{"days": "Mon-Fri", "time": "4:30pm"}, {"days": "Sat", "time": "1:00pm"}, {"days": "Sun", "time": "Closed"}], "id": "3067300015", "name": "USPS COLLECTION BOX - PO LOBBY", "address": {"city": "WASHINGTON", "state": "GA", "street": "215 E COURT ST", "postcode": "30673"}}},
{"geometry": {"type": "Point", "coordinates": [-83.4274934073, 33.887166936]}, "type": "Feature", "properties": {"collection_times": [{"days": "Mon-Fri", "time": "2:30pm"}, {"days": "Sat-Sun", "time": "Closed"}], "id": "3067700004", "name": "USPS COLLECTION BOX - BLUE BOX", "address": {"city": "WATKINSVILLE", "state": "GA", "street": "2061 HOG MOUNTAIN RD", "postcode": "30677"}}},
{"geometry": {"type": "Point", "coordinates": [-83.4136593459, 33.8664471592]}, "type": "Feature", "properties": {"collection_times": [{"days": "Mon-Fri", "time": "5:00pm"}, {"days": "Sat", "time": "3:30pm"}, {"days": "Sun", "time": "Closed"}], "id": "3067700005", "name": "USPS COLLECTION BOX - BLUE BOX", "address": {"city": "WATKINSVILLE", "state": "GA", "street": "1090 EXPERIMENT STATION RD", "postcode": "30677"}}},
{"geometry": {"type": "Point", "coordinates": [-83.4136593459, 33.8664471592]}, "type": "Feature", "properties": {"collection_times": [{"days": "Mon-Fri", "time": "5:00pm"}, {"days": "Sat", "time": "3:30pm"}, {"days": "Sun", "time": "Closed"}], "id": "3067700006", "name": "USPS COLLECTION BOX - BLUE BOX", "address": {"city": "WATKINSVILLE", "state": "GA", "street": "1090 EXPERIMENT STATION RD", "postcode": "30677"}}},
{"geometry": {"type": "Point", "coordinates": [-83.4091907035, 33.854568859]}, "type": "Feature", "properties": {"collection_times": [{"days": "Mon-Fri", "time": "2:30pm"}, {"days": "Sat-Sun", "time": "Closed"}], "id": "3067700008", "name": "USPS COLLECTION BOX - BLUE BOX", "address": {"city": "WATKINSVILLE", "state": "GA", "street": "7982 MACON HWY", "postcode": "30677"}}},
{"geometry": {"type": "Point", "coordinates": [-83.4397951507, 33.8726323467]}, "type": "Feature", "properties": {"collection_times": [{"days": "Mon-Fri", "time": "2:30pm"}, {"days": "Sat-Sun", "time": "Closed"}], "id": "3067700011", "name": "USPS COLLECTION BOX - BLUE BOX", "address": {"city": "WATKINSVILLE", "state": "GA", "street": "2061 EXPERIMENT STATION RD", "postcode": "30677"}}},
{"geometry": {"type": "Point", "coordinates": [-83.4001679606, 33.8583245504]}, "type": "Feature", "properties": {"collection_times": [{"days": "Mon-Fri", "time": "2:30pm"}, {"days": "Sat-Sun", "time": "Closed"}], "id": "3067700012", "name": "USPS COLLECTION BOX - BLUE BOX", "address": {"city": "WATKINSVILLE", "state": "GA", "street": "1050 INDUSTRIAL BLVD", "postcode": "30677"}}},
{"geometry": {"type": "Point", "coordinates": [-83.4086573072, 33.8626497706]}, "type": "Feature", "properties": {"collection_times": [{"days": "Mon-Fri", "time": "2:30pm"}, {"days": "Sat-Sun", "time": "Closed"}], "id": "3067700013", "name": "USPS COLLECTION BOX - BLUE BOX", "address": {"city": "WATKINSVILLE", "state": "GA", "street": "23 N MAIN ST", "postcode": "30677"}}},
{"geometry": {"type": "Point", "coordinates": [-83.4988743425, 33.9145000257]}, "type": "Feature", "properties": {"collection_times": [{"days": "Mon-Sat", "time": "10:30am"}, {"days": "Sun", "time": "Closed"}], "id": "3067700015", "name": "USPS COLLECTION BOX - BLUE BOX", "address": {"city": "WATKINSVILLE", "state": "GA", "street": "3651 MARS HILL RD", "postcode": "30677"}}},
{"geometry": {"type": "Point", "coordinates": [-83.4136593459, 33.8664471592]}, "type": "Feature", "properties": {"collection_times": [{"days": "Mon-Fri", "time": "5:00pm"}, {"days": "Sat", "time": "3:30pm"}, {"days": "Sun", "time": "Closed"}], "id": "3067700016", "name": "USPS COLLECTION BOX - PO LOBBY", "address": {"city": "WATKINSVILLE", "state": "GA", "street": "1090 EXPERIMENT STATION RD", "postcode": "30677"}}},
{"geometry": {"type": "Point", "coordinates": [-83.421538909, 33.850041001]}, "type": "Feature", "properties": {"collection_times": [{"days": "Mon-Sat", "time": "10:00am"}, {"days": "Sun", "time": "Closed"}], "id": "3067700018", "name": "USPS COLLECTION BOX - BLUE BOX", "address": {"city": "WATKINSVILLE", "state": "GA", "street": "1351 JENNINGS MILL RD", "postcode": "30677"}}},
{"geometry": {"type": "Point", "coordinates": [-83.421538909, 33.850041001]}, "type": "Feature", "properties": {"collection_times": [{"days": "Mon-Sat", "time": "10:00am"}, {"days": "Sun", "time": "Closed"}], "id": "3067700019", "name": "USPS COLLECTION BOX - BLUE BOX", "address": {"city": "WATKINSVILLE", "state": "GA", "street": "1551 JENNINGS MILL RD", "postcode": "30677"}}},
{"geometry": {"type": "Point", "coordinates": [-83.0371120978, 33.496024436]}, "type": "Feature", "properties": {"collection_times": [{"days": "Mon-Fri", "time": "4:00pm"}, {"days": "Sat", "time": "10:00am"}, {"days": "Sun", "time": "Closed"}], "id": "3067800001", "name": "USPS COLLECTION BOX - BLUE BOX", "address": {"city": "WHITE PLAINS", "state": "GA", "street": "7501 HIGHWAY 15 S", "postcode": "30678"}}},
{"geometry": {"type": "Point", "coordinates": [-83.0371120978, 33.496024436]}, "type": "Feature", "properties": {"collection_times": [{"days": "Mon-Fri", "time": "4:00pm"}, {"days": "Sat", "time": "10:00am"}, {"days": "Sun", "time": "Closed"}], "id": "3067800002", "name": "USPS COLLECTION BOX - PO LOBBY", "address": {"city": "WHITE PLAINS", "state": "GA", "street": "7501 HIGHWAY 15 S", "postcode": "30678"}}},
{"geometry": {"type": "Point", "coordinates": [-83.7200566845, 33.9928040293]}, "type": "Feature", "properties": {"collection_times": [{"days": "Mon-Fri", "time": "5:00pm"}, {"days": "Sat", "time": "3:45pm"}, {"days": "Sun", "time": "Closed"}], "id": "3068000002", "name": "USPS COLLECTION BOX - BLUE BOX", "address": {"city": "WINDER", "state": "GA", "street": "101 N BROAD ST", "postcode": "30680"}}},
{"geometry": {"type": "Point", "coordinates": [-83.7200566845, 33.9928040293]}, "type": "Feature", "properties": {"collection_times": [{"days": "Mon-Fri", "time": "5:00pm"}, {"days": "Sat", "time": "3:45pm"}, {"days": "Sun", "time": "Closed"}], "id": "3068000003", "name": "USPS COLLECTION BOX - BLUE BOX", "address": {"city": "WINDER", "state": "GA", "street": "101 N BROAD ST", "postcode": "30680"}}},
{"geometry": {"type": "Point", "coordinates": [-83.7343555949, 33.995600059]}, "type": "Feature", "properties": {"collection_times": [{"days": "Mon-Sat", "time": "1:00pm"}, {"days": "Sun", "time": "Closed"}], "id": "3068000005", "name": "USPS COLLECTION BOX - BLUE BOX", "address": {"city": "WINDER", "state": "GA", "street": "189 W ATHENS ST", "postcode": "30680"}}},
{"geometry": {"type": "Point", "coordinates": [-83.721506094, 33.9981197312]}, "type": "Feature", "properties": {"collection_times": [{"days": "Mon-Sat", "time": "1:00pm"}, {"days": "Sun", "time": "Closed"}], "id": "3068000009", "name": "USPS COLLECTION BOX - BLUE BOX", "address": {"city": "WINDER", "state": "GA", "street": "96 W MIDLAND AVE", "postcode": "30680"}}},
{"geometry": {"type": "Point", "coordinates": [-83.7096053627, 33.9981800927]}, "type": "Feature", "properties": {"collection_times": [{"days": "Mon-Sat", "time": "1:00pm"}, {"days": "Sun", "time": "Closed"}], "id": "3068000010", "name": "USPS COLLECTION BOX - BLUE BOX", "address": {"city": "WINDER", "state": "GA", "street": "233 E BROAD ST", "postcode": "30680"}}},
{"geometry": {"type": "Point", "coordinates": [-83.7209258769, 33.9894802843]}, "type": "Feature", "properties": {"collection_times": [{"days": "Mon-Sat", "time": "10:00am"}, {"days": "Sun", "time": "Closed"}], "id": "3068000014", "name": "USPS COLLECTION BOX - BLUE BOX", "address": {"city": "WINDER", "state": "GA", "street": "39 E MAY ST", "postcode": "30680"}}},
{"geometry": {"type": "Point", "coordinates": [-83.712364499, 33.980306224]}, "type": "Feature", "properties": {"collection_times": [{"days": "Mon-Sat", "time": "10:00am"}, {"days": "Sun", "time": "Closed"}], "id": "3068000015", "name": "USPS COLLECTION BOX - BLUE BOX", "address": {"city": "WINDER", "state": "GA", "street": "17 MONROE HWY", "postcode": "30680"}}},
{"geometry": {"type": "Point", "coordinates": [-83.7200566845, 33.9928040293]}, "type": "Feature", "properties": {"collection_times": [{"days": "Mon-Fri", "time": "5:00pm"}, {"days": "Sat", "time": "3:45pm"}, {"days": "Sun", "time": "Closed"}], "id": "3068000016", "name": "USPS COLLECTION BOX - PO LOBBY", "address": {"city": "WINDER", "state": "GA", "street": "101 N BROAD ST", "postcode": "30680"}}},
{"geometry": {"type": "Point", "coordinates": [-83.761025339, 33.9961731351]}, "type": "Feature", "properties": {"collection_times": [{"days": "Mon-Fri", "time": "1:00pm"}, {"days": "Sat-Sun", "time": "Closed"}], "id": "3068000017", "name": "USPS COLLECTION BOX - BLUE BOX", "address": {"city": "WINDER", "state": "GA", "street": "652 BARROW PARK DR", "postcode": "30680"}}},
{"geometry": {"type": "Point", "coordinates": [-83.2805012344, 33.9659473239]}, "type": "Feature", "properties": {"collection_times": [{"days": "Mon-Fri", "time": "4:30pm"}, {"days": "Sat", "time": "11:30am"}, {"days": "Sun", "time": "Closed"}], "id": "3068300002", "name": "USPS COLLECTION BOX - BLUE BOX", "address": {"city": "WINTERVILLE", "state": "GA", "street": "125 AVERY ST", "postcode": "30683"}}},
{"geometry": {"type": "Point", "coordinates": [-83.2805012344, 33.9659473239]}, "type": "Feature", "properties": {"collection_times": [{"days": "Mon-Fri", "time": "4:30pm"}, {"days": "Sat", "time": "11:30am"}, {"days": "Sun", "time": "Closed"}], "id": "3068300004", "name": "USPS COLLECTION BOX - PO LOBBY", "address": {"city": "WINTERVILLE", "state": "GA", "street": "125 AVERY ST", "postcode": "30683"}}}
]}
