{"type": "FeatureCollection", "features": [
{"geometry": {"type": "Point", "coordinates": [-84.9536036021, 34.5027246385]}, "type": "Feature", "properties": {"collection_times": [{"days": "Mon-Sat", "time": "4:45pm"}, {"days": "Sun", "time": "Closed"}], "id": "3070100025", "name": "USPS COLLECTION BOX - PO LOBBY", "address": {"city": "CALHOUN", "state": "GA", "street": "401 COURT ST", "postcode": "30701"}}},
{"geometry": {"type": "Point", "coordinates": [-84.9536036021, 34.5027246385]}, "type": "Feature", "properties": {"collection_times": [{"days": "Mon-Sat", "time": "4:45pm"}, {"days": "Sun", "time": "Closed"}], "id": "3070100026", "name": "USPS COLLECTION BOX - PO LOBBY", "address": {"city": "CALHOUN", "state": "GA", "street": "401 COURT ST", "postcode": "30701"}}},
{"geometry": {"type": "Point", "coordinates": [-84.9536036021, 34.5027246385]}, "type": "Feature", "properties": {"collection_times": [{"days": "Mon-Fri", "time": "1:30pm"}, {"days": "Sat", "time": "4:30pm"}, {"days": "Sun", "time": "Closed"}], "id": "3070100028", "name": "USPS COLLECTION BOX - BLUE BOX", "address": {"city": "CALHOUN", "state": "GA", "street": "401 COURT ST", "postcode": "30701"}}},
{"geometry": {"type": "Point", "coordinates": [-84.7699142105, 34.7661581792]}, "type": "Feature", "properties": {"collection_times": [{"days": "Mon-Sat", "time": "5:00pm"}, {"days": "Sun", "time": "Closed"}], "id": "3070500001", "name": "USPS COLLECTION BOX - BLUE BOX", "address": {"city": "CHATSWORTH", "state": "GA", "street": "120 W FORT ST", "postcode": "30705"}}},
{"geometry": {"type": "Point", "coordinates": [-84.7699142105, 34.7661581792]}, "type": "Feature", "properties": {"collection_times": [{"days": "Mon-Sat", "time": "5:00pm"}, {"days": "Sun", "time": "Closed"}], "id": "3070500002", "name": "USPS COLLECTION BOX - BLUE BOX", "address": {"city": "CHATSWORTH", "state": "GA", "street": "120 W FORT ST", "postcode": "30705"}}},
{"geometry": {"type": "Point", "coordinates": [-84.7696010592, 34.7648979304]}, "type": "Feature", "properties": {"collection_times": [{"days": "Mon-Sat", "time": "3:00pm"}, {"days": "Sun", "time": "Closed"}], "id": "3070500010", "name": "USPS COLLECTION BOX - BLUE BOX", "address": {"city": "CHATSWORTH", "state": "GA", "street": "100 W PINE ST", "postcode": "30705"}}},
{"geometry": {"type": "Point", "coordinates": [-84.7840511723, 34.7783588787]}, "type": "Feature", "properties": {"collection_times": [{"days": "Mon-Sat", "time": "3:00pm"}, {"days": "Sun", "time": "Closed"}], "id": "3070500016", "name": "USPS COLLECTION BOX - BLUE BOX", "address": {"city": "CHATSWORTH", "state": "GA", "street": "707 OLD DALTON ELLIJAY RD", "postcode": "30705"}}},
{"geometry": {"type": "Point", "coordinates": [-84.7863614185, 34.7828420049]}, "type": "Feature", "properties": {"collection_times": [{"days": "Mon-Sat", "time": "3:00pm"}, {"days": "Sun", "time": "Closed"}], "id": "3070500017", "name": "USPS COLLECTION BOX - BLUE BOX", "address": {"city": "CHATSWORTH", "state": "GA", "street": "960 G I MADDOX PKWY", "postcode": "30705"}}},
{"geometry": {"type": "Point", "coordinates": [-84.7760703544, 34.7840637457]}, "type": "Feature", "properties": {"collection_times": [{"days": "Mon-Sat", "time": "3:00pm"}, {"days": "Sun", "time": "Closed"}], "id": "3070500069", "name": "USPS COLLECTION BOX - BLUE BOX", "address": {"city": "CHATSWORTH", "state": "GA", "street": "502 GI MADDOX PKWY", "postcode": "30705"}}},
{"geometry": {"type": "Point", "coordinates": [-84.7699142105, 34.7661581792]}, "type": "Feature", "properties": {"collection_times": [{"days": "Mon-Sat", "time": "5:00pm"}, {"days": "Sun", "time": "Closed"}], "id": "3070500071", "name": "USPS COLLECTION BOX - PO LOBBY", "address": {"city": "CHATSWORTH", "state": "GA", "street": "120 W FORT ST", "postcode": "30705"}}},
{"geometry": {"type": "Point", "coordinates": [-84.7695365285, 34.7701519262]}, "type": "Feature", "properties": {"collection_times": [{"days": "Mon-Sat", "time": "3:00pm"}, {"days": "Sun", "time": "Closed"}], "id": "3070500072", "name": "USPS COLLECTION BOX - BLUE BOX", "address": {"city": "CHATSWORTH", "state": "GA", "street": "400 N 3RD AVE", "postcode": "30705"}}},
{"geometry": {"type": "Point", "coordinates": [-85.2878900291, 34.8716400887]}, "type": "Feature", "properties": {"collection_times": [{"days": "Mon-Sat", "time": "12:00pm"}, {"days": "Sun", "time": "Closed"}], "id": "3070700004", "name": "USPS COLLECTION BOX - PO LOBBY", "address": {"city": "CHICKAMAUGA", "state": "GA", "street": "207 W 10TH ST", "postcode": "30707"}}},
{"geometry": {"type": "Point", "coordinates": [-85.2878900291, 34.8716400887]}, "type": "Feature", "properties": {"collection_times": [{"days": "Mon-Sat", "time": "12:00pm"}, {"days": "Sun", "time": "Closed"}], "id": "3070700007", "name": "USPS COLLECTION BOX - BLUE BOX", "address": {"city": "CHICKAMAUGA", "state": "GA", "street": "207 W 10TH ST", "postcode": "30707"}}},
{"geometry": {"type": "Point", "coordinates": [-84.736879663, 34.9513605754]}, "type": "Feature", "properties": {"collection_times": [{"days": "Mon-Fri", "time": "12:00pm"}, {"days": "Sat", "time": "11:45am"}, {"days": "Sun", "time": "Closed"}], "id": "3070800000", "name": "USPS COLLECTION BOX - PO LOBBY", "address": {"city": "CISCO", "state": "GA", "street": "12539 HIGHWAY 411 N", "postcode": "30708"}}},
{"geometry": {"type": "Point", "coordinates": [-84.736879663, 34.9513605754]}, "type": "Feature", "properties": {"collection_times": [{"days": "Mon-Fri", "time": "12:00pm"}, {"days": "Sat", "time": "11:45am"}, {"days": "Sun", "time": "Closed"}], "id": "3070800001", "name": "USPS COLLECTION BOX - BLUE BOX", "address": {"city": "CISCO", "state": "GA", "street": "12539 HIGHWAY 411 N", "postcode": "30708"}}},
{"geometry": {"type": "Point", "coordinates": [-84.9479868987, 34.9601492087]}, "type": "Feature", "properties": {"collection_times": [{"days": "Mon-Fri", "time": "4:00pm"}, {"days": "Sat", "time": "11:30am"}, {"days": "Sun", "time": "Closed"}], "id": "3071000002", "name": "USPS COLLECTION BOX - BLUE BOX", "address": {"city": "COHUTTA", "state": "GA", "street": "325 WOLFE ST", "postcode": "30710"}}},
{"geometry": {"type": "Point", "coordinates": [-84.9479868987, 34.9601492087]}, "type": "Feature", "properties": {"collection_times": [{"days": "Mon-Fri", "time": "4:00pm"}, {"days": "Sat", "time": "11:30am"}, {"days": "Sun", "time": "Closed"}], "id": "3071000003", "name": "USPS COLLECTION BOX - PO LOBBY", "address": {"city": "COHUTTA", "state": "GA", "street": "325 WOLFE ST", "postcode": "30710"}}},
{"geometry": {"type": "Point", "coordinates": [-84.7671858255, 34.9323530206]}, "type": "Feature", "properties": {"collection_times": [{"days": "Mon-Fri", "time": "3:00pm"}, {"days": "Sat", "time": "11:00am"}, {"days": "Sun", "time": "Closed"}], "id": "3071100001", "name": "USPS COLLECTION BOX - BLUE BOX", "address": {"city": "CRANDALL", "state": "GA", "street": "6410 N 411 HWY", "postcode": "30711"}}},
{"geometry": {"type": "Point", "coordinates": [-84.7671858255, 34.9323530206]}, "type": "Feature", "properties": {"collection_times": [{"days": "Mon-Fri", "time": "3:00pm"}, {"days": "Sat", "time": "11:15am"}, {"days": "Sun", "time": "Closed"}], "id": "3071100002", "name": "USPS COLLECTION BOX - PO LOBBY", "address": {"city": "CRANDALL", "state": "GA", "street": "6410 HIGHWAY 411 N", "postcode": "30711"}}},
{"geometry": {"type": "Point", "coordinates": [-84.9907579864, 34.7592689429]}, "type": "Feature", "properties": {"collection_times": [{"days": "Mon-Sat", "time": "9:15am"}, {"days": "Sun", "time": "Closed"}], "id": "3072000006", "name": "USPS COLLECTION BOX - BLUE BOX", "address": {"city": "DALTON", "state": "GA", "street": "1305 W WALNUT AVE", "postcode": "30720"}}},
{"geometry": {"type": "Point", "coordinates": [-84.999652135, 34.7590325914]}, "type": "Feature", "properties": {"collection_times": [{"days": "Mon-Sat", "time": "9:15am"}, {"days": "Sun", "time": "Closed"}], "id": "3072000008", "name": "USPS COLLECTION BOX - BLUE BOX", "address": {"city": "DALTON", "state": "GA", "street": "1001 MARKET ST", "postcode": "30720"}}},
{"geometry": {"type": "Point", "coordinates": [-84.9787911563, 34.7155444329]}, "type": "Feature", "properties": {"collection_times": [{"days": "Mon-Sat", "time": "9:30am"}, {"days": "Sun", "time": "Closed"}], "id": "3072000009", "name": "USPS COLLECTION BOX - BLUE BOX", "address": {"city": "DALTON", "state": "GA", "street": "2800 S DIXIE HWY", "postcode": "30720"}}},
{"geometry": {"type": "Point", "coordinates": [-84.966424765, 34.7560279081]}, "type": "Feature", "properties": {"collection_times": [{"days": "Mon-Fri", "time": "3:00pm"}, {"days": "Sat", "time": "9:30am"}, {"days": "Sun", "time": "Closed"}], "id": "3072000013", "name": "USPS COLLECTION BOX - BLUE BOX", "address": {"city": "DALTON", "state": "GA", "street": "1100 S HAMILTON ST", "postcode": "30720"}}},
{"geometry": {"type": "Point", "coordinates": [-84.9718449629, 34.7714960989]}, "type": "Feature", "properties": {"collection_times": [{"days": "Mon-Fri", "time": "5:00pm"}, {"days": "Sat", "time": "12:00pm"}, {"days": "Sun", "time": "Closed"}], "id": "3072000020", "name": "USPS COLLECTION BOX - BLUE BOX", "address": {"city": "DALTON", "state": "GA", "street": "100 S THORNTON AVE", "postcode": "30720"}}},
{"geometry": {"type": "Point", "coordinates": [-84.9718449629, 34.7714960989]}, "type": "Feature", "properties": {"collection_times": [{"days": "Mon-Fri", "time": "5:00pm"}, {"days": "Sat", "time": "12:00pm"}, {"days": "Sun", "time": "Closed"}], "id": "3072000021", "name": "USPS COLLECTION BOX - BLUE BOX", "address": {"city": "DALTON", "state": "GA", "street": "100 S THORNTON AVE", "postcode": "30720"}}},
{"geometry": {"type": "Point", "coordinates": [-84.9718449629, 34.7714960989]}, "type": "Feature", "properties": {"collection_times": [{"days": "Mon-Fri", "time": "5:00pm"}, {"days": "Sat", "time": "12:00pm"}, {"days": "Sun", "time": "Closed"}], "id": "3072000022", "name": "USPS COLLECTION BOX - PO LOBBY", "address": {"city": "DALTON", "state": "GA", "street": "100 S THORNTON AVE", "postcode": "30720"}}},
{"geometry": {"type": "Point", "coordinates": [-84.9718449629, 34.7714960989]}, "type": "Feature", "properties": {"collection_times": [{"days": "Mon-Fri", "time": "5:00pm"}, {"days": "Sat", "time": "12:00pm"}, {"days": "Sun", "time": "Closed"}], "id": "3072000023", "name": "USPS COLLECTION BOX - APC", "address": {"city": "DALTON", "state": "GA", "street": "100 S THORNTON AVE", "postcode": "30720"}}},
{"geometry": {"type": "Point", "coordinates": [-85.003621501, 34.7329444233]}, "type": "Feature", "properties": {"collection_times": [{"days": "Mon-Fri", "time": "3:00pm"}, {"days": "Sat", "time": "9:00am"}, {"days": "Sun", "time": "Closed"}], "id": "3072000024", "name": "USPS COLLECTION BOX - BLUE BOX", "address": {"city": "DALTON", "state": "GA", "street": "650 COLLEGE DR", "postcode": "30720"}}},
{"geometry": {"type": "Point", "coordinates": [-84.9823224433, 34.7980931175]}, "type": "Feature", "properties": {"collection_times": [{"days": "Mon-Fri", "time": "12:00pm"}, {"days": "Sat", "time": "10:00am"}, {"days": "Sun", "time": "Closed"}], "id": "3072000027", "name": "USPS COLLECTION BOX - BLUE BOX", "address": {"city": "DALTON", "state": "GA", "street": "1504 N THORNTON AVE", "postcode": "30720"}}},
{"geometry": {"type": "Point", "coordinates": [-84.9760931271, 34.7936819552]}, "type": "Feature", "properties": {"collection_times": [{"days": "Mon-Fri", "time": "3:00pm"}, {"days": "Sat-Sun", "time": "Closed"}], "id": "3072000029", "name": "USPS COLLECTION BOX - BLUE BOX", "address": {"city": "DALTON", "state": "GA", "street": "301 POINT NORTH PL", "postcode": "30720"}}},
{"geometry": {"type": "Point", "coordinates": [-84.9678352699, 34.7615800936]}, "type": "Feature", "properties": {"collection_times": [{"days": "Mon-Sat", "time": "10:00am"}, {"days": "Sun", "time": "Closed"}], "id": "3072000033", "name": "USPS COLLECTION BOX - BLUE BOX", "address": {"city": "DALTON", "state": "GA", "street": "100 W WALNUT AVE", "postcode": "30720"}}},
{"geometry": {"type": "Point", "coordinates": [-84.9122678663, 34.7908541996]}, "type": "Feature", "properties": {"collection_times": [{"days": "Mon-Fri", "time": "5:00pm"}, {"days": "Sat", "time": "12:00pm"}, {"days": "Sun", "time": "Closed"}], "id": "3072100001", "name": "USPS COLLECTION BOX - BLUE BOX", "address": {"city": "DALTON", "state": "GA", "street": "1119 E MORRIS ST", "postcode": "30721"}}},
{"geometry": {"type": "Point", "coordinates": [-84.892611337, 34.8152631542]}, "type": "Feature", "properties": {"collection_times": [{"days": "Mon-Sat", "time": "10:15am"}, {"days": "Sun", "time": "Closed"}], "id": "3072100006", "name": "USPS COLLECTION BOX - BLUE BOX", "address": {"city": "DALTON", "state": "GA", "street": "1352 DAWNVILLE RD NE", "postcode": "30721"}}},
{"geometry": {"type": "Point", "coordinates": [-84.9236021329, 34.7711055936]}, "type": "Feature", "properties": {"collection_times": [{"days": "Mon-Sat", "time": "9:00am"}, {"days": "Sun", "time": "Closed"}], "id": "3072100008", "name": "USPS COLLECTION BOX - BLUE BOX", "address": {"city": "DALTON", "state": "GA", "street": "2545 E WALNUT AVE", "postcode": "30721"}}},
{"geometry": {"type": "Point", "coordinates": [-84.9122678663, 34.7908541996]}, "type": "Feature", "properties": {"collection_times": [{"days": "Mon-Fri", "time": "12:30pm"}, {"days": "Sat", "time": "10:30am"}, {"days": "Sun", "time": "Closed"}], "id": "3072100009", "name": "USPS COLLECTION BOX - BLUE BOX", "address": {"city": "DALTON", "state": "GA", "street": "201 N OAK DR", "postcode": "30721"}}},
{"geometry": {"type": "Point", "coordinates": [-84.9620559314, 34.7907155733]}, "type": "Feature", "properties": {"collection_times": [{"days": "Mon-Sat", "time": "2:00pm"}, {"days": "Sun", "time": "Closed"}], "id": "3072100010", "name": "USPS COLLECTION BOX - BLUE BOX", "address": {"city": "DALTON", "state": "GA", "street": "1205 N GLENWOOD AVE", "postcode": "30721"}}},
{"geometry": {"type": "Point", "coordinates": [-84.9453299876, 34.8221000476]}, "type": "Feature", "properties": {"collection_times": [{"days": "Mon-Sat", "time": "9:00am"}, {"days": "Sun", "time": "Closed"}], "id": "3072100015", "name": "USPS COLLECTION BOX - BLUE BOX", "address": {"city": "DALTON", "state": "GA", "street": "2518 CLEVELAND HWY", "postcode": "30721"}}},
{"geometry": {"type": "Point", "coordinates": [-84.9598368201, 34.802648876]}, "type": "Feature", "properties": {"collection_times": [{"days": "Mon-Sat", "time": "9:00am"}, {"days": "Sun", "time": "Closed"}], "id": "3072100016", "name": "USPS COLLECTION BOX - BLUE BOX", "address": {"city": "DALTON", "state": "GA", "street": "1710 CLEVELAND HWY", "postcode": "30721"}}},
{"geometry": {"type": "Point", "coordinates": [-84.9612102446, 34.7615832768]}, "type": "Feature", "properties": {"collection_times": [{"days": "Mon-Fri", "time": "3:00pm"}, {"days": "Sat", "time": "9:30am"}, {"days": "Sun", "time": "Closed"}], "id": "3072100017", "name": "USPS COLLECTION BOX - BLUE BOX", "address": {"city": "DALTON", "state": "GA", "street": "500 E WALNUT AVE", "postcode": "30721"}}},
{"geometry": {"type": "Point", "coordinates": [-84.9122678663, 34.7908541996]}, "type": "Feature", "properties": {"collection_times": [{"days": "Mon-Fri", "time": "5:00pm"}, {"days": "Sat", "time": "12:00pm"}, {"days": "Sun", "time": "Closed"}], "id": "3072100019", "name": "USPS COLLECTION BOX - PO LOBBY", "address": {"city": "DALTON", "state": "GA", "street": "1119 E MORRIS ST", "postcode": "30721"}}},
{"geometry": {"type": "Point", "coordinates": [-84.9628142457, 34.7631563737]}, "type": "Feature", "properties": {"collection_times": [{"days": "Mon-Sat", "time": "8:30am"}, {"days": "Sun", "time": "Closed"}], "id": "3072100021", "name": "USPS COLLECTION BOX - BLUE BOX", "address": {"city": "DALTON", "state": "GA", "street": "708 S GLENWOOD AVE", "postcode": "30721"}}},
{"geometry": {"type": "Point", "coordinates": [-84.9972252306, 34.6890587025]}, "type": "Feature", "properties": {"collection_times": [{"days": "Mon-Sat", "time": "11:30am"}, {"days": "Sun", "time": "Closed"}], "id": "3072100023", "name": "USPS COLLECTION BOX - BLUE BOX", "address": {"city": "DALTON", "state": "GA", "street": "244 CONNECTOR 3", "postcode": "30721"}}},
{"geometry": {"type": "Point", "coordinates": [-84.7589554598, 34.8236134623]}, "type": "Feature", "properties": {"collection_times": [{"days": "Mon-Fri", "time": "3:30pm"}, {"days": "Sat", "time": "11:15am"}, {"days": "Sun", "time": "Closed"}], "id": "3072400000", "name": "USPS COLLECTION BOX - BLUE BOX", "address": {"city": "ETON", "state": "GA", "street": "219 CCC CAMP RD", "postcode": "30724"}}},
{"geometry": {"type": "Point", "coordinates": [-84.7589554598, 34.8236134623]}, "type": "Feature", "properties": {"collection_times": [{"days": "Mon-Fri", "time": "3:30pm"}, {"days": "Sat", "time": "11:15am"}, {"days": "Sun", "time": "Closed"}], "id": "3072400001", "name": "USPS COLLECTION BOX - PO LOBBY", "address": {"city": "ETON", "state": "GA", "street": "219 CCC CAMP RD", "postcode": "30724"}}},
{"geometry": {"type": "Point", "coordinates": [-85.3406702684, 34.9418202009]}, "type": "Feature", "properties": {"collection_times": [{"days": "Mon-Fri", "time": "5:00pm"}, {"days": "Sat", "time": "1:00pm"}, {"days": "Sun", "time": "Closed"}], "id": "3072500001", "name": "USPS COLLECTION BOX - BLUE BOX", "address": {"city": "FLINTSTONE", "state": "GA", "street": "4685 HAPPY VALLEY RD", "postcode": "30725"}}},
{"geometry": {"type": "Point", "coordinates": [-85.3406702684, 34.9418202009]}, "type": "Feature", "properties": {"collection_times": [{"days": "Mon-Fri", "time": "5:00pm"}, {"days": "Sat", "time": "1:00pm"}, {"days": "Sun", "time": "Closed"}], "id": "3072500002", "name": "USPS COLLECTION BOX - PO LOBBY", "address": {"city": "FLINTSTONE", "state": "GA", "street": "4685 HAPPY VALLEY RD", "postcode": "30725"}}},
{"geometry": {"type": "Point", "coordinates": [-85.3406702684, 34.9418202009]}, "type": "Feature", "properties": {"collection_times": [{"days": "Mon-Fri", "time": "5:00pm"}, {"days": "Sat", "time": "1:00pm"}, {"days": "Sun", "time": "Closed"}], "id": "3072500003", "name": "USPS COLLECTION BOX - PO LOBBY", "address": {"city": "FLINTSTONE", "state": "GA", "street": "4685 HAPPY VALLEY RD", "postcode": "30725"}}},
{"geometry": {"type": "Point", "coordinates": [-85.1430260849, 34.9772455646]}, "type": "Feature", "properties": {"collection_times": [{"days": "Mon-Fri", "time": "11:30am"}, {"days": "Sat", "time": "11:00am"}, {"days": "Sun", "time": "Closed"}], "id": "3072600000", "name": "USPS COLLECTION BOX - PO LOBBY", "address": {"city": "GRAYSVILLE", "state": "GA", "street": "17 VAUGHN ST", "postcode": "30726"}}},
{"geometry": {"type": "Point", "coordinates": [-85.1430260849, 34.9772455646]}, "type": "Feature", "properties": {"collection_times": [{"days": "Mon-Fri", "time": "11:30am"}, {"days": "Sat", "time": "11:00am"}, {"days": "Sun", "time": "Closed"}], "id": "3072600001", "name": "USPS COLLECTION BOX - BLUE BOX", "address": {"city": "GRAYSVILLE", "state": "GA", "street": "17 VAUGHN ST", "postcode": "30726"}}},
{"geometry": {"type": "Point", "coordinates": [-85.2805850609, 34.7050517528]}, "type": "Feature", "properties": {"collection_times": [{"days": "Mon-Sat", "time": "9:00am"}, {"days": "Sun", "time": "Closed"}], "id": "3072800001", "name": "USPS COLLECTION BOX - BLUE BOX", "address": {"city": "LAFAYETTE", "state": "GA", "street": "103 S DUKE ST", "postcode": "30728"}}},
{"geometry": {"type": "Point", "coordinates": [-85.2856394662, 34.7055844995]}, "type": "Feature", "properties": {"collection_times": [{"days": "Mon-Sat", "time": "3:00pm"}, {"days": "Sun", "time": "Closed"}], "id": "3072800006", "name": "USPS COLLECTION BOX - BLUE BOX", "address": {"city": "LAFAYETTE", "state": "GA", "street": "111 MIZE ST", "postcode": "30728"}}},
{"geometry": {"type": "Point", "coordinates": [-85.2824495992, 34.7017431533]}, "type": "Feature", "properties": {"collection_times": [{"days": "Mon-Sat", "time": "3:00pm"}, {"days": "Sun", "time": "Closed"}], "id": "3072800009", "name": "USPS COLLECTION BOX - BLUE BOX", "address": {"city": "LAFAYETTE", "state": "GA", "street": "311 S MAIN ST", "postcode": "30728"}}},
{"geometry": {"type": "Point", "coordinates": [-85.22395542, 34.681742173]}, "type": "Feature", "properties": {"collection_times": [{"days": "Mon-Sat", "time": "9:00am"}, {"days": "Sun", "time": "Closed"}], "id": "3072800011", "name": "USPS COLLECTION BOX - BLUE BOX", "address": {"city": "LAFAYETTE", "state": "GA", "street": "105 E PUBLIC SQ", "postcode": "30728"}}},
{"geometry": {"type": "Point", "coordinates": [-85.2727623999, 34.698038152]}, "type": "Feature", "properties": {"collection_times": [{"days": "Mon-Fri", "time": "4:30pm"}, {"days": "Sat", "time": "12:00pm"}, {"days": "Sun", "time": "Closed"}], "id": "3072800037", "name": "USPS COLLECTION BOX - BLUE BOX", "address": {"city": "LAFAYETTE", "state": "GA", "street": "220 FOSTER BLVD", "postcode": "30728"}}},
{"geometry": {"type": "Point", "coordinates": [-85.2727623999, 34.698038152]}, "type": "Feature", "properties": {"collection_times": [{"days": "Mon-Fri", "time": "4:30pm"}, {"days": "Sat", "time": "12:00pm"}, {"days": "Sun", "time": "Closed"}], "id": "3072800038", "name": "USPS COLLECTION BOX - BLUE BOX", "address": {"city": "LAFAYETTE", "state": "GA", "street": "220 FOSTER BLVD", "postcode": "30728"}}},
{"geometry": {"type": "Point", "coordinates": [-85.2727623999, 34.698038152]}, "type": "Feature", "properties": {"collection_times": [{"days": "Mon-Fri", "time": "4:30pm"}, {"days": "Sat", "time": "12:00pm"}, {"days": "Sun", "time": "Closed"}], "id": "3072800043", "name": "USPS COLLECTION BOX - PO LOBBY", "address": {"city": "LAFAYETTE", "state": "GA", "street": "220 FOSTER BLVD", "postcode": "30728"}}},
{"geometry": {"type": "Point", "coordinates": [-85.2727623999, 34.698038152]}, "type": "Feature", "properties": {"collection_times": [{"days": "Mon-Fri", "time": "4:30pm"}, {"days": "Sat", "time": "12:00pm"}, {"days": "Sun", "time": "Closed"}], "id": "3072800044", "name": "USPS COLLECTION BOX - PO LOBBY", "address": {"city": "LAFAYETTE", "state": "GA", "street": "220 FOSTER BLVD", "postcode": "30728"}}},
{"geometry": {"type": "Point", "coordinates": [-85.2727623999, 34.698038152]}, "type": "Feature", "properties": {"collection_times": [{"days": "Mon-Fri", "time": "4:30pm"}, {"days": "Sat", "time": "12:00pm"}, {"days": "Sun", "time": "Closed"}], "id": "3072800045", "name": "USPS COLLECTION BOX - PO LOBBY", "address": {"city": "LAFAYETTE", "state": "GA", "street": "220 FOSTER BLVD", "postcode": "30728"}}},
{"geometry": {"type": "Point", "coordinates": [-85.4038991176, 34.4030128604]}, "type": "Feature", "properties": {"collection_times": [{"days": "Mon-Fri", "time": "12:00pm"}, {"days": "Sat", "time": "11:30am"}, {"days": "Sun", "time": "Closed"}], "id": "3073000001", "name": "USPS COLLECTION BOX - BLUE BOX", "address": {"city": "LYERLY", "state": "GA", "street": "111 ALPINE ST", "postcode": "30730"}}},
{"geometry": {"type": "Point", "coordinates": [-85.4038991176, 34.4030128604]}, "type": "Feature", "properties": {"collection_times": [{"days": "Mon-Fri", "time": "12:00pm"}, {"days": "Sat", "time": "11:30am"}, {"days": "Sun", "time": "Closed"}], "id": "3073000002", "name": "USPS COLLECTION BOX - PO LOBBY", "address": {"city": "LYERLY", "state": "GA", "street": "111 ALPINE ST", "postcode": "30730"}}},
{"geometry": {"type": "Point", "coordinates": [-85.467796872, 34.4979612143]}, "type": "Feature", "properties": {"collection_times": [{"days": "Mon-Fri", "time": "12:00pm"}, {"days": "Sat", "time": "10:15am"}, {"days": "Sun", "time": "Closed"}], "id": "3073100001", "name": "USPS COLLECTION BOX - BLUE BOX", "address": {"city": "MENLO", "state": "GA", "street": "2951 HIGHWAY 337", "postcode": "30731"}}},
{"geometry": {"type": "Point", "coordinates": [-85.467796872, 34.4979612143]}, "type": "Feature", "properties": {"collection_times": [{"days": "Mon-Fri", "time": "12:00pm"}, {"days": "Sat", "time": "10:15am"}, {"days": "Sun", "time": "Closed"}], "id": "3073100002", "name": "USPS COLLECTION BOX - PO LOBBY", "address": {"city": "MENLO", "state": "GA", "street": "2951 HIGHWAY 337", "postcode": "30731"}}},
{"geometry": {"type": "Point", "coordinates": [-84.7056232109, 34.5884150679]}, "type": "Feature", "properties": {"collection_times": [{"days": "Mon-Fri", "time": "3:30pm"}, {"days": "Sat", "time": "11:30am"}, {"days": "Sun", "time": "Closed"}], "id": "3073200001", "name": "USPS COLLECTION BOX - BLUE BOX", "address": {"city": "OAKMAN", "state": "GA", "street": "225 OAKMAN RD", "postcode": "30732"}}},
{"geometry": {"type": "Point", "coordinates": [-84.7056232109, 34.5884150679]}, "type": "Feature", "properties": {"collection_times": [{"days": "Mon-Fri", "time": "3:30pm"}, {"days": "Sat", "time": "11:30am"}, {"days": "Sun", "time": "Closed"}], "id": "3073200002", "name": "USPS COLLECTION BOX - PO LOBBY", "address": {"city": "OAKMAN", "state": "GA", "street": "225 OAKMAN RD", "postcode": "30732"}}},
{"geometry": {"type": "Point", "coordinates": [-84.7056232109, 34.5884150679]}, "type": "Feature", "properties": {"collection_times": [{"days": "Mon-Fri", "time": "3:30pm"}, {"days": "Sat", "time": "11:30am"}, {"days": "Sun", "time": "Closed"}], "id": "3073200003", "name": "USPS COLLECTION BOX - PO LOBBY", "address": {"city": "OAKMAN", "state": "GA", "street": "225 OAKMAN RD", "postcode": "30732"}}},
{"geometry": {"type": "Point", "coordinates": [-85.038724157, 34.4026325325]}, "type": "Feature", "properties": {"collection_times": [{"days": "Mon-Fri", "time": "3:00pm"}, {"days": "Sat", "time": "11:00am"}, {"days": "Sun", "time": "Closed"}], "id": "3073300001", "name": "USPS COLLECTION BOX - BLUE BOX", "address": {"city": "PLAINVILLE", "state": "GA", "street": "133 YORK DR SW", "postcode": "30733"}}},
{"geometry": {"type": "Point", "coordinates": [-85.038724157, 34.4026325325]}, "type": "Feature", "properties": {"collection_times": [{"days": "Mon-Fri", "time": "3:00pm"}, {"days": "Sat", "time": "11:00am"}, {"days": "Sun", "time": "Closed"}], "id": "3073300002", "name": "USPS COLLECTION BOX - PO LOBBY", "address": {"city": "PLAINVILLE", "state": "GA", "street": "133 YORK DR SW", "postcode": "30733"}}},
{"geometry": {"type": "Point", "coordinates": [-84.7097750608, 34.500616002]}, "type": "Feature", "properties": {"collection_times": [{"days": "Mon-Sat", "time": "11:30am"}, {"days": "Sun", "time": "Closed"}], "id": "3073400001", "name": "USPS COLLECTION BOX - PO LOBBY", "address": {"city": "RANGER", "state": "GA", "street": "121 US 411 HWY SE", "postcode": "30734"}}},
{"geometry": {"type": "Point", "coordinates": [-84.7097750608, 34.500616002]}, "type": "Feature", "properties": {"collection_times": [{"days": "Mon-Sat", "time": "11:30am"}, {"days": "Sun", "time": "Closed"}], "id": "3073400002", "name": "USPS COLLECTION BOX - BLUE BOX", "address": {"city": "RANGER", "state": "GA", "street": "121 US 411 HWY SE", "postcode": "30734"}}},
{"geometry": {"type": "Point", "coordinates": [-84.891102432, 34.5965149633]}, "type": "Feature", "properties": {"collection_times": [{"days": "Mon-Fri", "time": "12:30pm"}, {"days": "Sat", "time": "12:00pm"}, {"days": "Sun", "time": "Closed"}], "id": "3073500001", "name": "USPS COLLECTION BOX - BLUE BOX", "address": {"city": "RESACA", "state": "GA", "street": "3073 BATTLEFIELD PKWY NE", "postcode": "30735"}}},
{"geometry": {"type": "Point", "coordinates": [-84.9352892239, 34.5885148135]}, "type": "Feature", "properties": {"collection_times": [{"days": "Mon-Sat", "time": "11:45am"}, {"days": "Sun", "time": "Closed"}], "id": "3073500002", "name": "USPS COLLECTION BOX - BLUE BOX", "address": {"city": "RESACA", "state": "GA", "street": "288 RESACA BEACH BLVD NW", "postcode": "30735"}}},
{"geometry": {"type": "Point", "coordinates": [-84.891102432, 34.5965149633]}, "type": "Feature", "properties": {"collection_times": [{"days": "Mon-Fri", "time": "12:30pm"}, {"days": "Sat", "time": "12:00pm"}, {"days": "Sun", "time": "Closed"}], "id": "3073500007", "name": "USPS COLLECTION BOX - PO LOBBY", "address": {"city": "RESACA", "state": "GA", "street": "3073 BATTLEFIELD PKWY NE", "postcode": "30735"}}},
{"geometry": {"type": "Point", "coordinates": [-85.122269214, 34.9123735298]}, "type": "Feature", "properties": {"collection_times": [{"days": "Mon-Fri", "time": "5:00pm"}, {"days": "Sat", "time": "12:00pm"}, {"days": "Sun", "time": "Closed"}], "id": "3073600001", "name": "USPS COLLECTION BOX - BLUE BOX", "address": {"city": "RINGGOLD", "state": "GA", "street": "862 LAFAYETTE ST", "postcode": "30736"}}},
{"geometry": {"type": "Point", "coordinates": [-85.122269214, 34.9123735298]}, "type": "Feature", "properties": {"collection_times": [{"days": "Mon-Fri", "time": "5:00pm"}, {"days": "Sat", "time": "12:00pm"}, {"days": "Sun", "time": "Closed"}], "id": "3073600002", "name": "USPS COLLECTION BOX - BLUE BOX", "address": {"city": "RINGGOLD", "state": "GA", "street": "862 LAFAYETTE ST", "postcode": "30736"}}},
{"geometry": {"type": "Point", "coordinates": [-85.122269214, 34.9123735298]}, "type": "Feature", "properties": {"collection_times": [{"days": "Mon-Fri", "time": "5:00pm"}, {"days": "Sat", "time": "12:00pm"}, {"days": "Sun", "time": "Closed"}], "id": "3073600003", "name": "USPS COLLECTION BOX - PO LOBBY", "address": {"city": "RINGGOLD", "state": "GA", "street": "862 LAFAYETTE ST", "postcode": "30736"}}},
{"geometry": {"type": "Point", "coordinates": [-85.122269214, 34.9123735298]}, "type": "Feature", "properties": {"collection_times": [{"days": "Mon-Fri", "time": "5:00pm"}, {"days": "Sat", "time": "12:00pm"}, {"days": "Sun", "time": "Closed"}], "id": "3073600004", "name": "USPS COLLECTION BOX - PO LOBBY", "address": {"city": "RINGGOLD", "state": "GA", "street": "862 LAFAYETTE ST", "postcode": "30736"}}},
{"geometry": {"type": "Point", "coordinates": [-85.5262061158, 34.7160352627]}, "type": "Feature", "properties": {"collection_times": [{"days": "Mon-Fri", "time": "11:45am"}, {"days": "Sat", "time": "11:30am"}, {"days": "Sun", "time": "Closed"}], "id": "3073800001", "name": "USPS COLLECTION BOX - BLUE BOX", "address": {"city": "RISING FAWN", "state": "GA", "street": "28 MASON RD", "postcode": "30738"}}},
{"geometry": {"type": "Point", "coordinates": [-85.5262061158, 34.7160352627]}, "type": "Feature", "properties": {"collection_times": [{"days": "Mon-Fri", "time": "11:45am"}, {"days": "Sat", "time": "11:30am"}, {"days": "Sun", "time": "Closed"}], "id": "3073800004", "name": "USPS COLLECTION BOX - PO LOBBY", "address": {"city": "RISING FAWN", "state": "GA", "street": "28 MASON RD", "postcode": "30738"}}},
{"geometry": {"type": "Point", "coordinates": [-85.5262061158, 34.7160352627]}, "type": "Feature", "properties": {"collection_times": [{"days": "Mon-Fri", "time": "11:45am"}, {"days": "Sat", "time": "11:30am"}, {"days": "Sun", "time": "Closed"}], "id": "3073800005", "name": "USPS COLLECTION BOX - PO LOBBY", "address": {"city": "RISING FAWN", "state": "GA", "street": "28 MASON RD", "postcode": "30738"}}},
{"geometry": {"type": "Point", "coordinates": [-85.2414252661, 34.8205369853]}, "type": "Feature", "properties": {"collection_times": [{"days": "Mon-Sat", "time": "12:00pm"}, {"days": "Sun", "time": "Closed"}], "id": "3073900000", "name": "USPS COLLECTION BOX - PO LOBBY", "address": {"city": "ROCK SPRING", "state": "GA", "street": "36 ROCK SPRING DR", "postcode": "30739"}}},
{"geometry": {"type": "Point", "coordinates": [-85.2414252661, 34.8205369853]}, "type": "Feature", "properties": {"collection_times": [{"days": "Mon-Sat", "time": "12:00pm"}, {"days": "Sun", "time": "Closed"}], "id": "3073900001", "name": "USPS COLLECTION BOX - BLUE BOX", "address": {"city": "ROCK SPRING", "state": "GA", "street": "36 ROCK SPRING DR", "postcode": "30739"}}},
{"geometry": {"type": "Point", "coordinates": [-85.0181621785, 34.8020742405]}, "type": "Feature", "properties": {"collection_times": [{"days": "Mon-Sat", "time": "12:00pm"}, {"days": "Sun", "time": "Closed"}], "id": "3074000001", "name": "USPS COLLECTION BOX - PO LOBBY", "address": {"city": "ROCKY FACE", "state": "GA", "street": "2609 CHATTANOOGA RD", "postcode": "30740"}}},
{"geometry": {"type": "Point", "coordinates": [-85.0181621785, 34.8020742405]}, "type": "Feature", "properties": {"collection_times": [{"days": "Mon-Sat", "time": "12:00pm"}, {"days": "Sun", "time": "Closed"}], "id": "3074000002", "name": "USPS COLLECTION BOX - PO LOBBY", "address": {"city": "ROCKY FACE", "state": "GA", "street": "2609 CHATTANOOGA RD", "postcode": "30740"}}},
{"geometry": {"type": "Point", "coordinates": [-85.0181621785, 34.8020742405]}, "type": "Feature", "properties": {"collection_times": [{"days": "Mon-Sat", "time": "12:00pm"}, {"days": "Sun", "time": "Closed"}], "id": "3074000003", "name": "USPS COLLECTION BOX - BLUE BOX", "address": {"city": "ROCKY FACE", "state": "GA", "street": "2609 CHATTANOOGA RD", "postcode": "30740"}}},
{"geometry": {"type": "Point", "coordinates": [-85.0181621785, 34.8020742405]}, "type": "Feature", "properties": {"collection_times": [{"days": "Mon-Sat", "time": "12:00pm"}, {"days": "Sun", "time": "Closed"}], "id": "3074000004", "name": "USPS COLLECTION BOX - BLUE BOX", "address": {"city": "ROCKY FACE", "state": "GA", "street": "2609 CHATTANOOGA RD", "postcode": "30740"}}},
{"geometry": {"type": "Point", "coordinates": [-85.2864069179, 34.9833955227]}, "type": "Feature", "properties": {"collection_times": [{"days": "Mon-Fri", "time": "5:00pm"}, {"days": "Sat", "time": "3:45pm"}, {"days": "Sun", "time": "Closed"}], "id": "3074100001", "name": "USPS COLLECTION BOX - BLUE BOX", "address": {"city": "ROSSVILLE", "state": "GA", "street": "301 CHICKAMAUGA AVE", "postcode": "30741"}}},
{"geometry": {"type": "Point", "coordinates": [-85.2864069179, 34.9833955227]}, "type": "Feature", "properties": {"collection_times": [{"days": "Mon-Fri", "time": "5:00pm"}, {"days": "Sat", "time": "3:45pm"}, {"days": "Sun", "time": "Closed"}], "id": "3074100002", "name": "USPS COLLECTION BOX - BLUE BOX", "address": {"city": "ROSSVILLE", "state": "GA", "street": "301 CHICKAMAUGA AVE", "postcode": "30741"}}},
{"geometry": {"type": "Point", "coordinates": [-85.312602309, 34.91685523]}, "type": "Feature", "properties": {"collection_times": [{"days": "Mon-Fri", "time": "11:00am"}, {"days": "Sat", "time": "10:30am"}, {"days": "Sun", "time": "Closed"}], "id": "3074100011", "name": "USPS COLLECTION BOX - BLUE BOX", "address": {"city": "ROSSVILLE", "state": "GA", "street": "814 MISSION RIDGE RD", "postcode": "30741"}}},
{"geometry": {"type": "Point", "coordinates": [-85.2864069179, 34.9833955227]}, "type": "Feature", "properties": {"collection_times": [{"days": "Mon-Fri", "time": "5:00pm"}, {"days": "Sat", "time": "3:45pm"}, {"days": "Sun", "time": "Closed"}], "id": "3074100019", "name": "USPS COLLECTION BOX - PO LOBBY", "address": {"city": "ROSSVILLE", "state": "GA", "street": "301 CHICKAMAUGA AVE", "postcode": "30741"}}},
{"geometry": {"type": "Point", "coordinates": [-85.2864069179, 34.9833955227]}, "type": "Feature", "properties": {"collection_times": [{"days": "Mon-Fri", "time": "5:00pm"}, {"days": "Sat", "time": "3:45pm"}, {"days": "Sun", "time": "Closed"}], "id": "3074100020", "name": "USPS COLLECTION BOX - PO LOBBY", "address": {"city": "ROSSVILLE", "state": "GA", "street": "301 CHICKAMAUGA AVE", "postcode": "30741"}}},
{"geometry": {"type": "Point", "coordinates": [-85.2864069179, 34.9833955227]}, "type": "Feature", "properties": {"collection_times": [{"days": "Mon-Fri", "time": "5:00pm"}, {"days": "Sat", "time": "3:45pm"}, {"days": "Sun", "time": "Closed"}], "id": "3074100022", "name": "USPS COLLECTION BOX - BLUE BOX", "address": {"city": "ROSSVILLE", "state": "GA", "street": "301 CHICKAMAUGA AVE", "postcode": "30741"}}},
{"geometry": {"type": "Point", "coordinates": [-85.2585140314, 34.9576964789]}, "type": "Feature", "properties": {"collection_times": [{"days": "Mon-Sat", "time": "12:00pm"}, {"days": "Sun", "time": "Closed"}], "id": "3074200001", "name": "USPS COLLECTION BOX - BLUE BOX", "address": {"city": "FT OGLETHORPE", "state": "GA", "street": "1800 LAFAYETTE RD", "postcode": "30742"}}},
{"geometry": {"type": "Point", "coordinates": [-85.2529175078, 34.9542258139]}, "type": "Feature", "properties": {"collection_times": [{"days": "Mon-Fri", "time": "11:30am"}, {"days": "Sat", "time": "10:30am"}, {"days": "Sun", "time": "Closed"}], "id": "3074200002", "name": "USPS COLLECTION BOX - BLUE BOX", "address": {"city": "FT OGLETHORPE", "state": "GA", "street": "526 BATTLEFIELD PKWY", "postcode": "30742"}}},
{"geometry": {"type": "Point", "coordinates": [-85.25157651, 34.9538463735]}, "type": "Feature", "properties": {"collection_times": [{"days": "Mon-Fri", "time": "11:30am"}, {"days": "Sat", "time": "10:45am"}, {"days": "Sun", "time": "Closed"}], "id": "3074200003", "name": "USPS COLLECTION BOX - BLUE BOX", "address": {"city": "FT OGLETHORPE", "state": "GA", "street": "663 BATTLEFIELD PKWY", "postcode": "30742"}}},
{"geometry": {"type": "Point", "coordinates": [-85.2566322815, 34.9486666951]}, "type": "Feature", "properties": {"collection_times": [{"days": "Mon-Fri", "time": "4:15pm"}, {"days": "Sat", "time": "3:15pm"}, {"days": "Sun", "time": "Closed"}], "id": "3074200008", "name": "USPS COLLECTION BOX - BLUE BOX", "address": {"city": "FT OGLETHORPE", "state": "GA", "street": "155 FORREST RD", "postcode": "30742"}}},
{"geometry": {"type": "Point", "coordinates": [-85.2628833669, 34.9476641876]}, "type": "Feature", "properties": {"collection_times": [{"days": "Mon-Sat", "time": "9:00am"}, {"days": "Sun", "time": "Closed"}], "id": "3074200015", "name": "USPS COLLECTION BOX - BLUE BOX", "address": {"city": "FT OGLETHORPE", "state": "GA", "street": "100 GROSS CRESCENT CIR", "postcode": "30742"}}},
{"geometry": {"type": "Point", "coordinates": [-85.2253339162, 34.9440375686]}, "type": "Feature", "properties": {"collection_times": [{"days": "Mon-Fri", "time": "10:30am"}, {"days": "Sat", "time": "10:00am"}, {"days": "Sun", "time": "Closed"}], "id": "3074200017", "name": "USPS COLLECTION BOX - BLUE BOX", "address": {"city": "FT OGLETHORPE", "state": "GA", "street": "3040 BATTLEFIELD PKWY", "postcode": "30742"}}},
{"geometry": {"type": "Point", "coordinates": [-85.2566322815, 34.9486666951]}, "type": "Feature", "properties": {"collection_times": [{"days": "Mon-Fri", "time": "4:45pm"}, {"days": "Sat", "time": "3:15pm"}, {"days": "Sun", "time": "Closed"}], "id": "3074200020", "name": "USPS COLLECTION BOX - PO LOBBY", "address": {"city": "FT OGLETHORPE", "state": "GA", "street": "155 FORREST RD", "postcode": "30742"}}},
{"geometry": {"type": "Point", "coordinates": [-85.0127346475, 34.5579180126]}, "type": "Feature", "properties": {"collection_times": [{"days": "Mon-Fri", "time": "12:00pm"}, {"days": "Sat", "time": "11:45am"}, {"days": "Sun", "time": "Closed"}], "id": "3074600001", "name": "USPS COLLECTION BOX - BLUE BOX", "address": {"city": "SUGAR VALLEY", "state": "GA", "street": "155 MAIN ST NW", "postcode": "30746"}}},
{"geometry": {"type": "Point", "coordinates": [-85.0127346475, 34.5579180126]}, "type": "Feature", "properties": {"collection_times": [{"days": "Mon-Fri", "time": "12:00pm"}, {"days": "Sat", "time": "11:45am"}, {"days": "Sun", "time": "Closed"}], "id": "3074600002", "name": "USPS COLLECTION BOX - PO LOBBY", "address": {"city": "SUGAR VALLEY", "state": "GA", "street": "155 MAIN ST NW", "postcode": "30746"}}},
{"geometry": {"type": "Point", "coordinates": [-85.0127346475, 34.5579180126]}, "type": "Feature", "properties": {"collection_times": [{"days": "Mon-Fri,Sun", "time": "Closed"}, {"days": "Sat", "time": "11:45am"}], "id": "3074600003", "name": "USPS COLLECTION BOX - PO LOBBY", "address": {"city": "SUGAR VALLEY", "state": "GA", "street": "155 MAIN ST NW", "postcode": "30746"}}},
{"geometry": {"type": "Point", "coordinates": [-85.3617911221, 34.4724049335]}, "type": "Feature", "properties": {"collection_times": [{"days": "Mon-Fri", "time": "2:15pm"}, {"days": "Sat", "time": "12:30pm"}, {"days": "Sun", "time": "Closed"}], "id": "3074700008", "name": "USPS COLLECTION BOX - PO LOBBY", "address": {"city": "SUMMERVILLE", "state": "GA", "street": "9922 COMMERCE ST", "postcode": "30747"}}},
{"geometry": {"type": "Point", "coordinates": [-85.34894, 34.479]}, "type": "Feature", "properties": {"collection_times": [{"days": "Mon-Fri", "time": "2:15pm"}, {"days": "Sat", "time": "12:30pm"}, {"days": "Sun", "time": "Closed"}], "id": "3074700009", "name": "USPS COLLECTION BOX - BLUE BOX", "address": {"city": "SUMMERVILLE", "state": "GA", "street": "9922 COMMERCE ST", "postcode": "30747"}}},
{"geometry": {"type": "Point", "coordinates": [-85.3617911221, 34.4724049335]}, "type": "Feature", "properties": {"collection_times": [{"days": "Mon-Fri", "time": "2:15pm"}, {"days": "Sat", "time": "12:30pm"}, {"days": "Sun", "time": "Closed"}], "id": "3074700010", "name": "USPS COLLECTION BOX - BLUE BOX", "address": {"city": "SUMMERVILLE", "state": "GA", "street": "9922 COMMERCE ST", "postcode": "30747"}}},
{"geometry": {"type": "Point", "coordinates": [-84.7378135236, 34.9854640103]}, "type": "Feature", "properties": {"collection_times": [{"days": "Mon-Fri", "time": "3:30pm"}, {"days": "Sat", "time": "11:00am"}, {"days": "Sun", "time": "Closed"}], "id": "3075100001", "name": "USPS COLLECTION BOX - BLUE BOX", "address": {"city": "TENNGA", "state": "GA", "street": "57 TENNGA GREGORY RD", "postcode": "30751"}}},
{"geometry": {"type": "Point", "coordinates": [-84.7378135236, 34.9854640103]}, "type": "Feature", "properties": {"collection_times": [{"days": "Mon-Fri", "time": "3:30pm"}, {"days": "Sat", "time": "11:00am"}, {"days": "Sun", "time": "Closed"}], "id": "3075100002", "name": "USPS COLLECTION BOX - PO LOBBY", "address": {"city": "TENNGA", "state": "GA", "street": "57 TENNGA GREGORY RD", "postcode": "30751"}}},
{"geometry": {"type": "Point", "coordinates": [-84.7378135236, 34.9854640103]}, "type": "Feature", "properties": {"collection_times": [{"days": "Mon-Fri", "time": "3:30pm"}, {"days": "Sat", "time": "11:00am"}, {"days": "Sun", "time": "Closed"}], "id": "3075100003", "name": "USPS COLLECTION BOX - PO LOBBY", "address": {"city": "TENNGA", "state": "GA", "street": "57 TENNGA GREGORY RD", "postcode": "30751"}}},
{"geometry": {"type": "Point", "coordinates": [-85.5079056566, 34.8744059612]}, "type": "Feature", "properties": {"collection_times": [{"days": "Mon-Sat", "time": "12:00pm"}, {"days": "Sun", "time": "Closed"}], "id": "3075200001", "name": "USPS COLLECTION BOX - BLUE BOX", "address": {"city": "TRENTON", "state": "GA", "street": "12441 N MAIN ST", "postcode": "30752"}}},
{"geometry": {"type": "Point", "coordinates": [-85.5079056566, 34.8744059612]}, "type": "Feature", "properties": {"collection_times": [{"days": "Mon-Sat", "time": "12:00pm"}, {"days": "Sun", "time": "Closed"}], "id": "3075200002", "name": "USPS COLLECTION BOX - BLUE BOX", "address": {"city": "TRENTON", "state": "GA", "street": "12441 N MAIN ST", "postcode": "30752"}}},
{"geometry": {"type": "Point", "coordinates": [-85.5079056566, 34.8744059612]}, "type": "Feature", "properties": {"collection_times": [{"days": "Mon-Sat", "time": "12:00pm"}, {"days": "Sun", "time": "Closed"}], "id": "3075200003", "name": "USPS COLLECTION BOX - PO LOBBY", "address": {"city": "TRENTON", "state": "GA", "street": "12441 N MAIN ST", "postcode": "30752"}}},
{"geometry": {"type": "Point", "coordinates": [-85.5079056566, 34.8744059612]}, "type": "Feature", "properties": {"collection_times": [{"days": "Mon-Sat", "time": "12:00pm"}, {"days": "Sun", "time": "Closed"}], "id": "3075200004", "name": "USPS COLLECTION BOX - PO LOBBY", "address": {"city": "TRENTON", "state": "GA", "street": "12441 N MAIN ST", "postcode": "30752"}}},
{"geometry": {"type": "Point", "coordinates": [-85.3087247311, 34.5278487874]}, "type": "Feature", "properties": {"collection_times": [{"days": "Mon-Fri", "time": "4:00pm"}, {"days": "Sat", "time": "2:00pm"}, {"days": "Sun", "time": "Closed"}], "id": "3075300001", "name": "USPS COLLECTION BOX - BLUE BOX", "address": {"city": "TRION", "state": "GA", "street": "14366 HIGHWAY 27", "postcode": "30753"}}},
{"geometry": {"type": "Point", "coordinates": [-85.3087247311, 34.5278487874]}, "type": "Feature", "properties": {"collection_times": [{"days": "Mon-Fri", "time": "4:00pm"}, {"days": "Sat", "time": "2:00pm"}, {"days": "Sun", "time": "Closed"}], "id": "3075300006", "name": "USPS COLLECTION BOX - BLUE BOX", "address": {"city": "TRION", "state": "GA", "street": "14366 HIGHWAY 27", "postcode": "30753"}}},
{"geometry": {"type": "Point", "coordinates": [-85.3087247311, 34.5278487874]}, "type": "Feature", "properties": {"collection_times": [{"days": "Mon-Fri", "time": "4:00pm"}, {"days": "Sat", "time": "2:00pm"}, {"days": "Sun", "time": "Closed"}], "id": "3075300007", "name": "USPS COLLECTION BOX - PO LOBBY", "address": {"city": "TRION", "state": "GA", "street": "14366 HIGHWAY 27", "postcode": "30753"}}},
{"geometry": {"type": "Point", "coordinates": [-85.3087247311, 34.5278487874]}, "type": "Feature", "properties": {"collection_times": [{"days": "Mon-Fri", "time": "4:00pm"}, {"days": "Sat", "time": "2:00pm"}, {"days": "Sun", "time": "Closed"}], "id": "3075300008", "name": "USPS COLLECTION BOX - PO LOBBY", "address": {"city": "TRION", "state": "GA", "street": "14366 HIGHWAY 27", "postcode": "30753"}}},
{"geometry": {"type": "Point", "coordinates": [-85.0424357168, 34.8437234184]}, "type": "Feature", "properties": {"collection_times": [{"days": "Mon-Sat", "time": "11:45am"}, {"days": "Sun", "time": "Closed"}], "id": "3075500002", "name": "USPS COLLECTION BOX - BLUE BOX", "address": {"city": "TUNNEL HILL", "state": "GA", "street": "106 S VARNELL RD", "postcode": "30755"}}},
{"geometry": {"type": "Point", "coordinates": [-85.0424357168, 34.8437234184]}, "type": "Feature", "properties": {"collection_times": [{"days": "Mon-Sat", "time": "11:45am"}, {"days": "Sun", "time": "Closed"}], "id": "3075500003", "name": "USPS COLLECTION BOX - PO LOBBY", "address": {"city": "TUNNEL HILL", "state": "GA", "street": "106 S VARNELL RD", "postcode": "30755"}}},
{"geometry": {"type": "Point", "coordinates": [-85.0424357168, 34.8437234184]}, "type": "Feature", "properties": {"collection_times": [{"days": "Mon-Sat", "time": "11:45am"}, {"days": "Sun", "time": "Closed"}], "id": "3075500004", "name": "USPS COLLECTION BOX - PO LOBBY", "address": {"city": "TUNNEL HILL", "state": "GA", "street": "106 S VARNELL RD", "postcode": "30755"}}},
{"geometry": {"type": "Point", "coordinates": [-84.9737964689, 34.9011039368]}, "type": "Feature", "properties": {"collection_times": [{"days": "Mon-Fri", "time": "3:30pm"}, {"days": "Sat", "time": "12:00pm"}, {"days": "Sun", "time": "Closed"}], "id": "3075600001", "name": "USPS COLLECTION BOX - BLUE BOX", "address": {"city": "VARNELL", "state": "GA", "street": "103 E MAIN ST", "postcode": "30756"}}},
{"geometry": {"type": "Point", "coordinates": [-85.4180850195, 34.9635236942]}, "type": "Feature", "properties": {"collection_times": [{"days": "Mon-Fri", "time": "2:30pm"}, {"days": "Sat", "time": "10:15am"}, {"days": "Sun", "time": "Closed"}], "id": "3075700000", "name": "USPS COLLECTION BOX - PO LOBBY", "address": {"city": "WILDWOOD", "state": "GA", "street": "20605 HIGHWAY 11", "postcode": "30757"}}},
{"geometry": {"type": "Point", "coordinates": [-85.4180850195, 34.9635236942]}, "type": "Feature", "properties": {"collection_times": [{"days": "Mon-Fri", "time": "2:30pm"}, {"days": "Sat", "time": "10:15am"}, {"days": "Sun", "time": "Closed"}], "id": "3075700001", "name": "USPS COLLECTION BOX - BLUE BOX", "address": {"city": "WILDWOOD", "state": "GA", "street": "20605 HIGHWAY 11", "postcode": "30757"}}}
]}
