{"type": "FeatureCollection", "features": [
{"geometry": {"type": "Point", "coordinates": [-82.3147337484, 33.5387260256]}, "type": "Feature", "properties": {"collection_times": [{"days": "Mon-Fri", "time": "4:00pm"}, {"days": "Sat", "time": "11:30am"}, {"days": "Sun", "time": "Closed"}], "id": "3080200001", "name": "USPS COLLECTION BOX - BLUE BOX", "address": {"city": "APPLING", "state": "GA", "street": "1849 APPLING HARLEM RD", "postcode": "30802"}}},
{"geometry": {"type": "Point", "coordinates": [-82.3147337484, 33.5387260256]}, "type": "Feature", "properties": {"collection_times": [{"days": "Mon-Fri", "time": "4:00pm"}, {"days": "Sat", "time": "11:30am"}, {"days": "Sun", "time": "Closed"}], "id": "3080200002", "name": "USPS COLLECTION BOX - PO LOBBY", "address": {"city": "APPLING", "state": "GA", "street": "1849 APPLING HARLEM RD", "postcode": "30802"}}},
{"geometry": {"type": "Point", "coordinates": [-82.3147337484, 33.5387260256]}, "type": "Feature", "properties": {"collection_times": [{"days": "Mon-Fri", "time": "4:00pm"}, {"days": "Sat", "time": "11:30am"}, {"days": "Sun", "time": "Closed"}], "id": "3080200005", "name": "USPS COLLECTION BOX - BLUE BOX", "address": {"city": "APPLING", "state": "GA", "street": "1849 APPLING HARLEM RD", "postcode": "30802"}}},
{"geometry": {"type": "Point", "coordinates": [-82.5290254761, 33.192769055]}, "type": "Feature", "properties": {"collection_times": [{"days": "Mon-Fri", "time": "12:30pm"}, {"days": "Sat", "time": "11:15am"}, {"days": "Sun", "time": "Closed"}], "id": "3080300001", "name": "USPS COLLECTION BOX - BLUE BOX", "address": {"city": "AVERA", "state": "GA", "street": "9448 BROAD ST", "postcode": "30803"}}},
{"geometry": {"type": "Point", "coordinates": [-82.5290254761, 33.192769055]}, "type": "Feature", "properties": {"collection_times": [{"days": "Mon-Fri", "time": "12:30pm"}, {"days": "Sat", "time": "11:30am"}, {"days": "Sun", "time": "Closed"}], "id": "3080300002", "name": "USPS COLLECTION BOX - PO LOBBY", "address": {"city": "AVERA", "state": "GA", "street": "9448 BROAD ST", "postcode": "30803"}}},
{"geometry": {"type": "Point", "coordinates": [-82.2044334659, 33.2889222866]}, "type": "Feature", "properties": {"collection_times": [{"days": "Mon-Fri", "time": "3:00pm"}, {"days": "Sat", "time": "10:30am"}, {"days": "Sun", "time": "Closed"}], "id": "3080500001", "name": "USPS COLLECTION BOX - BLUE BOX", "address": {"city": "BLYTHE", "state": "GA", "street": "141 GINHOUSE RD", "postcode": "30805"}}},
{"geometry": {"type": "Point", "coordinates": [-82.2044334659, 33.2889222866]}, "type": "Feature", "properties": {"collection_times": [{"days": "Mon-Fri", "time": "3:00pm"}, {"days": "Sat", "time": "10:45am"}, {"days": "Sun", "time": "Closed"}], "id": "3080500002", "name": "USPS COLLECTION BOX - PO LOBBY", "address": {"city": "BLYTHE", "state": "GA", "street": "141 GINHOUSE RD", "postcode": "30805"}}},
{"geometry": {"type": "Point", "coordinates": [-82.6396469372, 33.4768781212]}, "type": "Feature", "properties": {"collection_times": [{"days": "Mon-Fri", "time": "12:00pm"}, {"days": "Sat", "time": "11:00am"}, {"days": "Sun", "time": "Closed"}], "id": "3080700001", "name": "USPS COLLECTION BOX - BLUE BOX", "address": {"city": "CAMAK", "state": "GA", "street": "3374 GA HIGHWAY 80 N", "postcode": "30807"}}},
{"geometry": {"type": "Point", "coordinates": [-82.6396469372, 33.4768781212]}, "type": "Feature", "properties": {"collection_times": [{"days": "Mon-Fri", "time": "12:00pm"}, {"days": "Sat", "time": "11:00am"}, {"days": "Sun", "time": "Closed"}], "id": "3080700002", "name": "USPS COLLECTION BOX - PO LOBBY", "address": {"city": "CAMAK", "state": "GA", "street": "3374 GA HIGHWAY 80 N", "postcode": "30807"}}},
{"geometry": {"type": "Point", "coordinates": [-82.3658361456, 33.4152642813]}, "type": "Feature", "properties": {"collection_times": [{"days": "Mon-Fri", "time": "4:00pm"}, {"days": "Sat", "time": "10:30am"}, {"days": "Sun", "time": "Closed"}], "id": "3080800001", "name": "USPS COLLECTION BOX - BLUE BOX", "address": {"city": "DEARING", "state": "GA", "street": "4479 AUGUSTA HWY", "postcode": "30808"}}},
{"geometry": {"type": "Point", "coordinates": [-82.3658361456, 33.4152642813]}, "type": "Feature", "properties": {"collection_times": [{"days": "Mon-Fri", "time": "4:00pm"}, {"days": "Sat", "time": "10:30am"}, {"days": "Sun", "time": "Closed"}], "id": "3080800002", "name": "USPS COLLECTION BOX - PO LOBBY", "address": {"city": "DEARING", "state": "GA", "street": "4479 AUGUSTA HWY", "postcode": "30808"}}},
{"geometry": {"type": "Point", "coordinates": [-82.1355531068, 33.5428099999]}, "type": "Feature", "properties": {"collection_times": [{"days": "Mon-Fri", "time": "5:00pm"}, {"days": "Sat", "time": "1:00pm"}, {"days": "Sun", "time": "Closed"}], "id": "3080900001", "name": "USPS COLLECTION BOX - BLUE BOX", "address": {"city": "EVANS", "state": "GA", "street": "607 RONALD REAGAN DR", "postcode": "30809"}}},
{"geometry": {"type": "Point", "coordinates": [-82.1287787833, 33.5375966091]}, "type": "Feature", "properties": {"collection_times": [{"days": "Mon-Sat", "time": "2:00pm"}, {"days": "Sun", "time": "Closed"}], "id": "3080900004", "name": "USPS COLLECTION BOX - BLUE BOX", "address": {"city": "EVANS", "state": "GA", "street": "4355 WASHINGTON RD", "postcode": "30809"}}},
{"geometry": {"type": "Point", "coordinates": [-82.123723193, 33.5303355432]}, "type": "Feature", "properties": {"collection_times": [{"days": "Mon-Sat", "time": "12:00pm"}, {"days": "Sun", "time": "Closed"}], "id": "3080900005", "name": "USPS COLLECTION BOX - BLUE BOX", "address": {"city": "EVANS", "state": "GA", "street": "4274 WASHINGTON RD", "postcode": "30809"}}},
{"geometry": {"type": "Point", "coordinates": [-82.1355531068, 33.5428099999]}, "type": "Feature", "properties": {"collection_times": [{"days": "Mon-Fri", "time": "5:00pm"}, {"days": "Sat", "time": "1:00pm"}, {"days": "Sun", "time": "Closed"}], "id": "3080900006", "name": "USPS COLLECTION BOX - PO LOBBY", "address": {"city": "EVANS", "state": "GA", "street": "607 RONALD REAGAN DR", "postcode": "30809"}}},
{"geometry": {"type": "Point", "coordinates": [-82.1355531068, 33.5428099999]}, "type": "Feature", "properties": {"collection_times": [{"days": "Mon-Fri", "time": "5:00pm"}, {"days": "Sat", "time": "1:00pm"}, {"days": "Sun", "time": "Closed"}], "id": "3080900008", "name": "USPS COLLECTION BOX - APC", "address": {"city": "EVANS", "state": "GA", "street": "607 RONALD REAGAN DR", "postcode": "30809"}}},
{"geometry": {"type": "Point", "coordinates": [-82.5955822455, 33.2335415897]}, "type": "Feature", "properties": {"collection_times": [{"days": "Mon-Fri", "time": "4:15pm"}, {"days": "Sat", "time": "11:15am"}, {"days": "Sun", "time": "Closed"}], "id": "3081000001", "name": "USPS COLLECTION BOX - BLUE BOX", "address": {"city": "GIBSON", "state": "GA", "street": "21 W MAIN ST", "postcode": "30810"}}},
{"geometry": {"type": "Point", "coordinates": [-82.5955822455, 33.2335415897]}, "type": "Feature", "properties": {"collection_times": [{"days": "Mon-Fri", "time": "4:30pm"}, {"days": "Sat", "time": "11:30am"}, {"days": "Sun", "time": "Closed"}], "id": "3081000002", "name": "USPS COLLECTION BOX - PO LOBBY", "address": {"city": "GIBSON", "state": "GA", "street": "21 W MAIN ST", "postcode": "30810"}}},
{"geometry": {"type": "Point", "coordinates": [-82.0288230446, 33.3684594377]}, "type": "Feature", "properties": {"collection_times": [{"days": "Mon-Fri", "time": "4:30pm"}, {"days": "Sat", "time": "10:45am"}, {"days": "Sun", "time": "Closed"}], "id": "3081200001", "name": "USPS COLLECTION BOX - BLUE BOX", "address": {"city": "GRACEWOOD", "state": "GA", "street": "102 MYRTLE BLVD", "postcode": "30812"}}},
{"geometry": {"type": "Point", "coordinates": [-82.0288230446, 33.3684594377]}, "type": "Feature", "properties": {"collection_times": [{"days": "Mon-Fri", "time": "4:30pm"}, {"days": "Sat", "time": "10:45am"}, {"days": "Sun", "time": "Closed"}], "id": "3081200002", "name": "USPS COLLECTION BOX - PO LOBBY", "address": {"city": "GRACEWOOD", "state": "GA", "street": "102 MYRTLE BLVD", "postcode": "30812"}}},
{"geometry": {"type": "Point", "coordinates": [-82.221873629, 33.4720133533]}, "type": "Feature", "properties": {"collection_times": [{"days": "Mon-Fri", "time": "5:00pm"}, {"days": "Sat", "time": "2:30pm"}, {"days": "Sun", "time": "Closed"}], "id": "3081300003", "name": "USPS COLLECTION BOX - BLUE BOX", "address": {"city": "GROVETOWN", "state": "GA", "street": "200 JOHN DEERE PKWY", "postcode": "30813"}}},
{"geometry": {"type": "Point", "coordinates": [-82.221873629, 33.4720133533]}, "type": "Feature", "properties": {"collection_times": [{"days": "Mon-Fri", "time": "5:00pm"}, {"days": "Sat", "time": "2:30pm"}, {"days": "Sun", "time": "Closed"}], "id": "3081300006", "name": "USPS COLLECTION BOX - PO LOBBY", "address": {"city": "GROVETOWN", "state": "GA", "street": "200 JOHN DEERE PKWY", "postcode": "30813"}}},
{"geometry": {"type": "Point", "coordinates": [-82.3160316329, 33.4155539387]}, "type": "Feature", "properties": {"collection_times": [{"days": "Mon-Fri", "time": "4:30pm"}, {"days": "Sat", "time": "12:00pm"}, {"days": "Sun", "time": "Closed"}], "id": "3081400002", "name": "USPS COLLECTION BOX - BLUE BOX", "address": {"city": "HARLEM", "state": "GA", "street": "335 W MILLEDGEVILLE RD", "postcode": "30814"}}},
{"geometry": {"type": "Point", "coordinates": [-82.3160316329, 33.4155539387]}, "type": "Feature", "properties": {"collection_times": [{"days": "Mon-Fri", "time": "4:30pm"}, {"days": "Sat", "time": "12:00pm"}, {"days": "Sun", "time": "Closed"}], "id": "3081400004", "name": "USPS COLLECTION BOX - PO LOBBY", "address": {"city": "HARLEM", "state": "GA", "street": "335 W MILLEDGEVILLE RD", "postcode": "30814"}}},
{"geometry": {"type": "Point", "coordinates": [-82.0945500384, 33.3066752568]}, "type": "Feature", "properties": {"collection_times": [{"days": "Mon-Fri", "time": "5:00pm"}, {"days": "Sat", "time": "12:00pm"}, {"days": "Sun", "time": "Closed"}], "id": "3081500001", "name": "USPS COLLECTION BOX - BLUE BOX", "address": {"city": "HEPHZIBAH", "state": "GA", "street": "4902 WINDSOR SPRING RD", "postcode": "30815"}}},
{"geometry": {"type": "Point", "coordinates": [-82.0945500384, 33.3066752568]}, "type": "Feature", "properties": {"collection_times": [{"days": "Mon-Fri", "time": "5:00pm"}, {"days": "Sat", "time": "12:00pm"}, {"days": "Sun", "time": "Closed"}], "id": "3081500002", "name": "USPS COLLECTION BOX - PO LOBBY", "address": {"city": "HEPHZIBAH", "state": "GA", "street": "4902 WINDSOR SPRING RD", "postcode": "30815"}}},
{"geometry": {"type": "Point", "coordinates": [-82.0768501619, 33.3774162305]}, "type": "Feature", "properties": {"collection_times": [{"days": "Mon-Sat", "time": "11:00am"}, {"days": "Sun", "time": "Closed"}], "id": "3081500004", "name": "USPS COLLECTION BOX - BLUE BOX", "address": {"city": "HEPHZIBAH", "state": "GA", "street": "2512 TOBACCO RD", "postcode": "30815"}}},
{"geometry": {"type": "Point", "coordinates": [-82.2254249211, 33.2370210401]}, "type": "Feature", "properties": {"collection_times": [{"days": "Mon-Fri", "time": "4:00pm"}, {"days": "Sat", "time": "11:00am"}, {"days": "Sun", "time": "Closed"}], "id": "3081600001", "name": "USPS COLLECTION BOX - BLUE BOX", "address": {"city": "KEYSVILLE", "state": "GA", "street": "118 OLD WAYNESBORO RD", "postcode": "30816"}}},
{"geometry": {"type": "Point", "coordinates": [-82.2254249211, 33.2370210401]}, "type": "Feature", "properties": {"collection_times": [{"days": "Mon-Fri", "time": "4:00pm"}, {"days": "Sat", "time": "11:00am"}, {"days": "Sun", "time": "Closed"}], "id": "3081600002", "name": "USPS COLLECTION BOX - PO LOBBY", "address": {"city": "KEYSVILLE", "state": "GA", "street": "118 OLD WAYNESBORO RD", "postcode": "30816"}}},
{"geometry": {"type": "Point", "coordinates": [-82.4778435456, 33.7889933628]}, "type": "Feature", "properties": {"collection_times": [{"days": "Mon-Fri", "time": "3:45pm"}, {"days": "Sat", "time": "12:00pm"}, {"days": "Sun", "time": "Closed"}], "id": "3081700001", "name": "USPS COLLECTION BOX - BLUE BOX", "address": {"city": "LINCOLNTON", "state": "GA", "street": "182 ELM ST", "postcode": "30817"}}},
{"geometry": {"type": "Point", "coordinates": [-82.4778435456, 33.7889933628]}, "type": "Feature", "properties": {"collection_times": [{"days": "Mon-Fri", "time": "3:45pm"}, {"days": "Sat", "time": "12:00pm"}, {"days": "Sun", "time": "Closed"}], "id": "3081700002", "name": "USPS COLLECTION BOX - BLUE BOX", "address": {"city": "LINCOLNTON", "state": "GA", "street": "182 ELM ST", "postcode": "30817"}}},
{"geometry": {"type": "Point", "coordinates": [-82.4778435456, 33.7889933628]}, "type": "Feature", "properties": {"collection_times": [{"days": "Mon-Fri", "time": "3:45pm"}, {"days": "Sat", "time": "12:00pm"}, {"days": "Sun", "time": "Closed"}], "id": "3081700003", "name": "USPS COLLECTION BOX - PO LOBBY", "address": {"city": "LINCOLNTON", "state": "GA", "street": "182 ELM ST", "postcode": "30817"}}},
{"geometry": {"type": "Point", "coordinates": [-82.5883423904, 33.4582899909]}, "type": "Feature", "properties": {"collection_times": [{"days": "Mon-Fri", "time": "4:15pm"}, {"days": "Sat", "time": "11:15am"}, {"days": "Sun", "time": "Closed"}], "id": "3081900001", "name": "USPS COLLECTION BOX - BLUE BOX", "address": {"city": "MESENA", "state": "GA", "street": "10 E REESE RD", "postcode": "30819"}}},
{"geometry": {"type": "Point", "coordinates": [-82.5883423904, 33.4582899909]}, "type": "Feature", "properties": {"collection_times": [{"days": "Mon-Fri", "time": "4:15pm"}, {"days": "Sat", "time": "11:15am"}, {"days": "Sun", "time": "Closed"}], "id": "3081900002", "name": "USPS COLLECTION BOX - PO LOBBY", "address": {"city": "MESENA", "state": "GA", "street": "10 E REESE RD", "postcode": "30819"}}},
{"geometry": {"type": "Point", "coordinates": [-82.7120807491, 33.2054056521]}, "type": "Feature", "properties": {"collection_times": [{"days": "Mon-Fri", "time": "1:00pm"}, {"days": "Sat", "time": "10:30am"}, {"days": "Sun", "time": "Closed"}], "id": "3082000001", "name": "USPS COLLECTION BOX - BLUE BOX", "address": {"city": "MITCHELL", "state": "GA", "street": "6488 GA HIGHWAY 102 W", "postcode": "30820"}}},
{"geometry": {"type": "Point", "coordinates": [-82.7120807491, 33.2054056521]}, "type": "Feature", "properties": {"collection_times": [{"days": "Mon-Fri", "time": "1:00pm"}, {"days": "Sat", "time": "10:30am"}, {"days": "Sun", "time": "Closed"}], "id": "3082000002", "name": "USPS COLLECTION BOX - PO LOBBY", "address": {"city": "MITCHELL", "state": "GA", "street": "6488 GA HIGHWAY 102 W", "postcode": "30820"}}},
{"geometry": {"type": "Point", "coordinates": [-82.6743623982, 33.5275077951]}, "type": "Feature", "properties": {"collection_times": [{"days": "Mon-Fri", "time": "12:00pm"}, {"days": "Sat", "time": "11:15am"}, {"days": "Sun", "time": "Closed"}], "id": "3082100001", "name": "USPS COLLECTION BOX - BLUE BOX", "address": {"city": "NORWOOD", "state": "GA", "street": "84 MASSENGALE ST", "postcode": "30821"}}},
{"geometry": {"type": "Point", "coordinates": [-82.6743623982, 33.5275077951]}, "type": "Feature", "properties": {"collection_times": [{"days": "Mon-Fri", "time": "12:15pm"}, {"days": "Sat", "time": "11:15am"}, {"days": "Sun", "time": "Closed"}], "id": "3082100002", "name": "USPS COLLECTION BOX - PO LOBBY", "address": {"city": "NORWOOD", "state": "GA", "street": "84 MASSENGALE ST", "postcode": "30821"}}},
{"geometry": {"type": "Point", "coordinates": [-81.9529969569, 32.909293327]}, "type": "Feature", "properties": {"collection_times": [{"days": "Mon-Fri", "time": "10:30am"}, {"days": "Sat", "time": "11:30am"}, {"days": "Sun", "time": "Closed"}], "id": "3082200001", "name": "USPS COLLECTION BOX - BLUE BOX", "address": {"city": "PERKINS", "state": "GA", "street": "1664 PERKINS GREEN FORK RD", "postcode": "30822"}}},
{"geometry": {"type": "Point", "coordinates": [-81.9529969569, 32.909293327]}, "type": "Feature", "properties": {"collection_times": [{"days": "Mon-Fri", "time": "10:30am"}, {"days": "Sat", "time": "11:30am"}, {"days": "Sun", "time": "Closed"}], "id": "3082200002", "name": "USPS COLLECTION BOX - PO LOBBY", "address": {"city": "PERKINS", "state": "GA", "street": "1664 PERKINS GREEN FORK RD", "postcode": "30822"}}},
{"geometry": {"type": "Point", "coordinates": [-82.4661324461, 33.2155658671]}, "type": "Feature", "properties": {"collection_times": [{"days": "Mon-Fri", "time": "12:00pm"}, {"days": "Sat", "time": "11:15am"}, {"days": "Sun", "time": "Closed"}], "id": "3082300001", "name": "USPS COLLECTION BOX - BLUE BOX", "address": {"city": "STAPLETON", "state": "GA", "street": "135 E MAIN ST", "postcode": "30823"}}},
{"geometry": {"type": "Point", "coordinates": [-82.4661324461, 33.2155658671]}, "type": "Feature", "properties": {"collection_times": [{"days": "Mon-Fri", "time": "11:45am"}, {"days": "Sat", "time": "11:15am"}, {"days": "Sun", "time": "Closed"}], "id": "3082300002", "name": "USPS COLLECTION BOX - PO LOBBY", "address": {"city": "STAPLETON", "state": "GA", "street": "135 E MAIN ST", "postcode": "30823"}}},
{"geometry": {"type": "Point", "coordinates": [-82.4999150322, 33.4611261395]}, "type": "Feature", "properties": {"collection_times": [{"days": "Mon-Fri", "time": "5:00pm"}, {"days": "Sat", "time": "3:00pm"}, {"days": "Sun", "time": "Closed"}], "id": "3082400002", "name": "USPS COLLECTION BOX - BLUE BOX", "address": {"city": "THOMSON", "state": "GA", "street": "223 JACKSON ST", "postcode": "30824"}}},
{"geometry": {"type": "Point", "coordinates": [-82.4999150322, 33.4611261395]}, "type": "Feature", "properties": {"collection_times": [{"days": "Mon-Fri", "time": "5:00pm"}, {"days": "Sat", "time": "3:00pm"}, {"days": "Sun", "time": "Closed"}], "id": "3082400007", "name": "USPS COLLECTION BOX - PO LOBBY", "address": {"city": "THOMSON", "state": "GA", "street": "223 JACKSON ST", "postcode": "30824"}}},
{"geometry": {"type": "Point", "coordinates": [-82.6550484508, 33.4071834863]}, "type": "Feature", "properties": {"collection_times": [{"days": "Mon-Fri", "time": "4:00pm"}, {"days": "Sat", "time": "12:00pm"}, {"days": "Sun", "time": "Closed"}], "id": "3082800002", "name": "USPS COLLECTION BOX - BLUE BOX", "address": {"city": "WARRENTON", "state": "GA", "street": "615 MAIN ST", "postcode": "30828"}}},
{"geometry": {"type": "Point", "coordinates": [-82.6550484508, 33.4071834863]}, "type": "Feature", "properties": {"collection_times": [{"days": "Mon-Fri", "time": "4:00pm"}, {"days": "Sat", "time": "12:00pm"}, {"days": "Sun", "time": "Closed"}], "id": "3082800005", "name": "USPS COLLECTION BOX - PO LOBBY", "address": {"city": "WARRENTON", "state": "GA", "street": "615 MAIN ST", "postcode": "30828"}}},
{"geometry": {"type": "Point", "coordinates": [-82.0131986117, 33.091257507]}, "type": "Feature", "properties": {"collection_times": [{"days": "Mon-Fri", "time": "5:00pm"}, {"days": "Sat", "time": "4:15pm"}, {"days": "Sun", "time": "Closed"}], "id": "3083000012", "name": "USPS COLLECTION BOX - BLUE BOX", "address": {"city": "WAYNESBORO", "state": "GA", "street": "240 E 6TH ST", "postcode": "30830"}}},
{"geometry": {"type": "Point", "coordinates": [-82.0131986117, 33.091257507]}, "type": "Feature", "properties": {"collection_times": [{"days": "Mon-Fri", "time": "5:00pm"}, {"days": "Sat", "time": "4:15pm"}, {"days": "Sun", "time": "Closed"}], "id": "3083000013", "name": "USPS COLLECTION BOX - BLUE BOX", "address": {"city": "WAYNESBORO", "state": "GA", "street": "240 E 6TH ST", "postcode": "30830"}}},
{"geometry": {"type": "Point", "coordinates": [-82.0131986117, 33.091257507]}, "type": "Feature", "properties": {"collection_times": [{"days": "Mon-Fri", "time": "5:00pm"}, {"days": "Sat", "time": "4:15pm"}, {"days": "Sun", "time": "Closed"}], "id": "3083000015", "name": "USPS COLLECTION BOX - BLUE BOX", "address": {"city": "WAYNESBORO", "state": "GA", "street": "240 E 6TH ST", "postcode": "30830"}}},
{"geometry": {"type": "Point", "coordinates": [-82.0116737112, 33.0834379353]}, "type": "Feature", "properties": {"collection_times": [{"days": "Mon-Fri", "time": "5:00pm"}, {"days": "Sat", "time": "3:15pm"}, {"days": "Sun", "time": "Closed"}], "id": "3083000020", "name": "USPS COLLECTION BOX - BLUE BOX", "address": {"city": "WAYNESBORO", "state": "GA", "street": "351 S LIBERTY ST", "postcode": "30830"}}},
{"geometry": {"type": "Point", "coordinates": [-82.0159662055, 33.0903328517]}, "type": "Feature", "properties": {"collection_times": [{"days": "Mon-Fri", "time": "5:00pm"}, {"days": "Sat", "time": "3:15pm"}, {"days": "Sun", "time": "Closed"}], "id": "3083000022", "name": "USPS COLLECTION BOX - BLUE BOX", "address": {"city": "WAYNESBORO", "state": "GA", "street": "618 N LIBERTY ST", "postcode": "30830"}}},
{"geometry": {"type": "Point", "coordinates": [-82.0131986117, 33.091257507]}, "type": "Feature", "properties": {"collection_times": [{"days": "Mon-Fri", "time": "5:30pm"}, {"days": "Sat", "time": "4:30pm"}, {"days": "Sun", "time": "Closed"}], "id": "3083000024", "name": "USPS COLLECTION BOX - PO LOBBY", "address": {"city": "WAYNESBORO", "state": "GA", "street": "240 E 6TH ST", "postcode": "30830"}}},
{"geometry": {"type": "Point", "coordinates": [-82.0131986117, 33.091257507]}, "type": "Feature", "properties": {"collection_times": [{"days": "Mon-Fri", "time": "5:00pm"}, {"days": "Sat", "time": "4:15pm"}, {"days": "Sun", "time": "Closed"}], "id": "3083000025", "name": "USPS COLLECTION BOX - BLUE BOX", "address": {"city": "WAYNESBORO", "state": "GA", "street": "240 E 6TH ST", "postcode": "30830"}}},
{"geometry": {"type": "Point", "coordinates": [-82.3863030731, 33.2086568614]}, "type": "Feature", "properties": {"collection_times": [{"days": "Mon-Fri", "time": "5:00pm"}, {"days": "Sat", "time": "12:30pm"}, {"days": "Sun", "time": "Closed"}], "id": "3083300001", "name": "USPS COLLECTION BOX - BLUE BOX", "address": {"city": "WRENS", "state": "GA", "street": "101 ESTELLE ST", "postcode": "30833"}}},
{"geometry": {"type": "Point", "coordinates": [-82.3863030731, 33.2086568614]}, "type": "Feature", "properties": {"collection_times": [{"days": "Mon-Fri", "time": "5:00pm"}, {"days": "Sat", "time": "12:30pm"}, {"days": "Sun", "time": "Closed"}], "id": "3083300002", "name": "USPS COLLECTION BOX - PO LOBBY", "address": {"city": "WRENS", "state": "GA", "street": "101 ESTELLE ST", "postcode": "30833"}}}
]}
