{"type": "FeatureCollection", "features": [
{"geometry": {"type": "Point", "coordinates": [-81.9672394841, 33.4717082067]}, "type": "Feature", "properties": {"collection_times": [{"days": "Mon-Fri", "time": "5:30pm"}, {"days": "Sat", "time": "5:00pm"}, {"days": "Sun", "time": "Closed"}], "id": "3090100001", "name": "USPS COLLECTION BOX - BLUE BOX", "address": {"city": "AUGUSTA", "state": "GA", "street": "525 8TH ST", "postcode": "30901"}}},
{"geometry": {"type": "Point", "coordinates": [-81.9890554686, 33.4736684143]}, "type": "Feature", "properties": {"collection_times": [{"days": "Mon-Fri", "time": "1:00pm"}, {"days": "Sat-Sun", "time": "Closed"}], "id": "3090100009", "name": "USPS COLLECTION BOX - BLUE BOX", "address": {"city": "AUGUSTA", "state": "GA", "street": "909 15TH ST", "postcode": "30901"}}},
{"geometry": {"type": "Point", "coordinates": [-81.9675646531, 33.4761195053]}, "type": "Feature", "properties": {"collection_times": [{"days": "Mon-Fri", "time": "4:45pm"}, {"days": "Sat-Sun", "time": "Closed"}], "id": "3090100011", "name": "USPS COLLECTION BOX - BLUE BOX", "address": {"city": "AUGUSTA", "state": "GA", "street": "901 BROAD ST", "postcode": "30901"}}},
{"geometry": {"type": "Point", "coordinates": [-81.9828907232, 33.4731223184]}, "type": "Feature", "properties": {"collection_times": [{"days": "Mon-Fri", "time": "3:00pm"}, {"days": "Sat-Sun", "time": "Closed"}], "id": "3090100018", "name": "USPS COLLECTION BOX - BLUE BOX", "address": {"city": "AUGUSTA", "state": "GA", "street": "818 SAINT SEBASTIAN WAY", "postcode": "30901"}}},
{"geometry": {"type": "Point", "coordinates": [-81.969263356, 33.4767647766]}, "type": "Feature", "properties": {"collection_times": [{"days": "Mon-Fri", "time": "5:00pm"}, {"days": "Sat-Sun", "time": "Closed"}], "id": "3090100025", "name": "USPS COLLECTION BOX - BLUE BOX", "address": {"city": "AUGUSTA", "state": "GA", "street": "985 BROAD ST", "postcode": "30901"}}},
{"geometry": {"type": "Point", "coordinates": [-81.9597563202, 33.4650943255]}, "type": "Feature", "properties": {"collection_times": [{"days": "Mon-Fri", "time": "1:45pm"}, {"days": "Sat-Sun", "time": "Closed"}], "id": "3090100037", "name": "USPS COLLECTION BOX - BLUE BOX", "address": {"city": "AUGUSTA", "state": "GA", "street": "401 WALTON WAY", "postcode": "30901"}}},
{"geometry": {"type": "Point", "coordinates": [-81.9784620711, 33.4653344684]}, "type": "Feature", "properties": {"collection_times": [{"days": "Mon-Fri", "time": "9:00am"}, {"days": "Sat-Sun", "time": "Closed"}], "id": "3090100049", "name": "USPS COLLECTION BOX - BLUE BOX", "address": {"city": "AUGUSTA", "state": "GA", "street": "1143 LANEY WALKER BLVD", "postcode": "30901"}}},
{"geometry": {"type": "Point", "coordinates": [-81.9602019165, 33.4712977645]}, "type": "Feature", "properties": {"collection_times": [{"days": "Mon-Fri", "time": "4:30pm"}, {"days": "Sat-Sun", "time": "Closed"}], "id": "3090100067", "name": "USPS COLLECTION BOX - BLUE BOX", "address": {"city": "AUGUSTA", "state": "GA", "street": "501 GREENE ST", "postcode": "30901"}}},
{"geometry": {"type": "Point", "coordinates": [-81.9672394841, 33.4717082067]}, "type": "Feature", "properties": {"collection_times": [{"days": "Mon-Fri", "time": "5:30pm"}, {"days": "Sat", "time": "5:00pm"}, {"days": "Sun", "time": "Closed"}], "id": "3090100077", "name": "USPS COLLECTION BOX - BLUE BOX", "address": {"city": "AUGUSTA", "state": "GA", "street": "525 8TH ST", "postcode": "30901"}}},
{"geometry": {"type": "Point", "coordinates": [-81.954162193, 33.4731920298]}, "type": "Feature", "properties": {"collection_times": [{"days": "Mon-Fri", "time": "4:30pm"}, {"days": "Sat-Sun", "time": "Closed"}], "id": "3090100086", "name": "USPS COLLECTION BOX - BLUE BOX", "address": {"city": "AUGUSTA", "state": "GA", "street": "360 BAY ST", "postcode": "30901"}}},
{"geometry": {"type": "Point", "coordinates": [-81.9625668878, 33.4672281936]}, "type": "Feature", "properties": {"collection_times": [{"days": "Mon-Fri", "time": "4:15pm"}, {"days": "Sat-Sun", "time": "Closed"}], "id": "3090100088", "name": "USPS COLLECTION BOX - BLUE BOX", "address": {"city": "AUGUSTA", "state": "GA", "street": "520 FENWICK ST", "postcode": "30901"}}},
{"geometry": {"type": "Point", "coordinates": [-81.9857239651, 33.4707508489]}, "type": "Feature", "properties": {"collection_times": [{"days": "Mon-Fri", "time": "1:00pm"}, {"days": "Sat-Sun", "time": "Closed"}], "id": "3090100091", "name": "USPS COLLECTION BOX - BLUE BOX", "address": {"city": "AUGUSTA", "state": "GA", "street": "1430 HARPER ST", "postcode": "30901"}}},
{"geometry": {"type": "Point", "coordinates": [-81.9828907232, 33.4731223184]}, "type": "Feature", "properties": {"collection_times": [{"days": "Mon-Fri", "time": "3:00pm"}, {"days": "Sat-Sun", "time": "Closed"}], "id": "3090100093", "name": "USPS COLLECTION BOX - BLUE BOX", "address": {"city": "AUGUSTA", "state": "GA", "street": "818 SAINT SEBASTIAN WAY", "postcode": "30901"}}},
{"geometry": {"type": "Point", "coordinates": [-81.9788351429, 33.4716960306]}, "type": "Feature", "properties": {"collection_times": [{"days": "Mon-Fri", "time": "3:00pm"}, {"days": "Sat-Sun", "time": "Closed"}], "id": "3090100095", "name": "USPS COLLECTION BOX - BLUE BOX", "address": {"city": "AUGUSTA", "state": "GA", "street": "811 13TH ST", "postcode": "30901"}}},
{"geometry": {"type": "Point", "coordinates": [-81.9791457473, 33.4699494323]}, "type": "Feature", "properties": {"collection_times": [{"days": "Mon-Fri", "time": "3:00pm"}, {"days": "Sat-Sun", "time": "Closed"}], "id": "3090100096", "name": "USPS COLLECTION BOX - BLUE BOX", "address": {"city": "AUGUSTA", "state": "GA", "street": "1303 DANTIGNAC ST", "postcode": "30901"}}},
{"geometry": {"type": "Point", "coordinates": [-81.9629286369, 33.4722287532]}, "type": "Feature", "properties": {"collection_times": [{"days": "Mon-Fri", "time": "4:30pm"}, {"days": "Sat-Sun", "time": "Closed"}], "id": "3090100103", "name": "USPS COLLECTION BOX - BLUE BOX", "address": {"city": "AUGUSTA", "state": "GA", "street": "601 GREENE ST", "postcode": "30901"}}},
{"geometry": {"type": "Point", "coordinates": [-81.9629286369, 33.4722287532]}, "type": "Feature", "properties": {"collection_times": [{"days": "Mon-Fri", "time": "4:30pm"}, {"days": "Sat-Sun", "time": "Closed"}], "id": "3090100104", "name": "USPS COLLECTION BOX - BLUE BOX", "address": {"city": "AUGUSTA", "state": "GA", "street": "601 GREENE ST", "postcode": "30901"}}},
{"geometry": {"type": "Point", "coordinates": [-81.9672394841, 33.4717082067]}, "type": "Feature", "properties": {"collection_times": [{"days": "Mon-Fri", "time": "6:00pm"}, {"days": "Sat", "time": "5:00pm"}, {"days": "Sun", "time": "Closed"}], "id": "3090100111", "name": "USPS COLLECTION BOX - PO LOBBY", "address": {"city": "AUGUSTA", "state": "GA", "street": "525 8TH ST", "postcode": "30901"}}},
{"geometry": {"type": "Point", "coordinates": [-81.9807461369, 33.4780735547]}, "type": "Feature", "properties": {"collection_times": [{"days": "Mon-Fri", "time": "5:15pm"}, {"days": "Sat-Sun", "time": "Closed"}], "id": "3090100117", "name": "USPS COLLECTION BOX - BLUE BOX", "address": {"city": "AUGUSTA", "state": "GA", "street": "1450 GREENE ST", "postcode": "30901"}}},
{"geometry": {"type": "Point", "coordinates": [-81.9630280054, 33.4745449869]}, "type": "Feature", "properties": {"collection_times": [{"days": "Mon-Fri", "time": "4:30pm"}, {"days": "Sat-Sun", "time": "Closed"}], "id": "3090100118", "name": "USPS COLLECTION BOX - BLUE BOX", "address": {"city": "AUGUSTA", "state": "GA", "street": "699 BROAD ST", "postcode": "30901"}}},
{"geometry": {"type": "Point", "coordinates": [-81.9630280054, 33.4745449869]}, "type": "Feature", "properties": {"collection_times": [{"days": "Mon-Fri", "time": "4:30pm"}, {"days": "Sat-Sun", "time": "Closed"}], "id": "3090100119", "name": "USPS COLLECTION BOX - BLUE BOX", "address": {"city": "AUGUSTA", "state": "GA", "street": "699 BROAD ST", "postcode": "30901"}}},
{"geometry": {"type": "Point", "coordinates": [-81.9686761507, 33.4786900859]}, "type": "Feature", "properties": {"collection_times": [{"days": "Mon-Fri", "time": "5:00pm"}, {"days": "Sat-Sun", "time": "Closed"}], "id": "3090100123", "name": "USPS COLLECTION BOX - BLUE BOX", "address": {"city": "AUGUSTA", "state": "GA", "street": "1 10TH ST", "postcode": "30901"}}},
{"geometry": {"type": "Point", "coordinates": [-82.021419521, 33.4694769701]}, "type": "Feature", "properties": {"collection_times": [{"days": "Mon-Fri", "time": "5:00pm"}, {"days": "Sat", "time": "4:45pm"}, {"days": "Sun", "time": "Closed"}], "id": "3090400000", "name": "USPS COLLECTION BOX - BLUE BOX", "address": {"city": "AUGUSTA", "state": "GA", "street": "1434 STOVALL ST", "postcode": "30904"}}},
{"geometry": {"type": "Point", "coordinates": [-82.0259129211, 33.4660052061]}, "type": "Feature", "properties": {"collection_times": [{"days": "Mon-Fri", "time": "2:00pm"}, {"days": "Sat-Sun", "time": "Closed"}], "id": "3090400005", "name": "USPS COLLECTION BOX - BLUE BOX", "address": {"city": "AUGUSTA", "state": "GA", "street": "1 FREEDOM WAY", "postcode": "30904"}}},
{"geometry": {"type": "Point", "coordinates": [-82.0178898585, 33.4676235491]}, "type": "Feature", "properties": {"collection_times": [{"days": "Mon-Fri", "time": "1:00pm"}, {"days": "Sat-Sun", "time": "Closed"}], "id": "3090400008", "name": "USPS COLLECTION BOX - BLUE BOX", "address": {"city": "AUGUSTA", "state": "GA", "street": "2260 WRIGHTSBORO RD", "postcode": "30904"}}},
{"geometry": {"type": "Point", "coordinates": [-82.0228548482, 33.4782129482]}, "type": "Feature", "properties": {"collection_times": [{"days": "Mon-Fri", "time": "2:00pm"}, {"days": "Sat-Sun", "time": "Closed"}], "id": "3090400012", "name": "USPS COLLECTION BOX - BLUE BOX", "address": {"city": "AUGUSTA", "state": "GA", "street": "2500 WALTON WAY", "postcode": "30904"}}},
{"geometry": {"type": "Point", "coordinates": [-81.9919004849, 33.4735950708]}, "type": "Feature", "properties": {"collection_times": [{"days": "Mon-Fri", "time": "2:15pm"}, {"days": "Sat-Sun", "time": "Closed"}], "id": "3090400015", "name": "USPS COLLECTION BOX - BLUE BOX", "address": {"city": "AUGUSTA", "state": "GA", "street": "1003 CHAFEE AVE", "postcode": "30904"}}},
{"geometry": {"type": "Point", "coordinates": [-81.999189179, 33.4788746829]}, "type": "Feature", "properties": {"collection_times": [{"days": "Mon-Fri", "time": "1:00pm"}, {"days": "Sat-Sun", "time": "Closed"}], "id": "3090400026", "name": "USPS COLLECTION BOX - BLUE BOX", "address": {"city": "AUGUSTA", "state": "GA", "street": "705 EVE ST", "postcode": "30904"}}},
{"geometry": {"type": "Point", "coordinates": [-82.0059108487, 33.4887455209]}, "type": "Feature", "properties": {"collection_times": [{"days": "Mon-Fri", "time": "1:45pm"}, {"days": "Sat-Sun", "time": "Closed"}], "id": "3090400032", "name": "USPS COLLECTION BOX - BLUE BOX", "address": {"city": "AUGUSTA", "state": "GA", "street": "207 MILLEDGE RD", "postcode": "30904"}}},
{"geometry": {"type": "Point", "coordinates": [-82.0195883364, 33.506768966]}, "type": "Feature", "properties": {"collection_times": [{"days": "Mon-Fri", "time": "9:00am"}, {"days": "Sat-Sun", "time": "Closed"}], "id": "3090400034", "name": "USPS COLLECTION BOX - BLUE BOX", "address": {"city": "AUGUSTA", "state": "GA", "street": "2623 WASHINGTON RD", "postcode": "30904"}}},
{"geometry": {"type": "Point", "coordinates": [-82.0228548482, 33.4782129482]}, "type": "Feature", "properties": {"collection_times": [{"days": "Mon-Fri", "time": "2:00pm"}, {"days": "Sat-Sun", "time": "Closed"}], "id": "3090400045", "name": "USPS COLLECTION BOX - BLUE BOX", "address": {"city": "AUGUSTA", "state": "GA", "street": "2500 WALTON WAY", "postcode": "30904"}}},
{"geometry": {"type": "Point", "coordinates": [-81.9963247514, 33.4735465695]}, "type": "Feature", "properties": {"collection_times": [{"days": "Mon-Fri", "time": "2:15pm"}, {"days": "Sat-Sun", "time": "Closed"}], "id": "3090400046", "name": "USPS COLLECTION BOX - BLUE BOX", "address": {"city": "AUGUSTA", "state": "GA", "street": "1102 DRUID PARK AVE", "postcode": "30904"}}},
{"geometry": {"type": "Point", "coordinates": [-82.021419521, 33.4694769701]}, "type": "Feature", "properties": {"collection_times": [{"days": "Mon-Fri", "time": "4:30pm"}, {"days": "Sat-Sun", "time": "Closed"}], "id": "3090400056", "name": "USPS COLLECTION BOX - PO LOBBY", "address": {"city": "AUGUSTA", "state": "GA", "street": "1434 STOVALL ST", "postcode": "30904"}}},
{"geometry": {"type": "Point", "coordinates": [-82.1258278539, 33.4045319674]}, "type": "Feature", "properties": {"collection_times": [{"days": "Mon-Fri", "time": "4:30pm"}, {"days": "Sat", "time": "12:30pm"}, {"days": "Sun", "time": "Closed"}], "id": "3090500000", "name": "USPS COLLECTION BOX - BLUE BOX", "address": {"city": "AUGUSTA", "state": "GA", "street": "1 PROVOST ST", "postcode": "30905"}}},
{"geometry": {"type": "Point", "coordinates": [-82.1258278539, 33.4045319674]}, "type": "Feature", "properties": {"collection_times": [{"days": "Mon-Fri", "time": "4:30pm"}, {"days": "Sat", "time": "12:30pm"}, {"days": "Sun", "time": "Closed"}], "id": "3090500001", "name": "USPS COLLECTION BOX - BLUE BOX", "address": {"city": "AUGUSTA", "state": "GA", "street": "1 PROVOST ST", "postcode": "30905"}}},
{"geometry": {"type": "Point", "coordinates": [-82.1258278539, 33.4045319674]}, "type": "Feature", "properties": {"collection_times": [{"days": "Mon-Fri", "time": "1:00pm"}, {"days": "Sat", "time": "9:45am"}, {"days": "Sun", "time": "Closed"}], "id": "3090500003", "name": "USPS COLLECTION BOX - BLUE BOX", "address": {"city": "AUGUSTA", "state": "GA", "street": "1 31ST ST", "postcode": "30905"}}},
{"geometry": {"type": "Point", "coordinates": [-82.1258278539, 33.4045319674]}, "type": "Feature", "properties": {"collection_times": [{"days": "Mon-Fri", "time": "1:00pm"}, {"days": "Sat", "time": "9:45am"}, {"days": "Sun", "time": "Closed"}], "id": "3090500004", "name": "USPS COLLECTION BOX - BLUE BOX", "address": {"city": "AUGUSTA", "state": "GA", "street": "1 BARNES AVE", "postcode": "30905"}}},
{"geometry": {"type": "Point", "coordinates": [-82.1258278539, 33.4045319674]}, "type": "Feature", "properties": {"collection_times": [{"days": "Mon-Fri", "time": "1:00pm"}, {"days": "Sat", "time": "9:45am"}, {"days": "Sun", "time": "Closed"}], "id": "3090500005", "name": "USPS COLLECTION BOX - BLUE BOX", "address": {"city": "AUGUSTA", "state": "GA", "street": "1 BARNES AVE", "postcode": "30905"}}},
{"geometry": {"type": "Point", "coordinates": [-82.1258278539, 33.4045319674]}, "type": "Feature", "properties": {"collection_times": [{"days": "Mon-Fri", "time": "1:00pm"}, {"days": "Sat", "time": "9:45am"}, {"days": "Sun", "time": "Closed"}], "id": "3090500007", "name": "USPS COLLECTION BOX - BLUE BOX", "address": {"city": "AUGUSTA", "state": "GA", "street": "1 BRAINARD AVE", "postcode": "30905"}}},
{"geometry": {"type": "Point", "coordinates": [-82.1258278539, 33.4045319674]}, "type": "Feature", "properties": {"collection_times": [{"days": "Mon-Fri", "time": "1:00pm"}, {"days": "Sat", "time": "9:45am"}, {"days": "Sun", "time": "Closed"}], "id": "3090500008", "name": "USPS COLLECTION BOX - BLUE BOX", "address": {"city": "AUGUSTA", "state": "GA", "street": "1 26TH STREET/15TH SIGNAL BN", "postcode": "30905"}}},
{"geometry": {"type": "Point", "coordinates": [-82.1258278539, 33.4045319674]}, "type": "Feature", "properties": {"collection_times": [{"days": "Mon-Fri", "time": "1:00pm"}, {"days": "Sat", "time": "9:45am"}, {"days": "Sun", "time": "Closed"}], "id": "3090500010", "name": "USPS COLLECTION BOX - BLUE BOX", "address": {"city": "AUGUSTA", "state": "GA", "street": "1 CHAMBERLIAN AVE", "postcode": "30905"}}},
{"geometry": {"type": "Point", "coordinates": [-82.1258278539, 33.4045319674]}, "type": "Feature", "properties": {"collection_times": [{"days": "Mon-Fri", "time": "1:00pm"}, {"days": "Sat", "time": "9:45am"}, {"days": "Sun", "time": "Closed"}], "id": "3090500011", "name": "USPS COLLECTION BOX - BLUE BOX", "address": {"city": "AUGUSTA", "state": "GA", "street": "39TH STREET", "postcode": "30905"}}},
{"geometry": {"type": "Point", "coordinates": [-82.1258278539, 33.4045319674]}, "type": "Feature", "properties": {"collection_times": [{"days": "Mon-Fri", "time": "1:00pm"}, {"days": "Sat", "time": "9:45am"}, {"days": "Sun", "time": "Closed"}], "id": "3090500015", "name": "USPS COLLECTION BOX - BLUE BOX", "address": {"city": "AUGUSTA", "state": "GA", "street": "1 HOSPITAL RD", "postcode": "30905"}}},
{"geometry": {"type": "Point", "coordinates": [-82.1258278539, 33.4045319674]}, "type": "Feature", "properties": {"collection_times": [{"days": "Mon-Fri", "time": "1:00pm"}, {"days": "Sat", "time": "9:45am"}, {"days": "Sun", "time": "Closed"}], "id": "3090500016", "name": "USPS COLLECTION BOX - BLUE BOX", "address": {"city": "AUGUSTA", "state": "GA", "street": "1 BRAINARD AVE", "postcode": "30905"}}},
{"geometry": {"type": "Point", "coordinates": [-82.1258278539, 33.4045319674]}, "type": "Feature", "properties": {"collection_times": [{"days": "Mon-Fri", "time": "1:00pm"}, {"days": "Sat-Sun", "time": "Closed"}], "id": "3090500018", "name": "USPS COLLECTION BOX - BLUE BOX", "address": {"city": "AUGUSTA", "state": "GA", "street": "1 DARLING HALL CIR", "postcode": "30905"}}},
{"geometry": {"type": "Point", "coordinates": [-82.1258278539, 33.4045319674]}, "type": "Feature", "properties": {"collection_times": [{"days": "Mon-Fri", "time": "1:00pm"}, {"days": "Sat", "time": "9:45am"}, {"days": "Sun", "time": "Closed"}], "id": "3090500019", "name": "USPS COLLECTION BOX - BLUE BOX", "address": {"city": "AUGUSTA", "state": "GA", "street": "1 CHAMBERLAIN AVE", "postcode": "30905"}}},
{"geometry": {"type": "Point", "coordinates": [-82.1258278539, 33.4045319674]}, "type": "Feature", "properties": {"collection_times": [{"days": "Mon-Fri", "time": "1:00pm"}, {"days": "Sat", "time": "9:45am"}, {"days": "Sun", "time": "Closed"}], "id": "3090500021", "name": "USPS COLLECTION BOX - BLUE BOX", "address": {"city": "AUGUSTA", "state": "GA", "street": "1 25TH ST", "postcode": "30905"}}},
{"geometry": {"type": "Point", "coordinates": [-82.1258278539, 33.4045319674]}, "type": "Feature", "properties": {"collection_times": [{"days": "Mon-Fri", "time": "4:30pm"}, {"days": "Sat", "time": "12:30pm"}, {"days": "Sun", "time": "Closed"}], "id": "3090500022", "name": "USPS COLLECTION BOX - PO LOBBY", "address": {"city": "AUGUSTA", "state": "GA", "street": "1 36TH ST BLDG", "postcode": "30905"}}},
{"geometry": {"type": "Point", "coordinates": [-82.0257033808, 33.4120754511]}, "type": "Feature", "properties": {"collection_times": [{"days": "Mon-Fri", "time": "5:30pm"}, {"days": "Sat", "time": "4:45pm"}, {"days": "Sun", "time": "Closed"}], "id": "3090600001", "name": "USPS COLLECTION BOX - BLUE BOX", "address": {"city": "AUGUSTA", "state": "GA", "street": "3108 PEACH ORCHARD RD", "postcode": "30906"}}},
{"geometry": {"type": "Point", "coordinates": [-82.0677259038, 33.4206666242]}, "type": "Feature", "properties": {"collection_times": [{"days": "Mon-Sat", "time": "3:30pm"}, {"days": "Sun", "time": "Closed"}], "id": "3090600012", "name": "USPS COLLECTION BOX - BLUE BOX", "address": {"city": "AUGUSTA", "state": "GA", "street": "3209 DEANS BRIDGE RD", "postcode": "30906"}}},
{"geometry": {"type": "Point", "coordinates": [-82.0783948955, 33.4189636599]}, "type": "Feature", "properties": {"collection_times": [{"days": "Mon-Sat", "time": "3:30pm"}, {"days": "Sun", "time": "Closed"}], "id": "3090600014", "name": "USPS COLLECTION BOX - BLUE BOX", "address": {"city": "AUGUSTA", "state": "GA", "street": "3355 DEANS BRIDGE RD", "postcode": "30906"}}},
{"geometry": {"type": "Point", "coordinates": [-81.9871990977, 33.3956010446]}, "type": "Feature", "properties": {"collection_times": [{"days": "Mon-Fri", "time": "4:00pm"}, {"days": "Sat", "time": "12:00pm"}, {"days": "Sun", "time": "Closed"}], "id": "3090600016", "name": "USPS COLLECTION BOX - BLUE BOX", "address": {"city": "AUGUSTA", "state": "GA", "street": "1550 MARVIN GRIFFIN RD", "postcode": "30906"}}},
{"geometry": {"type": "Point", "coordinates": [-82.0482460872, 33.3996880689]}, "type": "Feature", "properties": {"collection_times": [{"days": "Mon-Sat", "time": "3:45pm"}, {"days": "Sun", "time": "Closed"}], "id": "3090600021", "name": "USPS COLLECTION BOX - BLUE BOX", "address": {"city": "AUGUSTA", "state": "GA", "street": "2416 WINDSOR SPRING RD", "postcode": "30906"}}},
{"geometry": {"type": "Point", "coordinates": [-82.0176467523, 33.4392888944]}, "type": "Feature", "properties": {"collection_times": [{"days": "Mon-Sat", "time": "4:00pm"}, {"days": "Sun", "time": "Closed"}], "id": "3090600034", "name": "USPS COLLECTION BOX - BLUE BOX", "address": {"city": "AUGUSTA", "state": "GA", "street": "1647 GORDON HWY", "postcode": "30906"}}},
{"geometry": {"type": "Point", "coordinates": [-82.0153573782, 33.4391745138]}, "type": "Feature", "properties": {"collection_times": [{"days": "Mon-Fri", "time": "4:00pm"}, {"days": "Sat", "time": "10:30am"}, {"days": "Sun", "time": "Closed"}], "id": "3090600035", "name": "USPS COLLECTION BOX - BLUE BOX", "address": {"city": "AUGUSTA", "state": "GA", "street": "1631 GORDON HWY", "postcode": "30906"}}},
{"geometry": {"type": "Point", "coordinates": [-81.9763942449, 33.3728036388]}, "type": "Feature", "properties": {"collection_times": [{"days": "Mon-Fri", "time": "3:15pm"}, {"days": "Sat", "time": "12:00pm"}, {"days": "Sun", "time": "Closed"}], "id": "3090600036", "name": "USPS COLLECTION BOX - BLUE BOX", "address": {"city": "AUGUSTA", "state": "GA", "street": "1501 AVIATION WAY", "postcode": "30906"}}},
{"geometry": {"type": "Point", "coordinates": [-82.0553047195, 33.4250251417]}, "type": "Feature", "properties": {"collection_times": [{"days": "Mon-Sat", "time": "3:30pm"}, {"days": "Sun", "time": "Closed"}], "id": "3090600037", "name": "USPS COLLECTION BOX - BLUE BOX", "address": {"city": "AUGUSTA", "state": "GA", "street": "3128 DEANS BRIDGE RD", "postcode": "30906"}}},
{"geometry": {"type": "Point", "coordinates": [-82.0257033808, 33.4120754511]}, "type": "Feature", "properties": {"collection_times": [{"days": "Mon-Fri", "time": "5:30pm"}, {"days": "Sat", "time": "1:00pm"}, {"days": "Sun", "time": "Closed"}], "id": "3090600042", "name": "USPS COLLECTION BOX - PO LOBBY", "address": {"city": "AUGUSTA", "state": "GA", "street": "3108 PEACH ORCHARD RD", "postcode": "30906"}}},
{"geometry": {"type": "Point", "coordinates": [-82.093358084, 33.5134261736]}, "type": "Feature", "properties": {"collection_times": [{"days": "Mon-Fri", "time": "5:30pm"}, {"days": "Sat", "time": "4:30pm"}, {"days": "Sun", "time": "Closed"}], "id": "3090700000", "name": "USPS COLLECTION BOX - BLUE BOX", "address": {"city": "AUGUSTA", "state": "GA", "street": "125 COMMERCIAL BLVD", "postcode": "30907"}}},
{"geometry": {"type": "Point", "coordinates": [-82.1071277858, 33.5081280089]}, "type": "Feature", "properties": {"collection_times": [{"days": "Mon-Fri", "time": "3:00pm"}, {"days": "Sat", "time": "2:30pm"}, {"days": "Sun", "time": "Closed"}], "id": "3090700006", "name": "USPS COLLECTION BOX - BLUE BOX", "address": {"city": "AUGUSTA", "state": "GA", "street": "4115 COLUMBIA RD", "postcode": "30907"}}},
{"geometry": {"type": "Point", "coordinates": [-82.0921193012, 33.5147734469]}, "type": "Feature", "properties": {"collection_times": [{"days": "Mon-Fri", "time": "3:00pm"}, {"days": "Sat", "time": "2:30pm"}, {"days": "Sun", "time": "Closed"}], "id": "3090700010", "name": "USPS COLLECTION BOX - BLUE BOX", "address": {"city": "AUGUSTA", "state": "GA", "street": "4480 COLUMBIA RD", "postcode": "30907"}}},
{"geometry": {"type": "Point", "coordinates": [-82.0565161621, 33.5140659784]}, "type": "Feature", "properties": {"collection_times": [{"days": "Mon-Fri", "time": "4:00pm"}, {"days": "Sat", "time": "3:15pm"}, {"days": "Sun", "time": "Closed"}], "id": "3090700012", "name": "USPS COLLECTION BOX - BLUE BOX", "address": {"city": "AUGUSTA", "state": "GA", "street": "3137 WASHINGTON RD", "postcode": "30907"}}},
{"geometry": {"type": "Point", "coordinates": [-82.0537256288, 33.5146232444]}, "type": "Feature", "properties": {"collection_times": [{"days": "Mon-Fri", "time": "4:00pm"}, {"days": "Sat", "time": "3:30pm"}, {"days": "Sun", "time": "Closed"}], "id": "3090700013", "name": "USPS COLLECTION BOX - BLUE BOX", "address": {"city": "AUGUSTA", "state": "GA", "street": "300 SHARTOM DR", "postcode": "30907"}}},
{"geometry": {"type": "Point", "coordinates": [-82.0806468614, 33.5003188829]}, "type": "Feature", "properties": {"collection_times": [{"days": "Mon-Fri", "time": "3:15pm"}, {"days": "Sat", "time": "3:00pm"}, {"days": "Sun", "time": "Closed"}], "id": "3090700015", "name": "USPS COLLECTION BOX - BLUE BOX", "address": {"city": "AUGUSTA", "state": "GA", "street": "2922 PROFESSIONAL PKWY", "postcode": "30907"}}},
{"geometry": {"type": "Point", "coordinates": [-82.0374459283, 33.5181603673]}, "type": "Feature", "properties": {"collection_times": [{"days": "Mon-Fri", "time": "4:00pm"}, {"days": "Sat", "time": "3:30pm"}, {"days": "Sun", "time": "Closed"}], "id": "3090700018", "name": "USPS COLLECTION BOX - BLUE BOX", "address": {"city": "AUGUSTA", "state": "GA", "street": "1058 CLAUSSEN RD", "postcode": "30907"}}},
{"geometry": {"type": "Point", "coordinates": [-82.1100153887, 33.4913820418]}, "type": "Feature", "properties": {"collection_times": [{"days": "Mon-Sat", "time": "3:00pm"}, {"days": "Sun", "time": "Closed"}], "id": "3090700022", "name": "USPS COLLECTION BOX - BLUE BOX", "address": {"city": "AUGUSTA", "state": "GA", "street": "472 FLOWING WELLS RD", "postcode": "30907"}}},
{"geometry": {"type": "Point", "coordinates": [-82.0921193012, 33.5147734469]}, "type": "Feature", "properties": {"collection_times": [{"days": "Mon-Fri", "time": "3:00pm"}, {"days": "Sat", "time": "2:30pm"}, {"days": "Sun", "time": "Closed"}], "id": "3090700024", "name": "USPS COLLECTION BOX - BLUE BOX", "address": {"city": "AUGUSTA", "state": "GA", "street": "4480 COLUMBIA RD", "postcode": "30907"}}},
{"geometry": {"type": "Point", "coordinates": [-82.0717356763, 33.5265223836]}, "type": "Feature", "properties": {"collection_times": [{"days": "Mon-Fri", "time": "3:45pm"}, {"days": "Sat", "time": "3:15pm"}, {"days": "Sun", "time": "Closed"}], "id": "3090700035", "name": "USPS COLLECTION BOX - BLUE BOX", "address": {"city": "AUGUSTA", "state": "GA", "street": "374 FURYS FERRY RD", "postcode": "30907"}}},
{"geometry": {"type": "Point", "coordinates": [-82.1172799397, 33.507925723]}, "type": "Feature", "properties": {"collection_times": [{"days": "Mon-Fri", "time": "3:00pm"}, {"days": "Sat", "time": "2:30pm"}, {"days": "Sun", "time": "Closed"}], "id": "3090700038", "name": "USPS COLLECTION BOX - BLUE BOX", "address": {"city": "AUGUSTA", "state": "GA", "street": "4210 COLUMBIA RD", "postcode": "30907"}}},
{"geometry": {"type": "Point", "coordinates": [-82.093358084, 33.5134261736]}, "type": "Feature", "properties": {"collection_times": [{"days": "Mon-Fri", "time": "5:30pm"}, {"days": "Sat", "time": "4:30pm"}, {"days": "Sun", "time": "Closed"}], "id": "3090700039", "name": "USPS COLLECTION BOX - PO LOBBY", "address": {"city": "AUGUSTA", "state": "GA", "street": "125 COMMERCIAL BLVD", "postcode": "30907"}}},
{"geometry": {"type": "Point", "coordinates": [-82.093358084, 33.5134261736]}, "type": "Feature", "properties": {"collection_times": [{"days": "Mon-Fri", "time": "5:30pm"}, {"days": "Sat", "time": "4:30pm"}, {"days": "Sun", "time": "Closed"}], "id": "3090700044", "name": "USPS COLLECTION BOX - APC", "address": {"city": "AUGUSTA", "state": "GA", "street": "125 COMMERCIAL BLVD", "postcode": "30907"}}},
{"geometry": {"type": "Point", "coordinates": [-82.0853725383, 33.5114544751]}, "type": "Feature", "properties": {"collection_times": [{"days": "Mon-Fri", "time": "3:30pm"}, {"days": "Sat", "time": "3:00pm"}, {"days": "Sun", "time": "Closed"}], "id": "3090700045", "name": "USPS COLLECTION BOX - BLUE BOX", "address": {"city": "AUGUSTA", "state": "GA", "street": "119 DAVIS RD", "postcode": "30907"}}},
{"geometry": {"type": "Point", "coordinates": [-82.0684781263, 33.4798917428]}, "type": "Feature", "properties": {"collection_times": [{"days": "Mon-Fri", "time": "5:30pm"}, {"days": "Sat", "time": "4:45pm"}, {"days": "Sun", "time": "Closed"}], "id": "3090900000", "name": "USPS COLLECTION BOX - BLUE BOX", "address": {"city": "AUGUSTA", "state": "GA", "street": "3301 WRIGHTSBORO RD", "postcode": "30909"}}},
{"geometry": {"type": "Point", "coordinates": [-82.067733241, 33.469350162]}, "type": "Feature", "properties": {"collection_times": [{"days": "Mon-Fri", "time": "5:30pm"}, {"days": "Sat", "time": "4:45pm"}, {"days": "Sun", "time": "Closed"}], "id": "3090900001", "name": "USPS COLLECTION BOX - BLUE BOX", "address": {"city": "AUGUSTA", "state": "GA", "street": "3301 WRIGHTSBORO RD", "postcode": "30909"}}},
{"geometry": {"type": "Point", "coordinates": [-82.067733241, 33.469350162]}, "type": "Feature", "properties": {"collection_times": [{"days": "Mon-Fri", "time": "5:30pm"}, {"days": "Sat", "time": "4:45pm"}, {"days": "Sun", "time": "Closed"}], "id": "3090900004", "name": "USPS COLLECTION BOX - BLUE BOX", "address": {"city": "AUGUSTA", "state": "GA", "street": "3301 WRIGHTSBORO RD", "postcode": "30909"}}},
{"geometry": {"type": "Point", "coordinates": [-82.0227674332, 33.5085668867]}, "type": "Feature", "properties": {"collection_times": [{"days": "Mon-Fri", "time": "4:45pm"}, {"days": "Sat", "time": "1:00pm"}, {"days": "Sun", "time": "Closed"}], "id": "3090900007", "name": "USPS COLLECTION BOX - BLUE BOX", "address": {"city": "AUGUSTA", "state": "GA", "street": "2701 WASHINGTON RD", "postcode": "30909"}}},
{"geometry": {"type": "Point", "coordinates": [-82.0329633565, 33.5106536263]}, "type": "Feature", "properties": {"collection_times": [{"days": "Mon-Fri", "time": "4:30pm"}, {"days": "Sat", "time": "1:00pm"}, {"days": "Sun", "time": "Closed"}], "id": "3090900008", "name": "USPS COLLECTION BOX - BLUE BOX", "address": {"city": "AUGUSTA", "state": "GA", "street": "2825 WASHINGTON RD", "postcode": "30909"}}},
{"geometry": {"type": "Point", "coordinates": [-82.02879821, 33.5101323595]}, "type": "Feature", "properties": {"collection_times": [{"days": "Mon-Fri", "time": "3:00pm"}, {"days": "Sat", "time": "1:00pm"}, {"days": "Sun", "time": "Closed"}], "id": "3090900010", "name": "USPS COLLECTION BOX - BLUE BOX", "address": {"city": "AUGUSTA", "state": "GA", "street": "2801 WASHINGTON RD", "postcode": "30909"}}},
{"geometry": {"type": "Point", "coordinates": [-82.0300535461, 33.4845200974]}, "type": "Feature", "properties": {"collection_times": [{"days": "Mon-Fri", "time": "4:00pm"}, {"days": "Sat", "time": "1:00pm"}, {"days": "Sun", "time": "Closed"}], "id": "3090900012", "name": "USPS COLLECTION BOX - BLUE BOX", "address": {"city": "AUGUSTA", "state": "GA", "street": "499 HIGHLAND AVE", "postcode": "30909"}}},
{"geometry": {"type": "Point", "coordinates": [-82.0875525556, 33.4831383747]}, "type": "Feature", "properties": {"collection_times": [{"days": "Mon-Fri", "time": "4:00pm"}, {"days": "Sat", "time": "1:00pm"}, {"days": "Sun", "time": "Closed"}], "id": "3090900014", "name": "USPS COLLECTION BOX - BLUE BOX", "address": {"city": "AUGUSTA", "state": "GA", "street": "3651 WHEELER RD", "postcode": "30909"}}},
{"geometry": {"type": "Point", "coordinates": [-82.0868337304, 33.4831376224]}, "type": "Feature", "properties": {"collection_times": [{"days": "Mon-Fri", "time": "3:00pm"}, {"days": "Sat-Sun", "time": "Closed"}], "id": "3090900016", "name": "USPS COLLECTION BOX - BLUE BOX", "address": {"city": "AUGUSTA", "state": "GA", "street": "3602 WHEELER RD", "postcode": "30909"}}},
{"geometry": {"type": "Point", "coordinates": [-82.0791555382, 33.4676317747]}, "type": "Feature", "properties": {"collection_times": [{"days": "Mon-Fri", "time": "3:30pm"}, {"days": "Sat", "time": "3:00pm"}, {"days": "Sun", "time": "Closed"}], "id": "3090900027", "name": "USPS COLLECTION BOX - BLUE BOX", "address": {"city": "AUGUSTA", "state": "GA", "street": "3435 WRIGHTSBORO RD", "postcode": "30909"}}},
{"geometry": {"type": "Point", "coordinates": [-82.049785033, 33.492185271]}, "type": "Feature", "properties": {"collection_times": [{"days": "Mon-Fri", "time": "4:15pm"}, {"days": "Sat", "time": "1:00pm"}, {"days": "Sun", "time": "Closed"}], "id": "3090900029", "name": "USPS COLLECTION BOX - BLUE BOX", "address": {"city": "AUGUSTA", "state": "GA", "street": "600 AUMOND RD", "postcode": "30909"}}},
{"geometry": {"type": "Point", "coordinates": [-82.0357427668, 33.514885762]}, "type": "Feature", "properties": {"collection_times": [{"days": "Mon-Fri", "time": "4:30pm"}, {"days": "Sat-Sun", "time": "Closed"}], "id": "3090900032", "name": "USPS COLLECTION BOX - BLUE BOX", "address": {"city": "AUGUSTA", "state": "GA", "street": "2531 CENTER WEST PKWY", "postcode": "30909"}}},
{"geometry": {"type": "Point", "coordinates": [-82.0764678693, 33.4860228957]}, "type": "Feature", "properties": {"collection_times": [{"days": "Mon-Fri", "time": "3:00pm"}, {"days": "Sat", "time": "1:00pm"}, {"days": "Sun", "time": "Closed"}], "id": "3090900041", "name": "USPS COLLECTION BOX - BLUE BOX", "address": {"city": "AUGUSTA", "state": "GA", "street": "3515 WHEELER RD", "postcode": "30909"}}},
{"geometry": {"type": "Point", "coordinates": [-82.0782809015, 33.4849708146]}, "type": "Feature", "properties": {"collection_times": [{"days": "Mon-Fri", "time": "4:15pm"}, {"days": "Sat", "time": "1:00pm"}, {"days": "Sun", "time": "Closed"}], "id": "3090900043", "name": "USPS COLLECTION BOX - BLUE BOX", "address": {"city": "AUGUSTA", "state": "GA", "street": "3540 WHEELER RD", "postcode": "30909"}}},
{"geometry": {"type": "Point", "coordinates": [-82.0782809015, 33.4849708146]}, "type": "Feature", "properties": {"collection_times": [{"days": "Mon-Fri", "time": "4:15pm"}, {"days": "Sat", "time": "1:00pm"}, {"days": "Sun", "time": "Closed"}], "id": "3090900044", "name": "USPS COLLECTION BOX - BLUE BOX", "address": {"city": "AUGUSTA", "state": "GA", "street": "3540 WHEELER RD", "postcode": "30909"}}},
{"geometry": {"type": "Point", "coordinates": [-82.0932573137, 33.4880349288]}, "type": "Feature", "properties": {"collection_times": [{"days": "Mon-Fri", "time": "4:00pm"}, {"days": "Sat", "time": "1:00pm"}, {"days": "Sun", "time": "Closed"}], "id": "3090900055", "name": "USPS COLLECTION BOX - BLUE BOX", "address": {"city": "AUGUSTA", "state": "GA", "street": "3623 J DEWEY GRAY CIR", "postcode": "30909"}}},
{"geometry": {"type": "Point", "coordinates": [-82.0932573137, 33.4880349288]}, "type": "Feature", "properties": {"collection_times": [{"days": "Mon-Fri", "time": "4:00pm"}, {"days": "Sat", "time": "1:00pm"}, {"days": "Sun", "time": "Closed"}], "id": "3090900056", "name": "USPS COLLECTION BOX - BLUE BOX", "address": {"city": "AUGUSTA", "state": "GA", "street": "3623 J DEWEY GRAY CIR", "postcode": "30909"}}},
{"geometry": {"type": "Point", "coordinates": [-82.049785033, 33.492185271]}, "type": "Feature", "properties": {"collection_times": [{"days": "Mon-Fri", "time": "4:15pm"}, {"days": "Sat", "time": "1:00pm"}, {"days": "Sun", "time": "Closed"}], "id": "3090900058", "name": "USPS COLLECTION BOX - BLUE BOX", "address": {"city": "AUGUSTA", "state": "GA", "street": "600 AUMOND RD", "postcode": "30909"}}},
{"geometry": {"type": "Point", "coordinates": [-82.0836389324, 33.4867741165]}, "type": "Feature", "properties": {"collection_times": [{"days": "Mon-Fri", "time": "3:45pm"}, {"days": "Sat-Sun", "time": "Closed"}], "id": "3090900063", "name": "USPS COLLECTION BOX - BLUE BOX", "address": {"city": "AUGUSTA", "state": "GA", "street": "2651 PERIMETER PKWY", "postcode": "30909"}}},
{"geometry": {"type": "Point", "coordinates": [-82.031898851, 33.4691114409]}, "type": "Feature", "properties": {"collection_times": [{"days": "Mon-Fri", "time": "4:30pm"}, {"days": "Sat", "time": "1:00pm"}, {"days": "Sun", "time": "Closed"}], "id": "3090900066", "name": "USPS COLLECTION BOX - BLUE BOX", "address": {"city": "AUGUSTA", "state": "GA", "street": "2803 WRIGHTSBORO RD", "postcode": "30909"}}},
{"geometry": {"type": "Point", "coordinates": [-82.0416391775, 33.510202919]}, "type": "Feature", "properties": {"collection_times": [{"days": "Mon-Fri", "time": "2:50pm"}, {"days": "Sat", "time": "1:00pm"}, {"days": "Sun", "time": "Closed"}], "id": "3090900067", "name": "USPS COLLECTION BOX - BLUE BOX", "address": {"city": "AUGUSTA", "state": "GA", "street": "2601 COMMONS BLVD", "postcode": "30909"}}},
{"geometry": {"type": "Point", "coordinates": [-82.0836389324, 33.4867741165]}, "type": "Feature", "properties": {"collection_times": [{"days": "Mon-Fri", "time": "3:45pm"}, {"days": "Sat-Sun", "time": "Closed"}], "id": "3090900070", "name": "USPS COLLECTION BOX - BLUE BOX", "address": {"city": "AUGUSTA", "state": "GA", "street": "2651 PERIMETER PKWY", "postcode": "30909"}}},
{"geometry": {"type": "Point", "coordinates": [-82.0916739238, 33.4798872935]}, "type": "Feature", "properties": {"collection_times": [{"days": "Mon-Fri", "time": "3:00pm"}, {"days": "Sat", "time": "1:00pm"}, {"days": "Sun", "time": "Closed"}], "id": "3090900071", "name": "USPS COLLECTION BOX - BLUE BOX", "address": {"city": "AUGUSTA", "state": "GA", "street": "2814 HILLCREEK DR", "postcode": "30909"}}},
{"geometry": {"type": "Point", "coordinates": [-82.067733241, 33.469350162]}, "type": "Feature", "properties": {"collection_times": [{"days": "Mon-Fri", "time": "5:00pm"}, {"days": "Sat", "time": "1:00pm"}, {"days": "Sun", "time": "Closed"}], "id": "3090900072", "name": "USPS COLLECTION BOX - PO LOBBY", "address": {"city": "AUGUSTA", "state": "GA", "street": "3301 WRIGHTSBORO RD", "postcode": "30909"}}},
{"geometry": {"type": "Point", "coordinates": [-82.0891562733, 33.479904974]}, "type": "Feature", "properties": {"collection_times": [{"days": "Mon-Fri", "time": "3:00pm"}, {"days": "Sat-Sun", "time": "Closed"}], "id": "3090900077", "name": "USPS COLLECTION BOX - BLUE BOX", "address": {"city": "AUGUSTA", "state": "GA", "street": "1224 AUGUSTA WEST PKWY", "postcode": "30909"}}},
{"geometry": {"type": "Point", "coordinates": [-82.0836389324, 33.4867741165]}, "type": "Feature", "properties": {"collection_times": [{"days": "Mon-Fri", "time": "3:45pm"}, {"days": "Sat-Sun", "time": "Closed"}], "id": "3090900079", "name": "USPS COLLECTION BOX - BLUE BOX", "address": {"city": "AUGUSTA", "state": "GA", "street": "2651 PERIMETER PKWY", "postcode": "30909"}}}
]}
