{"type": "FeatureCollection", "features": [
{"geometry": {"type": "Point", "coordinates": [-83.3068751343, 31.9924599275]}, "type": "Feature", "properties": {"collection_times": [{"days": "Mon-Fri", "time": "10:00am"}, {"days": "Sat-Sun", "time": "Closed"}], "id": "3100100000", "name": "USPS COLLECTION BOX - BLUE BOX", "address": {"city": "ABBEVILLE", "state": "GA", "street": "103 BROAD ST N", "postcode": "31001"}}},
{"geometry": {"type": "Point", "coordinates": [-83.3022202931, 31.9926229713]}, "type": "Feature", "properties": {"collection_times": [{"days": "Mon-Fri", "time": "4:15pm"}, {"days": "Sat", "time": "10:30am"}, {"days": "Sun", "time": "Closed"}], "id": "3100100001", "name": "USPS COLLECTION BOX - BLUE BOX", "address": {"city": "ABBEVILLE", "state": "GA", "street": "210 MAIN ST W", "postcode": "31001"}}},
{"geometry": {"type": "Point", "coordinates": [-83.3022202931, 31.9926229713]}, "type": "Feature", "properties": {"collection_times": [{"days": "Mon-Fri", "time": "4:30pm"}, {"days": "Sat", "time": "10:30am"}, {"days": "Sun", "time": "Closed"}], "id": "3100100002", "name": "USPS COLLECTION BOX - PO LOBBY", "address": {"city": "ABBEVILLE", "state": "GA", "street": "210 MAIN ST W", "postcode": "31001"}}},
{"geometry": {"type": "Point", "coordinates": [-82.5893516255, 32.5310854343]}, "type": "Feature", "properties": {"collection_times": [{"days": "Mon-Fri", "time": "4:30pm"}, {"days": "Sat", "time": "11:30am"}, {"days": "Sun", "time": "Closed"}], "id": "3100200000", "name": "USPS COLLECTION BOX - BLUE BOX", "address": {"city": "ADRIAN", "state": "GA", "street": "102 W MAIN ST", "postcode": "31002"}}},
{"geometry": {"type": "Point", "coordinates": [-82.5893516255, 32.5310854343]}, "type": "Feature", "properties": {"collection_times": [{"days": "Mon-Fri", "time": "4:30pm"}, {"days": "Sat", "time": "11:30am"}, {"days": "Sun", "time": "Closed"}], "id": "3100200001", "name": "USPS COLLECTION BOX - PO LOBBY", "address": {"city": "ADRIAN", "state": "GA", "street": "102 W MAIN ST", "postcode": "31002"}}},
{"geometry": {"type": "Point", "coordinates": [-83.2241952082, 32.5941484866]}, "type": "Feature", "properties": {"collection_times": [{"days": "Mon-Fri", "time": "10:30am"}, {"days": "Sat", "time": "11:00am"}, {"days": "Sun", "time": "Closed"}], "id": "3100300000", "name": "USPS COLLECTION BOX - BLUE BOX", "address": {"city": "ALLENTOWN", "state": "GA", "street": "61 1ST ST", "postcode": "31003"}}},
{"geometry": {"type": "Point", "coordinates": [-83.2241952082, 32.5941484866]}, "type": "Feature", "properties": {"collection_times": [{"days": "Mon-Fri", "time": "10:30am"}, {"days": "Sat", "time": "11:00am"}, {"days": "Sun", "time": "Closed"}], "id": "3100300001", "name": "USPS COLLECTION BOX - PO LOBBY", "address": {"city": "ALLENTOWN", "state": "GA", "street": "61 1ST ST", "postcode": "31003"}}},
{"geometry": {"type": "Point", "coordinates": [-83.7901688038, 32.9374714081]}, "type": "Feature", "properties": {"collection_times": [{"days": "Mon-Fri", "time": "4:00pm"}, {"days": "Sat", "time": "10:15am"}, {"days": "Sun", "time": "Closed"}], "id": "3100400000", "name": "USPS COLLECTION BOX - BLUE BOX", "address": {"city": "BOLINGBROKE", "state": "GA", "street": "8043 RIVOLI RD", "postcode": "31004"}}},
{"geometry": {"type": "Point", "coordinates": [-83.7901688038, 32.9374714081]}, "type": "Feature", "properties": {"collection_times": [{"days": "Mon-Fri", "time": "4:00pm"}, {"days": "Sat", "time": "10:30am"}, {"days": "Sun", "time": "Closed"}], "id": "3100400001", "name": "USPS COLLECTION BOX - PO LOBBY", "address": {"city": "BOLINGBROKE", "state": "GA", "street": "8043 RIVOLI RD", "postcode": "31004"}}},
{"geometry": {"type": "Point", "coordinates": [-83.5969335963, 32.5477754384]}, "type": "Feature", "properties": {"collection_times": [{"days": "Mon-Fri", "time": "5:00pm"}, {"days": "Sat", "time": "12:00pm"}, {"days": "Sun", "time": "Closed"}], "id": "3100500000", "name": "USPS COLLECTION BOX - BLUE BOX", "address": {"city": "BONAIRE", "state": "GA", "street": "604 GA HIGHWAY 247 S", "postcode": "31005"}}},
{"geometry": {"type": "Point", "coordinates": [-83.5969335963, 32.5477754384]}, "type": "Feature", "properties": {"collection_times": [{"days": "Mon-Fri", "time": "5:00pm"}, {"days": "Sat", "time": "12:00pm"}, {"days": "Sun", "time": "Closed"}], "id": "3100500001", "name": "USPS COLLECTION BOX - PO LOBBY", "address": {"city": "BONAIRE", "state": "GA", "street": "604 GA HIGHWAY 247 S", "postcode": "31005"}}},
{"geometry": {"type": "Point", "coordinates": [-84.2547285625, 32.5994694952]}, "type": "Feature", "properties": {"collection_times": [{"days": "Mon-Fri", "time": "5:00pm"}, {"days": "Sat", "time": "12:00pm"}, {"days": "Sun", "time": "Closed"}], "id": "3100600000", "name": "USPS COLLECTION BOX - BLUE BOX", "address": {"city": "BUTLER", "state": "GA", "street": "12 E MAIN ST", "postcode": "31006"}}},
{"geometry": {"type": "Point", "coordinates": [-84.2547285625, 32.5994694952]}, "type": "Feature", "properties": {"collection_times": [{"days": "Mon-Fri", "time": "5:00pm"}, {"days": "Sat", "time": "12:00pm"}, {"days": "Sun", "time": "Closed"}], "id": "3100600001", "name": "USPS COLLECTION BOX - PO LOBBY", "address": {"city": "BUTLER", "state": "GA", "street": "12 E MAIN ST", "postcode": "31006"}}},
{"geometry": {"type": "Point", "coordinates": [-83.9072426672, 32.2019439004]}, "type": "Feature", "properties": {"collection_times": [{"days": "Mon-Fri", "time": "12:00pm"}, {"days": "Sat", "time": "10:45am"}, {"days": "Sun", "time": "Closed"}], "id": "3100700000", "name": "USPS COLLECTION BOX - BLUE BOX", "address": {"city": "BYROMVILLE", "state": "GA", "street": "452 MAIN ST", "postcode": "31007"}}},
{"geometry": {"type": "Point", "coordinates": [-83.9072426672, 32.2019439004]}, "type": "Feature", "properties": {"collection_times": [{"days": "Mon-Fri", "time": "12:00pm"}, {"days": "Sat", "time": "11:00am"}, {"days": "Sun", "time": "Closed"}], "id": "3100700001", "name": "USPS COLLECTION BOX - PO LOBBY", "address": {"city": "BYROMVILLE", "state": "GA", "street": "452 MAIN ST", "postcode": "31007"}}},
{"geometry": {"type": "Point", "coordinates": [-83.7604971346, 32.6478551786]}, "type": "Feature", "properties": {"collection_times": [{"days": "Mon-Fri", "time": "5:00pm"}, {"days": "Sat", "time": "12:00pm"}, {"days": "Sun", "time": "Closed"}], "id": "3100800001", "name": "USPS COLLECTION BOX - BLUE BOX", "address": {"city": "BYRON", "state": "GA", "street": "215 GA HIGHWAY 49 S", "postcode": "31008"}}},
{"geometry": {"type": "Point", "coordinates": [-83.7604971346, 32.6478551786]}, "type": "Feature", "properties": {"collection_times": [{"days": "Mon-Fri", "time": "5:00pm"}, {"days": "Sat", "time": "12:00pm"}, {"days": "Sun", "time": "Closed"}], "id": "3100800002", "name": "USPS COLLECTION BOX - BLUE BOX", "address": {"city": "BYRON", "state": "GA", "street": "215 GA HIGHWAY 49 S", "postcode": "31008"}}},
{"geometry": {"type": "Point", "coordinates": [-83.7604971346, 32.6478551786]}, "type": "Feature", "properties": {"collection_times": [{"days": "Mon-Fri", "time": "5:00pm"}, {"days": "Sat", "time": "12:00pm"}, {"days": "Sun", "time": "Closed"}], "id": "3100800004", "name": "USPS COLLECTION BOX - PO LOBBY", "address": {"city": "BYRON", "state": "GA", "street": "215 GA HIGHWAY 49 S", "postcode": "31008"}}},
{"geometry": {"type": "Point", "coordinates": [-83.04302959, 32.3387977256]}, "type": "Feature", "properties": {"collection_times": [{"days": "Mon-Fri", "time": "12:00pm"}, {"days": "Sat", "time": "10:30am"}, {"days": "Sun", "time": "Closed"}], "id": "3100900000", "name": "USPS COLLECTION BOX - BLUE BOX", "address": {"city": "CADWELL", "state": "GA", "street": "1010 COLEMAN ST", "postcode": "31009"}}},
{"geometry": {"type": "Point", "coordinates": [-83.04302959, 32.3387977256]}, "type": "Feature", "properties": {"collection_times": [{"days": "Mon-Fri", "time": "11:30am"}, {"days": "Sat", "time": "10:30am"}, {"days": "Sun", "time": "Closed"}], "id": "3100900001", "name": "USPS COLLECTION BOX - PO LOBBY", "address": {"city": "CADWELL", "state": "GA", "street": "1010 COLEMAN ST", "postcode": "31009"}}},
{"geometry": {"type": "Point", "coordinates": [-83.0616252846, 32.1034736168]}, "type": "Feature", "properties": {"collection_times": [{"days": "Mon-Fri", "time": "4:30pm"}, {"days": "Sat", "time": "10:30am"}, {"days": "Sun", "time": "Closed"}], "id": "3101100000", "name": "USPS COLLECTION BOX - BLUE BOX", "address": {"city": "CHAUNCEY", "state": "GA", "street": "47 DURHAM ST", "postcode": "31011"}}},
{"geometry": {"type": "Point", "coordinates": [-83.0610311469, 32.1042430116]}, "type": "Feature", "properties": {"collection_times": [{"days": "Mon-Fri", "time": "12:15pm"}, {"days": "Sat", "time": "10:30am"}, {"days": "Sun", "time": "Closed"}], "id": "3101100001", "name": "USPS COLLECTION BOX - PO LOBBY", "address": {"city": "CHAUNCEY", "state": "GA", "street": "47 DURHAM ST", "postcode": "31011"}}},
{"geometry": {"type": "Point", "coordinates": [-83.1582749119, 32.3995975023]}, "type": "Feature", "properties": {"collection_times": [{"days": "Mon-Fri", "time": "3:00pm"}, {"days": "Sat", "time": "11:00am"}, {"days": "Sun", "time": "Closed"}], "id": "3101200000", "name": "USPS COLLECTION BOX - BLUE BOX", "address": {"city": "CHESTER", "state": "GA", "street": "220 MAIN ST W", "postcode": "31012"}}},
{"geometry": {"type": "Point", "coordinates": [-83.1582749119, 32.3995975023]}, "type": "Feature", "properties": {"collection_times": [{"days": "Mon-Fri", "time": "3:00pm"}, {"days": "Sat", "time": "11:00am"}, {"days": "Sun", "time": "Closed"}], "id": "3101200001", "name": "USPS COLLECTION BOX - PO LOBBY", "address": {"city": "CHESTER", "state": "GA", "street": "220 MAIN ST W", "postcode": "31012"}}},
{"geometry": {"type": "Point", "coordinates": [-83.6345772163, 32.4098160078]}, "type": "Feature", "properties": {"collection_times": [{"days": "Mon-Fri", "time": "5:00pm"}, {"days": "Sat", "time": "11:00am"}, {"days": "Sun", "time": "Closed"}], "id": "3101300000", "name": "USPS COLLECTION BOX - BLUE BOX", "address": {"city": "CLINCHFIELD", "state": "GA", "street": "2620 S US HIGHWAY 341", "postcode": "31013"}}},
{"geometry": {"type": "Point", "coordinates": [-83.6345772163, 32.4098160078]}, "type": "Feature", "properties": {"collection_times": [{"days": "Mon-Fri", "time": "5:00pm"}, {"days": "Sat", "time": "11:00am"}, {"days": "Sun", "time": "Closed"}], "id": "3101300001", "name": "USPS COLLECTION BOX - PO LOBBY", "address": {"city": "CLINCHFIELD", "state": "GA", "street": "2620 S US HIGHWAY 341", "postcode": "31013"}}},
{"geometry": {"type": "Point", "coordinates": [-83.3588812471, 32.3900571021]}, "type": "Feature", "properties": {"collection_times": [{"days": "Mon-Fri", "time": "5:00pm"}, {"days": "Sat", "time": "12:00pm"}, {"days": "Sun", "time": "Closed"}], "id": "3101400000", "name": "USPS COLLECTION BOX - BLUE BOX", "address": {"city": "COCHRAN", "state": "GA", "street": "105 N 2ND ST", "postcode": "31014"}}},
{"geometry": {"type": "Point", "coordinates": [-83.3588812471, 32.3900571021]}, "type": "Feature", "properties": {"collection_times": [{"days": "Mon-Fri", "time": "5:00pm"}, {"days": "Sat", "time": "12:00pm"}, {"days": "Sun", "time": "Closed"}], "id": "3101400001", "name": "USPS COLLECTION BOX - BLUE BOX", "address": {"city": "COCHRAN", "state": "GA", "street": "105 N 2ND ST", "postcode": "31014"}}},
{"geometry": {"type": "Point", "coordinates": [-83.3458897427, 32.384582603]}, "type": "Feature", "properties": {"collection_times": [{"days": "Mon-Fri", "time": "1:00pm"}, {"days": "Sat", "time": "10:00am"}, {"days": "Sun", "time": "Closed"}], "id": "3101400007", "name": "USPS COLLECTION BOX - BLUE BOX", "address": {"city": "COCHRAN", "state": "GA", "street": "145 E PEACOCK ST", "postcode": "31014"}}},
{"geometry": {"type": "Point", "coordinates": [-83.3588812471, 32.3900571021]}, "type": "Feature", "properties": {"collection_times": [{"days": "Mon-Fri", "time": "5:00pm"}, {"days": "Sat", "time": "12:00pm"}, {"days": "Sun", "time": "Closed"}], "id": "3101400009", "name": "USPS COLLECTION BOX - PO LOBBY", "address": {"city": "COCHRAN", "state": "GA", "street": "105 N 2ND ST", "postcode": "31014"}}},
{"geometry": {"type": "Point", "coordinates": [-83.7810610955, 31.9690756421]}, "type": "Feature", "properties": {"collection_times": [{"days": "Mon-Fri", "time": "5:45pm"}, {"days": "Sat", "time": "12:00pm"}, {"days": "Sun", "time": "Closed"}], "id": "3101500002", "name": "USPS COLLECTION BOX - BLUE BOX", "address": {"city": "CORDELE", "state": "GA", "street": "102 S 6TH ST", "postcode": "31015"}}},
{"geometry": {"type": "Point", "coordinates": [-83.7875583828, 31.9568457687]}, "type": "Feature", "properties": {"collection_times": [{"days": "Mon-Sat", "time": "9:30am"}, {"days": "Sun", "time": "Closed"}], "id": "3101500011", "name": "USPS COLLECTION BOX - BLUE BOX", "address": {"city": "CORDELE", "state": "GA", "street": "503 W 22ND AVE", "postcode": "31015"}}},
{"geometry": {"type": "Point", "coordinates": [-83.7825783333, 31.9678562831]}, "type": "Feature", "properties": {"collection_times": [{"days": "Mon-Sat", "time": "9:30am"}, {"days": "Sun", "time": "Closed"}], "id": "3101500020", "name": "USPS COLLECTION BOX - BLUE BOX", "address": {"city": "CORDELE", "state": "GA", "street": "210 S 7TH ST", "postcode": "31015"}}},
{"geometry": {"type": "Point", "coordinates": [-83.7810610955, 31.9690756421]}, "type": "Feature", "properties": {"collection_times": [{"days": "Mon-Fri", "time": "5:45pm"}, {"days": "Sat", "time": "12:00pm"}, {"days": "Sun", "time": "Closed"}], "id": "3101500036", "name": "USPS COLLECTION BOX - PO LOBBY", "address": {"city": "CORDELE", "state": "GA", "street": "102 S 6TH ST", "postcode": "31015"}}},
{"geometry": {"type": "Point", "coordinates": [-83.7480876412, 31.9592450107]}, "type": "Feature", "properties": {"collection_times": [{"days": "Mon-Sat", "time": "9:00am"}, {"days": "Sun", "time": "Closed"}], "id": "3101500041", "name": "USPS COLLECTION BOX - BLUE BOX", "address": {"city": "CORDELE", "state": "GA", "street": "2201 E 16TH AVE", "postcode": "31015"}}},
{"geometry": {"type": "Point", "coordinates": [-83.7634864682, 31.9624228927]}, "type": "Feature", "properties": {"collection_times": [{"days": "Mon-Sat", "time": "9:30am"}, {"days": "Sun", "time": "Closed"}], "id": "3101500042", "name": "USPS COLLECTION BOX - BLUE BOX", "address": {"city": "CORDELE", "state": "GA", "street": "1215 E 16TH AVE", "postcode": "31015"}}},
{"geometry": {"type": "Point", "coordinates": [-84.0938097667, 32.8630221059]}, "type": "Feature", "properties": {"collection_times": [{"days": "Mon-Fri", "time": "2:00pm"}, {"days": "Sat", "time": "10:30am"}, {"days": "Sun", "time": "Closed"}], "id": "3101600000", "name": "USPS COLLECTION BOX - BLUE BOX", "address": {"city": "CULLODEN", "state": "GA", "street": "34 KNOXVILLE ST", "postcode": "31016"}}},
{"geometry": {"type": "Point", "coordinates": [-84.0938097667, 32.8630221059]}, "type": "Feature", "properties": {"collection_times": [{"days": "Mon-Fri", "time": "2:00pm"}, {"days": "Sat", "time": "10:30am"}, {"days": "Sun", "time": "Closed"}], "id": "3101600001", "name": "USPS COLLECTION BOX - PO LOBBY", "address": {"city": "CULLODEN", "state": "GA", "street": "34 KNOXVILLE ST", "postcode": "31016"}}},
{"geometry": {"type": "Point", "coordinates": [-82.6073741972, 32.9803241418]}, "type": "Feature", "properties": {"collection_times": [{"days": "Mon-Fri", "time": "3:15pm"}, {"days": "Sat", "time": "11:15am"}, {"days": "Sun", "time": "Closed"}], "id": "3101800000", "name": "USPS COLLECTION BOX - BLUE BOX", "address": {"city": "DAVISBORO", "state": "GA", "street": "118 N MAIN ST", "postcode": "31018"}}},
{"geometry": {"type": "Point", "coordinates": [-82.6073741972, 32.9803241418]}, "type": "Feature", "properties": {"collection_times": [{"days": "Mon-Fri", "time": "3:15pm"}, {"days": "Sat", "time": "11:15am"}, {"days": "Sun", "time": "Closed"}], "id": "3101800001", "name": "USPS COLLECTION BOX - PO LOBBY", "address": {"city": "DAVISBORO", "state": "GA", "street": "118 N MAIN ST", "postcode": "31018"}}},
{"geometry": {"type": "Point", "coordinates": [-83.0666129584, 32.4294455106]}, "type": "Feature", "properties": {"collection_times": [{"days": "Mon-Fri", "time": "5:00pm"}, {"days": "Sat", "time": "11:00am"}, {"days": "Sun", "time": "Closed"}], "id": "3101900000", "name": "USPS COLLECTION BOX - BLUE BOX", "address": {"city": "DEXTER", "state": "GA", "street": "202 E MAIN ST", "postcode": "31019"}}},
{"geometry": {"type": "Point", "coordinates": [-83.0666129584, 32.4294455106]}, "type": "Feature", "properties": {"collection_times": [{"days": "Mon-Fri", "time": "5:00pm"}, {"days": "Sat", "time": "11:00am"}, {"days": "Sun", "time": "Closed"}], "id": "3101900001", "name": "USPS COLLECTION BOX - PO LOBBY", "address": {"city": "DEXTER", "state": "GA", "street": "202 E MAIN ST", "postcode": "31019"}}},
{"geometry": {"type": "Point", "coordinates": [-83.5082776171, 32.8065848414]}, "type": "Feature", "properties": {"collection_times": [{"days": "Mon-Fri", "time": "5:00pm"}, {"days": "Sat", "time": "11:00am"}, {"days": "Sun", "time": "Closed"}], "id": "3102000000", "name": "USPS COLLECTION BOX - BLUE BOX", "address": {"city": "DRY BRANCH", "state": "GA", "street": "5615 JEFFERSONVILLE RD", "postcode": "31020"}}},
{"geometry": {"type": "Point", "coordinates": [-83.5082776171, 32.8065848414]}, "type": "Feature", "properties": {"collection_times": [{"days": "Mon-Fri", "time": "5:00pm"}, {"days": "Sat", "time": "11:00am"}, {"days": "Sun", "time": "Closed"}], "id": "3102000001", "name": "USPS COLLECTION BOX - PO LOBBY", "address": {"city": "DRY BRANCH", "state": "GA", "street": "5615 JEFFERSONVILLE RD", "postcode": "31020"}}},
{"geometry": {"type": "Point", "coordinates": [-82.9142867653, 32.5440303019]}, "type": "Feature", "properties": {"collection_times": [{"days": "Mon-Fri", "time": "1:00pm"}, {"days": "Sat-Sun", "time": "Closed"}], "id": "3102100001", "name": "USPS COLLECTION BOX - BLUE BOX", "address": {"city": "DUBLIN", "state": "GA", "street": "500 W MARY ST", "postcode": "31021"}}},
{"geometry": {"type": "Point", "coordinates": [-82.9279807726, 32.5481272138]}, "type": "Feature", "properties": {"collection_times": [{"days": "Mon-Fri", "time": "12:00pm"}, {"days": "Sat-Sun", "time": "Closed"}], "id": "3102100002", "name": "USPS COLLECTION BOX - BLUE BOX", "address": {"city": "DUBLIN", "state": "GA", "street": "100 CORPORATE SQ", "postcode": "31021"}}},
{"geometry": {"type": "Point", "coordinates": [-82.9197636266, 32.5439370861]}, "type": "Feature", "properties": {"collection_times": [{"days": "Mon-Fri", "time": "3:00pm"}, {"days": "Sat-Sun", "time": "Closed"}], "id": "3102100006", "name": "USPS COLLECTION BOX - BLUE BOX", "address": {"city": "DUBLIN", "state": "GA", "street": "904 CLAXTON DAIRY RD", "postcode": "31021"}}},
{"geometry": {"type": "Point", "coordinates": [-82.957200134, 32.5423757968]}, "type": "Feature", "properties": {"collection_times": [{"days": "Mon-Fri", "time": "3:00pm"}, {"days": "Sat", "time": "1:00pm"}, {"days": "Sun", "time": "Closed"}], "id": "3102100011", "name": "USPS COLLECTION BOX - BLUE BOX", "address": {"city": "DUBLIN", "state": "GA", "street": "2005 VETERANS BLVD", "postcode": "31021"}}},
{"geometry": {"type": "Point", "coordinates": [-82.9407293627, 32.5315004319]}, "type": "Feature", "properties": {"collection_times": [{"days": "Mon-Fri", "time": "3:00pm"}, {"days": "Sat-Sun", "time": "Closed"}], "id": "3102100015", "name": "USPS COLLECTION BOX - BLUE BOX", "address": {"city": "DUBLIN", "state": "GA", "street": "2406 BELLEVUE RD", "postcode": "31021"}}},
{"geometry": {"type": "Point", "coordinates": [-82.9060664697, 32.5394894649]}, "type": "Feature", "properties": {"collection_times": [{"days": "Mon-Fri", "time": "3:00pm"}, {"days": "Sat", "time": "1:00pm"}, {"days": "Sun", "time": "Closed"}], "id": "3102100020", "name": "USPS COLLECTION BOX - BLUE BOX", "address": {"city": "DUBLIN", "state": "GA", "street": "212 W JACKSON ST", "postcode": "31021"}}},
{"geometry": {"type": "Point", "coordinates": [-82.903899668, 32.5388104806]}, "type": "Feature", "properties": {"collection_times": [{"days": "Mon-Fri", "time": "3:00pm"}, {"days": "Sat-Sun", "time": "Closed"}], "id": "3102100023", "name": "USPS COLLECTION BOX - BLUE BOX", "address": {"city": "DUBLIN", "state": "GA", "street": "100 E MADISON ST", "postcode": "31021"}}},
{"geometry": {"type": "Point", "coordinates": [-82.9042346568, 32.5398365534]}, "type": "Feature", "properties": {"collection_times": [{"days": "Mon-Fri", "time": "3:00pm"}, {"days": "Sat", "time": "1:00pm"}, {"days": "Sun", "time": "Closed"}], "id": "3102100036", "name": "USPS COLLECTION BOX - BLUE BOX", "address": {"city": "DUBLIN", "state": "GA", "street": "117 E JACKSON ST", "postcode": "31021"}}},
{"geometry": {"type": "Point", "coordinates": [-82.9114986727, 32.5366167023]}, "type": "Feature", "properties": {"collection_times": [{"days": "Mon-Sat", "time": "5:00pm"}, {"days": "Sun", "time": "Closed"}], "id": "3102100039", "name": "USPS COLLECTION BOX - BLUE BOX", "address": {"city": "DUBLIN", "state": "GA", "street": "121 OAK ST", "postcode": "31021"}}},
{"geometry": {"type": "Point", "coordinates": [-82.9114986727, 32.5366167023]}, "type": "Feature", "properties": {"collection_times": [{"days": "Mon-Sat", "time": "5:00pm"}, {"days": "Sun", "time": "Closed"}], "id": "3102100040", "name": "USPS COLLECTION BOX - BLUE BOX", "address": {"city": "DUBLIN", "state": "GA", "street": "121 OAK ST", "postcode": "31021"}}},
{"geometry": {"type": "Point", "coordinates": [-82.9114986727, 32.5366167023]}, "type": "Feature", "properties": {"collection_times": [{"days": "Mon-Sat", "time": "5:00pm"}, {"days": "Sun", "time": "Closed"}], "id": "3102100041", "name": "USPS COLLECTION BOX - BLUE BOX", "address": {"city": "DUBLIN", "state": "GA", "street": "121 OAK ST", "postcode": "31021"}}},
{"geometry": {"type": "Point", "coordinates": [-82.9114986727, 32.5366167023]}, "type": "Feature", "properties": {"collection_times": [{"days": "Mon-Sat", "time": "5:00pm"}, {"days": "Sun", "time": "Closed"}], "id": "3102100042", "name": "USPS COLLECTION BOX - BLUE BOX", "address": {"city": "DUBLIN", "state": "GA", "street": "121 OAK ST", "postcode": "31021"}}},
{"geometry": {"type": "Point", "coordinates": [-82.9326866852, 32.5290437742]}, "type": "Feature", "properties": {"collection_times": [{"days": "Mon-Sat", "time": "5:00pm"}, {"days": "Sun", "time": "Closed"}], "id": "3102100043", "name": "USPS COLLECTION BOX - BLUE BOX", "address": {"city": "DUBLIN", "state": "GA", "street": "121 OAK ST", "postcode": "31021"}}},
{"geometry": {"type": "Point", "coordinates": [-82.9508026229, 32.5345145177]}, "type": "Feature", "properties": {"collection_times": [{"days": "Mon-Fri", "time": "1:00pm"}, {"days": "Sat-Sun", "time": "Closed"}], "id": "3102100048", "name": "USPS COLLECTION BOX - BLUE BOX", "address": {"city": "DUBLIN", "state": "GA", "street": "100 FAIRVIEW PARK DR", "postcode": "31021"}}},
{"geometry": {"type": "Point", "coordinates": [-82.9106583232, 32.5384337246]}, "type": "Feature", "properties": {"collection_times": [{"days": "Mon-Sat", "time": "5:00pm"}, {"days": "Sun", "time": "Closed"}], "id": "3102100049", "name": "USPS COLLECTION BOX - PO LOBBY", "address": {"city": "DUBLIN", "state": "GA", "street": "514 BELLEVUE AVE", "postcode": "31021"}}},
{"geometry": {"type": "Point", "coordinates": [-82.9285656021, 32.5479608252]}, "type": "Feature", "properties": {"collection_times": [{"days": "Mon-Fri", "time": "4:30pm"}, {"days": "Sat", "time": "1:00pm"}, {"days": "Sun", "time": "Closed"}], "id": "3102100050", "name": "USPS COLLECTION BOX - PO LOBBY", "address": {"city": "DUBLIN", "state": "GA", "street": "1022 HILLCREST PKWY STE 100", "postcode": "31021"}}},
{"geometry": {"type": "Point", "coordinates": [-82.9031067437, 32.5406235292]}, "type": "Feature", "properties": {"collection_times": [{"days": "Mon-Fri", "time": "4:00pm"}, {"days": "Sat-Sun", "time": "Closed"}], "id": "3102100051", "name": "USPS COLLECTION BOX - PO LOBBY", "address": {"city": "DUBLIN", "state": "GA", "street": "100 N FRANKLIN ST", "postcode": "31021"}}},
{"geometry": {"type": "Point", "coordinates": [-82.9285656021, 32.5479608252]}, "type": "Feature", "properties": {"collection_times": [{"days": "Mon-Fri", "time": "4:30pm"}, {"days": "Sat", "time": "1:00pm"}, {"days": "Sun", "time": "Closed"}], "id": "3102100053", "name": "USPS COLLECTION BOX - BLUE BOX", "address": {"city": "DUBLIN", "state": "GA", "street": "1022 HILLCREST PKWY STE 100", "postcode": "31021"}}},
{"geometry": {"type": "Point", "coordinates": [-83.0708701321, 32.5425064114]}, "type": "Feature", "properties": {"collection_times": [{"days": "Mon-Fri", "time": "4:00pm"}, {"days": "Sat", "time": "11:30am"}, {"days": "Sun", "time": "Closed"}], "id": "3102200000", "name": "USPS COLLECTION BOX - BLUE BOX", "address": {"city": "DUDLEY", "state": "GA", "street": "1443 2ND ST", "postcode": "31022"}}},
{"geometry": {"type": "Point", "coordinates": [-83.0708701321, 32.5425064114]}, "type": "Feature", "properties": {"collection_times": [{"days": "Mon-Fri", "time": "4:15pm"}, {"days": "Sat", "time": "11:30am"}, {"days": "Sun", "time": "Closed"}], "id": "3102200001", "name": "USPS COLLECTION BOX - PO LOBBY", "address": {"city": "DUDLEY", "state": "GA", "street": "1443 2ND ST", "postcode": "31022"}}},
{"geometry": {"type": "Point", "coordinates": [-83.1803192403, 32.1925353229]}, "type": "Feature", "properties": {"collection_times": [{"days": "Mon-Fri", "time": "5:00pm"}, {"days": "Sat", "time": "12:00pm"}, {"days": "Sun", "time": "Closed"}], "id": "3102300000", "name": "USPS COLLECTION BOX - BLUE BOX", "address": {"city": "EASTMAN", "state": "GA", "street": "400 2ND AVE", "postcode": "31023"}}},
{"geometry": {"type": "Point", "coordinates": [-83.1803192403, 32.1925353229]}, "type": "Feature", "properties": {"collection_times": [{"days": "Mon-Fri", "time": "5:00pm"}, {"days": "Sat", "time": "12:00pm"}, {"days": "Sun", "time": "Closed"}], "id": "3102300001", "name": "USPS COLLECTION BOX - BLUE BOX", "address": {"city": "EASTMAN", "state": "GA", "street": "400 2ND AVE", "postcode": "31023"}}},
{"geometry": {"type": "Point", "coordinates": [-83.1803192403, 32.1925353229]}, "type": "Feature", "properties": {"collection_times": [{"days": "Mon-Fri", "time": "5:00pm"}, {"days": "Sat", "time": "12:00pm"}, {"days": "Sun", "time": "Closed"}], "id": "3102300002", "name": "USPS COLLECTION BOX - BLUE BOX", "address": {"city": "EASTMAN", "state": "GA", "street": "400 2ND AVE", "postcode": "31023"}}},
{"geometry": {"type": "Point", "coordinates": [-83.1755012183, 32.200682055]}, "type": "Feature", "properties": {"collection_times": [{"days": "Mon-Fri", "time": "3:00pm"}, {"days": "Sat-Sun", "time": "Closed"}], "id": "3102300006", "name": "USPS COLLECTION BOX - BLUE BOX", "address": {"city": "EASTMAN", "state": "GA", "street": "5018 COURTHOUSE CIR", "postcode": "31023"}}},
{"geometry": {"type": "Point", "coordinates": [-83.1762217222, 32.1988143252]}, "type": "Feature", "properties": {"collection_times": [{"days": "Mon-Fri", "time": "3:00pm"}, {"days": "Sat-Sun", "time": "Closed"}], "id": "3102300014", "name": "USPS COLLECTION BOX - BLUE BOX", "address": {"city": "EASTMAN", "state": "GA", "street": "129 MAIN ST", "postcode": "31023"}}},
{"geometry": {"type": "Point", "coordinates": [-83.1803192403, 32.1925353229]}, "type": "Feature", "properties": {"collection_times": [{"days": "Mon-Fri", "time": "5:00pm"}, {"days": "Sat", "time": "12:00pm"}, {"days": "Sun", "time": "Closed"}], "id": "3102300015", "name": "USPS COLLECTION BOX - PO LOBBY", "address": {"city": "EASTMAN", "state": "GA", "street": "400 2ND AVE", "postcode": "31023"}}},
{"geometry": {"type": "Point", "coordinates": [-83.3763480661, 33.3308036141]}, "type": "Feature", "properties": {"collection_times": [{"days": "Mon-Fri", "time": "5:00pm"}, {"days": "Sat", "time": "4:45pm"}, {"days": "Sun", "time": "Closed"}], "id": "3102400002", "name": "USPS COLLECTION BOX - BLUE BOX", "address": {"city": "EATONTON", "state": "GA", "street": "410 E SUMTER ST", "postcode": "31024"}}},
{"geometry": {"type": "Point", "coordinates": [-83.3896685507, 33.3285499352]}, "type": "Feature", "properties": {"collection_times": [{"days": "Mon-Sat", "time": "12:00pm"}, {"days": "Sun", "time": "Closed"}], "id": "3102400008", "name": "USPS COLLECTION BOX - BLUE BOX", "address": {"city": "EATONTON", "state": "GA", "street": "201 N JEFFERSON AVE", "postcode": "31024"}}},
{"geometry": {"type": "Point", "coordinates": [-83.2731819719, 33.4175775742]}, "type": "Feature", "properties": {"collection_times": [{"days": "Mon-Sat", "time": "12:00pm"}, {"days": "Sun", "time": "Closed"}], "id": "3102400012", "name": "USPS COLLECTION BOX - BLUE BOX", "address": {"city": "EATONTON", "state": "GA", "street": "995 GREENSBORO RD", "postcode": "31024"}}},
{"geometry": {"type": "Point", "coordinates": [-83.3763480661, 33.3308036141]}, "type": "Feature", "properties": {"collection_times": [{"days": "Mon-Fri", "time": "5:00pm"}, {"days": "Sat", "time": "4:45pm"}, {"days": "Sun", "time": "Closed"}], "id": "3102400014", "name": "USPS COLLECTION BOX - PO LOBBY", "address": {"city": "EATONTON", "state": "GA", "street": "410 E SUMTER ST", "postcode": "31024"}}},
{"geometry": {"type": "Point", "coordinates": [-83.3763480661, 33.3308036141]}, "type": "Feature", "properties": {"collection_times": [{"days": "Mon-Fri", "time": "5:00pm"}, {"days": "Sat", "time": "4:45pm"}, {"days": "Sun", "time": "Closed"}], "id": "3102400015", "name": "USPS COLLECTION BOX - BLUE BOX", "address": {"city": "EATONTON", "state": "GA", "street": "410 E SUMTER ST", "postcode": "31024"}}},
{"geometry": {"type": "Point", "coordinates": [-83.7115341451, 32.3340577363]}, "type": "Feature", "properties": {"collection_times": [{"days": "Mon-Fri", "time": "2:00pm"}, {"days": "Sat", "time": "10:30am"}, {"days": "Sun", "time": "Closed"}], "id": "3102500000", "name": "USPS COLLECTION BOX - BLUE BOX", "address": {"city": "ELKO", "state": "GA", "street": "2601 ELKO RD", "postcode": "31025"}}},
{"geometry": {"type": "Point", "coordinates": [-83.7115341448, 32.3340577359]}, "type": "Feature", "properties": {"collection_times": [{"days": "Mon-Fri", "time": "1:45pm"}, {"days": "Sat", "time": "10:30am"}, {"days": "Sun", "time": "Closed"}], "id": "3102500001", "name": "USPS COLLECTION BOX - PO LOBBY", "address": {"city": "ELKO", "state": "GA", "street": "2601 ELKO RD", "postcode": "31025"}}},
{"geometry": {"type": "Point", "coordinates": [-82.877930696, 32.549490068]}, "type": "Feature", "properties": {"collection_times": [{"days": "Mon-Fri", "time": "4:30pm"}, {"days": "Sat", "time": "1:00pm"}, {"days": "Sun", "time": "Closed"}], "id": "3102700005", "name": "USPS COLLECTION BOX - PO LOBBY", "address": {"city": "DUBLIN", "state": "GA", "street": "609 CENTRAL DR STE B", "postcode": "31027"}}},
{"geometry": {"type": "Point", "coordinates": [-82.877930696, 32.549490068]}, "type": "Feature", "properties": {"collection_times": [{"days": "Mon-Fri", "time": "4:30pm"}, {"days": "Sat", "time": "1:00pm"}, {"days": "Sun", "time": "Closed"}], "id": "3102700006", "name": "USPS COLLECTION BOX - BLUE BOX", "address": {"city": "DUBLIN", "state": "GA", "street": "609 CENTRAL DR STE B", "postcode": "31027"}}},
{"geometry": {"type": "Point", "coordinates": [-83.6896162166, 32.6326156468]}, "type": "Feature", "properties": {"collection_times": [{"days": "Mon-Fri", "time": "4:45pm"}, {"days": "Sat", "time": "4:00pm"}, {"days": "Sun", "time": "Closed"}], "id": "3102800000", "name": "USPS COLLECTION BOX - BLUE BOX", "address": {"city": "CENTERVILLE", "state": "GA", "street": "628 N HOUSTON LAKE BLVD", "postcode": "31028"}}},
{"geometry": {"type": "Point", "coordinates": [-83.6896162166, 32.6326156468]}, "type": "Feature", "properties": {"collection_times": [{"days": "Mon-Fri", "time": "4:45pm"}, {"days": "Sat", "time": "4:00pm"}, {"days": "Sun", "time": "Closed"}], "id": "3102800001", "name": "USPS COLLECTION BOX - BLUE BOX", "address": {"city": "CENTERVILLE", "state": "GA", "street": "628 N HOUSTON LAKE BLVD", "postcode": "31028"}}},
{"geometry": {"type": "Point", "coordinates": [-83.9407191993, 33.034927972]}, "type": "Feature", "properties": {"collection_times": [{"days": "Mon-Fri", "time": "5:00pm"}, {"days": "Sat", "time": "2:00pm"}, {"days": "Sun", "time": "Closed"}], "id": "3102900009", "name": "USPS COLLECTION BOX - BLUE BOX", "address": {"city": "FORSYTH", "state": "GA", "street": "65 W JOHNSTON ST", "postcode": "31029"}}},
{"geometry": {"type": "Point", "coordinates": [-83.9407191993, 33.034927972]}, "type": "Feature", "properties": {"collection_times": [{"days": "Mon-Fri", "time": "5:00pm"}, {"days": "Sat", "time": "2:00pm"}, {"days": "Sun", "time": "Closed"}], "id": "3102900011", "name": "USPS COLLECTION BOX - BLUE BOX", "address": {"city": "FORSYTH", "state": "GA", "street": "65 W JOHNSTON ST", "postcode": "31029"}}},
{"geometry": {"type": "Point", "coordinates": [-83.9407191993, 33.034927972]}, "type": "Feature", "properties": {"collection_times": [{"days": "Mon-Fri", "time": "5:00pm"}, {"days": "Sat", "time": "2:00pm"}, {"days": "Sun", "time": "Closed"}], "id": "3102900013", "name": "USPS COLLECTION BOX - PO LOBBY", "address": {"city": "FORSYTH", "state": "GA", "street": "65 W JOHNSTON ST", "postcode": "31029"}}},
{"geometry": {"type": "Point", "coordinates": [-83.8767815129, 32.5661096543]}, "type": "Feature", "properties": {"collection_times": [{"days": "Mon-Fri", "time": "3:45pm"}, {"days": "Sat", "time": "9:00am"}, {"days": "Sun", "time": "Closed"}], "id": "3103000011", "name": "USPS COLLECTION BOX - BLUE BOX", "address": {"city": "FORT VALLEY", "state": "GA", "street": "111 ANDERSON AVE", "postcode": "31030"}}},
{"geometry": {"type": "Point", "coordinates": [-83.8873369343, 32.5542820749]}, "type": "Feature", "properties": {"collection_times": [{"days": "Mon-Fri", "time": "5:30pm"}, {"days": "Sat", "time": "3:15pm"}, {"days": "Sun", "time": "Closed"}], "id": "3103000014", "name": "USPS COLLECTION BOX - BLUE BOX", "address": {"city": "FORT VALLEY", "state": "GA", "street": "111 ANDERSON AVE", "postcode": "31030"}}},
{"geometry": {"type": "Point", "coordinates": [-83.8873369343, 32.5542820749]}, "type": "Feature", "properties": {"collection_times": [{"days": "Mon-Fri", "time": "5:30pm"}, {"days": "Sat", "time": "3:15pm"}, {"days": "Sun", "time": "Closed"}], "id": "3103000015", "name": "USPS COLLECTION BOX - BLUE BOX", "address": {"city": "FORT VALLEY", "state": "GA", "street": "111 ANDERSON AVE", "postcode": "31030"}}},
{"geometry": {"type": "Point", "coordinates": [-83.8869738201, 32.5591252987]}, "type": "Feature", "properties": {"collection_times": [{"days": "Mon-Fri", "time": "3:45pm"}, {"days": "Sat", "time": "9:00am"}, {"days": "Sun", "time": "Closed"}], "id": "3103000023", "name": "USPS COLLECTION BOX - BLUE BOX", "address": {"city": "FORT VALLEY", "state": "GA", "street": "302 VINEVILLE ST", "postcode": "31030"}}},
{"geometry": {"type": "Point", "coordinates": [-83.8873369343, 32.5542820749]}, "type": "Feature", "properties": {"collection_times": [{"days": "Mon-Fri", "time": "5:30pm"}, {"days": "Sat", "time": "3:15pm"}, {"days": "Sun", "time": "Closed"}], "id": "3103000033", "name": "USPS COLLECTION BOX - PO LOBBY", "address": {"city": "FORT VALLEY", "state": "GA", "street": "111 ANDERSON AVE", "postcode": "31030"}}},
{"geometry": {"type": "Point", "coordinates": [-83.3149488952, 32.8760125108]}, "type": "Feature", "properties": {"collection_times": [{"days": "Mon-Fri", "time": "4:30pm"}, {"days": "Sat", "time": "12:00pm"}, {"days": "Sun", "time": "Closed"}], "id": "3103100000", "name": "USPS COLLECTION BOX - PO LOBBY", "address": {"city": "GORDON", "state": "GA", "street": "290 MILLEDGEVILLE HWY", "postcode": "31031"}}},
{"geometry": {"type": "Point", "coordinates": [-83.3149488952, 32.8760125108]}, "type": "Feature", "properties": {"collection_times": [{"days": "Mon-Fri", "time": "4:30pm"}, {"days": "Sat", "time": "12:00pm"}, {"days": "Sun", "time": "Closed"}], "id": "3103100001", "name": "USPS COLLECTION BOX - BLUE BOX", "address": {"city": "GORDON", "state": "GA", "street": "290 MILLEDGEVILLE HWY", "postcode": "31031"}}},
{"geometry": {"type": "Point", "coordinates": [-83.3149488952, 32.8760125108]}, "type": "Feature", "properties": {"collection_times": [{"days": "Mon-Fri", "time": "4:30pm"}, {"days": "Sat", "time": "12:00pm"}, {"days": "Sun", "time": "Closed"}], "id": "3103100002", "name": "USPS COLLECTION BOX - BLUE BOX", "address": {"city": "GORDON", "state": "GA", "street": "290 MILLEDGEVILLE HWY", "postcode": "31031"}}},
{"geometry": {"type": "Point", "coordinates": [-83.336887953, 32.885246502]}, "type": "Feature", "properties": {"collection_times": [{"days": "Mon-Fri", "time": "1:00pm"}, {"days": "Sat-Sun", "time": "Closed"}], "id": "3103100003", "name": "USPS COLLECTION BOX - BLUE BOX", "address": {"city": "GORDON", "state": "GA", "street": "148 GA HIGHWAY 243", "postcode": "31031"}}},
{"geometry": {"type": "Point", "coordinates": [-83.5366095624, 33.0086520717]}, "type": "Feature", "properties": {"collection_times": [{"days": "Mon-Fri", "time": "4:30pm"}, {"days": "Sat", "time": "11:00am"}, {"days": "Sun", "time": "Closed"}], "id": "3103200002", "name": "USPS COLLECTION BOX - BLUE BOX", "address": {"city": "GRAY", "state": "GA", "street": "235 W CLINTON ST", "postcode": "31032"}}},
{"geometry": {"type": "Point", "coordinates": [-83.5366095624, 33.0086520717]}, "type": "Feature", "properties": {"collection_times": [{"days": "Mon-Fri", "time": "4:30pm"}, {"days": "Sat", "time": "11:00am"}, {"days": "Sun", "time": "Closed"}], "id": "3103200003", "name": "USPS COLLECTION BOX - BLUE BOX", "address": {"city": "GRAY", "state": "GA", "street": "235 W CLINTON ST", "postcode": "31032"}}},
{"geometry": {"type": "Point", "coordinates": [-83.5366095624, 33.0086520717]}, "type": "Feature", "properties": {"collection_times": [{"days": "Mon-Fri", "time": "4:30pm"}, {"days": "Sat", "time": "11:00am"}, {"days": "Sun", "time": "Closed"}], "id": "3103200004", "name": "USPS COLLECTION BOX - BLUE BOX", "address": {"city": "GRAY", "state": "GA", "street": "235 W CLINTON ST", "postcode": "31032"}}},
{"geometry": {"type": "Point", "coordinates": [-83.5366095624, 33.0086520717]}, "type": "Feature", "properties": {"collection_times": [{"days": "Mon-Fri", "time": "4:30pm"}, {"days": "Sat", "time": "11:00am"}, {"days": "Sun", "time": "Closed"}], "id": "3103200006", "name": "USPS COLLECTION BOX - PO LOBBY", "address": {"city": "GRAY", "state": "GA", "street": "235 W CLINTON ST", "postcode": "31032"}}},
{"geometry": {"type": "Point", "coordinates": [-83.4296159771, 33.03259288]}, "type": "Feature", "properties": {"collection_times": [{"days": "Mon-Fri", "time": "5:00pm"}, {"days": "Sat", "time": "11:00am"}, {"days": "Sun", "time": "Closed"}], "id": "3103300000", "name": "USPS COLLECTION BOX - BLUE BOX", "address": {"city": "HADDOCK", "state": "GA", "street": "1355 GA HIGHWAY 22 E", "postcode": "31033"}}},
{"geometry": {"type": "Point", "coordinates": [-83.4296159771, 33.03259288]}, "type": "Feature", "properties": {"collection_times": [{"days": "Mon-Fri", "time": "5:00pm"}, {"days": "Sat", "time": "11:00am"}, {"days": "Sun", "time": "Closed"}], "id": "3103300001", "name": "USPS COLLECTION BOX - PO LOBBY", "address": {"city": "HADDOCK", "state": "GA", "street": "1355 GA HIGHWAY 22 E", "postcode": "31033"}}},
{"geometry": {"type": "Point", "coordinates": [-83.2268403334, 33.081303158]}, "type": "Feature", "properties": {"collection_times": [{"days": "Mon-Fri", "time": "5:15pm"}, {"days": "Sat", "time": "1:00pm"}, {"days": "Sun", "time": "Closed"}], "id": "3103400000", "name": "USPS COLLECTION BOX - BLUE BOX", "address": {"city": "HARDWICK", "state": "GA", "street": "1870 IRWINTON RD", "postcode": "31034"}}},
{"geometry": {"type": "Point", "coordinates": [-83.2268403334, 33.081303158]}, "type": "Feature", "properties": {"collection_times": [{"days": "Mon-Fri", "time": "5:15pm"}, {"days": "Sat", "time": "1:00pm"}, {"days": "Sun", "time": "Closed"}], "id": "3103400002", "name": "USPS COLLECTION BOX - PO LOBBY", "address": {"city": "HARDWICK", "state": "GA", "street": "1870 IRWINTON RD", "postcode": "31034"}}},
{"geometry": {"type": "Point", "coordinates": [-82.7259132657, 32.8264823108]}, "type": "Feature", "properties": {"collection_times": [{"days": "Mon-Fri", "time": "12:00pm"}, {"days": "Sat", "time": "11:30am"}, {"days": "Sun", "time": "Closed"}], "id": "3103500000", "name": "USPS COLLECTION BOX - BLUE BOX", "address": {"city": "HARRISON", "state": "GA", "street": "34 N RAILROAD AVE", "postcode": "31035"}}},
{"geometry": {"type": "Point", "coordinates": [-82.7259132657, 32.8264823108]}, "type": "Feature", "properties": {"collection_times": [{"days": "Mon-Fri", "time": "12:00pm"}, {"days": "Sat", "time": "11:30am"}, {"days": "Sun", "time": "Closed"}], "id": "3103500001", "name": "USPS COLLECTION BOX - PO LOBBY", "address": {"city": "HARRISON", "state": "GA", "street": "34 N RAILROAD AVE", "postcode": "31035"}}},
{"geometry": {"type": "Point", "coordinates": [-83.4650132213, 32.2835802143]}, "type": "Feature", "properties": {"collection_times": [{"days": "Mon-Fri", "time": "5:00pm"}, {"days": "Sat", "time": "3:00pm"}, {"days": "Sun", "time": "Closed"}], "id": "3103600009", "name": "USPS COLLECTION BOX - BLUE BOX", "address": {"city": "HAWKINSVILLE", "state": "GA", "street": "148 COMMERCE ST", "postcode": "31036"}}},
{"geometry": {"type": "Point", "coordinates": [-83.4650132213, 32.2835802143]}, "type": "Feature", "properties": {"collection_times": [{"days": "Mon-Fri", "time": "5:00pm"}, {"days": "Sat", "time": "3:00pm"}, {"days": "Sun", "time": "Closed"}], "id": "3103600012", "name": "USPS COLLECTION BOX - BLUE BOX", "address": {"city": "HAWKINSVILLE", "state": "GA", "street": "148 COMMERCE ST", "postcode": "31036"}}},
{"geometry": {"type": "Point", "coordinates": [-83.4650132213, 32.2835802143]}, "type": "Feature", "properties": {"collection_times": [{"days": "Mon-Fri", "time": "5:00pm"}, {"days": "Sat", "time": "3:00pm"}, {"days": "Sun", "time": "Closed"}], "id": "3103600013", "name": "USPS COLLECTION BOX - BLUE BOX", "address": {"city": "HAWKINSVILLE", "state": "GA", "street": "148 COMMERCE ST", "postcode": "31036"}}},
{"geometry": {"type": "Point", "coordinates": [-83.4650132213, 32.2835802143]}, "type": "Feature", "properties": {"collection_times": [{"days": "Mon-Fri", "time": "5:00pm"}, {"days": "Sat", "time": "3:00pm"}, {"days": "Sun", "time": "Closed"}], "id": "3103600014", "name": "USPS COLLECTION BOX - PO LOBBY", "address": {"city": "HAWKINSVILLE", "state": "GA", "street": "148 COMMERCE ST", "postcode": "31036"}}},
{"geometry": {"type": "Point", "coordinates": [-82.9806978547, 32.0676923976]}, "type": "Feature", "properties": {"collection_times": [{"days": "Mon-Fri", "time": "4:00pm"}, {"days": "Sat", "time": "11:00am"}, {"days": "Sun", "time": "Closed"}], "id": "3103700000", "name": "USPS COLLECTION BOX - BLUE BOX", "address": {"city": "HELENA", "state": "GA", "street": "21 S FORSYTH AVE", "postcode": "31037"}}},
{"geometry": {"type": "Point", "coordinates": [-82.9806978547, 32.0676923976]}, "type": "Feature", "properties": {"collection_times": [{"days": "Mon-Fri", "time": "4:00pm"}, {"days": "Sat", "time": "11:00am"}, {"days": "Sun", "time": "Closed"}], "id": "3103700001", "name": "USPS COLLECTION BOX - PO LOBBY", "address": {"city": "HELENA", "state": "GA", "street": "21 S FORSYTH AVE", "postcode": "31037"}}},
{"geometry": {"type": "Point", "coordinates": [-83.6455594774, 33.1749364859]}, "type": "Feature", "properties": {"collection_times": [{"days": "Mon-Sat", "time": "11:45am"}, {"days": "Sun", "time": "Closed"}], "id": "3103800000", "name": "USPS COLLECTION BOX - BLUE BOX", "address": {"city": "HILLSBORO", "state": "GA", "street": "1917 GA HIGHWAY 11 S", "postcode": "31038"}}},
{"geometry": {"type": "Point", "coordinates": [-83.6455594774, 33.1749364859]}, "type": "Feature", "properties": {"collection_times": [{"days": "Mon-Sat", "time": "11:45am"}, {"days": "Sun", "time": "Closed"}], "id": "3103800001", "name": "USPS COLLECTION BOX - PO LOBBY", "address": {"city": "HILLSBORO", "state": "GA", "street": "1917 GA HIGHWAY 11 S", "postcode": "31038"}}},
{"geometry": {"type": "Point", "coordinates": [-84.3844220808, 32.5960908684]}, "type": "Feature", "properties": {"collection_times": [{"days": "Mon-Fri", "time": "1:30pm"}, {"days": "Sat", "time": "10:45am"}, {"days": "Sun", "time": "Closed"}], "id": "3103900000", "name": "USPS COLLECTION BOX - BLUE BOX", "address": {"city": "HOWARD", "state": "GA", "street": "336 BROWN RD", "postcode": "31039"}}},
{"geometry": {"type": "Point", "coordinates": [-84.3844220808, 32.5960908684]}, "type": "Feature", "properties": {"collection_times": [{"days": "Mon-Fri", "time": "12:00pm"}, {"days": "Sat", "time": "11:00am"}, {"days": "Sun", "time": "Closed"}], "id": "3103900001", "name": "USPS COLLECTION BOX - PO LOBBY", "address": {"city": "HOWARD", "state": "GA", "street": "336 BROWN RD", "postcode": "31039"}}},
{"geometry": {"type": "Point", "coordinates": [-84.1883843256, 32.3750519908]}, "type": "Feature", "properties": {"collection_times": [{"days": "Mon-Fri", "time": "3:00pm"}, {"days": "Sat", "time": "10:30am"}, {"days": "Sun", "time": "Closed"}], "id": "3104100000", "name": "USPS COLLECTION BOX - BLUE BOX", "address": {"city": "IDEAL", "state": "GA", "street": "603 TOM WATSON AVE", "postcode": "31041"}}},
{"geometry": {"type": "Point", "coordinates": [-84.1883843256, 32.3750519908]}, "type": "Feature", "properties": {"collection_times": [{"days": "Mon-Fri", "time": "3:00pm"}, {"days": "Sat", "time": "10:30am"}, {"days": "Sun", "time": "Closed"}], "id": "3104100001", "name": "USPS COLLECTION BOX - PO LOBBY", "address": {"city": "IDEAL", "state": "GA", "street": "603 TOM WATSON AVE", "postcode": "31041"}}},
{"geometry": {"type": "Point", "coordinates": [-83.1745399211, 32.8131932711]}, "type": "Feature", "properties": {"collection_times": [{"days": "Mon-Fri", "time": "4:30pm"}, {"days": "Sat", "time": "11:45am"}, {"days": "Sun", "time": "Closed"}], "id": "3104200000", "name": "USPS COLLECTION BOX - BLUE BOX", "address": {"city": "IRWINTON", "state": "GA", "street": "113 ASBELL ST", "postcode": "31042"}}},
{"geometry": {"type": "Point", "coordinates": [-83.1745399211, 32.8131932711]}, "type": "Feature", "properties": {"collection_times": [{"days": "Mon-Fri", "time": "4:30pm"}, {"days": "Sat", "time": "11:30am"}, {"days": "Sun", "time": "Closed"}], "id": "3104200001", "name": "USPS COLLECTION BOX - PO LOBBY", "address": {"city": "IRWINTON", "state": "GA", "street": "113 ASBELL ST", "postcode": "31042"}}},
{"geometry": {"type": "Point", "coordinates": [-83.3455894875, 32.6867307143]}, "type": "Feature", "properties": {"collection_times": [{"days": "Mon-Fri", "time": "4:30pm"}, {"days": "Sat", "time": "10:30am"}, {"days": "Sun", "time": "Closed"}], "id": "3104400000", "name": "USPS COLLECTION BOX - BLUE BOX", "address": {"city": "JEFFERSONVILLE", "state": "GA", "street": "13718 US HIGHWAY 80", "postcode": "31044"}}},
{"geometry": {"type": "Point", "coordinates": [-83.3455894875, 32.6867307143]}, "type": "Feature", "properties": {"collection_times": [{"days": "Mon-Fri", "time": "4:30pm"}, {"days": "Sat", "time": "10:30am"}, {"days": "Sun", "time": "Closed"}], "id": "3104400002", "name": "USPS COLLECTION BOX - PO LOBBY", "address": {"city": "JEFFERSONVILLE", "state": "GA", "street": "13718 US HIGHWAY 80", "postcode": "31044"}}},
{"geometry": {"type": "Point", "coordinates": [-82.7555176384, 33.3363525379]}, "type": "Feature", "properties": {"collection_times": [{"days": "Mon-Fri", "time": "12:00pm"}, {"days": "Sat", "time": "11:30am"}, {"days": "Sun", "time": "Closed"}], "id": "3104500000", "name": "USPS COLLECTION BOX - BLUE BOX", "address": {"city": "JEWELL", "state": "GA", "street": "10862 MACON HWY", "postcode": "31045"}}},
{"geometry": {"type": "Point", "coordinates": [-82.7555176384, 33.3363525379]}, "type": "Feature", "properties": {"collection_times": [{"days": "Mon-Fri", "time": "12:00pm"}, {"days": "Sat", "time": "11:45am"}, {"days": "Sun", "time": "Closed"}], "id": "3104500001", "name": "USPS COLLECTION BOX - PO LOBBY", "address": {"city": "JEWELL", "state": "GA", "street": "10862 MACON HWY", "postcode": "31045"}}},
{"geometry": {"type": "Point", "coordinates": [-83.7987768191, 33.0951796081]}, "type": "Feature", "properties": {"collection_times": [{"days": "Mon-Fri", "time": "4:45pm"}, {"days": "Sat", "time": "10:45am"}, {"days": "Sun", "time": "Closed"}], "id": "3104600000", "name": "USPS COLLECTION BOX - BLUE BOX", "address": {"city": "JULIETTE", "state": "GA", "street": "356 BOWDOIN RD", "postcode": "31046"}}},
{"geometry": {"type": "Point", "coordinates": [-83.7987768191, 33.0951796081]}, "type": "Feature", "properties": {"collection_times": [{"days": "Mon-Fri", "time": "4:45pm"}, {"days": "Sat", "time": "10:45am"}, {"days": "Sun", "time": "Closed"}], "id": "3104600001", "name": "USPS COLLECTION BOX - PO LOBBY", "address": {"city": "JULIETTE", "state": "GA", "street": "356 BOWDOIN RD", "postcode": "31046"}}},
{"geometry": {"type": "Point", "coordinates": [-83.6040590661, 32.5037759454]}, "type": "Feature", "properties": {"collection_times": [{"days": "Mon-Fri", "time": "4:45pm"}, {"days": "Sat", "time": "10:00am"}, {"days": "Sun", "time": "Closed"}], "id": "3104700000", "name": "USPS COLLECTION BOX - BLUE BOX", "address": {"city": "KATHLEEN", "state": "GA", "street": "1010 GA HIGHWAY 247 S", "postcode": "31047"}}},
{"geometry": {"type": "Point", "coordinates": [-83.6040590661, 32.5037759454]}, "type": "Feature", "properties": {"collection_times": [{"days": "Mon-Fri", "time": "4:30pm"}, {"days": "Sat", "time": "10:15am"}, {"days": "Sun", "time": "Closed"}], "id": "3104700001", "name": "USPS COLLECTION BOX - PO LOBBY", "address": {"city": "KATHLEEN", "state": "GA", "street": "1010 GA HIGHWAY 247 S", "postcode": "31047"}}},
{"geometry": {"type": "Point", "coordinates": [-82.5207385979, 32.7104257007]}, "type": "Feature", "properties": {"collection_times": [{"days": "Mon-Fri", "time": "3:30pm"}, {"days": "Sat", "time": "11:00am"}, {"days": "Sun", "time": "Closed"}], "id": "3104900000", "name": "USPS COLLECTION BOX - BLUE BOX", "address": {"city": "KITE", "state": "GA", "street": "1123 RAILROAD ST", "postcode": "31049"}}},
{"geometry": {"type": "Point", "coordinates": [-82.5207385979, 32.7104257007]}, "type": "Feature", "properties": {"collection_times": [{"days": "Mon-Fri", "time": "3:30pm"}, {"days": "Sat", "time": "11:00am"}, {"days": "Sun", "time": "Closed"}], "id": "3104900001", "name": "USPS COLLECTION BOX - PO LOBBY", "address": {"city": "KITE", "state": "GA", "street": "1123 RAILROAD ST", "postcode": "31049"}}},
{"geometry": {"type": "Point", "coordinates": [-83.8777502544, 32.1470190872]}, "type": "Feature", "properties": {"collection_times": [{"days": "Mon-Fri", "time": "11:00am"}, {"days": "Sat", "time": "10:30am"}, {"days": "Sun", "time": "Closed"}], "id": "3105100000", "name": "USPS COLLECTION BOX - BLUE BOX", "address": {"city": "LILLY", "state": "GA", "street": "122 WADLEY ST", "postcode": "31051"}}},
{"geometry": {"type": "Point", "coordinates": [-83.8777502544, 32.1470190872]}, "type": "Feature", "properties": {"collection_times": [{"days": "Mon-Fri", "time": "11:00am"}, {"days": "Sat", "time": "10:30am"}, {"days": "Sun", "time": "Closed"}], "id": "3105100001", "name": "USPS COLLECTION BOX - PO LOBBY", "address": {"city": "LILLY", "state": "GA", "street": "122 WADLEY ST", "postcode": "31051"}}},
{"geometry": {"type": "Point", "coordinates": [-83.828418253, 32.8092216569]}, "type": "Feature", "properties": {"collection_times": [{"days": "Mon-Fri", "time": "4:00pm"}, {"days": "Sat", "time": "10:30am"}, {"days": "Sun", "time": "Closed"}], "id": "3105200000", "name": "USPS COLLECTION BOX - BLUE BOX", "address": {"city": "LIZELLA", "state": "GA", "street": "2899 WILLIAMSON DR", "postcode": "31052"}}},
{"geometry": {"type": "Point", "coordinates": [-83.828418253, 32.8092216569]}, "type": "Feature", "properties": {"collection_times": [{"days": "Mon-Fri", "time": "4:30pm"}, {"days": "Sat", "time": "11:00am"}, {"days": "Sun", "time": "Closed"}], "id": "3105200001", "name": "USPS COLLECTION BOX - PO LOBBY", "address": {"city": "LIZELLA", "state": "GA", "street": "2899 WILLIAMSON DR", "postcode": "31052"}}},
{"geometry": {"type": "Point", "coordinates": [-83.1924234593, 32.8460189301]}, "type": "Feature", "properties": {"collection_times": [{"days": "Mon-Fri", "time": "4:00pm"}, {"days": "Sat", "time": "11:30am"}, {"days": "Sun", "time": "Closed"}], "id": "3105400000", "name": "USPS COLLECTION BOX - BLUE BOX", "address": {"city": "MCINTYRE", "state": "GA", "street": "106 RAILROAD ST", "postcode": "31054"}}},
{"geometry": {"type": "Point", "coordinates": [-83.1924234593, 32.8460189301]}, "type": "Feature", "properties": {"collection_times": [{"days": "Mon-Fri", "time": "4:00pm"}, {"days": "Sat", "time": "11:30am"}, {"days": "Sun", "time": "Closed"}], "id": "3105400001", "name": "USPS COLLECTION BOX - PO LOBBY", "address": {"city": "MCINTYRE", "state": "GA", "street": "106 RAILROAD ST", "postcode": "31054"}}},
{"geometry": {"type": "Point", "coordinates": [-82.8448423918, 32.0047530423]}, "type": "Feature", "properties": {"collection_times": [{"days": "Mon-Fri", "time": "5:00pm"}, {"days": "Sat", "time": "12:00pm"}, {"days": "Sun", "time": "Closed"}], "id": "3105500004", "name": "USPS COLLECTION BOX - BLUE BOX", "address": {"city": "MCRAE", "state": "GA", "street": "23 S SECOND AVE", "postcode": "31055"}}},
{"geometry": {"type": "Point", "coordinates": [-82.8448423918, 32.0047530423]}, "type": "Feature", "properties": {"collection_times": [{"days": "Mon-Fri", "time": "5:00pm"}, {"days": "Sat", "time": "12:00pm"}, {"days": "Sun", "time": "Closed"}], "id": "3105500010", "name": "USPS COLLECTION BOX - PO LOBBY", "address": {"city": "MCRAE", "state": "GA", "street": "23 S SECOND AVE", "postcode": "31055"}}},
{"geometry": {"type": "Point", "coordinates": [-83.9416815636, 32.4568007321]}, "type": "Feature", "properties": {"collection_times": [{"days": "Mon-Fri", "time": "12:30pm"}, {"days": "Sat", "time": "11:00am"}, {"days": "Sun", "time": "Closed"}], "id": "3105700000", "name": "USPS COLLECTION BOX - BLUE BOX", "address": {"city": "MARSHALLVILLE", "state": "GA", "street": "118 CAMELLIA BLVD", "postcode": "31057"}}},
{"geometry": {"type": "Point", "coordinates": [-83.9416815636, 32.4568007321]}, "type": "Feature", "properties": {"collection_times": [{"days": "Mon-Fri", "time": "12:15pm"}, {"days": "Sat", "time": "11:00am"}, {"days": "Sun", "time": "Closed"}], "id": "3105700001", "name": "USPS COLLECTION BOX - PO LOBBY", "address": {"city": "MARSHALLVILLE", "state": "GA", "street": "118 CAMELLIA BLVD", "postcode": "31057"}}},
{"geometry": {"type": "Point", "coordinates": [-84.3727702229, 32.5059065398]}, "type": "Feature", "properties": {"collection_times": [{"days": "Mon-Fri", "time": "4:30pm"}, {"days": "Sat", "time": "10:30am"}, {"days": "Sun", "time": "Closed"}], "id": "3105800000", "name": "USPS COLLECTION BOX - BLUE BOX", "address": {"city": "MAUK", "state": "GA", "street": "7 GA HIGHWAY 127 W", "postcode": "31058"}}},
{"geometry": {"type": "Point", "coordinates": [-84.3727702229, 32.5059065398]}, "type": "Feature", "properties": {"collection_times": [{"days": "Mon-Fri", "time": "12:30pm"}, {"days": "Sat", "time": "10:30am"}, {"days": "Sun", "time": "Closed"}], "id": "3105800001", "name": "USPS COLLECTION BOX - PO LOBBY", "address": {"city": "MAUK", "state": "GA", "street": "7 GA HIGHWAY 127 W", "postcode": "31058"}}},
{"geometry": {"type": "Point", "coordinates": [-83.0677815563, 32.0184803337]}, "type": "Feature", "properties": {"collection_times": [{"days": "Mon-Fri", "time": "12:30pm"}, {"days": "Sat", "time": "11:00am"}, {"days": "Sun", "time": "Closed"}], "id": "3106000000", "name": "USPS COLLECTION BOX - BLUE BOX", "address": {"city": "MILAN", "state": "GA", "street": "322 LEE ST", "postcode": "31060"}}},
{"geometry": {"type": "Point", "coordinates": [-83.0677815563, 32.0184803337]}, "type": "Feature", "properties": {"collection_times": [{"days": "Mon-Fri", "time": "12:00pm"}, {"days": "Sat", "time": "11:00am"}, {"days": "Sun", "time": "Closed"}], "id": "3106000003", "name": "USPS COLLECTION BOX - PO LOBBY", "address": {"city": "MILAN", "state": "GA", "street": "322 LEE ST", "postcode": "31060"}}},
{"geometry": {"type": "Point", "coordinates": [-83.2288041635, 33.0809487345]}, "type": "Feature", "properties": {"collection_times": [{"days": "Mon-Fri", "time": "5:00pm"}, {"days": "Sat", "time": "3:15pm"}, {"days": "Sun", "time": "Closed"}], "id": "3106100003", "name": "USPS COLLECTION BOX - BLUE BOX", "address": {"city": "MILLEDGEVILLE", "state": "GA", "street": "201 W HANCOCK ST", "postcode": "31061"}}},
{"geometry": {"type": "Point", "coordinates": [-83.2236544115, 33.0688360133]}, "type": "Feature", "properties": {"collection_times": [{"days": "Mon-Sat", "time": "12:30pm"}, {"days": "Sun", "time": "Closed"}], "id": "3106100006", "name": "USPS COLLECTION BOX - BLUE BOX", "address": {"city": "MILLEDGEVILLE", "state": "GA", "street": "1075 S WAYNE ST", "postcode": "31061"}}},
{"geometry": {"type": "Point", "coordinates": [-83.2348921737, 33.0827274321]}, "type": "Feature", "properties": {"collection_times": [{"days": "Mon-Fri", "time": "4:15pm"}, {"days": "Sat", "time": "3:00pm"}, {"days": "Sun", "time": "Closed"}], "id": "3106100012", "name": "USPS COLLECTION BOX - BLUE BOX", "address": {"city": "MILLEDGEVILLE", "state": "GA", "street": "521 W MONTGOMERY ST", "postcode": "31061"}}},
{"geometry": {"type": "Point", "coordinates": [-83.2495584437, 33.1033609054]}, "type": "Feature", "properties": {"collection_times": [{"days": "Mon-Sat", "time": "3:00pm"}, {"days": "Sun", "time": "Closed"}], "id": "3106100015", "name": "USPS COLLECTION BOX - BLUE BOX", "address": {"city": "MILLEDGEVILLE", "state": "GA", "street": "1841 N COLUMBIA ST", "postcode": "31061"}}},
{"geometry": {"type": "Point", "coordinates": [-83.2593826687, 33.0985316591]}, "type": "Feature", "properties": {"collection_times": [{"days": "Mon-Fri", "time": "4:00pm"}, {"days": "Sat", "time": "3:00pm"}, {"days": "Sun", "time": "Closed"}], "id": "3106100018", "name": "USPS COLLECTION BOX - BLUE BOX", "address": {"city": "MILLEDGEVILLE", "state": "GA", "street": "187 ROBERSON MILL RD NE", "postcode": "31061"}}},
{"geometry": {"type": "Point", "coordinates": [-83.2553155853, 33.1095659455]}, "type": "Feature", "properties": {"collection_times": [{"days": "Mon-Fri", "time": "4:30pm"}, {"days": "Sat", "time": "3:15pm"}, {"days": "Sun", "time": "Closed"}], "id": "3106100020", "name": "USPS COLLECTION BOX - BLUE BOX", "address": {"city": "MILLEDGEVILLE", "state": "GA", "street": "2400 N COLUMBIA ST", "postcode": "31061"}}},
{"geometry": {"type": "Point", "coordinates": [-83.2553155853, 33.1095659455]}, "type": "Feature", "properties": {"collection_times": [{"days": "Mon-Fri", "time": "4:30pm"}, {"days": "Sat", "time": "3:15pm"}, {"days": "Sun", "time": "Closed"}], "id": "3106100021", "name": "USPS COLLECTION BOX - BLUE BOX", "address": {"city": "MILLEDGEVILLE", "state": "GA", "street": "2400 N COLUMBIA ST", "postcode": "31061"}}},
{"geometry": {"type": "Point", "coordinates": [-83.2553155853, 33.1095659455]}, "type": "Feature", "properties": {"collection_times": [{"days": "Mon-Fri", "time": "4:30pm"}, {"days": "Sat", "time": "3:15pm"}, {"days": "Sun", "time": "Closed"}], "id": "3106100022", "name": "USPS COLLECTION BOX - BLUE BOX", "address": {"city": "MILLEDGEVILLE", "state": "GA", "street": "2400 N COLUMBIA ST", "postcode": "31061"}}},
{"geometry": {"type": "Point", "coordinates": [-83.2577150398, 33.1122594887]}, "type": "Feature", "properties": {"collection_times": [{"days": "Mon-Fri", "time": "4:30pm"}, {"days": "Sat", "time": "3:15pm"}, {"days": "Sun", "time": "Closed"}], "id": "3106100024", "name": "USPS COLLECTION BOX - BLUE BOX", "address": {"city": "MILLEDGEVILLE", "state": "GA", "street": "2485 N COLUMBIA ST", "postcode": "31061"}}},
{"geometry": {"type": "Point", "coordinates": [-83.2577150398, 33.1122594887]}, "type": "Feature", "properties": {"collection_times": [{"days": "Mon-Fri", "time": "4:30pm"}, {"days": "Sat", "time": "3:15pm"}, {"days": "Sun", "time": "Closed"}], "id": "3106100025", "name": "USPS COLLECTION BOX - BLUE BOX", "address": {"city": "MILLEDGEVILLE", "state": "GA", "street": "2485 N COLUMBIA ST", "postcode": "31061"}}},
{"geometry": {"type": "Point", "coordinates": [-83.2256972177, 33.0822549118]}, "type": "Feature", "properties": {"collection_times": [{"days": "Mon-Fri", "time": "5:00pm"}, {"days": "Sat", "time": "3:15pm"}, {"days": "Sun", "time": "Closed"}], "id": "3106100027", "name": "USPS COLLECTION BOX - BLUE BOX", "address": {"city": "MILLEDGEVILLE", "state": "GA", "street": "150 N JEFFERSON ST NE", "postcode": "31061"}}},
{"geometry": {"type": "Point", "coordinates": [-83.2267082391, 33.0812564631]}, "type": "Feature", "properties": {"collection_times": [{"days": "Mon-Fri", "time": "5:00pm"}, {"days": "Sat", "time": "12:00pm"}, {"days": "Sun", "time": "Closed"}], "id": "3106100028", "name": "USPS COLLECTION BOX - PO LOBBY", "address": {"city": "MILLEDGEVILLE", "state": "GA", "street": "118 E HANCOCK ST", "postcode": "31061"}}},
{"geometry": {"type": "Point", "coordinates": [-83.2254294707, 33.0823113588]}, "type": "Feature", "properties": {"collection_times": [{"days": "Mon-Fri", "time": "5:00pm"}, {"days": "Sat", "time": "3:15pm"}, {"days": "Sun", "time": "Closed"}], "id": "3106100034", "name": "USPS COLLECTION BOX - BLUE BOX", "address": {"city": "MILLEDGEVILLE", "state": "GA", "street": "151 N JEFFERSON ST NE", "postcode": "31061"}}},
{"geometry": {"type": "Point", "coordinates": [-83.2254294707, 33.0823113588]}, "type": "Feature", "properties": {"collection_times": [{"days": "Mon-Fri", "time": "5:00pm"}, {"days": "Sat", "time": "3:15pm"}, {"days": "Sun", "time": "Closed"}], "id": "3106100035", "name": "USPS COLLECTION BOX - BLUE BOX", "address": {"city": "MILLEDGEVILLE", "state": "GA", "street": "151 N JEFFERSON ST NE", "postcode": "31061"}}},
{"geometry": {"type": "Point", "coordinates": [-83.2540789528, 33.0962061621]}, "type": "Feature", "properties": {"collection_times": [{"days": "Mon-Fri", "time": "5:00pm"}, {"days": "Sat", "time": "3:15pm"}, {"days": "Sun", "time": "Closed"}], "id": "3106100036", "name": "USPS COLLECTION BOX - BLUE BOX", "address": {"city": "MILLEDGEVILLE", "state": "GA", "street": "170 GARRETT WAY NW", "postcode": "31061"}}},
{"geometry": {"type": "Point", "coordinates": [-83.2508280498, 33.1044726394]}, "type": "Feature", "properties": {"collection_times": [{"days": "Mon-Fri", "time": "4:15pm"}, {"days": "Sat", "time": "11:00am"}, {"days": "Sun", "time": "Closed"}], "id": "3106100041", "name": "USPS COLLECTION BOX - BLUE BOX", "address": {"city": "MILLEDGEVILLE", "state": "GA", "street": "1962 N COLUMBIA ST", "postcode": "31061"}}},
{"geometry": {"type": "Point", "coordinates": [-83.2498571487, 33.1033501112]}, "type": "Feature", "properties": {"collection_times": [{"days": "Mon-Fri", "time": "11:30am"}, {"days": "Sat", "time": "3:00pm"}, {"days": "Sun", "time": "Closed"}], "id": "3106100044", "name": "USPS COLLECTION BOX - BLUE BOX", "address": {"city": "MILLEDGEVILLE", "state": "GA", "street": "1850 N COLUMBIA ST", "postcode": "31061"}}},
{"geometry": {"type": "Point", "coordinates": [-83.2443771894, 33.0975738103]}, "type": "Feature", "properties": {"collection_times": [{"days": "Mon-Fri", "time": "4:15pm"}, {"days": "Sat", "time": "3:00pm"}, {"days": "Sun", "time": "Closed"}], "id": "3106100050", "name": "USPS COLLECTION BOX - BLUE BOX", "address": {"city": "MILLEDGEVILLE", "state": "GA", "street": "1310 N COLUMBIA ST", "postcode": "31061"}}},
{"geometry": {"type": "Point", "coordinates": [-83.2256972177, 33.0822549118]}, "type": "Feature", "properties": {"collection_times": [{"days": "Mon-Fri", "time": "5:00pm"}, {"days": "Sat", "time": "3:15pm"}, {"days": "Sun", "time": "Closed"}], "id": "3106100052", "name": "USPS COLLECTION BOX - BLUE BOX", "address": {"city": "MILLEDGEVILLE", "state": "GA", "street": "150 N JEFFERSON ST NE", "postcode": "31061"}}},
{"geometry": {"type": "Point", "coordinates": [-83.24912, 33.09869]}, "type": "Feature", "properties": {"collection_times": [{"days": "Mon-Fri", "time": "4:15pm"}, {"days": "Sat", "time": "3:00pm"}, {"days": "Sun", "time": "Closed"}], "id": "3106100053", "name": "USPS COLLECTION BOX - BLUE BOX", "address": {"city": "MILLEDGEVILLE", "state": "GA", "street": "111 FIELDSTONE DR", "postcode": "31061"}}},
{"geometry": {"type": "Point", "coordinates": [-83.2492627318, 33.1030169691]}, "type": "Feature", "properties": {"collection_times": [{"days": "Mon-Fri", "time": "4:30pm"}, {"days": "Sat", "time": "3:15pm"}, {"days": "Sun", "time": "Closed"}], "id": "3106100054", "name": "USPS COLLECTION BOX - BLUE BOX", "address": {"city": "MILLEDGEVILLE", "state": "GA", "street": "1819 N COLUMBIA ST", "postcode": "31061"}}},
{"geometry": {"type": "Point", "coordinates": [-83.2828354979, 33.1735770075]}, "type": "Feature", "properties": {"collection_times": [{"days": "Mon-Sat", "time": "12:00pm"}, {"days": "Sun", "time": "Closed"}], "id": "3106100056", "name": "USPS COLLECTION BOX - BLUE BOX", "address": {"city": "MILLEDGEVILLE", "state": "GA", "street": "3061 N COLUMBIA ST", "postcode": "31061"}}},
{"geometry": {"type": "Point", "coordinates": [-83.2119900297, 33.0413121563]}, "type": "Feature", "properties": {"collection_times": [{"days": "Mon-Sat", "time": "11:00am"}, {"days": "Sun", "time": "Closed"}], "id": "3106100057", "name": "USPS COLLECTION BOX - BLUE BOX", "address": {"city": "MILLEDGEVILLE", "state": "GA", "street": "2249 VINSON HWY SE", "postcode": "31061"}}},
{"geometry": {"type": "Point", "coordinates": [-84.0294431026, 32.3003835861]}, "type": "Feature", "properties": {"collection_times": [{"days": "Mon-Fri", "time": "5:00pm"}, {"days": "Sat", "time": "11:30am"}, {"days": "Sun", "time": "Closed"}], "id": "3106300007", "name": "USPS COLLECTION BOX - BLUE BOX", "address": {"city": "MONTEZUMA", "state": "GA", "street": "110 CABOT ST", "postcode": "31063"}}},
{"geometry": {"type": "Point", "coordinates": [-84.0302353879, 32.2954058975]}, "type": "Feature", "properties": {"collection_times": [{"days": "Mon-Fri", "time": "1:00pm"}, {"days": "Sat-Sun", "time": "Closed"}], "id": "3106300008", "name": "USPS COLLECTION BOX - BLUE BOX", "address": {"city": "MONTEZUMA", "state": "GA", "street": "506 SUMTER ST", "postcode": "31063"}}},
{"geometry": {"type": "Point", "coordinates": [-84.0294431026, 32.3003835861]}, "type": "Feature", "properties": {"collection_times": [{"days": "Mon-Fri", "time": "5:15pm"}, {"days": "Sat", "time": "11:30am"}, {"days": "Sun", "time": "Closed"}], "id": "3106300009", "name": "USPS COLLECTION BOX - PO LOBBY", "address": {"city": "MONTEZUMA", "state": "GA", "street": "110 CABOT ST", "postcode": "31063"}}},
{"geometry": {"type": "Point", "coordinates": [-83.6833947988, 33.3037869563]}, "type": "Feature", "properties": {"collection_times": [{"days": "Mon-Fri", "time": "5:00pm"}, {"days": "Sat", "time": "12:00pm"}, {"days": "Sun", "time": "Closed"}], "id": "3106400002", "name": "USPS COLLECTION BOX - BLUE BOX", "address": {"city": "MONTICELLO", "state": "GA", "street": "145 E WASHINGTON ST", "postcode": "31064"}}},
{"geometry": {"type": "Point", "coordinates": [-83.6836495792, 33.3046675829]}, "type": "Feature", "properties": {"collection_times": [{"days": "Mon-Fri", "time": "1:00pm"}, {"days": "Sat", "time": "12:00pm"}, {"days": "Sun", "time": "Closed"}], "id": "3106400003", "name": "USPS COLLECTION BOX - BLUE BOX", "address": {"city": "MONTICELLO", "state": "GA", "street": "110 W GREENE ST", "postcode": "31064"}}},
{"geometry": {"type": "Point", "coordinates": [-83.6833947988, 33.3037869563]}, "type": "Feature", "properties": {"collection_times": [{"days": "Mon-Fri", "time": "4:45pm"}, {"days": "Sat", "time": "12:00pm"}, {"days": "Sun", "time": "Closed"}], "id": "3106400004", "name": "USPS COLLECTION BOX - PO LOBBY", "address": {"city": "MONTICELLO", "state": "GA", "street": "145 E WASHINGTON ST", "postcode": "31064"}}},
{"geometry": {"type": "Point", "coordinates": [-83.7071187405, 33.3257613627]}, "type": "Feature", "properties": {"collection_times": [{"days": "Mon-Sat", "time": "12:30pm"}, {"days": "Sun", "time": "Closed"}], "id": "3106400006", "name": "USPS COLLECTION BOX - BLUE BOX", "address": {"city": "MONTICELLO", "state": "GA", "street": "222 CLUBHOUSE DR", "postcode": "31064"}}},
{"geometry": {"type": "Point", "coordinates": [-83.6840517816, 33.3039376568]}, "type": "Feature", "properties": {"collection_times": [{"days": "Mon-Fri", "time": "1:00pm"}, {"days": "Sat", "time": "12:00pm"}, {"days": "Sun", "time": "Closed"}], "id": "3106400007", "name": "USPS COLLECTION BOX - BLUE BOX", "address": {"city": "MONTICELLO", "state": "GA", "street": "123 W WASHINGTON ST", "postcode": "31064"}}},
{"geometry": {"type": "Point", "coordinates": [-83.1541657593, 32.5679451173]}, "type": "Feature", "properties": {"collection_times": [{"days": "Mon-Fri", "time": "4:30pm"}, {"days": "Sat", "time": "10:30am"}, {"days": "Sun", "time": "Closed"}], "id": "3106500000", "name": "USPS COLLECTION BOX - BLUE BOX", "address": {"city": "MONTROSE", "state": "GA", "street": "4334 US HIGHWAY 80 W", "postcode": "31065"}}},
{"geometry": {"type": "Point", "coordinates": [-83.1541657593, 32.5679451173]}, "type": "Feature", "properties": {"collection_times": [{"days": "Mon-Fri", "time": "12:15pm"}, {"days": "Sat", "time": "10:30am"}, {"days": "Sun", "time": "Closed"}], "id": "3106500001", "name": "USPS COLLECTION BOX - PO LOBBY", "address": {"city": "MONTROSE", "state": "GA", "street": "4334 US HIGHWAY 80 W", "postcode": "31065"}}},
{"geometry": {"type": "Point", "coordinates": [-84.0088048847, 32.8009027111]}, "type": "Feature", "properties": {"collection_times": [{"days": "Mon-Fri", "time": "12:30pm"}, {"days": "Sat", "time": "10:30am"}, {"days": "Sun", "time": "Closed"}], "id": "3106600000", "name": "USPS COLLECTION BOX - BLUE BOX", "address": {"city": "MUSELLA", "state": "GA", "street": "21 POST OFFICE ST", "postcode": "31066"}}},
{"geometry": {"type": "Point", "coordinates": [-84.0088048847, 32.8009027111]}, "type": "Feature", "properties": {"collection_times": [{"days": "Mon-Fri", "time": "12:30pm"}, {"days": "Sat", "time": "10:30am"}, {"days": "Sun", "time": "Closed"}], "id": "3106600001", "name": "USPS COLLECTION BOX - PO LOBBY", "address": {"city": "MUSELLA", "state": "GA", "street": "21 POST OFFICE ST", "postcode": "31066"}}},
{"geometry": {"type": "Point", "coordinates": [-82.9528959622, 32.8574338269]}, "type": "Feature", "properties": {"collection_times": [{"days": "Mon-Fri", "time": "3:45pm"}, {"days": "Sat", "time": "10:30am"}, {"days": "Sun", "time": "Closed"}], "id": "3106700000", "name": "USPS COLLECTION BOX - BLUE BOX", "address": {"city": "OCONEE", "state": "GA", "street": "104 FAIRBANKS ST", "postcode": "31067"}}},
{"geometry": {"type": "Point", "coordinates": [-82.9528959622, 32.8574338269]}, "type": "Feature", "properties": {"collection_times": [{"days": "Mon-Fri", "time": "3:45pm"}, {"days": "Sat", "time": "10:30am"}, {"days": "Sun", "time": "Closed"}], "id": "3106700002", "name": "USPS COLLECTION BOX - PO LOBBY", "address": {"city": "OCONEE", "state": "GA", "street": "104 FAIRBANKS ST", "postcode": "31067"}}},
{"geometry": {"type": "Point", "coordinates": [-84.0625973282, 32.2958700978]}, "type": "Feature", "properties": {"collection_times": [{"days": "Mon-Fri", "time": "5:00pm"}, {"days": "Sat", "time": "10:30am"}, {"days": "Sun", "time": "Closed"}], "id": "3106800000", "name": "USPS COLLECTION BOX - BLUE BOX", "address": {"city": "OGLETHORPE", "state": "GA", "street": "120 N SUMTER ST", "postcode": "31068"}}},
{"geometry": {"type": "Point", "coordinates": [-84.0625973282, 32.2958700978]}, "type": "Feature", "properties": {"collection_times": [{"days": "Mon-Fri", "time": "5:00pm"}, {"days": "Sat", "time": "10:30am"}, {"days": "Sun", "time": "Closed"}], "id": "3106800001", "name": "USPS COLLECTION BOX - PO LOBBY", "address": {"city": "OGLETHORPE", "state": "GA", "street": "120 N SUMTER ST", "postcode": "31068"}}},
{"geometry": {"type": "Point", "coordinates": [-83.7340835398, 32.4572470823]}, "type": "Feature", "properties": {"collection_times": [{"days": "Mon-Fri", "time": "12:00pm"}, {"days": "Sat-Sun", "time": "Closed"}], "id": "3106900001", "name": "USPS COLLECTION BOX - BLUE BOX", "address": {"city": "PERRY", "state": "GA", "street": "801 MAIN ST", "postcode": "31069"}}},
{"geometry": {"type": "Point", "coordinates": [-83.7117574862, 32.4584186139]}, "type": "Feature", "properties": {"collection_times": [{"days": "Mon-Fri", "time": "12:00pm"}, {"days": "Sat-Sun", "time": "Closed"}], "id": "3106900002", "name": "USPS COLLECTION BOX - BLUE BOX", "address": {"city": "PERRY", "state": "GA", "street": "1118 MORNINGSIDE DR", "postcode": "31069"}}},
{"geometry": {"type": "Point", "coordinates": [-83.7293369161, 32.4668187624]}, "type": "Feature", "properties": {"collection_times": [{"days": "Mon-Fri", "time": "5:00pm"}, {"days": "Sat", "time": "3:30pm"}, {"days": "Sun", "time": "Closed"}], "id": "3106900008", "name": "USPS COLLECTION BOX - BLUE BOX", "address": {"city": "PERRY", "state": "GA", "street": "1400 MACON RD", "postcode": "31069"}}},
{"geometry": {"type": "Point", "coordinates": [-83.7293369161, 32.4668187624]}, "type": "Feature", "properties": {"collection_times": [{"days": "Mon-Fri", "time": "5:00pm"}, {"days": "Sat", "time": "3:30pm"}, {"days": "Sun", "time": "Closed"}], "id": "3106900009", "name": "USPS COLLECTION BOX - BLUE BOX", "address": {"city": "PERRY", "state": "GA", "street": "1400 MACON RD", "postcode": "31069"}}},
{"geometry": {"type": "Point", "coordinates": [-83.7293369161, 32.4668187624]}, "type": "Feature", "properties": {"collection_times": [{"days": "Mon-Fri", "time": "5:00pm"}, {"days": "Sat", "time": "3:30pm"}, {"days": "Sun", "time": "Closed"}], "id": "3106900010", "name": "USPS COLLECTION BOX - BLUE BOX", "address": {"city": "PERRY", "state": "GA", "street": "1400 MACON RD", "postcode": "31069"}}},
{"geometry": {"type": "Point", "coordinates": [-83.7293369161, 32.4668187624]}, "type": "Feature", "properties": {"collection_times": [{"days": "Mon-Fri", "time": "5:00pm"}, {"days": "Sat", "time": "3:30pm"}, {"days": "Sun", "time": "Closed"}], "id": "3106900013", "name": "USPS COLLECTION BOX - PO LOBBY", "address": {"city": "PERRY", "state": "GA", "street": "1400 MACON RD", "postcode": "31069"}}},
{"geometry": {"type": "Point", "coordinates": [-83.7534529585, 32.4899442918]}, "type": "Feature", "properties": {"collection_times": [{"days": "Mon-Sat", "time": "10:00am"}, {"days": "Sun", "time": "Closed"}], "id": "3106900014", "name": "USPS COLLECTION BOX - BLUE BOX", "address": {"city": "PERRY", "state": "GA", "street": "201 PERRY PKWY", "postcode": "31069"}}},
{"geometry": {"type": "Point", "coordinates": [-83.7620051785, 32.1955646822]}, "type": "Feature", "properties": {"collection_times": [{"days": "Mon-Fri", "time": "12:30pm"}, {"days": "Sat", "time": "10:00am"}, {"days": "Sun", "time": "Closed"}], "id": "3107000000", "name": "USPS COLLECTION BOX - BLUE BOX", "address": {"city": "PINEHURST", "state": "GA", "street": "551 CYPRESS AVE", "postcode": "31070"}}},
{"geometry": {"type": "Point", "coordinates": [-83.7620051785, 32.1955646822]}, "type": "Feature", "properties": {"collection_times": [{"days": "Mon-Fri", "time": "12:15pm"}, {"days": "Sat", "time": "10:00am"}, {"days": "Sun", "time": "Closed"}], "id": "3107000001", "name": "USPS COLLECTION BOX - PO LOBBY", "address": {"city": "PINEHURST", "state": "GA", "street": "551 CYPRESS AVE", "postcode": "31070"}}},
{"geometry": {"type": "Point", "coordinates": [-83.5027197016, 32.1102672661]}, "type": "Feature", "properties": {"collection_times": [{"days": "Mon-Fri", "time": "1:00pm"}, {"days": "Sat", "time": "10:00am"}, {"days": "Sun", "time": "Closed"}], "id": "3107100000", "name": "USPS COLLECTION BOX - BLUE BOX", "address": {"city": "PINEVIEW", "state": "GA", "street": "135 COMMERCE ST E", "postcode": "31071"}}},
{"geometry": {"type": "Point", "coordinates": [-83.5027197016, 32.1102672661]}, "type": "Feature", "properties": {"collection_times": [{"days": "Mon-Fri", "time": "1:00pm"}, {"days": "Sat", "time": "10:00am"}, {"days": "Sun", "time": "Closed"}], "id": "3107100001", "name": "USPS COLLECTION BOX - PO LOBBY", "address": {"city": "PINEVIEW", "state": "GA", "street": "135 COMMERCE ST E", "postcode": "31071"}}},
{"geometry": {"type": "Point", "coordinates": [-83.5405617427, 31.9434426371]}, "type": "Feature", "properties": {"collection_times": [{"days": "Mon-Fri", "time": "2:00pm"}, {"days": "Sat", "time": "9:30am"}, {"days": "Sun", "time": "Closed"}], "id": "3107200000", "name": "USPS COLLECTION BOX - BLUE BOX", "address": {"city": "PITTS", "state": "GA", "street": "109 8TH ST S", "postcode": "31072"}}},
{"geometry": {"type": "Point", "coordinates": [-83.5405617427, 31.9434426371]}, "type": "Feature", "properties": {"collection_times": [{"days": "Mon-Fri", "time": "2:00pm"}, {"days": "Sat", "time": "9:45am"}, {"days": "Sun", "time": "Closed"}], "id": "3107200001", "name": "USPS COLLECTION BOX - PO LOBBY", "address": {"city": "PITTS", "state": "GA", "street": "109 8TH ST S", "postcode": "31072"}}},
{"geometry": {"type": "Point", "coordinates": [-82.9922158297, 32.3838284043]}, "type": "Feature", "properties": {"collection_times": [{"days": "Mon-Fri", "time": "4:30pm"}, {"days": "Sat", "time": "10:30am"}, {"days": "Sun", "time": "Closed"}], "id": "3107500000", "name": "USPS COLLECTION BOX - BLUE BOX", "address": {"city": "RENTZ", "state": "GA", "street": "2120 W RAILROAD ST", "postcode": "31075"}}},
{"geometry": {"type": "Point", "coordinates": [-82.9922158297, 32.3838284043]}, "type": "Feature", "properties": {"collection_times": [{"days": "Mon-Fri", "time": "4:30pm"}, {"days": "Sat", "time": "10:30am"}, {"days": "Sun", "time": "Closed"}], "id": "3107500001", "name": "USPS COLLECTION BOX - PO LOBBY", "address": {"city": "RENTZ", "state": "GA", "street": "2120 W RAILROAD ST", "postcode": "31075"}}},
{"geometry": {"type": "Point", "coordinates": [-84.0975063541, 32.5586781917]}, "type": "Feature", "properties": {"collection_times": [{"days": "Mon-Fri", "time": "5:00pm"}, {"days": "Sat", "time": "12:00pm"}, {"days": "Sun", "time": "Closed"}], "id": "3107600000", "name": "USPS COLLECTION BOX - PO LOBBY", "address": {"city": "REYNOLDS", "state": "GA", "street": "8 N CRAWFORD ST", "postcode": "31076"}}},
{"geometry": {"type": "Point", "coordinates": [-84.0975063541, 32.5586781917]}, "type": "Feature", "properties": {"collection_times": [{"days": "Mon-Fri", "time": "5:00pm"}, {"days": "Sat", "time": "12:00pm"}, {"days": "Sun", "time": "Closed"}], "id": "3107600001", "name": "USPS COLLECTION BOX - BLUE BOX", "address": {"city": "REYNOLDS", "state": "GA", "street": "8 N CRAWFORD ST", "postcode": "31076"}}},
{"geometry": {"type": "Point", "coordinates": [-83.2193343262, 31.9971575256]}, "type": "Feature", "properties": {"collection_times": [{"days": "Mon-Fri", "time": "1:00pm"}, {"days": "Sat", "time": "10:30am"}, {"days": "Sun", "time": "Closed"}], "id": "3107700000", "name": "USPS COLLECTION BOX - BLUE BOX", "address": {"city": "RHINE", "state": "GA", "street": "111 1ST ST", "postcode": "31077"}}},
{"geometry": {"type": "Point", "coordinates": [-83.2193343262, 31.9971575256]}, "type": "Feature", "properties": {"collection_times": [{"days": "Mon-Fri", "time": "12:45pm"}, {"days": "Sat", "time": "10:30am"}, {"days": "Sun", "time": "Closed"}], "id": "3107700001", "name": "USPS COLLECTION BOX - PO LOBBY", "address": {"city": "RHINE", "state": "GA", "street": "111 1ST ST", "postcode": "31077"}}},
{"geometry": {"type": "Point", "coordinates": [-84.0124690408, 32.7209941363]}, "type": "Feature", "properties": {"collection_times": [{"days": "Mon-Fri", "time": "4:30pm"}, {"days": "Sat", "time": "10:30am"}, {"days": "Sun", "time": "Closed"}], "id": "3107800001", "name": "USPS COLLECTION BOX - BLUE BOX", "address": {"city": "ROBERTA", "state": "GA", "street": "160 N DUGGER AVE", "postcode": "31078"}}},
{"geometry": {"type": "Point", "coordinates": [-84.0124690408, 32.7209941363]}, "type": "Feature", "properties": {"collection_times": [{"days": "Mon-Fri", "time": "4:30pm"}, {"days": "Sat", "time": "10:30am"}, {"days": "Sun", "time": "Closed"}], "id": "3107800003", "name": "USPS COLLECTION BOX - PO LOBBY", "address": {"city": "ROBERTA", "state": "GA", "street": "160 N DUGGER AVE", "postcode": "31078"}}},
{"geometry": {"type": "Point", "coordinates": [-83.4653291816, 31.949852696]}, "type": "Feature", "properties": {"collection_times": [{"days": "Mon-Fri", "time": "4:30pm"}, {"days": "Sat", "time": "10:30am"}, {"days": "Sun", "time": "Closed"}], "id": "3107900000", "name": "USPS COLLECTION BOX - BLUE BOX", "address": {"city": "ROCHELLE", "state": "GA", "street": "577 2ND AVE", "postcode": "31079"}}},
{"geometry": {"type": "Point", "coordinates": [-83.4653291816, 31.949852696]}, "type": "Feature", "properties": {"collection_times": [{"days": "Mon-Fri", "time": "4:30pm"}, {"days": "Sat", "time": "10:30am"}, {"days": "Sun", "time": "Closed"}], "id": "3107900001", "name": "USPS COLLECTION BOX - BLUE BOX", "address": {"city": "ROCHELLE", "state": "GA", "street": "577 2ND AVE", "postcode": "31079"}}},
{"geometry": {"type": "Point", "coordinates": [-83.4653291816, 31.949852696]}, "type": "Feature", "properties": {"collection_times": [{"days": "Mon-Fri", "time": "4:30pm"}, {"days": "Sat", "time": "10:30am"}, {"days": "Sun", "time": "Closed"}], "id": "3107900002", "name": "USPS COLLECTION BOX - PO LOBBY", "address": {"city": "ROCHELLE", "state": "GA", "street": "577 2ND AVE", "postcode": "31079"}}},
{"geometry": {"type": "Point", "coordinates": [-84.306332895, 32.4290633824]}, "type": "Feature", "properties": {"collection_times": [{"days": "Mon-Fri", "time": "2:30pm"}, {"days": "Sat", "time": "11:30am"}, {"days": "Sun", "time": "Closed"}], "id": "3108100000", "name": "USPS COLLECTION BOX - BLUE BOX", "address": {"city": "RUPERT", "state": "GA", "street": "208 J RAN COOPER RD", "postcode": "31081"}}},
{"geometry": {"type": "Point", "coordinates": [-84.306332895, 32.4290633824]}, "type": "Feature", "properties": {"collection_times": [{"days": "Mon-Fri", "time": "2:30pm"}, {"days": "Sat", "time": "11:30am"}, {"days": "Sun", "time": "Closed"}], "id": "3108100001", "name": "USPS COLLECTION BOX - PO LOBBY", "address": {"city": "RUPERT", "state": "GA", "street": "208 J RAN COOPER RD", "postcode": "31081"}}},
{"geometry": {"type": "Point", "coordinates": [-82.8135110682, 32.9815275681]}, "type": "Feature", "properties": {"collection_times": [{"days": "Mon-Fri", "time": "5:00pm"}, {"days": "Sat", "time": "12:00pm"}, {"days": "Sun", "time": "Closed"}], "id": "3108200000", "name": "USPS COLLECTION BOX - BLUE BOX", "address": {"city": "SANDERSVILLE", "state": "GA", "street": "205 W CHURCH ST", "postcode": "31082"}}},
{"geometry": {"type": "Point", "coordinates": [-82.8135110682, 32.9815275681]}, "type": "Feature", "properties": {"collection_times": [{"days": "Mon-Fri", "time": "5:00pm"}, {"days": "Sat", "time": "12:00pm"}, {"days": "Sun", "time": "Closed"}], "id": "3108200003", "name": "USPS COLLECTION BOX - BLUE BOX", "address": {"city": "SANDERSVILLE", "state": "GA", "street": "205 W CHURCH ST", "postcode": "31082"}}},
{"geometry": {"type": "Point", "coordinates": [-82.8102646149, 32.9827332253]}, "type": "Feature", "properties": {"collection_times": [{"days": "Mon-Fri", "time": "4:00pm"}, {"days": "Sat-Sun", "time": "Closed"}], "id": "3108200014", "name": "USPS COLLECTION BOX - BLUE BOX", "address": {"city": "SANDERSVILLE", "state": "GA", "street": "124 E HAYNES ST", "postcode": "31082"}}},
{"geometry": {"type": "Point", "coordinates": [-82.8124071366, 32.9830177842]}, "type": "Feature", "properties": {"collection_times": [{"days": "Mon-Fri", "time": "4:00pm"}, {"days": "Sat-Sun", "time": "Closed"}], "id": "3108200017", "name": "USPS COLLECTION BOX - BLUE BOX", "address": {"city": "SANDERSVILLE", "state": "GA", "street": "124 W HAYNES ST", "postcode": "31082"}}},
{"geometry": {"type": "Point", "coordinates": [-82.8135110682, 32.9815275681]}, "type": "Feature", "properties": {"collection_times": [{"days": "Mon-Fri", "time": "5:00pm"}, {"days": "Sat", "time": "12:00pm"}, {"days": "Sun", "time": "Closed"}], "id": "3108200022", "name": "USPS COLLECTION BOX - PO LOBBY", "address": {"city": "SANDERSVILLE", "state": "GA", "street": "205 W CHURCH ST", "postcode": "31082"}}},
{"geometry": {"type": "Point", "coordinates": [-82.8177764374, 32.0478269815]}, "type": "Feature", "properties": {"collection_times": [{"days": "Mon-Fri", "time": "4:30pm"}, {"days": "Sat", "time": "10:15am"}, {"days": "Sun", "time": "Closed"}], "id": "3108300000", "name": "USPS COLLECTION BOX - BLUE BOX", "address": {"city": "SCOTLAND", "state": "GA", "street": "974 MAIN ST", "postcode": "31083"}}},
{"geometry": {"type": "Point", "coordinates": [-82.8177764374, 32.0478269815]}, "type": "Feature", "properties": {"collection_times": [{"days": "Mon-Fri", "time": "4:30pm"}, {"days": "Sat", "time": "10:15am"}, {"days": "Sun", "time": "Closed"}], "id": "3108300001", "name": "USPS COLLECTION BOX - PO LOBBY", "address": {"city": "SCOTLAND", "state": "GA", "street": "974 MAIN ST", "postcode": "31083"}}},
{"geometry": {"type": "Point", "coordinates": [-83.6266463944, 33.4192695513]}, "type": "Feature", "properties": {"collection_times": [{"days": "Mon-Fri", "time": "2:00pm"}, {"days": "Sat", "time": "11:15am"}, {"days": "Sun", "time": "Closed"}], "id": "3108500000", "name": "USPS COLLECTION BOX - BLUE BOX", "address": {"city": "SHADY DALE", "state": "GA", "street": "22591 N MAIN ST", "postcode": "31085"}}},
{"geometry": {"type": "Point", "coordinates": [-83.6266463944, 33.4192695513]}, "type": "Feature", "properties": {"collection_times": [{"days": "Mon-Fri", "time": "1:45pm"}, {"days": "Sat", "time": "11:15am"}, {"days": "Sun", "time": "Closed"}], "id": "3108500001", "name": "USPS COLLECTION BOX - PO LOBBY", "address": {"city": "SHADY DALE", "state": "GA", "street": "22591 N MAIN ST", "postcode": "31085"}}},
{"geometry": {"type": "Point", "coordinates": [-83.8789991244, 32.9828072371]}, "type": "Feature", "properties": {"collection_times": [{"days": "Mon-Fri", "time": "12:00pm"}, {"days": "Sat", "time": "10:30am"}, {"days": "Sun", "time": "Closed"}], "id": "3108600000", "name": "USPS COLLECTION BOX - BLUE BOX", "address": {"city": "SMARR", "state": "GA", "street": "2783 US HIGHWAY 41 S", "postcode": "31086"}}},
{"geometry": {"type": "Point", "coordinates": [-83.8789991244, 32.9828072371]}, "type": "Feature", "properties": {"collection_times": [{"days": "Mon-Fri", "time": "12:00pm"}, {"days": "Sat", "time": "10:30am"}, {"days": "Sun", "time": "Closed"}], "id": "3108600001", "name": "USPS COLLECTION BOX - PO LOBBY", "address": {"city": "SMARR", "state": "GA", "street": "2783 US HIGHWAY 41 S", "postcode": "31086"}}},
{"geometry": {"type": "Point", "coordinates": [-83.0002549604, 33.276101308]}, "type": "Feature", "properties": {"collection_times": [{"days": "Mon-Fri", "time": "4:30pm"}, {"days": "Sat", "time": "12:30pm"}, {"days": "Sun", "time": "Closed"}], "id": "3108700003", "name": "USPS COLLECTION BOX - BLUE BOX", "address": {"city": "SPARTA", "state": "GA", "street": "12877 BROAD ST", "postcode": "31087"}}},
{"geometry": {"type": "Point", "coordinates": [-83.0002549604, 33.276101308]}, "type": "Feature", "properties": {"collection_times": [{"days": "Mon-Fri", "time": "4:30pm"}, {"days": "Sat", "time": "12:30pm"}, {"days": "Sun", "time": "Closed"}], "id": "3108700004", "name": "USPS COLLECTION BOX - PO LOBBY", "address": {"city": "SPARTA", "state": "GA", "street": "12877 BROAD ST", "postcode": "31087"}}},
{"geometry": {"type": "Point", "coordinates": [-83.6650836298, 32.5979118254]}, "type": "Feature", "properties": {"collection_times": [{"days": "Mon-Fri", "time": "2:30pm"}, {"days": "Sat-Sun", "time": "Closed"}], "id": "3108800013", "name": "USPS COLLECTION BOX - BLUE BOX", "address": {"city": "WARNER ROBINS", "state": "GA", "street": "202 CARL VINSON PKWY", "postcode": "31088"}}},
{"geometry": {"type": "Point", "coordinates": [-83.6652844542, 32.5943049266]}, "type": "Feature", "properties": {"collection_times": [{"days": "Mon-Fri", "time": "2:30pm"}, {"days": "Sat-Sun", "time": "Closed"}], "id": "3108800014", "name": "USPS COLLECTION BOX - BLUE BOX", "address": {"city": "WARNER ROBINS", "state": "GA", "street": "123 CARL VINSON PKWY", "postcode": "31088"}}},
{"geometry": {"type": "Point", "coordinates": [-83.637463321, 32.5856110428]}, "type": "Feature", "properties": {"collection_times": [{"days": "Mon-Sat", "time": "2:30pm"}, {"days": "Sun", "time": "Closed"}], "id": "3108800031", "name": "USPS COLLECTION BOX - BLUE BOX", "address": {"city": "WARNER ROBINS", "state": "GA", "street": "800 LEISURE LAKE DR", "postcode": "31088"}}},
{"geometry": {"type": "Point", "coordinates": [-83.6236964698, 32.5782222968]}, "type": "Feature", "properties": {"collection_times": [{"days": "Mon-Sat", "time": "2:30pm"}, {"days": "Sun", "time": "Closed"}], "id": "3108800033", "name": "USPS COLLECTION BOX - BLUE BOX", "address": {"city": "WARNER ROBINS", "state": "GA", "street": "2512 MOODY RD", "postcode": "31088"}}},
{"geometry": {"type": "Point", "coordinates": [-83.6565168064, 32.5936409709]}, "type": "Feature", "properties": {"collection_times": [{"days": "Mon-Fri", "time": "6:00pm"}, {"days": "Sat", "time": "5:00pm"}, {"days": "Sun", "time": "Closed"}], "id": "3108800065", "name": "USPS COLLECTION BOX - PO LOBBY", "address": {"city": "WARNER ROBINS", "state": "GA", "street": "904 RUSSELL PKWY", "postcode": "31088"}}},
{"geometry": {"type": "Point", "coordinates": [-83.6664274654, 32.5877844324]}, "type": "Feature", "properties": {"collection_times": [{"days": "Mon-Sat", "time": "2:30pm"}, {"days": "Sun", "time": "Closed"}], "id": "3108800066", "name": "USPS COLLECTION BOX - BLUE BOX", "address": {"city": "WARNER ROBINS", "state": "GA", "street": "1010 S HOUSTON LAKE RD", "postcode": "31088"}}},
{"geometry": {"type": "Point", "coordinates": [-83.6856663371, 32.6137646489]}, "type": "Feature", "properties": {"collection_times": [{"days": "Mon-Fri", "time": "2:30pm"}, {"days": "Sat-Sun", "time": "Closed"}], "id": "3108800067", "name": "USPS COLLECTION BOX - BLUE BOX", "address": {"city": "WARNER ROBINS", "state": "GA", "street": "135 OSIGIAN BLVD", "postcode": "31088"}}},
{"geometry": {"type": "Point", "coordinates": [-83.6856663371, 32.6137646489]}, "type": "Feature", "properties": {"collection_times": [{"days": "Mon-Fri", "time": "2:30pm"}, {"days": "Sat-Sun", "time": "Closed"}], "id": "3108800069", "name": "USPS COLLECTION BOX - BLUE BOX", "address": {"city": "WARNER ROBINS", "state": "GA", "street": "135 OSIGIAN BLVD", "postcode": "31088"}}},
{"geometry": {"type": "Point", "coordinates": [-83.6652078197, 32.5929864675]}, "type": "Feature", "properties": {"collection_times": [{"days": "Mon-Fri", "time": "2:30pm"}, {"days": "Sat-Sun", "time": "Closed"}], "id": "3108800070", "name": "USPS COLLECTION BOX - BLUE BOX", "address": {"city": "WARNER ROBINS", "state": "GA", "street": "1717 RUSSELL PKWY", "postcode": "31088"}}},
{"geometry": {"type": "Point", "coordinates": [-83.6565168064, 32.5936409709]}, "type": "Feature", "properties": {"collection_times": [{"days": "Mon-Fri", "time": "6:00pm"}, {"days": "Sat", "time": "5:00pm"}, {"days": "Sun", "time": "Closed"}], "id": "3108800074", "name": "USPS COLLECTION BOX - APC", "address": {"city": "WARNER ROBINS", "state": "GA", "street": "904 RUSSELL PKWY", "postcode": "31088"}}},
{"geometry": {"type": "Point", "coordinates": [-83.6565168064, 32.5936409709]}, "type": "Feature", "properties": {"collection_times": [{"days": "Mon-Fri", "time": "6:00pm"}, {"days": "Sat", "time": "5:00pm"}, {"days": "Sun", "time": "Closed"}], "id": "3108800077", "name": "USPS COLLECTION BOX - BLUE BOX", "address": {"city": "WARNER ROBINS", "state": "GA", "street": "904 RUSSELL PKWY", "postcode": "31088"}}},
{"geometry": {"type": "Point", "coordinates": [-82.8128280725, 32.9367256896]}, "type": "Feature", "properties": {"collection_times": [{"days": "Mon-Fri", "time": "5:00pm"}, {"days": "Sat", "time": "10:00am"}, {"days": "Sun", "time": "Closed"}], "id": "3108900002", "name": "USPS COLLECTION BOX - BLUE BOX", "address": {"city": "TENNILLE", "state": "GA", "street": "131 SMITH ST", "postcode": "31089"}}},
{"geometry": {"type": "Point", "coordinates": [-82.8128280725, 32.9367256896]}, "type": "Feature", "properties": {"collection_times": [{"days": "Mon-Fri", "time": "4:30pm"}, {"days": "Sat", "time": "10:00am"}, {"days": "Sun", "time": "Closed"}], "id": "3108900005", "name": "USPS COLLECTION BOX - PO LOBBY", "address": {"city": "TENNILLE", "state": "GA", "street": "131 SMITH ST", "postcode": "31089"}}},
{"geometry": {"type": "Point", "coordinates": [-83.0784277149, 32.8170748813]}, "type": "Feature", "properties": {"collection_times": [{"days": "Mon-Fri", "time": "12:30pm"}, {"days": "Sat", "time": "11:00am"}, {"days": "Sun", "time": "Closed"}], "id": "3109000000", "name": "USPS COLLECTION BOX - BLUE BOX", "address": {"city": "TOOMSBORO", "state": "GA", "street": "153 MAIN ST", "postcode": "31090"}}},
{"geometry": {"type": "Point", "coordinates": [-83.0784277149, 32.8170748813]}, "type": "Feature", "properties": {"collection_times": [{"days": "Mon-Fri", "time": "12:30pm"}, {"days": "Sat", "time": "11:00am"}, {"days": "Sun", "time": "Closed"}], "id": "3109000001", "name": "USPS COLLECTION BOX - PO LOBBY", "address": {"city": "TOOMSBORO", "state": "GA", "street": "153 MAIN ST", "postcode": "31090"}}},
{"geometry": {"type": "Point", "coordinates": [-83.7386664509, 32.2564950299]}, "type": "Feature", "properties": {"collection_times": [{"days": "Mon-Fri", "time": "4:45pm"}, {"days": "Sat", "time": "11:00am"}, {"days": "Sun", "time": "Closed"}], "id": "3109100000", "name": "USPS COLLECTION BOX - BLUE BOX", "address": {"city": "UNADILLA", "state": "GA", "street": "1885 PINE ST", "postcode": "31091"}}},
{"geometry": {"type": "Point", "coordinates": [-83.7386664509, 32.2564950299]}, "type": "Feature", "properties": {"collection_times": [{"days": "Mon-Fri", "time": "4:45pm"}, {"days": "Sat", "time": "11:00am"}, {"days": "Sun", "time": "Closed"}], "id": "3109100001", "name": "USPS COLLECTION BOX - BLUE BOX", "address": {"city": "UNADILLA", "state": "GA", "street": "1885 PINE ST", "postcode": "31091"}}},
{"geometry": {"type": "Point", "coordinates": [-83.7386664509, 32.2564950299]}, "type": "Feature", "properties": {"collection_times": [{"days": "Mon-Fri", "time": "4:45pm"}, {"days": "Sat", "time": "11:00am"}, {"days": "Sun", "time": "Closed"}], "id": "3109100003", "name": "USPS COLLECTION BOX - PO LOBBY", "address": {"city": "UNADILLA", "state": "GA", "street": "1885 PINE ST", "postcode": "31091"}}},
{"geometry": {"type": "Point", "coordinates": [-83.7965231484, 32.0906541032]}, "type": "Feature", "properties": {"collection_times": [{"days": "Mon-Fri", "time": "5:00pm"}, {"days": "Sat", "time": "12:00pm"}, {"days": "Sun", "time": "Closed"}], "id": "3109200000", "name": "USPS COLLECTION BOX - BLUE BOX", "address": {"city": "VIENNA", "state": "GA", "street": "107 W COTTON ST", "postcode": "31092"}}},
{"geometry": {"type": "Point", "coordinates": [-83.7965231484, 32.0906541032]}, "type": "Feature", "properties": {"collection_times": [{"days": "Mon-Fri", "time": "5:00pm"}, {"days": "Sat", "time": "12:00pm"}, {"days": "Sun", "time": "Closed"}], "id": "3109200001", "name": "USPS COLLECTION BOX - BLUE BOX", "address": {"city": "VIENNA", "state": "GA", "street": "107 W COTTON ST", "postcode": "31092"}}},
{"geometry": {"type": "Point", "coordinates": [-83.7965231484, 32.0906541032]}, "type": "Feature", "properties": {"collection_times": [{"days": "Mon-Fri", "time": "5:00pm"}, {"days": "Sat", "time": "12:00pm"}, {"days": "Sun", "time": "Closed"}], "id": "3109200005", "name": "USPS COLLECTION BOX - PO LOBBY", "address": {"city": "VIENNA", "state": "GA", "street": "107 W COTTON ST", "postcode": "31092"}}},
{"geometry": {"type": "Point", "coordinates": [-83.6129604787, 32.621871989]}, "type": "Feature", "properties": {"collection_times": [{"days": "Mon-Fri", "time": "4:00pm"}, {"days": "Sat", "time": "9:00am"}, {"days": "Sun", "time": "Closed"}], "id": "3109300004", "name": "USPS COLLECTION BOX - BLUE BOX", "address": {"city": "WARNER ROBINS", "state": "GA", "street": "202 N DAVIS DR", "postcode": "31093"}}},
{"geometry": {"type": "Point", "coordinates": [-83.6129604787, 32.621871989]}, "type": "Feature", "properties": {"collection_times": [{"days": "Mon-Fri", "time": "4:00pm"}, {"days": "Sat", "time": "9:00am"}, {"days": "Sun", "time": "Closed"}], "id": "3109300005", "name": "USPS COLLECTION BOX - BLUE BOX", "address": {"city": "WARNER ROBINS", "state": "GA", "street": "202 N DAVIS DR", "postcode": "31093"}}},
{"geometry": {"type": "Point", "coordinates": [-83.6415625818, 32.6309486773]}, "type": "Feature", "properties": {"collection_times": [{"days": "Mon-Fri", "time": "2:30pm"}, {"days": "Sat-Sun", "time": "Closed"}], "id": "3109300013", "name": "USPS COLLECTION BOX - BLUE BOX", "address": {"city": "WARNER ROBINS", "state": "GA", "street": "800 N HOUSTON RD", "postcode": "31093"}}},
{"geometry": {"type": "Point", "coordinates": [-83.6794785427, 32.6182774986]}, "type": "Feature", "properties": {"collection_times": [{"days": "Mon-Sat", "time": "2:30pm"}, {"days": "Sun", "time": "Closed"}], "id": "3109300022", "name": "USPS COLLECTION BOX - BLUE BOX", "address": {"city": "WARNER ROBINS", "state": "GA", "street": "2823 WATSON BLVD", "postcode": "31093"}}},
{"geometry": {"type": "Point", "coordinates": [-83.6275960824, 32.6182604632]}, "type": "Feature", "properties": {"collection_times": [{"days": "Mon-Fri", "time": "2:30pm"}, {"days": "Sat-Sun", "time": "Closed"}], "id": "3109300024", "name": "USPS COLLECTION BOX - BLUE BOX", "address": {"city": "WARNER ROBINS", "state": "GA", "street": "1550 WATSON BLVD", "postcode": "31093"}}},
{"geometry": {"type": "Point", "coordinates": [-83.6541080399, 32.6182401109]}, "type": "Feature", "properties": {"collection_times": [{"days": "Mon-Sat", "time": "2:30pm"}, {"days": "Sun", "time": "Closed"}], "id": "3109300027", "name": "USPS COLLECTION BOX - BLUE BOX", "address": {"city": "WARNER ROBINS", "state": "GA", "street": "2063 WATSON BLVD", "postcode": "31093"}}},
{"geometry": {"type": "Point", "coordinates": [-83.6602829719, 32.6182261651]}, "type": "Feature", "properties": {"collection_times": [{"days": "Mon-Sat", "time": "2:30pm"}, {"days": "Sun", "time": "Closed"}], "id": "3109300028", "name": "USPS COLLECTION BOX - BLUE BOX", "address": {"city": "WARNER ROBINS", "state": "GA", "street": "2207 WATSON BLVD", "postcode": "31093"}}},
{"geometry": {"type": "Point", "coordinates": [-83.6069340809, 32.6191707364]}, "type": "Feature", "properties": {"collection_times": [{"days": "Mon-Fri", "time": "2:30pm"}, {"days": "Sat-Sun", "time": "Closed"}], "id": "3109300032", "name": "USPS COLLECTION BOX - BLUE BOX", "address": {"city": "WARNER ROBINS", "state": "GA", "street": "700 WATSON BLVD", "postcode": "31093"}}},
{"geometry": {"type": "Point", "coordinates": [-83.6828945854, 32.6183440816]}, "type": "Feature", "properties": {"collection_times": [{"days": "Mon-Fri", "time": "2:30pm"}, {"days": "Sat-Sun", "time": "Closed"}], "id": "3109300036", "name": "USPS COLLECTION BOX - BLUE BOX", "address": {"city": "WARNER ROBINS", "state": "GA", "street": "2907 WATSON BLVD", "postcode": "31093"}}},
{"geometry": {"type": "Point", "coordinates": [-83.6701823073, 32.6183533829]}, "type": "Feature", "properties": {"collection_times": [{"days": "Mon-Sat", "time": "2:30pm"}, {"days": "Sun", "time": "Closed"}], "id": "3109300038", "name": "USPS COLLECTION BOX - BLUE BOX", "address": {"city": "WARNER ROBINS", "state": "GA", "street": "2720 WATSON BLVD", "postcode": "31093"}}},
{"geometry": {"type": "Point", "coordinates": [-83.7025847528, 32.6147515852]}, "type": "Feature", "properties": {"collection_times": [{"days": "Mon-Sat", "time": "2:30pm"}, {"days": "Sun", "time": "Closed"}], "id": "3109300042", "name": "USPS COLLECTION BOX - BLUE BOX", "address": {"city": "WARNER ROBINS", "state": "GA", "street": "4027 WATSON BLVD", "postcode": "31093"}}},
{"geometry": {"type": "Point", "coordinates": [-82.8074051905, 33.1057246699]}, "type": "Feature", "properties": {"collection_times": [{"days": "Mon-Fri", "time": "10:30am"}, {"days": "Sat", "time": "11:45am"}, {"days": "Sun", "time": "Closed"}], "id": "3109400000", "name": "USPS COLLECTION BOX - BLUE BOX", "address": {"city": "WARTHEN", "state": "GA", "street": "7753 GA HIGHWAY 15 N", "postcode": "31094"}}},
{"geometry": {"type": "Point", "coordinates": [-82.8074051905, 33.1057246699]}, "type": "Feature", "properties": {"collection_times": [{"days": "Mon-Fri", "time": "10:15am"}, {"days": "Sat", "time": "11:45am"}, {"days": "Sun", "time": "Closed"}], "id": "3109400001", "name": "USPS COLLECTION BOX - PO LOBBY", "address": {"city": "WARTHEN", "state": "GA", "street": "7753 GA HIGHWAY 15 N", "postcode": "31094"}}},
{"geometry": {"type": "Point", "coordinates": [-82.735711895, 32.7059345993]}, "type": "Feature", "properties": {"collection_times": [{"days": "Mon-Fri", "time": "4:30pm"}, {"days": "Sat", "time": "12:00pm"}, {"days": "Sun", "time": "Closed"}], "id": "3109600007", "name": "USPS COLLECTION BOX - BLUE BOX", "address": {"city": "WRIGHTSVILLE", "state": "GA", "street": "6820 E COLLEGE ST", "postcode": "31096"}}},
{"geometry": {"type": "Point", "coordinates": [-82.7184549261, 32.7303465852]}, "type": "Feature", "properties": {"collection_times": [{"days": "Mon-Fri", "time": "3:00pm"}, {"days": "Sat-Sun", "time": "Closed"}], "id": "3109600009", "name": "USPS COLLECTION BOX - BLUE BOX", "address": {"city": "WRIGHTSVILLE", "state": "GA", "street": "168 N BRADFORD ST", "postcode": "31096"}}},
{"geometry": {"type": "Point", "coordinates": [-82.735711895, 32.7059345993]}, "type": "Feature", "properties": {"collection_times": [{"days": "Mon-Fri", "time": "4:30pm"}, {"days": "Sat", "time": "12:00pm"}, {"days": "Sun", "time": "Closed"}], "id": "3109600015", "name": "USPS COLLECTION BOX - PO LOBBY", "address": {"city": "WRIGHTSVILLE", "state": "GA", "street": "8648 S MARCUS ST", "postcode": "31096"}}},
{"geometry": {"type": "Point", "coordinates": [-84.1421789596, 32.9131791006]}, "type": "Feature", "properties": {"collection_times": [{"days": "Mon-Fri", "time": "1:00pm"}, {"days": "Sat", "time": "10:00am"}, {"days": "Sun", "time": "Closed"}], "id": "3109700000", "name": "USPS COLLECTION BOX - BLUE BOX", "address": {"city": "YATESVILLE", "state": "GA", "street": "17 EMPIRE ST", "postcode": "31097"}}},
{"geometry": {"type": "Point", "coordinates": [-84.1421789596, 32.9131791006]}, "type": "Feature", "properties": {"collection_times": [{"days": "Mon-Fri", "time": "1:00pm"}, {"days": "Sat", "time": "10:00am"}, {"days": "Sun", "time": "Closed"}], "id": "3109700001", "name": "USPS COLLECTION BOX - PO LOBBY", "address": {"city": "YATESVILLE", "state": "GA", "street": "17 EMPIRE ST", "postcode": "31097"}}},
{"geometry": {"type": "Point", "coordinates": [-83.5740887152, 32.6197284687]}, "type": "Feature", "properties": {"collection_times": [{"days": "Mon-Fri", "time": "2:00pm"}, {"days": "Sat", "time": "11:00am"}, {"days": "Sun", "time": "Closed"}], "id": "3109800001", "name": "USPS COLLECTION BOX - BLUE BOX", "address": {"city": "WARNER ROBINS", "state": "GA", "street": "166 BYRON ST", "postcode": "31098"}}},
{"geometry": {"type": "Point", "coordinates": [-83.5779427985, 32.6057092859]}, "type": "Feature", "properties": {"collection_times": [{"days": "Mon-Fri", "time": "4:15pm"}, {"days": "Sat", "time": "12:00pm"}, {"days": "Sun", "time": "Closed"}], "id": "3109800005", "name": "USPS COLLECTION BOX - BLUE BOX", "address": {"city": "WARNER ROBINS", "state": "GA", "street": "700 7TH ST", "postcode": "31098"}}},
{"geometry": {"type": "Point", "coordinates": [-83.5940676592, 32.6185497167]}, "type": "Feature", "properties": {"collection_times": [{"days": "Mon-Fri", "time": "2:00pm"}, {"days": "Sat", "time": "10:00am"}, {"days": "Sun", "time": "Closed"}], "id": "3109800006", "name": "USPS COLLECTION BOX - BLUE BOX", "address": {"city": "WARNER ROBINS", "state": "GA", "street": "310 3RD ST", "postcode": "31098"}}},
{"geometry": {"type": "Point", "coordinates": [-83.5868837827, 32.6017780017]}, "type": "Feature", "properties": {"collection_times": [{"days": "Mon-Fri", "time": "5:00pm"}, {"days": "Sat", "time": "12:00pm"}, {"days": "Sun", "time": "Closed"}], "id": "3109800007", "name": "USPS COLLECTION BOX - BLUE BOX", "address": {"city": "WARNER ROBINS", "state": "GA", "street": "914 9TH ST", "postcode": "31098"}}},
{"geometry": {"type": "Point", "coordinates": [-83.6416435661, 32.6088612]}, "type": "Feature", "properties": {"collection_times": [{"days": "Mon-Fri", "time": "2:00pm"}, {"days": "Sat-Sun", "time": "Closed"}], "id": "3109800010", "name": "USPS COLLECTION BOX - BLUE BOX", "address": {"city": "WARNER ROBINS", "state": "GA", "street": "155 RICHARD RAY BLVD", "postcode": "31098"}}}
]}
