{"type": "FeatureCollection", "features": [
{"geometry": {"type": "Point", "coordinates": [-84.3553964481, 33.7872738628]}, "type": "Feature", "properties": {"collection_times": [{"days": "Mon-Fri", "time": "5:00pm"}, {"days": "Sat-Sun", "time": "Closed"}], "id": "3110600000", "name": "USPS COLLECTION BOX - PO LOBBY", "address": {"city": "ATLANTA", "state": "GA", "street": "1190 N HIGHLAND AVE", "postcode": "31106"}}},
{"geometry": {"type": "Point", "coordinates": [-84.3492561579, 33.7415352764]}, "type": "Feature", "properties": {"collection_times": [{"days": "Mon-Fri", "time": "5:00pm"}, {"days": "Sat-Sun", "time": "Closed"}], "id": "3110700000", "name": "USPS COLLECTION BOX - PO LOBBY", "address": {"city": "ATLANTA", "state": "GA", "street": "455 MORELAND AVE", "postcode": "31107"}}},
{"geometry": {"type": "Point", "coordinates": [-84.3726539033, 33.850056383]}, "type": "Feature", "properties": {"collection_times": [{"days": "Mon-Fri", "time": "5:00pm"}, {"days": "Sat-Sun", "time": "Closed"}], "id": "3112600000", "name": "USPS COLLECTION BOX - PO LOBBY", "address": {"city": "ATLANTA", "state": "GA", "street": "1 BUCKHEAD LOOP", "postcode": "31126"}}},
{"geometry": {"type": "Point", "coordinates": [-84.458702702, 33.8792618584]}, "type": "Feature", "properties": {"collection_times": [{"days": "Mon-Fri", "time": "5:00pm"}, {"days": "Sat", "time": "2:00pm"}, {"days": "Sun", "time": "Closed"}], "id": "3113900000", "name": "USPS COLLECTION BOX - PO LOBBY", "address": {"city": "ATLANTA", "state": "GA", "street": "2997 COBB PARKWAY STE 300", "postcode": "31139"}}},
{"geometry": {"type": "Point", "coordinates": [-84.458702702, 33.8792618584]}, "type": "Feature", "properties": {"collection_times": [{"days": "Mon-Fri", "time": "5:00pm"}, {"days": "Sat", "time": "2:00pm"}, {"days": "Sun", "time": "Closed"}], "id": "3113900001", "name": "USPS COLLECTION BOX - APC", "address": {"city": "ATLANTA", "state": "GA", "street": "2997 COBB PKWY SUITE 300", "postcode": "31139"}}},
{"geometry": {"type": "Point", "coordinates": [-84.2483918012, 33.8855295198]}, "type": "Feature", "properties": {"collection_times": [{"days": "Mon-Fri", "time": "5:00pm"}, {"days": "Sat-Sun", "time": "Closed"}], "id": "3114100000", "name": "USPS COLLECTION BOX - PO LOBBY", "address": {"city": "ATLANTA", "state": "GA", "street": "3579 CHAMBLEE TUCKER RD", "postcode": "31141"}}},
{"geometry": {"type": "Point", "coordinates": [-84.2582792862, 33.8524386697]}, "type": "Feature", "properties": {"collection_times": [{"days": "Mon-Fri", "time": "5:00pm"}, {"days": "Sat-Sun", "time": "Closed"}], "id": "3114500000", "name": "USPS COLLECTION BOX - PO LOBBY", "address": {"city": "ATLANTA", "state": "GA", "street": "3212 NORTHLAKE PKWY", "postcode": "31145"}}},
{"geometry": {"type": "Point", "coordinates": [-84.33738852, 33.9321930217]}, "type": "Feature", "properties": {"collection_times": [{"days": "Mon-Fri", "time": "5:00pm"}, {"days": "Sat", "time": "11:30am"}, {"days": "Sun", "time": "Closed"}], "id": "3114600000", "name": "USPS COLLECTION BOX - BLUE BOX", "address": {"city": "ATLANTA", "state": "GA", "street": "4707 ASHFORD DUNWOODY RD", "postcode": "31146"}}},
{"geometry": {"type": "Point", "coordinates": [-84.33738852, 33.9321930217]}, "type": "Feature", "properties": {"collection_times": [{"days": "Mon-Fri", "time": "5:00pm"}, {"days": "Sat-Sun", "time": "Closed"}], "id": "3114600003", "name": "USPS COLLECTION BOX - PO LOBBY", "address": {"city": "ATLANTA", "state": "GA", "street": "4707 ASHFORD DUNWOODY RD", "postcode": "31146"}}},
{"geometry": {"type": "Point", "coordinates": [-84.3655937725, 33.960738109]}, "type": "Feature", "properties": {"collection_times": [{"days": "Mon-Fri", "time": "5:00pm"}, {"days": "Sat", "time": "2:30pm"}, {"days": "Sun", "time": "Closed"}], "id": "3115600000", "name": "USPS COLLECTION BOX - BLUE BOX", "address": {"city": "ATLANTA", "state": "GA", "street": "7527 ROSWELL RD NE", "postcode": "31156"}}},
{"geometry": {"type": "Point", "coordinates": [-84.3655937725, 33.960738109]}, "type": "Feature", "properties": {"collection_times": [{"days": "Mon-Fri", "time": "5:00pm"}, {"days": "Sat-Sun", "time": "Closed"}], "id": "3115600004", "name": "USPS COLLECTION BOX - PO LOBBY", "address": {"city": "ATLANTA", "state": "GA", "street": "7527 ROSWELL RD NE", "postcode": "31156"}}}
]}
