{"type": "FeatureCollection", "features": [
{"geometry": {"type": "Point", "coordinates": [-83.648183808, 32.8322881738]}, "type": "Feature", "properties": {"collection_times": [{"days": "Mon-Sat", "time": "4:30pm"}, {"days": "Sun", "time": "Closed"}], "id": "3120100017", "name": "USPS COLLECTION BOX - BLUE BOX", "address": {"city": "MACON", "state": "GA", "street": "1400 COLEMAN AVE", "postcode": "31201"}}},
{"geometry": {"type": "Point", "coordinates": [-83.6274110486, 32.8415767676]}, "type": "Feature", "properties": {"collection_times": [{"days": "Mon-Sat", "time": "5:00pm"}, {"days": "Sun", "time": "Closed"}], "id": "3120100034", "name": "USPS COLLECTION BOX - BLUE BOX", "address": {"city": "MACON", "state": "GA", "street": "712 RIVERSIDE DR", "postcode": "31201"}}},
{"geometry": {"type": "Point", "coordinates": [-83.6333353071, 32.8342045673]}, "type": "Feature", "properties": {"collection_times": [{"days": "Mon-Sat", "time": "3:50pm"}, {"days": "Sun", "time": "Closed"}], "id": "3120100039", "name": "USPS COLLECTION BOX - BLUE BOX", "address": {"city": "MACON", "state": "GA", "street": "654 1ST ST", "postcode": "31201"}}},
{"geometry": {"type": "Point", "coordinates": [-83.6258838486, 32.8368271873]}, "type": "Feature", "properties": {"collection_times": [{"days": "Mon-Fri", "time": "5:00pm"}, {"days": "Sat-Sun", "time": "Closed"}], "id": "3120100072", "name": "USPS COLLECTION BOX - PO LOBBY", "address": {"city": "MACON", "state": "GA", "street": "475 MULBERRY ST", "postcode": "31201"}}},
{"geometry": {"type": "Point", "coordinates": [-83.6258838486, 32.8368271873]}, "type": "Feature", "properties": {"collection_times": [{"days": "Mon-Sat", "time": "5:15pm"}, {"days": "Sun", "time": "Closed"}], "id": "3120100073", "name": "USPS COLLECTION BOX - BLUE BOX", "address": {"city": "MACON", "state": "GA", "street": "475 MULBERRY ST", "postcode": "31201"}}},
{"geometry": {"type": "Point", "coordinates": [-83.6258838486, 32.8368271873]}, "type": "Feature", "properties": {"collection_times": [{"days": "Mon-Sat", "time": "5:15pm"}, {"days": "Sun", "time": "Closed"}], "id": "3120100074", "name": "USPS COLLECTION BOX - BLUE BOX", "address": {"city": "MACON", "state": "GA", "street": "475 MULBERRY ST", "postcode": "31201"}}},
{"geometry": {"type": "Point", "coordinates": [-83.6271567124, 32.8373003709]}, "type": "Feature", "properties": {"collection_times": [{"days": "Mon-Sat", "time": "5:00pm"}, {"days": "Sun", "time": "Closed"}], "id": "3120100078", "name": "USPS COLLECTION BOX - BLUE BOX", "address": {"city": "MACON", "state": "GA", "street": "544 MULBERRY ST", "postcode": "31201"}}},
{"geometry": {"type": "Point", "coordinates": [-83.6296771545, 32.8410201111]}, "type": "Feature", "properties": {"collection_times": [{"days": "Mon-Sat", "time": "3:55pm"}, {"days": "Sun", "time": "Closed"}], "id": "3120100083", "name": "USPS COLLECTION BOX - BLUE BOX", "address": {"city": "MACON", "state": "GA", "street": "791 WALNUT ST", "postcode": "31201"}}},
{"geometry": {"type": "Point", "coordinates": [-83.6370592619, 32.8298063259]}, "type": "Feature", "properties": {"collection_times": [{"days": "Mon-Sat", "time": "3:45pm"}, {"days": "Sun", "time": "Closed"}], "id": "3120100087", "name": "USPS COLLECTION BOX - BLUE BOX", "address": {"city": "MACON", "state": "GA", "street": "668 OGLETHORPE ST", "postcode": "31201"}}},
{"geometry": {"type": "Point", "coordinates": [-83.6480158278, 32.8233580165]}, "type": "Feature", "properties": {"collection_times": [{"days": "Mon-Sat", "time": "3:50pm"}, {"days": "Sun", "time": "Closed"}], "id": "3120100091", "name": "USPS COLLECTION BOX - BLUE BOX", "address": {"city": "MACON", "state": "GA", "street": "985 PLANT ST", "postcode": "31201"}}},
{"geometry": {"type": "Point", "coordinates": [-83.6273997115, 32.8386018262]}, "type": "Feature", "properties": {"collection_times": [{"days": "Mon-Sat", "time": "5:00pm"}, {"days": "Sun", "time": "Closed"}], "id": "3120100098", "name": "USPS COLLECTION BOX - BLUE BOX", "address": {"city": "MACON", "state": "GA", "street": "275 2ND ST", "postcode": "31201"}}},
{"geometry": {"type": "Point", "coordinates": [-83.6357225183, 32.8327010265]}, "type": "Feature", "properties": {"collection_times": [{"days": "Mon-Sat", "time": "4:20pm"}, {"days": "Sun", "time": "Closed"}], "id": "3120100138", "name": "USPS COLLECTION BOX - BLUE BOX", "address": {"city": "MACON", "state": "GA", "street": "740 HEMLOCK ST", "postcode": "31201"}}},
{"geometry": {"type": "Point", "coordinates": [-83.6356349793, 32.8346292496]}, "type": "Feature", "properties": {"collection_times": [{"days": "Mon-Sat", "time": "4:15pm"}, {"days": "Sun", "time": "Closed"}], "id": "3120100139", "name": "USPS COLLECTION BOX - BLUE BOX", "address": {"city": "MACON", "state": "GA", "street": "770 PINE ST", "postcode": "31201"}}},
{"geometry": {"type": "Point", "coordinates": [-83.6230621354, 32.8358762053]}, "type": "Feature", "properties": {"collection_times": [{"days": "Mon-Sat", "time": "4:45pm"}, {"days": "Sun", "time": "Closed"}], "id": "3120100148", "name": "USPS COLLECTION BOX - BLUE BOX", "address": {"city": "MACON", "state": "GA", "street": "277 MARTIN LUTHER KING JR BLVD", "postcode": "31201"}}},
{"geometry": {"type": "Point", "coordinates": [-83.6410020677, 32.8397054504]}, "type": "Feature", "properties": {"collection_times": [{"days": "Mon-Sat", "time": "4:45pm"}, {"days": "Sun", "time": "Closed"}], "id": "3120100150", "name": "USPS COLLECTION BOX - BLUE BOX", "address": {"city": "MACON", "state": "GA", "street": "1314 HARDEMAN AVE", "postcode": "31201"}}},
{"geometry": {"type": "Point", "coordinates": [-83.6275760118, 32.8396800422]}, "type": "Feature", "properties": {"collection_times": [{"days": "Mon-Sat", "time": "5:00pm"}, {"days": "Sun", "time": "Closed"}], "id": "3120100156", "name": "USPS COLLECTION BOX - BLUE BOX", "address": {"city": "MACON", "state": "GA", "street": "544 MULBERRY ST", "postcode": "31201"}}},
{"geometry": {"type": "Point", "coordinates": [-83.684823596, 32.8528113289]}, "type": "Feature", "properties": {"collection_times": [{"days": "Mon-Sat", "time": "2:55pm"}, {"days": "Sun", "time": "Closed"}], "id": "3120400005", "name": "USPS COLLECTION BOX - BLUE BOX", "address": {"city": "MACON", "state": "GA", "street": "3600 BROOKDALE AVE", "postcode": "31204"}}},
{"geometry": {"type": "Point", "coordinates": [-83.6741365141, 32.8392400214]}, "type": "Feature", "properties": {"collection_times": [{"days": "Mon-Sat", "time": "2:50pm"}, {"days": "Sun", "time": "Closed"}], "id": "3120400016", "name": "USPS COLLECTION BOX - BLUE BOX", "address": {"city": "MACON", "state": "GA", "street": "3105 HILLCREST AVE", "postcode": "31204"}}},
{"geometry": {"type": "Point", "coordinates": [-83.6547338518, 32.8537600619]}, "type": "Feature", "properties": {"collection_times": [{"days": "Mon-Sat", "time": "5:05pm"}, {"days": "Sun", "time": "Closed"}], "id": "3120400019", "name": "USPS COLLECTION BOX - BLUE BOX", "address": {"city": "MACON", "state": "GA", "street": "2304 INGLESIDE AVE", "postcode": "31204"}}},
{"geometry": {"type": "Point", "coordinates": [-83.6986168976, 32.8369289218]}, "type": "Feature", "properties": {"collection_times": [{"days": "Mon-Sat", "time": "2:40pm"}, {"days": "Sun", "time": "Closed"}], "id": "3120400023", "name": "USPS COLLECTION BOX - BLUE BOX", "address": {"city": "MACON", "state": "GA", "street": "3867 LOG CABIN DR", "postcode": "31204"}}},
{"geometry": {"type": "Point", "coordinates": [-83.6625141921, 32.8492854197]}, "type": "Feature", "properties": {"collection_times": [{"days": "Mon-Sat", "time": "5:10pm"}, {"days": "Sun", "time": "Closed"}], "id": "3120400037", "name": "USPS COLLECTION BOX - BLUE BOX", "address": {"city": "MACON", "state": "GA", "street": "200 PIERCE AVE", "postcode": "31204"}}},
{"geometry": {"type": "Point", "coordinates": [-83.6743579581, 32.8503472253]}, "type": "Feature", "properties": {"collection_times": [{"days": "Mon-Sat", "time": "3:05pm"}, {"days": "Sun", "time": "Closed"}], "id": "3120400052", "name": "USPS COLLECTION BOX - BLUE BOX", "address": {"city": "MACON", "state": "GA", "street": "3095 VINEVILLE AVE", "postcode": "31204"}}},
{"geometry": {"type": "Point", "coordinates": [-83.6624195543, 32.837404516]}, "type": "Feature", "properties": {"collection_times": [{"days": "Mon-Sat", "time": "5:15pm"}, {"days": "Sun", "time": "Closed"}], "id": "3120400061", "name": "USPS COLLECTION BOX - BLUE BOX", "address": {"city": "MACON", "state": "GA", "street": "1040 PIO NONO AVE", "postcode": "31204"}}},
{"geometry": {"type": "Point", "coordinates": [-83.6656123425, 32.8769271303]}, "type": "Feature", "properties": {"collection_times": [{"days": "Mon-Sat", "time": "5:00pm"}, {"days": "Sun", "time": "Closed"}], "id": "3120400064", "name": "USPS COLLECTION BOX - BLUE BOX", "address": {"city": "MACON", "state": "GA", "street": "2720 RIVERSIDE DR", "postcode": "31204"}}},
{"geometry": {"type": "Point", "coordinates": [-83.6656123425, 32.8769271303]}, "type": "Feature", "properties": {"collection_times": [{"days": "Mon-Sat", "time": "5:00pm"}, {"days": "Sun", "time": "Closed"}], "id": "3120400065", "name": "USPS COLLECTION BOX - BLUE BOX", "address": {"city": "MACON", "state": "GA", "street": "2720 RIVERSIDE DR", "postcode": "31204"}}},
{"geometry": {"type": "Point", "coordinates": [-83.6656123425, 32.8769271303]}, "type": "Feature", "properties": {"collection_times": [{"days": "Mon-Sat", "time": "5:00pm"}, {"days": "Sun", "time": "Closed"}], "id": "3120400066", "name": "USPS COLLECTION BOX - BLUE BOX", "address": {"city": "MACON", "state": "GA", "street": "2720 RIVERSIDE DR", "postcode": "31204"}}},
{"geometry": {"type": "Point", "coordinates": [-83.6722936947, 32.8849854468]}, "type": "Feature", "properties": {"collection_times": [{"days": "Mon-Sat", "time": "4:45pm"}, {"days": "Sun", "time": "Closed"}], "id": "3120400068", "name": "USPS COLLECTION BOX - BLUE BOX", "address": {"city": "MACON", "state": "GA", "street": "2980 RIVERSIDE DR", "postcode": "31204"}}},
{"geometry": {"type": "Point", "coordinates": [-83.6722936947, 32.8849854468]}, "type": "Feature", "properties": {"collection_times": [{"days": "Mon-Sat", "time": "4:45pm"}, {"days": "Sun", "time": "Closed"}], "id": "3120400069", "name": "USPS COLLECTION BOX - BLUE BOX", "address": {"city": "MACON", "state": "GA", "street": "2980 RIVERSIDE DR", "postcode": "31204"}}},
{"geometry": {"type": "Point", "coordinates": [-83.6722936947, 32.8849854468]}, "type": "Feature", "properties": {"collection_times": [{"days": "Mon-Sat", "time": "4:45pm"}, {"days": "Sun", "time": "Closed"}], "id": "3120400070", "name": "USPS COLLECTION BOX - BLUE BOX", "address": {"city": "MACON", "state": "GA", "street": "2980 RIVERSIDE DR", "postcode": "31204"}}},
{"geometry": {"type": "Point", "coordinates": [-83.6624195543, 32.837404516]}, "type": "Feature", "properties": {"collection_times": [{"days": "Mon-Fri", "time": "5:00pm"}, {"days": "Sat-Sun", "time": "Closed"}], "id": "3120400071", "name": "USPS COLLECTION BOX - PO LOBBY", "address": {"city": "MACON", "state": "GA", "street": "1040 PIO NONO AVE", "postcode": "31204"}}},
{"geometry": {"type": "Point", "coordinates": [-83.6722936947, 32.8849854468]}, "type": "Feature", "properties": {"collection_times": [{"days": "Mon-Sat", "time": "4:45pm"}, {"days": "Sun", "time": "Closed"}], "id": "3120400077", "name": "USPS COLLECTION BOX - BLUE BOX", "address": {"city": "MACON", "state": "GA", "street": "2980 RIVERSIDE DR", "postcode": "31204"}}},
{"geometry": {"type": "Point", "coordinates": [-83.6656123425, 32.8769271303]}, "type": "Feature", "properties": {"collection_times": [{"days": "Mon-Fri", "time": "5:00pm"}, {"days": "Sat-Sun", "time": "Closed"}], "id": "3120400078", "name": "USPS COLLECTION BOX - PO LOBBY", "address": {"city": "MACON", "state": "GA", "street": "2720 RIVERSIDE DR", "postcode": "31204"}}},
{"geometry": {"type": "Point", "coordinates": [-83.6624195543, 32.837404516]}, "type": "Feature", "properties": {"collection_times": [{"days": "Mon-Sat", "time": "5:15pm"}, {"days": "Sun", "time": "Closed"}], "id": "3120400080", "name": "USPS COLLECTION BOX - BLUE BOX", "address": {"city": "MACON", "state": "GA", "street": "1040 PIO NONO AVE", "postcode": "31204"}}},
{"geometry": {"type": "Point", "coordinates": [-83.6631541537, 32.8040757854]}, "type": "Feature", "properties": {"collection_times": [{"days": "Mon-Sat", "time": "3:35pm"}, {"days": "Sun", "time": "Closed"}], "id": "3120600016", "name": "USPS COLLECTION BOX - BLUE BOX", "address": {"city": "MACON", "state": "GA", "street": "3254 PIO NONO AVE", "postcode": "31206"}}},
{"geometry": {"type": "Point", "coordinates": [-83.6678957831, 32.7941158038]}, "type": "Feature", "properties": {"collection_times": [{"days": "Mon-Sat", "time": "3:40pm"}, {"days": "Sun", "time": "Closed"}], "id": "3120600017", "name": "USPS COLLECTION BOX - BLUE BOX", "address": {"city": "MACON", "state": "GA", "street": "3862 PIO NONO AVE", "postcode": "31206"}}},
{"geometry": {"type": "Point", "coordinates": [-83.6761525068, 32.7863893659]}, "type": "Feature", "properties": {"collection_times": [{"days": "Mon-Fri", "time": "5:00pm"}, {"days": "Sat", "time": "3:00pm"}, {"days": "Sun", "time": "Closed"}], "id": "3120600027", "name": "USPS COLLECTION BOX - BLUE BOX", "address": {"city": "MACON", "state": "GA", "street": "1740 ROCKY CREEK RD", "postcode": "31206"}}},
{"geometry": {"type": "Point", "coordinates": [-83.6463559864, 32.7800775965]}, "type": "Feature", "properties": {"collection_times": [{"days": "Mon-Sat", "time": "3:50pm"}, {"days": "Sun", "time": "Closed"}], "id": "3120600033", "name": "USPS COLLECTION BOX - BLUE BOX", "address": {"city": "MACON", "state": "GA", "street": "600 GUY PAINE RD", "postcode": "31206"}}},
{"geometry": {"type": "Point", "coordinates": [-83.6967111507, 32.8196151344]}, "type": "Feature", "properties": {"collection_times": [{"days": "Mon-Sat", "time": "2:30pm"}, {"days": "Sun", "time": "Closed"}], "id": "3120600081", "name": "USPS COLLECTION BOX - BLUE BOX", "address": {"city": "MACON", "state": "GA", "street": "3755 BLOOMFIELD RD", "postcode": "31206"}}},
{"geometry": {"type": "Point", "coordinates": [-83.6761525068, 32.7863893659]}, "type": "Feature", "properties": {"collection_times": [{"days": "Mon-Fri", "time": "5:30pm"}, {"days": "Sat", "time": "3:00pm"}, {"days": "Sun", "time": "Closed"}], "id": "3120600101", "name": "USPS COLLECTION BOX - PO LOBBY", "address": {"city": "MACON", "state": "GA", "street": "1740 ROCKY CREEK RD", "postcode": "31206"}}},
{"geometry": {"type": "Point", "coordinates": [-83.7110746384, 32.8206833463]}, "type": "Feature", "properties": {"collection_times": [{"days": "Mon-Sat", "time": "2:25pm"}, {"days": "Sun", "time": "Closed"}], "id": "3120600103", "name": "USPS COLLECTION BOX - BLUE BOX", "address": {"city": "MACON", "state": "GA", "street": "4634 PRESIDENTIAL PKWY", "postcode": "31206"}}},
{"geometry": {"type": "Point", "coordinates": [-83.7016132813, 32.8990845351]}, "type": "Feature", "properties": {"collection_times": [{"days": "Mon-Sat", "time": "3:50pm"}, {"days": "Sun", "time": "Closed"}], "id": "3121000003", "name": "USPS COLLECTION BOX - BLUE BOX", "address": {"city": "MACON", "state": "GA", "street": "3972 NORTHSIDE DR", "postcode": "31210"}}},
{"geometry": {"type": "Point", "coordinates": [-83.6935964197, 32.8686499664]}, "type": "Feature", "properties": {"collection_times": [{"days": "Mon-Sat", "time": "3:45pm"}, {"days": "Sun", "time": "Closed"}], "id": "3121000006", "name": "USPS COLLECTION BOX - BLUE BOX", "address": {"city": "MACON", "state": "GA", "street": "400 CHARTER BLVD", "postcode": "31210"}}},
{"geometry": {"type": "Point", "coordinates": [-83.7090813526, 32.8741247005]}, "type": "Feature", "properties": {"collection_times": [{"days": "Mon-Sat", "time": "3:15pm"}, {"days": "Sun", "time": "Closed"}], "id": "3121000011", "name": "USPS COLLECTION BOX - BLUE BOX", "address": {"city": "MACON", "state": "GA", "street": "4650 FORSYTH RD", "postcode": "31210"}}},
{"geometry": {"type": "Point", "coordinates": [-83.7231828117, 32.8755977713]}, "type": "Feature", "properties": {"collection_times": [{"days": "Mon-Sat", "time": "3:20pm"}, {"days": "Sun", "time": "Closed"}], "id": "3121000014", "name": "USPS COLLECTION BOX - BLUE BOX", "address": {"city": "MACON", "state": "GA", "street": "100 COVINGTON PL", "postcode": "31210"}}},
{"geometry": {"type": "Point", "coordinates": [-83.7225647189, 32.9341504043]}, "type": "Feature", "properties": {"collection_times": [{"days": "Mon-Sat", "time": "4:30pm"}, {"days": "Sun", "time": "Closed"}], "id": "3121000020", "name": "USPS COLLECTION BOX - BLUE BOX", "address": {"city": "MACON", "state": "GA", "street": "5462 NEW FORSYTH RD", "postcode": "31210"}}},
{"geometry": {"type": "Point", "coordinates": [-83.6797179452, 32.8916928241]}, "type": "Feature", "properties": {"collection_times": [{"days": "Mon-Sat", "time": "3:55pm"}, {"days": "Sun", "time": "Closed"}], "id": "3121000022", "name": "USPS COLLECTION BOX - BLUE BOX", "address": {"city": "MACON", "state": "GA", "street": "3312 NORTHSIDE DR", "postcode": "31210"}}},
{"geometry": {"type": "Point", "coordinates": [-83.7403575021, 32.907092183]}, "type": "Feature", "properties": {"collection_times": [{"days": "Mon-Sat", "time": "4:15pm"}, {"days": "Sun", "time": "Closed"}], "id": "3121000036", "name": "USPS COLLECTION BOX - BLUE BOX", "address": {"city": "MACON", "state": "GA", "street": "220 TOM HILL SR BLVD", "postcode": "31210"}}},
{"geometry": {"type": "Point", "coordinates": [-83.6981775284, 32.8684597084]}, "type": "Feature", "properties": {"collection_times": [{"days": "Mon-Sat", "time": "3:40pm"}, {"days": "Sun", "time": "Closed"}], "id": "3121000041", "name": "USPS COLLECTION BOX - BLUE BOX", "address": {"city": "MACON", "state": "GA", "street": "4357 FORSYTH RD", "postcode": "31210"}}},
{"geometry": {"type": "Point", "coordinates": [-83.7595925174, 32.8798644174]}, "type": "Feature", "properties": {"collection_times": [{"days": "Mon-Sat", "time": "2:15pm"}, {"days": "Sun", "time": "Closed"}], "id": "3121000053", "name": "USPS COLLECTION BOX - BLUE BOX", "address": {"city": "MACON", "state": "GA", "street": "5928 ZEBULON RD", "postcode": "31210"}}},
{"geometry": {"type": "Point", "coordinates": [-83.7640995911, 32.8825923208]}, "type": "Feature", "properties": {"collection_times": [{"days": "Mon-Fri", "time": "5:00pm"}, {"days": "Sat", "time": "3:00pm"}, {"days": "Sun", "time": "Closed"}], "id": "3121000058", "name": "USPS COLLECTION BOX - BLUE BOX", "address": {"city": "MACON", "state": "GA", "street": "7040 PEAKE RD N", "postcode": "31210"}}},
{"geometry": {"type": "Point", "coordinates": [-83.7640995911, 32.8825923208]}, "type": "Feature", "properties": {"collection_times": [{"days": "Mon-Fri", "time": "5:00pm"}, {"days": "Sat", "time": "2:00pm"}, {"days": "Sun", "time": "Closed"}], "id": "3121000062", "name": "USPS COLLECTION BOX - PO LOBBY", "address": {"city": "MACON", "state": "GA", "street": "7040 PEAKE RD N", "postcode": "31210"}}},
{"geometry": {"type": "Point", "coordinates": [-83.7374108539, 32.9244797148]}, "type": "Feature", "properties": {"collection_times": [{"days": "Mon-Sat", "time": "4:40pm"}, {"days": "Sun", "time": "Closed"}], "id": "3121000063", "name": "USPS COLLECTION BOX - BLUE BOX", "address": {"city": "MACON", "state": "GA", "street": "105 BASS PLANTATION DR", "postcode": "31210"}}},
{"geometry": {"type": "Point", "coordinates": [-83.7640995911, 32.8825923208]}, "type": "Feature", "properties": {"collection_times": [{"days": "Mon-Fri", "time": "5:00pm"}, {"days": "Sat", "time": "1:30pm"}, {"days": "Sun", "time": "Closed"}], "id": "3121000065", "name": "USPS COLLECTION BOX - APC", "address": {"city": "MACON", "state": "GA", "street": "7040 PEAKE RD N", "postcode": "31210"}}},
{"geometry": {"type": "Point", "coordinates": [-83.7225647189, 32.9341504043]}, "type": "Feature", "properties": {"collection_times": [{"days": "Mon-Sat", "time": "4:30pm"}, {"days": "Sun", "time": "Closed"}], "id": "3121000069", "name": "USPS COLLECTION BOX - BLUE BOX", "address": {"city": "MACON", "state": "GA", "street": "5462 NEW FORSYTH RD", "postcode": "31210"}}},
{"geometry": {"type": "Point", "coordinates": [-83.7640995911, 32.8825923208]}, "type": "Feature", "properties": {"collection_times": [{"days": "Mon-Fri", "time": "5:00pm"}, {"days": "Sat", "time": "1:30pm"}, {"days": "Sun", "time": "Closed"}], "id": "3121000071", "name": "USPS COLLECTION BOX - APC", "address": {"city": "MACON", "state": "GA", "street": "7040 PEAKE RD N", "postcode": "31210"}}},
{"geometry": {"type": "Point", "coordinates": [-83.618303023, 32.8544868315]}, "type": "Feature", "properties": {"collection_times": [{"days": "Mon-Sat", "time": "4:15pm"}, {"days": "Sun", "time": "Closed"}], "id": "3121100007", "name": "USPS COLLECTION BOX - BLUE BOX", "address": {"city": "MACON", "state": "GA", "street": "1036 GRAY HWY", "postcode": "31211"}}},
{"geometry": {"type": "Point", "coordinates": [-83.5934538582, 32.8612773383]}, "type": "Feature", "properties": {"collection_times": [{"days": "Mon-Sat", "time": "4:05pm"}, {"days": "Sun", "time": "Closed"}], "id": "3121100015", "name": "USPS COLLECTION BOX - BLUE BOX", "address": {"city": "MACON", "state": "GA", "street": "1765 SHURLING DR", "postcode": "31211"}}},
{"geometry": {"type": "Point", "coordinates": [-83.613958997, 32.8596833641]}, "type": "Feature", "properties": {"collection_times": [{"days": "Mon-Sat", "time": "4:10pm"}, {"days": "Sun", "time": "Closed"}], "id": "3121100016", "name": "USPS COLLECTION BOX - BLUE BOX", "address": {"city": "MACON", "state": "GA", "street": "636 SHURLING DR", "postcode": "31211"}}},
{"geometry": {"type": "Point", "coordinates": [-83.627140755, 32.8505585959]}, "type": "Feature", "properties": {"collection_times": [{"days": "Mon-Sat", "time": "4:30pm"}, {"days": "Sun", "time": "Closed"}], "id": "3121100023", "name": "USPS COLLECTION BOX - BLUE BOX", "address": {"city": "MACON", "state": "GA", "street": "700 BACONSFIELD DR", "postcode": "31211"}}},
{"geometry": {"type": "Point", "coordinates": [-83.5596356632, 32.8724721459]}, "type": "Feature", "properties": {"collection_times": [{"days": "Mon-Sat", "time": "4:00pm"}, {"days": "Sun", "time": "Closed"}], "id": "3121100024", "name": "USPS COLLECTION BOX - BLUE BOX", "address": {"city": "MACON", "state": "GA", "street": "2901 JOYCLIFF RD", "postcode": "31211"}}},
{"geometry": {"type": "Point", "coordinates": [-83.6395813304, 32.8393397922]}, "type": "Feature", "properties": {"collection_times": [{"days": "Mon-Fri", "time": "6:30pm"}, {"days": "Sat", "time": "3:30pm"}, {"days": "Sun", "time": "Closed"}], "id": "3121300004", "name": "USPS COLLECTION BOX - BLUE BOX", "address": {"city": "MACON", "state": "GA", "street": "1205 HARDEMAN AVE", "postcode": "31213"}}},
{"geometry": {"type": "Point", "coordinates": [-83.6400095924, 32.8406874055]}, "type": "Feature", "properties": {"collection_times": [{"days": "Mon-Fri", "time": "6:30pm"}, {"days": "Sat", "time": "3:30pm"}, {"days": "Sun", "time": "Closed"}], "id": "3121300015", "name": "USPS COLLECTION BOX - BLUE BOX", "address": {"city": "MACON", "state": "GA", "street": "1300 GEORGIA AVE", "postcode": "31213"}}},
{"geometry": {"type": "Point", "coordinates": [-83.6400095924, 32.8406874055]}, "type": "Feature", "properties": {"collection_times": [{"days": "Mon-Fri", "time": "6:30pm"}, {"days": "Sat", "time": "3:30pm"}, {"days": "Sun", "time": "Closed"}], "id": "3121300016", "name": "USPS COLLECTION BOX - BLUE BOX", "address": {"city": "MACON", "state": "GA", "street": "1300 GEORGIA AVE", "postcode": "31213"}}},
{"geometry": {"type": "Point", "coordinates": [-83.6386066938, 32.8397638075]}, "type": "Feature", "properties": {"collection_times": [{"days": "Mon-Fri", "time": "6:30pm"}, {"days": "Sat", "time": "3:30pm"}, {"days": "Sun", "time": "Closed"}], "id": "3121300018", "name": "USPS COLLECTION BOX - PO LOBBY", "address": {"city": "MACON", "state": "GA", "street": "451 COLLEGE ST", "postcode": "31213"}}},
{"geometry": {"type": "Point", "coordinates": [-83.7126706737, 32.7421841506]}, "type": "Feature", "properties": {"collection_times": [{"days": "Mon-Sat", "time": "4:50pm"}, {"days": "Sun", "time": "Closed"}], "id": "3121600001", "name": "USPS COLLECTION BOX - BLUE BOX", "address": {"city": "MACON", "state": "GA", "street": "4312 HARTLEY BRIDGE RD", "postcode": "31216"}}},
{"geometry": {"type": "Point", "coordinates": [-83.6716596287, 32.7473765622]}, "type": "Feature", "properties": {"collection_times": [{"days": "Mon-Sat", "time": "4:45pm"}, {"days": "Sun", "time": "Closed"}], "id": "3121600006", "name": "USPS COLLECTION BOX - BLUE BOX", "address": {"city": "MACON", "state": "GA", "street": "5615 HOUSTON RD", "postcode": "31216"}}},
{"geometry": {"type": "Point", "coordinates": [-83.6607160753, 32.7064272547]}, "type": "Feature", "properties": {"collection_times": [{"days": "Mon-Sat", "time": "4:30pm"}, {"days": "Sun", "time": "Closed"}], "id": "3121600008", "name": "USPS COLLECTION BOX - BLUE BOX", "address": {"city": "MACON", "state": "GA", "street": "2499 INDUSTRIAL PARK DR", "postcode": "31216"}}},
{"geometry": {"type": "Point", "coordinates": [-83.6236639588, 32.8481568926]}, "type": "Feature", "properties": {"collection_times": [{"days": "Mon-Sat", "time": "5:00pm"}, {"days": "Sun", "time": "Closed"}], "id": "3121700005", "name": "USPS COLLECTION BOX - BLUE BOX", "address": {"city": "MACON", "state": "GA", "street": "171 EMERY HWY", "postcode": "31217"}}},
{"geometry": {"type": "Point", "coordinates": [-83.6177734819, 32.8460140466]}, "type": "Feature", "properties": {"collection_times": [{"days": "Mon-Sat", "time": "4:40pm"}, {"days": "Sun", "time": "Closed"}], "id": "3121700010", "name": "USPS COLLECTION BOX - BLUE BOX", "address": {"city": "MACON", "state": "GA", "street": "310 HOSPITAL DR", "postcode": "31217"}}},
{"geometry": {"type": "Point", "coordinates": [-83.6199347476, 32.8459537155]}, "type": "Feature", "properties": {"collection_times": [{"days": "Mon-Sat", "time": "4:40pm"}, {"days": "Sun", "time": "Closed"}], "id": "3121700012", "name": "USPS COLLECTION BOX - BLUE BOX", "address": {"city": "MACON", "state": "GA", "street": "330 HOSPITAL DR", "postcode": "31217"}}},
{"geometry": {"type": "Point", "coordinates": [-83.6185932725, 32.8478429012]}, "type": "Feature", "properties": {"collection_times": [{"days": "Mon-Sat", "time": "4:40pm"}, {"days": "Sun", "time": "Closed"}], "id": "3121700015", "name": "USPS COLLECTION BOX - BLUE BOX", "address": {"city": "MACON", "state": "GA", "street": "380 HOSPITAL DR", "postcode": "31217"}}},
{"geometry": {"type": "Point", "coordinates": [-83.5692354926, 32.8093411358]}, "type": "Feature", "properties": {"collection_times": [{"days": "Mon-Sat", "time": "3:45pm"}, {"days": "Sun", "time": "Closed"}], "id": "3121700023", "name": "USPS COLLECTION BOX - BLUE BOX", "address": {"city": "MACON", "state": "GA", "street": "4295 OCMULGEE EAST BLVD", "postcode": "31217"}}},
{"geometry": {"type": "Point", "coordinates": [-83.5747774694, 32.8413578174]}, "type": "Feature", "properties": {"collection_times": [{"days": "Mon-Sat", "time": "3:50pm"}, {"days": "Sun", "time": "Closed"}], "id": "3121700028", "name": "USPS COLLECTION BOX - BLUE BOX", "address": {"city": "MACON", "state": "GA", "street": "2900 JEFFERSONVILLE RD", "postcode": "31217"}}},
{"geometry": {"type": "Point", "coordinates": [-83.5688770559, 32.8072946172]}, "type": "Feature", "properties": {"collection_times": [{"days": "Mon-Sat", "time": "3:45pm"}, {"days": "Sun", "time": "Closed"}], "id": "3121700029", "name": "USPS COLLECTION BOX - BLUE BOX", "address": {"city": "MACON", "state": "GA", "street": "4400 OCMULGEE EAST BLVD", "postcode": "31217"}}},
{"geometry": {"type": "Point", "coordinates": [-83.7441549029, 32.8341702615]}, "type": "Feature", "properties": {"collection_times": [{"days": "Mon-Sat", "time": "2:20pm"}, {"days": "Sun", "time": "Closed"}], "id": "3122000000", "name": "USPS COLLECTION BOX - BLUE BOX", "address": {"city": "MACON", "state": "GA", "street": "5580 THOMASTON RD", "postcode": "31220"}}}
]}
