{"type": "FeatureCollection", "features": [
{"geometry": {"type": "Point", "coordinates": [-81.6139688768, 31.7839051626]}, "type": "Feature", "properties": {"collection_times": [{"days": "Mon-Fri", "time": "4:30pm"}, {"days": "Sat", "time": "11:45am"}, {"days": "Sun", "time": "Closed"}], "id": "3130100001", "name": "USPS COLLECTION BOX - BLUE BOX", "address": {"city": "ALLENHURST", "state": "GA", "street": "4282 W OGLETHORPE HWY", "postcode": "31301"}}},
{"geometry": {"type": "Point", "coordinates": [-81.6139688768, 31.7839051626]}, "type": "Feature", "properties": {"collection_times": [{"days": "Mon-Fri", "time": "4:45pm"}, {"days": "Sat", "time": "12:00pm"}, {"days": "Sun", "time": "Closed"}], "id": "3130100002", "name": "USPS COLLECTION BOX - PO LOBBY", "address": {"city": "ALLENHURST", "state": "GA", "street": "4282 W OGLETHORPE HWY", "postcode": "31301"}}},
{"geometry": {"type": "Point", "coordinates": [-81.2952504829, 32.1309658821]}, "type": "Feature", "properties": {"collection_times": [{"days": "Mon-Fri", "time": "4:30pm"}, {"days": "Sat", "time": "12:00pm"}, {"days": "Sun", "time": "Closed"}], "id": "3130200002", "name": "USPS COLLECTION BOX - PO LOBBY", "address": {"city": "BLOOMINGDALE", "state": "GA", "street": "407 E US HIGHWAY 80", "postcode": "31302"}}},
{"geometry": {"type": "Point", "coordinates": [-81.2952504829, 32.1309658821]}, "type": "Feature", "properties": {"collection_times": [{"days": "Mon-Fri", "time": "4:30pm"}, {"days": "Sat", "time": "12:00pm"}, {"days": "Sun", "time": "Closed"}], "id": "3130200003", "name": "USPS COLLECTION BOX - BLUE BOX", "address": {"city": "BLOOMINGDALE", "state": "GA", "street": "407 E US HIGHWAY 80", "postcode": "31302"}}},
{"geometry": {"type": "Point", "coordinates": [-81.272350973, 32.5069494431]}, "type": "Feature", "properties": {"collection_times": [{"days": "Mon-Fri", "time": "1:00pm"}, {"days": "Sat", "time": "11:00am"}, {"days": "Sun", "time": "Closed"}], "id": "3130300002", "name": "USPS COLLECTION BOX - BLUE BOX", "address": {"city": "CLYO", "state": "GA", "street": "5662 GA HIGHWAY 119 N", "postcode": "31303"}}},
{"geometry": {"type": "Point", "coordinates": [-81.272350973, 32.5069494431]}, "type": "Feature", "properties": {"collection_times": [{"days": "Mon-Fri", "time": "1:00pm"}, {"days": "Sat", "time": "11:00am"}, {"days": "Sun", "time": "Closed"}], "id": "3130300003", "name": "USPS COLLECTION BOX - PO LOBBY", "address": {"city": "CLYO", "state": "GA", "street": "5662 GA HIGHWAY 119 N", "postcode": "31303"}}},
{"geometry": {"type": "Point", "coordinates": [-81.2516465389, 31.4656589019]}, "type": "Feature", "properties": {"collection_times": [{"days": "Mon-Fri", "time": "4:15pm"}, {"days": "Sat", "time": "12:00pm"}, {"days": "Sun", "time": "Closed"}], "id": "3130400001", "name": "USPS COLLECTION BOX - BLUE BOX", "address": {"city": "CRESCENT", "state": "GA", "street": "1 HIGHWAY 99", "postcode": "31304"}}},
{"geometry": {"type": "Point", "coordinates": [-81.2516465389, 31.4656589019]}, "type": "Feature", "properties": {"collection_times": [{"days": "Mon-Fri", "time": "4:15pm"}, {"days": "Sat", "time": "12:00pm"}, {"days": "Sun", "time": "Closed"}], "id": "3130400002", "name": "USPS COLLECTION BOX - PO LOBBY", "address": {"city": "CRESCENT", "state": "GA", "street": "1 HIGHWAY 99", "postcode": "31304"}}},
{"geometry": {"type": "Point", "coordinates": [-81.4342262478, 31.372339751]}, "type": "Feature", "properties": {"collection_times": [{"days": "Mon-Fri", "time": "4:15pm"}, {"days": "Sat", "time": "12:00pm"}, {"days": "Sun", "time": "Closed"}], "id": "3130500005", "name": "USPS COLLECTION BOX - BLUE BOX", "address": {"city": "DARIEN", "state": "GA", "street": "501 NORTH WAY", "postcode": "31305"}}},
{"geometry": {"type": "Point", "coordinates": [-81.4342262478, 31.372339751]}, "type": "Feature", "properties": {"collection_times": [{"days": "Mon-Fri", "time": "4:15pm"}, {"days": "Sat", "time": "12:00pm"}, {"days": "Sun", "time": "Closed"}], "id": "3130500006", "name": "USPS COLLECTION BOX - BLUE BOX", "address": {"city": "DARIEN", "state": "GA", "street": "501 NORTH WAY", "postcode": "31305"}}},
{"geometry": {"type": "Point", "coordinates": [-81.4342262478, 31.372339751]}, "type": "Feature", "properties": {"collection_times": [{"days": "Mon-Fri", "time": "4:30pm"}, {"days": "Sat", "time": "12:00pm"}, {"days": "Sun", "time": "Closed"}], "id": "3130500007", "name": "USPS COLLECTION BOX - PO LOBBY", "address": {"city": "DARIEN", "state": "GA", "street": "501 NORTH WAY", "postcode": "31305"}}},
{"geometry": {"type": "Point", "coordinates": [-81.3877904211, 32.1705586533]}, "type": "Feature", "properties": {"collection_times": [{"days": "Mon-Fri", "time": "4:15pm"}, {"days": "Sat", "time": "10:30am"}, {"days": "Sun", "time": "Closed"}], "id": "3130700001", "name": "USPS COLLECTION BOX - BLUE BOX", "address": {"city": "EDEN", "state": "GA", "street": "1228 US HIGHWAY 80", "postcode": "31307"}}},
{"geometry": {"type": "Point", "coordinates": [-81.3877904211, 32.1705586533]}, "type": "Feature", "properties": {"collection_times": [{"days": "Mon-Fri", "time": "4:30pm"}, {"days": "Sat", "time": "10:30am"}, {"days": "Sun", "time": "Closed"}], "id": "3130700002", "name": "USPS COLLECTION BOX - PO LOBBY", "address": {"city": "EDEN", "state": "GA", "street": "1228 US HIGHWAY 80", "postcode": "31307"}}},
{"geometry": {"type": "Point", "coordinates": [-81.4919797348, 32.1653782659]}, "type": "Feature", "properties": {"collection_times": [{"days": "Mon-Fri", "time": "4:30pm"}, {"days": "Sat", "time": "11:30am"}, {"days": "Sun", "time": "Closed"}], "id": "3130800001", "name": "USPS COLLECTION BOX - BLUE BOX", "address": {"city": "ELLABELL", "state": "GA", "street": "8745 US HIGHWAY 280 E", "postcode": "31308"}}},
{"geometry": {"type": "Point", "coordinates": [-81.4919797348, 32.1653782659]}, "type": "Feature", "properties": {"collection_times": [{"days": "Mon-Fri", "time": "4:30pm"}, {"days": "Sat", "time": "11:30am"}, {"days": "Sun", "time": "Closed"}], "id": "3130800003", "name": "USPS COLLECTION BOX - PO LOBBY", "address": {"city": "ELLABELL", "state": "GA", "street": "8745 US HIGHWAY 280 E", "postcode": "31308"}}},
{"geometry": {"type": "Point", "coordinates": [-81.4061612116, 32.3538939854]}, "type": "Feature", "properties": {"collection_times": [{"days": "Mon-Fri", "time": "4:30pm"}, {"days": "Sat", "time": "12:00pm"}, {"days": "Sun", "time": "Closed"}], "id": "3131200001", "name": "USPS COLLECTION BOX - BLUE BOX", "address": {"city": "GUYTON", "state": "GA", "street": "711 W CENTRAL BLVD", "postcode": "31312"}}},
{"geometry": {"type": "Point", "coordinates": [-81.4061612116, 32.3538939854]}, "type": "Feature", "properties": {"collection_times": [{"days": "Mon-Fri", "time": "4:30pm"}, {"days": "Sat", "time": "12:00pm"}, {"days": "Sun", "time": "Closed"}], "id": "3131200002", "name": "USPS COLLECTION BOX - PO LOBBY", "address": {"city": "GUYTON", "state": "GA", "street": "711 W CENTRAL BLVD", "postcode": "31312"}}},
{"geometry": {"type": "Point", "coordinates": [-81.597250293, 31.8434996787]}, "type": "Feature", "properties": {"collection_times": [{"days": "Mon-Fri", "time": "4:30pm"}, {"days": "Sat-Sun", "time": "Closed"}], "id": "3131300001", "name": "USPS COLLECTION BOX - BLUE BOX", "address": {"city": "HINESVILLE", "state": "GA", "street": "406 S MAIN ST", "postcode": "31313"}}},
{"geometry": {"type": "Point", "coordinates": [-81.5830601457, 31.8513281669]}, "type": "Feature", "properties": {"collection_times": [{"days": "Mon-Fri", "time": "4:30pm"}, {"days": "Sat", "time": "10:00am"}, {"days": "Sun", "time": "Closed"}], "id": "3131300003", "name": "USPS COLLECTION BOX - BLUE BOX", "address": {"city": "HINESVILLE", "state": "GA", "street": "500 W OGLETHORPE HWY", "postcode": "31313"}}},
{"geometry": {"type": "Point", "coordinates": [-81.602786846, 31.810848429]}, "type": "Feature", "properties": {"collection_times": [{"days": "Mon-Fri", "time": "5:00pm"}, {"days": "Sat", "time": "4:00pm"}, {"days": "Sun", "time": "Closed"}], "id": "3131300004", "name": "USPS COLLECTION BOX - BLUE BOX", "address": {"city": "HINESVILLE", "state": "GA", "street": "744 W OGLETHORPE HWY", "postcode": "31313"}}},
{"geometry": {"type": "Point", "coordinates": [-81.602786846, 31.810848429]}, "type": "Feature", "properties": {"collection_times": [{"days": "Mon-Fri", "time": "5:00pm"}, {"days": "Sat", "time": "4:00pm"}, {"days": "Sun", "time": "Closed"}], "id": "3131300005", "name": "USPS COLLECTION BOX - BLUE BOX", "address": {"city": "HINESVILLE", "state": "GA", "street": "744 W OGLETHORPE HWY", "postcode": "31313"}}},
{"geometry": {"type": "Point", "coordinates": [-81.602786846, 31.810848429]}, "type": "Feature", "properties": {"collection_times": [{"days": "Mon-Fri", "time": "5:00pm"}, {"days": "Sat", "time": "4:00pm"}, {"days": "Sun", "time": "Closed"}], "id": "3131300007", "name": "USPS COLLECTION BOX - BLUE BOX", "address": {"city": "HINESVILLE", "state": "GA", "street": "744 W OGLETHORPE HWY", "postcode": "31313"}}},
{"geometry": {"type": "Point", "coordinates": [-81.5963587585, 31.8467363118]}, "type": "Feature", "properties": {"collection_times": [{"days": "Mon-Fri", "time": "4:30pm"}, {"days": "Sat", "time": "9:30am"}, {"days": "Sun", "time": "Closed"}], "id": "3131300008", "name": "USPS COLLECTION BOX - BLUE BOX", "address": {"city": "HINESVILLE", "state": "GA", "street": "201 S MAIN ST", "postcode": "31313"}}},
{"geometry": {"type": "Point", "coordinates": [-81.597513973, 31.8438516461]}, "type": "Feature", "properties": {"collection_times": [{"days": "Mon-Fri", "time": "4:30pm"}, {"days": "Sat-Sun", "time": "Closed"}], "id": "3131300010", "name": "USPS COLLECTION BOX - BLUE BOX", "address": {"city": "HINESVILLE", "state": "GA", "street": "123 W HENDRY ST", "postcode": "31313"}}},
{"geometry": {"type": "Point", "coordinates": [-81.602786846, 31.810848429]}, "type": "Feature", "properties": {"collection_times": [{"days": "Mon-Fri", "time": "5:30pm"}, {"days": "Sat", "time": "2:30pm"}, {"days": "Sun", "time": "Closed"}], "id": "3131300022", "name": "USPS COLLECTION BOX - PO LOBBY", "address": {"city": "HINESVILLE", "state": "GA", "street": "744 W OGLETHORPE HWY", "postcode": "31313"}}},
{"geometry": {"type": "Point", "coordinates": [-81.602786846, 31.810848429]}, "type": "Feature", "properties": {"collection_times": [{"days": "Mon-Fri", "time": "5:30pm"}, {"days": "Sat", "time": "2:30pm"}, {"days": "Sun", "time": "Closed"}], "id": "3131300025", "name": "USPS COLLECTION BOX - APC", "address": {"city": "HINESVILLE", "state": "GA", "street": "744 W OGLETHORPE HWY", "postcode": "31313"}}},
{"geometry": {"type": "Point", "coordinates": [-81.6146315354, 31.8864954226]}, "type": "Feature", "properties": {"collection_times": [{"days": "Mon-Fri", "time": "1:00pm"}, {"days": "Sat", "time": "12:15pm"}, {"days": "Sun", "time": "Closed"}], "id": "3131500007", "name": "USPS COLLECTION BOX - BLUE BOX", "address": {"city": "FORT STEWART", "state": "GA", "street": "7 FORT STEWART", "postcode": "31315"}}},
{"geometry": {"type": "Point", "coordinates": [-81.605337426, 31.8699886136]}, "type": "Feature", "properties": {"collection_times": [{"days": "Mon-Fri", "time": "4:45pm"}, {"days": "Sat", "time": "12:15pm"}, {"days": "Sun", "time": "Closed"}], "id": "3131500008", "name": "USPS COLLECTION BOX - PO LOBBY", "address": {"city": "FORT STEWART", "state": "GA", "street": "845 HASE RD SUITE 100", "postcode": "31315"}}},
{"geometry": {"type": "Point", "coordinates": [-81.605337426, 31.8699886136]}, "type": "Feature", "properties": {"collection_times": [{"days": "Mon-Fri", "time": "1:00pm"}, {"days": "Sat", "time": "12:15pm"}, {"days": "Sun", "time": "Closed"}], "id": "3131500011", "name": "USPS COLLECTION BOX - BLUE BOX", "address": {"city": "FORT STEWART", "state": "GA", "street": "845 HASE RD", "postcode": "31315"}}},
{"geometry": {"type": "Point", "coordinates": [-81.7419293847, 31.7080061085]}, "type": "Feature", "properties": {"collection_times": [{"days": "Mon-Fri", "time": "4:15pm"}, {"days": "Sat", "time": "11:00am"}, {"days": "Sun", "time": "Closed"}], "id": "3131600001", "name": "USPS COLLECTION BOX - BLUE BOX", "address": {"city": "LUDOWICI", "state": "GA", "street": "9 E ACADEMY ST", "postcode": "31316"}}},
{"geometry": {"type": "Point", "coordinates": [-81.7419293847, 31.7080061085]}, "type": "Feature", "properties": {"collection_times": [{"days": "Mon-Fri", "time": "4:15pm"}, {"days": "Sat", "time": "11:00am"}, {"days": "Sun", "time": "Closed"}], "id": "3131600002", "name": "USPS COLLECTION BOX - PO LOBBY", "address": {"city": "LUDOWICI", "state": "GA", "street": "9 E ACADEMY ST", "postcode": "31316"}}},
{"geometry": {"type": "Point", "coordinates": [-81.3387463433, 32.1457290144]}, "type": "Feature", "properties": {"collection_times": [{"days": "Mon-Fri", "time": "1:00pm"}, {"days": "Sat", "time": "11:30am"}, {"days": "Sun", "time": "Closed"}], "id": "3131800002", "name": "USPS COLLECTION BOX - BLUE BOX", "address": {"city": "MELDRIM", "state": "GA", "street": "318 5TH ST", "postcode": "31318"}}},
{"geometry": {"type": "Point", "coordinates": [-81.3387463433, 32.1457290144]}, "type": "Feature", "properties": {"collection_times": [{"days": "Mon-Fri", "time": "1:00pm"}, {"days": "Sat", "time": "11:30am"}, {"days": "Sun", "time": "Closed"}], "id": "3131800003", "name": "USPS COLLECTION BOX - PO LOBBY", "address": {"city": "MELDRIM", "state": "GA", "street": "318 5TH ST", "postcode": "31318"}}},
{"geometry": {"type": "Point", "coordinates": [-83.4445334408, 32.6483269665]}, "type": "Feature", "properties": {"collection_times": [{"days": "Mon-Fri", "time": "12:00pm"}, {"days": "Sat", "time": "11:30am"}, {"days": "Sun", "time": "Closed"}], "id": "3131900001", "name": "USPS COLLECTION BOX - BLUE BOX", "address": {"city": "MERIDIAN", "state": "GA", "street": "5497 HIGHWAY 99 W", "postcode": "31319"}}},
{"geometry": {"type": "Point", "coordinates": [-83.4445334408, 32.6483269665]}, "type": "Feature", "properties": {"collection_times": [{"days": "Mon-Fri", "time": "12:15pm"}, {"days": "Sat", "time": "11:30am"}, {"days": "Sun", "time": "Closed"}], "id": "3131900002", "name": "USPS COLLECTION BOX - PO LOBBY", "address": {"city": "MERIDIAN", "state": "GA", "street": "5497 HIGHWAY 99 W", "postcode": "31319"}}},
{"geometry": {"type": "Point", "coordinates": [-81.4170480186, 31.8031353644]}, "type": "Feature", "properties": {"collection_times": [{"days": "Mon-Fri", "time": "4:30pm"}, {"days": "Sat", "time": "12:00pm"}, {"days": "Sun", "time": "Closed"}], "id": "3132000002", "name": "USPS COLLECTION BOX - PO LOBBY", "address": {"city": "MIDWAY", "state": "GA", "street": "12 BUTLER AVE", "postcode": "31320"}}},
{"geometry": {"type": "Point", "coordinates": [-81.4170480186, 31.8031353644]}, "type": "Feature", "properties": {"collection_times": [{"days": "Mon-Fri", "time": "4:30pm"}, {"days": "Sat", "time": "12:00pm"}, {"days": "Sun", "time": "Closed"}], "id": "3132000003", "name": "USPS COLLECTION BOX - BLUE BOX", "address": {"city": "MIDWAY", "state": "GA", "street": "12 BUTLER AVE", "postcode": "31320"}}},
{"geometry": {"type": "Point", "coordinates": [-81.6246039214, 32.1327998783]}, "type": "Feature", "properties": {"collection_times": [{"days": "Mon-Fri", "time": "4:15pm"}, {"days": "Sat", "time": "12:15pm"}, {"days": "Sun", "time": "Closed"}], "id": "3132100002", "name": "USPS COLLECTION BOX - BLUE BOX", "address": {"city": "PEMBROKE", "state": "GA", "street": "298 LEDFORD ST", "postcode": "31321"}}},
{"geometry": {"type": "Point", "coordinates": [-81.6246039214, 32.1327998783]}, "type": "Feature", "properties": {"collection_times": [{"days": "Mon-Fri", "time": "4:30pm"}, {"days": "Sat", "time": "12:15pm"}, {"days": "Sun", "time": "Closed"}], "id": "3132100003", "name": "USPS COLLECTION BOX - PO LOBBY", "address": {"city": "PEMBROKE", "state": "GA", "street": "298 LEDFORD ST", "postcode": "31321"}}},
{"geometry": {"type": "Point", "coordinates": [-81.2555157511, 32.1184910926]}, "type": "Feature", "properties": {"collection_times": [{"days": "Mon-Fri", "time": "5:00pm"}, {"days": "Sat", "time": "2:30pm"}, {"days": "Sun", "time": "Closed"}], "id": "3132200001", "name": "USPS COLLECTION BOX - BLUE BOX", "address": {"city": "POOLER", "state": "GA", "street": "502 US HIGHWAY 80 W", "postcode": "31322"}}},
{"geometry": {"type": "Point", "coordinates": [-81.2413248512, 32.1136618958]}, "type": "Feature", "properties": {"collection_times": [{"days": "Mon-Sat", "time": "11:00am"}, {"days": "Sun", "time": "Closed"}], "id": "3132200002", "name": "USPS COLLECTION BOX - BLUE BOX", "address": {"city": "POOLER", "state": "GA", "street": "418 E US HIGHWAY 80", "postcode": "31322"}}},
{"geometry": {"type": "Point", "coordinates": [-81.2554270546, 32.1184742065]}, "type": "Feature", "properties": {"collection_times": [{"days": "Mon-Fri", "time": "5:00pm"}, {"days": "Sat", "time": "2:30pm"}, {"days": "Sun", "time": "Closed"}], "id": "3132200003", "name": "USPS COLLECTION BOX - BLUE BOX", "address": {"city": "POOLER", "state": "GA", "street": "502 US HIGHWAY 80 W", "postcode": "31322"}}},
{"geometry": {"type": "Point", "coordinates": [-81.2530943188, 32.0952684139]}, "type": "Feature", "properties": {"collection_times": [{"days": "Mon-Sat", "time": "10:30am"}, {"days": "Sun", "time": "Closed"}], "id": "3132200004", "name": "USPS COLLECTION BOX - BLUE BOX", "address": {"city": "POOLER", "state": "GA", "street": "7 POOLER SQ", "postcode": "31322"}}},
{"geometry": {"type": "Point", "coordinates": [-81.2554270546, 32.1184742065]}, "type": "Feature", "properties": {"collection_times": [{"days": "Mon-Fri", "time": "4:30pm"}, {"days": "Sat", "time": "12:00pm"}, {"days": "Sun", "time": "Closed"}], "id": "3132200005", "name": "USPS COLLECTION BOX - PO LOBBY", "address": {"city": "POOLER", "state": "GA", "street": "502 US HIGHWAY 80 W", "postcode": "31322"}}},
{"geometry": {"type": "Point", "coordinates": [-81.2530943188, 32.0952684139]}, "type": "Feature", "properties": {"collection_times": [{"days": "Mon-Fri", "time": "12:30pm"}, {"days": "Sat", "time": "12:00pm"}, {"days": "Sun", "time": "Closed"}], "id": "3132200006", "name": "USPS COLLECTION BOX - BLUE BOX", "address": {"city": "POOLER", "state": "GA", "street": "100 PARK AVE", "postcode": "31322"}}},
{"geometry": {"type": "Point", "coordinates": [-81.2523843346, 32.1058543666]}, "type": "Feature", "properties": {"collection_times": [{"days": "Mon-Sat", "time": "2:00pm"}, {"days": "Sun", "time": "Closed"}], "id": "3132200007", "name": "USPS COLLECTION BOX - BLUE BOX", "address": {"city": "POOLER", "state": "GA", "street": "1105 S ROGERS ST", "postcode": "31322"}}},
{"geometry": {"type": "Point", "coordinates": [-81.2530943188, 32.0952684139]}, "type": "Feature", "properties": {"collection_times": [{"days": "Mon-Sat", "time": "2:30pm"}, {"days": "Sun", "time": "Closed"}], "id": "3132200009", "name": "USPS COLLECTION BOX - BLUE BOX", "address": {"city": "POOLER", "state": "GA", "street": "100 GODLEY STATION BLVD", "postcode": "31322"}}},
{"geometry": {"type": "Point", "coordinates": [-81.4068323706, 31.6845232128]}, "type": "Feature", "properties": {"collection_times": [{"days": "Mon-Fri", "time": "12:00pm"}, {"days": "Sat", "time": "11:15am"}, {"days": "Sun", "time": "Closed"}], "id": "3132300001", "name": "USPS COLLECTION BOX - BLUE BOX", "address": {"city": "RICEBORO", "state": "GA", "street": "4705 S COASTAL HWY", "postcode": "31323"}}},
{"geometry": {"type": "Point", "coordinates": [-81.4068323706, 31.6845232128]}, "type": "Feature", "properties": {"collection_times": [{"days": "Mon-Fri", "time": "12:00pm"}, {"days": "Sat", "time": "11:15am"}, {"days": "Sun", "time": "Closed"}], "id": "3132300002", "name": "USPS COLLECTION BOX - PO LOBBY", "address": {"city": "RICEBORO", "state": "GA", "street": "4705 S COASTAL HWY", "postcode": "31323"}}},
{"geometry": {"type": "Point", "coordinates": [-81.3157146517, 31.9521029631]}, "type": "Feature", "properties": {"collection_times": [{"days": "Mon-Fri", "time": "5:00pm"}, {"days": "Sat", "time": "12:00pm"}, {"days": "Sun", "time": "Closed"}], "id": "3132400001", "name": "USPS COLLECTION BOX - BLUE BOX", "address": {"city": "RICHMOND HILL", "state": "GA", "street": "9664 FORD AVE", "postcode": "31324"}}},
{"geometry": {"type": "Point", "coordinates": [-81.3157146517, 31.9521029631]}, "type": "Feature", "properties": {"collection_times": [{"days": "Mon-Fri", "time": "5:00pm"}, {"days": "Sat", "time": "12:00pm"}, {"days": "Sun", "time": "Closed"}], "id": "3132400004", "name": "USPS COLLECTION BOX - BLUE BOX", "address": {"city": "RICHMOND HILL", "state": "GA", "street": "9664 FORD AVE", "postcode": "31324"}}},
{"geometry": {"type": "Point", "coordinates": [-81.3157146517, 31.9521029631]}, "type": "Feature", "properties": {"collection_times": [{"days": "Mon-Fri", "time": "5:00pm"}, {"days": "Sat", "time": "12:00pm"}, {"days": "Sun", "time": "Closed"}], "id": "3132400006", "name": "USPS COLLECTION BOX - PO LOBBY", "address": {"city": "RICHMOND HILL", "state": "GA", "street": "9664 FORD AVE", "postcode": "31324"}}},
{"geometry": {"type": "Point", "coordinates": [-81.3157146517, 31.9521029631]}, "type": "Feature", "properties": {"collection_times": [{"days": "Mon-Fri", "time": "5:00pm"}, {"days": "Sat", "time": "12:00pm"}, {"days": "Sun", "time": "Closed"}], "id": "3132400007", "name": "USPS COLLECTION BOX - BLUE BOX", "address": {"city": "RICHMOND HILL", "state": "GA", "street": "9664 FORD AVE", "postcode": "31324"}}},
{"geometry": {"type": "Point", "coordinates": [-81.2121956014, 32.2961233703]}, "type": "Feature", "properties": {"collection_times": [{"days": "Mon-Fri", "time": "4:30pm"}, {"days": "Sat", "time": "12:00pm"}, {"days": "Sun", "time": "Closed"}], "id": "3132600001", "name": "USPS COLLECTION BOX - BLUE BOX", "address": {"city": "RINCON", "state": "GA", "street": "503 N RIDGE ST", "postcode": "31326"}}},
{"geometry": {"type": "Point", "coordinates": [-81.2121956014, 32.2961233703]}, "type": "Feature", "properties": {"collection_times": [{"days": "Mon-Fri", "time": "4:30pm"}, {"days": "Sat", "time": "12:00pm"}, {"days": "Sun", "time": "Closed"}], "id": "3132600003", "name": "USPS COLLECTION BOX - BLUE BOX", "address": {"city": "RINCON", "state": "GA", "street": "503 N RIDGE ST", "postcode": "31326"}}},
{"geometry": {"type": "Point", "coordinates": [-81.2121956014, 32.2961233703]}, "type": "Feature", "properties": {"collection_times": [{"days": "Mon-Fri", "time": "4:30pm"}, {"days": "Sat", "time": "12:00pm"}, {"days": "Sun", "time": "Closed"}], "id": "3132600004", "name": "USPS COLLECTION BOX - BLUE BOX", "address": {"city": "RINCON", "state": "GA", "street": "503 N RIDGE ST", "postcode": "31326"}}},
{"geometry": {"type": "Point", "coordinates": [-81.2121956014, 32.2961233703]}, "type": "Feature", "properties": {"collection_times": [{"days": "Mon-Fri", "time": "4:30pm"}, {"days": "Sat", "time": "12:00pm"}, {"days": "Sun", "time": "Closed"}], "id": "3132600007", "name": "USPS COLLECTION BOX - PO LOBBY", "address": {"city": "RINCON", "state": "GA", "street": "503 N RIDGE ST", "postcode": "31326"}}},
{"geometry": {"type": "Point", "coordinates": [-81.2594267576, 31.4663067798]}, "type": "Feature", "properties": {"collection_times": [{"days": "Mon-Fri", "time": "9:30am"}, {"days": "Sat", "time": "10:00am"}, {"days": "Sun", "time": "Closed"}], "id": "3132700001", "name": "USPS COLLECTION BOX - BLUE BOX", "address": {"city": "SAPELO ISLAND", "state": "GA", "street": "1 LONG TABBY LN", "postcode": "31327"}}},
{"geometry": {"type": "Point", "coordinates": [-80.8493523267, 32.0151292269]}, "type": "Feature", "properties": {"collection_times": [{"days": "Mon-Sat", "time": "1:00pm"}, {"days": "Sun", "time": "Closed"}], "id": "3132800001", "name": "USPS COLLECTION BOX - BLUE BOX", "address": {"city": "TYBEE ISLAND", "state": "GA", "street": "102 S CAMPBELL AVE", "postcode": "31328"}}},
{"geometry": {"type": "Point", "coordinates": [-80.8495028169, 31.9922938549]}, "type": "Feature", "properties": {"collection_times": [{"days": "Mon-Sat", "time": "11:00am"}, {"days": "Sun", "time": "Closed"}], "id": "3132800002", "name": "USPS COLLECTION BOX - BLUE BOX", "address": {"city": "TYBEE ISLAND", "state": "GA", "street": "1601 INLET AVE", "postcode": "31328"}}},
{"geometry": {"type": "Point", "coordinates": [-80.8493523267, 32.0151292269]}, "type": "Feature", "properties": {"collection_times": [{"days": "Mon-Sat", "time": "1:00pm"}, {"days": "Sun", "time": "Closed"}], "id": "3132800003", "name": "USPS COLLECTION BOX - PO LOBBY", "address": {"city": "TYBEE ISLAND", "state": "GA", "street": "102 S CAMPBELL AVE", "postcode": "31328"}}},
{"geometry": {"type": "Point", "coordinates": [-81.3060772523, 32.3617338704]}, "type": "Feature", "properties": {"collection_times": [{"days": "Mon-Fri", "time": "4:45pm"}, {"days": "Sat", "time": "12:00pm"}, {"days": "Sun", "time": "Closed"}], "id": "3132900001", "name": "USPS COLLECTION BOX - BLUE BOX", "address": {"city": "SPRINGFIELD", "state": "GA", "street": "708 S LAUREL ST", "postcode": "31329"}}},
{"geometry": {"type": "Point", "coordinates": [-81.3159714687, 32.3745487932]}, "type": "Feature", "properties": {"collection_times": [{"days": "Mon-Sat", "time": "11:00am"}, {"days": "Sun", "time": "Closed"}], "id": "3132900002", "name": "USPS COLLECTION BOX - BLUE BOX", "address": {"city": "SPRINGFIELD", "state": "GA", "street": "901 N PINE ST", "postcode": "31329"}}},
{"geometry": {"type": "Point", "coordinates": [-81.3060772523, 32.3617338704]}, "type": "Feature", "properties": {"collection_times": [{"days": "Mon-Fri", "time": "4:30pm"}, {"days": "Sat", "time": "12:00pm"}, {"days": "Sun", "time": "Closed"}], "id": "3132900003", "name": "USPS COLLECTION BOX - PO LOBBY", "address": {"city": "SPRINGFIELD", "state": "GA", "street": "708 S LAUREL ST", "postcode": "31329"}}},
{"geometry": {"type": "Point", "coordinates": [-81.316965975, 32.4028735045]}, "type": "Feature", "properties": {"collection_times": [{"days": "Mon-Sat", "time": "11:00am"}, {"days": "Sun", "time": "Closed"}], "id": "3132900004", "name": "USPS COLLECTION BOX - BLUE BOX", "address": {"city": "SPRINGFIELD", "state": "GA", "street": "808 GA HIGHWAY 119 S", "postcode": "31329"}}},
{"geometry": {"type": "Point", "coordinates": [-81.3940767876, 31.5456908194]}, "type": "Feature", "properties": {"collection_times": [{"days": "Mon-Fri", "time": "4:30pm"}, {"days": "Sat", "time": "12:00pm"}, {"days": "Sun", "time": "Closed"}], "id": "3133100001", "name": "USPS COLLECTION BOX - BLUE BOX", "address": {"city": "TOWNSEND", "state": "GA", "street": "1219 GA HIGHWAY 57", "postcode": "31331"}}},
{"geometry": {"type": "Point", "coordinates": [-81.3940767876, 31.5456908194]}, "type": "Feature", "properties": {"collection_times": [{"days": "Mon-Fri", "time": "4:30pm"}, {"days": "Sat", "time": "12:00pm"}, {"days": "Sun", "time": "Closed"}], "id": "3133100002", "name": "USPS COLLECTION BOX - PO LOBBY", "address": {"city": "TOWNSEND", "state": "GA", "street": "1219 GA HIGHWAY 57", "postcode": "31331"}}},
{"geometry": {"type": "Point", "coordinates": [-81.6343972614, 31.7704630635]}, "type": "Feature", "properties": {"collection_times": [{"days": "Mon-Fri", "time": "5:00pm"}, {"days": "Sat", "time": "11:30am"}, {"days": "Sun", "time": "Closed"}], "id": "3133300001", "name": "USPS COLLECTION BOX - BLUE BOX", "address": {"city": "WALTHOURVILLE", "state": "GA", "street": "192 TALMADGE RD", "postcode": "31333"}}},
{"geometry": {"type": "Point", "coordinates": [-81.6343972614, 31.7704630635]}, "type": "Feature", "properties": {"collection_times": [{"days": "Mon-Fri", "time": "5:00pm"}, {"days": "Sat", "time": "11:30am"}, {"days": "Sun", "time": "Closed"}], "id": "3133300002", "name": "USPS COLLECTION BOX - PO LOBBY", "address": {"city": "WALTHOURVILLE", "state": "GA", "street": "192 TALMADGE RD", "postcode": "31333"}}}
]}
