{"type": "FeatureCollection", "features": [
{"geometry": {"type": "Point", "coordinates": [-81.1275869715, 32.0566876833]}, "type": "Feature", "properties": {"collection_times": [{"days": "Mon-Sat", "time": "4:00pm"}, {"days": "Sun", "time": "Closed"}], "id": "3140100001", "name": "USPS COLLECTION BOX - BLUE BOX", "address": {"city": "SAVANNAH", "state": "GA", "street": "302 W JULIAN ST", "postcode": "31401"}}},
{"geometry": {"type": "Point", "coordinates": [-81.1006512312, 32.0800298775]}, "type": "Feature", "properties": {"collection_times": [{"days": "Mon-Sat", "time": "3:15pm"}, {"days": "Sun", "time": "Closed"}], "id": "3140100006", "name": "USPS COLLECTION BOX - BLUE BOX", "address": {"city": "SAVANNAH", "state": "GA", "street": "120 FAHM ST", "postcode": "31401"}}},
{"geometry": {"type": "Point", "coordinates": [-81.0885438051, 32.0791569029]}, "type": "Feature", "properties": {"collection_times": [{"days": "Mon-Sat", "time": "3:30pm"}, {"days": "Sun", "time": "Closed"}], "id": "3140100017", "name": "USPS COLLECTION BOX - BLUE BOX", "address": {"city": "SAVANNAH", "state": "GA", "street": "200 E SAINT JULIAN ST", "postcode": "31401"}}},
{"geometry": {"type": "Point", "coordinates": [-81.0902536231, 32.0763771362]}, "type": "Feature", "properties": {"collection_times": [{"days": "Mon-Sat", "time": "3:15pm"}, {"days": "Sun", "time": "Closed"}], "id": "3140100020", "name": "USPS COLLECTION BOX - BLUE BOX", "address": {"city": "SAVANNAH", "state": "GA", "street": "204 E OGLETHORPE AVE", "postcode": "31401"}}},
{"geometry": {"type": "Point", "coordinates": [-81.0943317797, 32.0714283369]}, "type": "Feature", "properties": {"collection_times": [{"days": "Mon-Sat", "time": "3:45pm"}, {"days": "Sun", "time": "Closed"}], "id": "3140100034", "name": "USPS COLLECTION BOX - BLUE BOX", "address": {"city": "SAVANNAH", "state": "GA", "street": "428 BULL ST", "postcode": "31401"}}},
{"geometry": {"type": "Point", "coordinates": [-81.0853805827, 32.0750496083]}, "type": "Feature", "properties": {"collection_times": [{"days": "Mon-Sat", "time": "3:15pm"}, {"days": "Sun", "time": "Closed"}], "id": "3140100062", "name": "USPS COLLECTION BOX - BLUE BOX", "address": {"city": "SAVANNAH", "state": "GA", "street": "200 E BROAD ST", "postcode": "31401"}}},
{"geometry": {"type": "Point", "coordinates": [-81.089600932, 32.0785403421]}, "type": "Feature", "properties": {"collection_times": [{"days": "Mon-Sat", "time": "3:15pm"}, {"days": "Sun", "time": "Closed"}], "id": "3140100067", "name": "USPS COLLECTION BOX - BLUE BOX", "address": {"city": "SAVANNAH", "state": "GA", "street": "46 ABERCORN ST", "postcode": "31401"}}},
{"geometry": {"type": "Point", "coordinates": [-81.0858071636, 32.0726031816]}, "type": "Feature", "properties": {"collection_times": [{"days": "Mon-Sat", "time": "3:15pm"}, {"days": "Sun", "time": "Closed"}], "id": "3140100068", "name": "USPS COLLECTION BOX - BLUE BOX", "address": {"city": "SAVANNAH", "state": "GA", "street": "601 E LIBERTY ST", "postcode": "31401"}}},
{"geometry": {"type": "Point", "coordinates": [-81.09413131, 32.0730402512]}, "type": "Feature", "properties": {"collection_times": [{"days": "Mon-Sat", "time": "3:45pm"}, {"days": "Sun", "time": "Closed"}], "id": "3140100085", "name": "USPS COLLECTION BOX - BLUE BOX", "address": {"city": "SAVANNAH", "state": "GA", "street": "342 BULL ST", "postcode": "31401"}}},
{"geometry": {"type": "Point", "coordinates": [-81.0934995974, 32.0749225673]}, "type": "Feature", "properties": {"collection_times": [{"days": "Mon-Sat", "time": "3:45pm"}, {"days": "Sun", "time": "Closed"}], "id": "3140100086", "name": "USPS COLLECTION BOX - BLUE BOX", "address": {"city": "SAVANNAH", "state": "GA", "street": "251 BULL ST", "postcode": "31401"}}},
{"geometry": {"type": "Point", "coordinates": [-81.0917606413, 32.0794715927]}, "type": "Feature", "properties": {"collection_times": [{"days": "Mon-Sat", "time": "3:30pm"}, {"days": "Sun", "time": "Closed"}], "id": "3140100095", "name": "USPS COLLECTION BOX - BLUE BOX", "address": {"city": "SAVANNAH", "state": "GA", "street": "33 BULL ST", "postcode": "31401"}}},
{"geometry": {"type": "Point", "coordinates": [-81.0917606413, 32.0794715927]}, "type": "Feature", "properties": {"collection_times": [{"days": "Mon-Sat", "time": "3:30pm"}, {"days": "Sun", "time": "Closed"}], "id": "3140100096", "name": "USPS COLLECTION BOX - BLUE BOX", "address": {"city": "SAVANNAH", "state": "GA", "street": "33 BULL ST", "postcode": "31401"}}},
{"geometry": {"type": "Point", "coordinates": [-81.0966010471, 32.0790893026]}, "type": "Feature", "properties": {"collection_times": [{"days": "Mon-Sat", "time": "4:00pm"}, {"days": "Sun", "time": "Closed"}], "id": "3140100108", "name": "USPS COLLECTION BOX - BLUE BOX", "address": {"city": "SAVANNAH", "state": "GA", "street": "132 MONTGOMERY ST", "postcode": "31401"}}},
{"geometry": {"type": "Point", "coordinates": [-81.0926406091, 32.0771918347]}, "type": "Feature", "properties": {"collection_times": [{"days": "Mon-Sat", "time": "3:45pm"}, {"days": "Sun", "time": "Closed"}], "id": "3140100116", "name": "USPS COLLECTION BOX - BLUE BOX", "address": {"city": "SAVANNAH", "state": "GA", "street": "151 BULL ST", "postcode": "31401"}}},
{"geometry": {"type": "Point", "coordinates": [-81.0898419953, 32.0738483658]}, "type": "Feature", "properties": {"collection_times": [{"days": "Mon-Sat", "time": "3:15pm"}, {"days": "Sun", "time": "Closed"}], "id": "3140100153", "name": "USPS COLLECTION BOX - BLUE BOX", "address": {"city": "SAVANNAH", "state": "GA", "street": "322 E LIBERTY ST", "postcode": "31401"}}},
{"geometry": {"type": "Point", "coordinates": [-81.0992751387, 32.0837247533]}, "type": "Feature", "properties": {"collection_times": [{"days": "Mon-Sat", "time": "5:00pm"}, {"days": "Sun", "time": "Closed"}], "id": "3140200000", "name": "USPS COLLECTION BOX - BLUE BOX", "address": {"city": "SAVANNAH", "state": "GA", "street": "2 N FAHM ST", "postcode": "31402"}}},
{"geometry": {"type": "Point", "coordinates": [-81.0992751387, 32.0837247533]}, "type": "Feature", "properties": {"collection_times": [{"days": "Mon-Sat", "time": "5:00pm"}, {"days": "Sun", "time": "Closed"}], "id": "3140200001", "name": "USPS COLLECTION BOX - BLUE BOX", "address": {"city": "SAVANNAH", "state": "GA", "street": "2 N FAHM ST", "postcode": "31402"}}},
{"geometry": {"type": "Point", "coordinates": [-81.0992751387, 32.0837247533]}, "type": "Feature", "properties": {"collection_times": [{"days": "Mon-Fri", "time": "5:30pm"}, {"days": "Sat", "time": "2:00pm"}, {"days": "Sun", "time": "Closed"}], "id": "3140200003", "name": "USPS COLLECTION BOX - PO LOBBY", "address": {"city": "SAVANNAH", "state": "GA", "street": "2 N FAHM ST", "postcode": "31402"}}},
{"geometry": {"type": "Point", "coordinates": [-81.0679148965, 32.0432202383]}, "type": "Feature", "properties": {"collection_times": [{"days": "Mon-Fri", "time": "5:00pm"}, {"days": "Sat", "time": "4:30pm"}, {"days": "Sun", "time": "Closed"}], "id": "3140400031", "name": "USPS COLLECTION BOX - BLUE BOX", "address": {"city": "SAVANNAH", "state": "GA", "street": "1900 E VICTORY DR", "postcode": "31404"}}},
{"geometry": {"type": "Point", "coordinates": [-81.0722421604, 32.0246596121]}, "type": "Feature", "properties": {"collection_times": [{"days": "Mon-Sat", "time": "2:00pm"}, {"days": "Sun", "time": "Closed"}], "id": "3140400032", "name": "USPS COLLECTION BOX - BLUE BOX", "address": {"city": "SAVANNAH", "state": "GA", "street": "4700 SKIDAWAY RD", "postcode": "31404"}}},
{"geometry": {"type": "Point", "coordinates": [-81.0883150239, 32.040489969]}, "type": "Feature", "properties": {"collection_times": [{"days": "Mon-Sat", "time": "2:00pm"}, {"days": "Sun", "time": "Closed"}], "id": "3140400040", "name": "USPS COLLECTION BOX - BLUE BOX", "address": {"city": "SAVANNAH", "state": "GA", "street": "3700 WATERS AVE", "postcode": "31404"}}},
{"geometry": {"type": "Point", "coordinates": [-81.0679148965, 32.0432202383]}, "type": "Feature", "properties": {"collection_times": [{"days": "Mon-Fri", "time": "5:00pm"}, {"days": "Sat", "time": "4:30pm"}, {"days": "Sun", "time": "Closed"}], "id": "3140400053", "name": "USPS COLLECTION BOX - BLUE BOX", "address": {"city": "SAVANNAH", "state": "GA", "street": "1900 E VICTORY DR", "postcode": "31404"}}},
{"geometry": {"type": "Point", "coordinates": [-81.0679148965, 32.0432202383]}, "type": "Feature", "properties": {"collection_times": [{"days": "Mon-Fri", "time": "5:00pm"}, {"days": "Sat", "time": "3:00pm"}, {"days": "Sun", "time": "Closed"}], "id": "3140400055", "name": "USPS COLLECTION BOX - PO LOBBY", "address": {"city": "SAVANNAH", "state": "GA", "street": "1900 E VICTORY DR", "postcode": "31404"}}},
{"geometry": {"type": "Point", "coordinates": [-81.0917989549, 32.0316701024]}, "type": "Feature", "properties": {"collection_times": [{"days": "Mon-Sat", "time": "2:00pm"}, {"days": "Sun", "time": "Closed"}], "id": "3140400059", "name": "USPS COLLECTION BOX - BLUE BOX", "address": {"city": "SAVANNAH", "state": "GA", "street": "4750 WATERS AVE", "postcode": "31404"}}},
{"geometry": {"type": "Point", "coordinates": [-81.0919112277, 32.0317349888]}, "type": "Feature", "properties": {"collection_times": [{"days": "Mon-Sat", "time": "2:00pm"}, {"days": "Sun", "time": "Closed"}], "id": "3140400060", "name": "USPS COLLECTION BOX - BLUE BOX", "address": {"city": "SAVANNAH", "state": "GA", "street": "4725 WATERS AVE", "postcode": "31404"}}},
{"geometry": {"type": "Point", "coordinates": [-81.1096532377, 32.02408706]}, "type": "Feature", "properties": {"collection_times": [{"days": "Mon-Sat", "time": "1:30pm"}, {"days": "Sun", "time": "Closed"}], "id": "3140500001", "name": "USPS COLLECTION BOX - BLUE BOX", "address": {"city": "SAVANNAH", "state": "GA", "street": "5500 ABERCORN ST", "postcode": "31405"}}},
{"geometry": {"type": "Point", "coordinates": [-81.1134848418, 32.017457758]}, "type": "Feature", "properties": {"collection_times": [{"days": "Mon-Sat", "time": "1:15pm"}, {"days": "Sun", "time": "Closed"}], "id": "3140500006", "name": "USPS COLLECTION BOX - BLUE BOX", "address": {"city": "SAVANNAH", "state": "GA", "street": "4 E JACKSON BLVD", "postcode": "31405"}}},
{"geometry": {"type": "Point", "coordinates": [-81.1134848418, 32.017457758]}, "type": "Feature", "properties": {"collection_times": [{"days": "Mon-Fri", "time": "1:15pm"}, {"days": "Sat-Sun", "time": "Closed"}], "id": "3140500008", "name": "USPS COLLECTION BOX - BLUE BOX", "address": {"city": "SAVANNAH", "state": "GA", "street": "4 E JACKSON BLVD", "postcode": "31405"}}},
{"geometry": {"type": "Point", "coordinates": [-81.1745206452, 32.0406662251]}, "type": "Feature", "properties": {"collection_times": [{"days": "Mon-Fri", "time": "1:15pm"}, {"days": "Sat-Sun", "time": "Closed"}], "id": "3140500011", "name": "USPS COLLECTION BOX - BLUE BOX", "address": {"city": "SAVANNAH", "state": "GA", "street": "105 JACKSON BLVD", "postcode": "31405"}}},
{"geometry": {"type": "Point", "coordinates": [-81.1032688081, 32.0494213092]}, "type": "Feature", "properties": {"collection_times": [{"days": "Mon-Sat", "time": "12:00pm"}, {"days": "Sun", "time": "Closed"}], "id": "3140500019", "name": "USPS COLLECTION BOX - BLUE BOX", "address": {"city": "SAVANNAH", "state": "GA", "street": "3025 BULL ST", "postcode": "31405"}}},
{"geometry": {"type": "Point", "coordinates": [-81.1481514542, 32.0717614893]}, "type": "Feature", "properties": {"collection_times": [{"days": "Mon-Fri", "time": "2:30pm"}, {"days": "Sat-Sun", "time": "Closed"}], "id": "3140500022", "name": "USPS COLLECTION BOX - BLUE BOX", "address": {"city": "SAVANNAH", "state": "GA", "street": "7001 CHATHAM CENTER DR", "postcode": "31405"}}},
{"geometry": {"type": "Point", "coordinates": [-81.1163061989, 32.0266055796]}, "type": "Feature", "properties": {"collection_times": [{"days": "Mon-Sat", "time": "12:30pm"}, {"days": "Sun", "time": "Closed"}], "id": "3140500033", "name": "USPS COLLECTION BOX - BLUE BOX", "address": {"city": "SAVANNAH", "state": "GA", "street": "135 HAMPSTEAD AVE", "postcode": "31405"}}},
{"geometry": {"type": "Point", "coordinates": [-81.1088772166, 32.0463278715]}, "type": "Feature", "properties": {"collection_times": [{"days": "Mon-Sat", "time": "5:00pm"}, {"days": "Sun", "time": "Closed"}], "id": "3140500036", "name": "USPS COLLECTION BOX - BLUE BOX", "address": {"city": "SAVANNAH", "state": "GA", "street": "3601 MONTGOMERY ST", "postcode": "31405"}}},
{"geometry": {"type": "Point", "coordinates": [-81.1404054389, 32.0541105585]}, "type": "Feature", "properties": {"collection_times": [{"days": "Mon-Fri", "time": "12:15pm"}, {"days": "Sat-Sun", "time": "Closed"}], "id": "3140500042", "name": "USPS COLLECTION BOX - BLUE BOX", "address": {"city": "SAVANNAH", "state": "GA", "street": "3500 OGEECHEE RD", "postcode": "31405"}}},
{"geometry": {"type": "Point", "coordinates": [-81.0906655633, 32.0445983855]}, "type": "Feature", "properties": {"collection_times": [{"days": "Mon-Sat", "time": "2:00pm"}, {"days": "Sun", "time": "Closed"}], "id": "3140500047", "name": "USPS COLLECTION BOX - BLUE BOX", "address": {"city": "SAVANNAH", "state": "GA", "street": "602 E 49TH ST", "postcode": "31405"}}},
{"geometry": {"type": "Point", "coordinates": [-81.0973554507, 32.0296084787]}, "type": "Feature", "properties": {"collection_times": [{"days": "Mon-Fri", "time": "2:00pm"}, {"days": "Sat-Sun", "time": "Closed"}], "id": "3140500048", "name": "USPS COLLECTION BOX - BLUE BOX", "address": {"city": "SAVANNAH", "state": "GA", "street": "601 E 67TH ST", "postcode": "31405"}}},
{"geometry": {"type": "Point", "coordinates": [-81.1018604119, 32.0272013717]}, "type": "Feature", "properties": {"collection_times": [{"days": "Mon-Sat", "time": "1:45pm"}, {"days": "Sun", "time": "Closed"}], "id": "3140500051", "name": "USPS COLLECTION BOX - BLUE BOX", "address": {"city": "SAVANNAH", "state": "GA", "street": "5353 REYNOLDS ST", "postcode": "31405"}}},
{"geometry": {"type": "Point", "coordinates": [-81.1017676332, 32.0272680367]}, "type": "Feature", "properties": {"collection_times": [{"days": "Mon-Sat", "time": "1:45pm"}, {"days": "Sun", "time": "Closed"}], "id": "3140500052", "name": "USPS COLLECTION BOX - BLUE BOX", "address": {"city": "SAVANNAH", "state": "GA", "street": "5354 REYNOLDS ST", "postcode": "31405"}}},
{"geometry": {"type": "Point", "coordinates": [-81.1214506671, 32.0571689533]}, "type": "Feature", "properties": {"collection_times": [{"days": "Mon-Sat", "time": "12:15pm"}, {"days": "Sun", "time": "Closed"}], "id": "3140500055", "name": "USPS COLLECTION BOX - BLUE BOX", "address": {"city": "SAVANNAH", "state": "GA", "street": "1 ROSS RD", "postcode": "31405"}}},
{"geometry": {"type": "Point", "coordinates": [-81.0945362051, 32.0302195193]}, "type": "Feature", "properties": {"collection_times": [{"days": "Mon-Fri", "time": "2:00pm"}, {"days": "Sat-Sun", "time": "Closed"}], "id": "3140500056", "name": "USPS COLLECTION BOX - BLUE BOX", "address": {"city": "SAVANNAH", "state": "GA", "street": "836 E 65TH ST", "postcode": "31405"}}},
{"geometry": {"type": "Point", "coordinates": [-81.1118640124, 32.0255997401]}, "type": "Feature", "properties": {"collection_times": [{"days": "Mon-Fri", "time": "12:45pm"}, {"days": "Sat-Sun", "time": "Closed"}], "id": "3140500059", "name": "USPS COLLECTION BOX - BLUE BOX", "address": {"city": "SAVANNAH", "state": "GA", "street": "5520 WHITE BLUFF RD", "postcode": "31405"}}},
{"geometry": {"type": "Point", "coordinates": [-81.1492859119, 32.0723186629]}, "type": "Feature", "properties": {"collection_times": [{"days": "Mon-Fri", "time": "2:45pm"}, {"days": "Sat-Sun", "time": "Closed"}], "id": "3140500129", "name": "USPS COLLECTION BOX - BLUE BOX", "address": {"city": "SAVANNAH", "state": "GA", "street": "6001 CHATHAM CENTER DR", "postcode": "31405"}}},
{"geometry": {"type": "Point", "coordinates": [-81.1088772166, 32.0463278715]}, "type": "Feature", "properties": {"collection_times": [{"days": "Mon-Fri", "time": "5:15pm"}, {"days": "Sat", "time": "4:00pm"}, {"days": "Sun", "time": "Closed"}], "id": "3140500133", "name": "USPS COLLECTION BOX - PO LOBBY", "address": {"city": "SAVANNAH", "state": "GA", "street": "3601 MONTGOMERY ST", "postcode": "31405"}}},
{"geometry": {"type": "Point", "coordinates": [-81.0978130014, 32.0221683006]}, "type": "Feature", "properties": {"collection_times": [{"days": "Mon-Sat", "time": "1:45pm"}, {"days": "Sun", "time": "Closed"}], "id": "3140500136", "name": "USPS COLLECTION BOX - BLUE BOX", "address": {"city": "SAVANNAH", "state": "GA", "street": "341 ALTHEA PKWY", "postcode": "31405"}}},
{"geometry": {"type": "Point", "coordinates": [-81.1654605098, 32.05182035]}, "type": "Feature", "properties": {"collection_times": [{"days": "Mon-Fri", "time": "3:30pm"}, {"days": "Sat-Sun", "time": "Closed"}], "id": "3140500138", "name": "USPS COLLECTION BOX - BLUE BOX", "address": {"city": "SAVANNAH", "state": "GA", "street": "1000 BUSINESS CENTER DR", "postcode": "31405"}}},
{"geometry": {"type": "Point", "coordinates": [-81.1604944481, 32.0657094712]}, "type": "Feature", "properties": {"collection_times": [{"days": "Mon-Fri", "time": "2:45pm"}, {"days": "Sat-Sun", "time": "Closed"}], "id": "3140500140", "name": "USPS COLLECTION BOX - BLUE BOX", "address": {"city": "SAVANNAH", "state": "GA", "street": "2 PARK OF COMMERCE WAY", "postcode": "31405"}}},
{"geometry": {"type": "Point", "coordinates": [-81.0937400737, 32.0046983626]}, "type": "Feature", "properties": {"collection_times": [{"days": "Mon-Fri", "time": "5:30pm"}, {"days": "Sat", "time": "4:30pm"}, {"days": "Sun", "time": "Closed"}], "id": "3140600015", "name": "USPS COLLECTION BOX - BLUE BOX", "address": {"city": "SAVANNAH", "state": "GA", "street": "1348 EISENHOWER DR", "postcode": "31406"}}},
{"geometry": {"type": "Point", "coordinates": [-81.1064769929, 32.0080201113]}, "type": "Feature", "properties": {"collection_times": [{"days": "Mon-Fri", "time": "12:40pm"}, {"days": "Sat-Sun", "time": "Closed"}], "id": "3140600023", "name": "USPS COLLECTION BOX - BLUE BOX", "address": {"city": "SAVANNAH", "state": "GA", "street": "340 EISENHOWER DR", "postcode": "31406"}}},
{"geometry": {"type": "Point", "coordinates": [-81.0746613115, 31.9866132859]}, "type": "Feature", "properties": {"collection_times": [{"days": "Mon-Fri", "time": "1:10pm"}, {"days": "Sat", "time": "11:00am"}, {"days": "Sun", "time": "Closed"}], "id": "3140600028", "name": "USPS COLLECTION BOX - BLUE BOX", "address": {"city": "SAVANNAH", "state": "GA", "street": "7360 SKIDAWAY RD", "postcode": "31406"}}},
{"geometry": {"type": "Point", "coordinates": [-81.1141390181, 31.9991644805]}, "type": "Feature", "properties": {"collection_times": [{"days": "Mon-Fri", "time": "1:55pm"}, {"days": "Sat", "time": "10:00am"}, {"days": "Sun", "time": "Closed"}], "id": "3140600031", "name": "USPS COLLECTION BOX - BLUE BOX", "address": {"city": "SAVANNAH", "state": "GA", "street": "7370 HODGSON MEMORIAL DR", "postcode": "31406"}}},
{"geometry": {"type": "Point", "coordinates": [-81.1100720052, 32.0013162829]}, "type": "Feature", "properties": {"collection_times": [{"days": "Mon-Fri", "time": "1:00pm"}, {"days": "Sat", "time": "10:00am"}, {"days": "Sun", "time": "Closed"}], "id": "3140600040", "name": "USPS COLLECTION BOX - BLUE BOX", "address": {"city": "SAVANNAH", "state": "GA", "street": "455 MALL BLVD", "postcode": "31406"}}},
{"geometry": {"type": "Point", "coordinates": [-81.1092376818, 32.0049057482]}, "type": "Feature", "properties": {"collection_times": [{"days": "Mon-Sat", "time": "12:45pm"}, {"days": "Sun", "time": "Closed"}], "id": "3140600052", "name": "USPS COLLECTION BOX - BLUE BOX", "address": {"city": "SAVANNAH", "state": "GA", "street": "315 COMMERCIAL DR", "postcode": "31406"}}},
{"geometry": {"type": "Point", "coordinates": [-81.1092376818, 32.0049057482]}, "type": "Feature", "properties": {"collection_times": [{"days": "Mon-Fri", "time": "12:45pm"}, {"days": "Sat", "time": "10:00am"}, {"days": "Sun", "time": "Closed"}], "id": "3140600053", "name": "USPS COLLECTION BOX - BLUE BOX", "address": {"city": "SAVANNAH", "state": "GA", "street": "315 COMMERCIAL DR", "postcode": "31406"}}},
{"geometry": {"type": "Point", "coordinates": [-81.1110207382, 32.001890018]}, "type": "Feature", "properties": {"collection_times": [{"days": "Mon-Fri", "time": "12:50pm"}, {"days": "Sat", "time": "10:30am"}, {"days": "Sun", "time": "Closed"}], "id": "3140600062", "name": "USPS COLLECTION BOX - BLUE BOX", "address": {"city": "SAVANNAH", "state": "GA", "street": "400 MALL BLVD", "postcode": "31406"}}},
{"geometry": {"type": "Point", "coordinates": [-81.1110207382, 32.001890018]}, "type": "Feature", "properties": {"collection_times": [{"days": "Mon-Fri", "time": "12:50pm"}, {"days": "Sat", "time": "10:30am"}, {"days": "Sun", "time": "Closed"}], "id": "3140600063", "name": "USPS COLLECTION BOX - BLUE BOX", "address": {"city": "SAVANNAH", "state": "GA", "street": "400 MALL BLVD", "postcode": "31406"}}},
{"geometry": {"type": "Point", "coordinates": [-81.0937400737, 32.0046983626]}, "type": "Feature", "properties": {"collection_times": [{"days": "Mon-Fri", "time": "5:30pm"}, {"days": "Sat", "time": "4:30pm"}, {"days": "Sun", "time": "Closed"}], "id": "3140600072", "name": "USPS COLLECTION BOX - BLUE BOX", "address": {"city": "SAVANNAH", "state": "GA", "street": "1348 EISENHOWER DR", "postcode": "31406"}}},
{"geometry": {"type": "Point", "coordinates": [-81.1015529025, 32.0050851724]}, "type": "Feature", "properties": {"collection_times": [{"days": "Mon-Fri", "time": "12:30pm"}, {"days": "Sat", "time": "9:30am"}, {"days": "Sun", "time": "Closed"}], "id": "3140600073", "name": "USPS COLLECTION BOX - BLUE BOX", "address": {"city": "SAVANNAH", "state": "GA", "street": "7505 WATERS AVE", "postcode": "31406"}}},
{"geometry": {"type": "Point", "coordinates": [-81.1052356312, 32.0091213271]}, "type": "Feature", "properties": {"collection_times": [{"days": "Mon-Fri", "time": "12:30pm"}, {"days": "Sat", "time": "10:00am"}, {"days": "Sun", "time": "Closed"}], "id": "3140600078", "name": "USPS COLLECTION BOX - BLUE BOX", "address": {"city": "SAVANNAH", "state": "GA", "street": "301 NOBLE OAKS DR", "postcode": "31406"}}},
{"geometry": {"type": "Point", "coordinates": [-81.1232489851, 32.0007709388]}, "type": "Feature", "properties": {"collection_times": [{"days": "Mon-Sat", "time": "1:00pm"}, {"days": "Sun", "time": "Closed"}], "id": "3140600079", "name": "USPS COLLECTION BOX - BLUE BOX", "address": {"city": "SAVANNAH", "state": "GA", "street": "37 W FAIRMONT AVE", "postcode": "31406"}}},
{"geometry": {"type": "Point", "coordinates": [-81.0937400737, 32.0046983626]}, "type": "Feature", "properties": {"collection_times": [{"days": "Mon-Fri", "time": "5:30pm"}, {"days": "Sat", "time": "3:30pm"}, {"days": "Sun", "time": "Closed"}], "id": "3140600083", "name": "USPS COLLECTION BOX - PO LOBBY", "address": {"city": "SAVANNAH", "state": "GA", "street": "1348 EISENHOWER DR", "postcode": "31406"}}},
{"geometry": {"type": "Point", "coordinates": [-81.1143377552, 31.9986073069]}, "type": "Feature", "properties": {"collection_times": [{"days": "Mon-Fri", "time": "2:00pm"}, {"days": "Sat-Sun", "time": "Closed"}], "id": "3140600088", "name": "USPS COLLECTION BOX - BLUE BOX", "address": {"city": "SAVANNAH", "state": "GA", "street": "7395 HODGSON MEMORIAL DR", "postcode": "31406"}}},
{"geometry": {"type": "Point", "coordinates": [-81.1137716145, 31.9961067367]}, "type": "Feature", "properties": {"collection_times": [{"days": "Mon-Fri", "time": "1:50pm"}, {"days": "Sat", "time": "9:00am"}, {"days": "Sun", "time": "Closed"}], "id": "3140600090", "name": "USPS COLLECTION BOX - BLUE BOX", "address": {"city": "SAVANNAH", "state": "GA", "street": "310 E MONTGOMERY XRDS", "postcode": "31406"}}},
{"geometry": {"type": "Point", "coordinates": [-81.0937400737, 32.0046983626]}, "type": "Feature", "properties": {"collection_times": [{"days": "Mon-Fri", "time": "5:30pm"}, {"days": "Sat", "time": "3:30pm"}, {"days": "Sun", "time": "Closed"}], "id": "3140600092", "name": "USPS COLLECTION BOX - APC", "address": {"city": "SAVANNAH", "state": "GA", "street": "1348 EISENHOWER DR", "postcode": "31406"}}},
{"geometry": {"type": "Point", "coordinates": [-81.0979951771, 31.9577952226]}, "type": "Feature", "properties": {"collection_times": [{"days": "Mon-Fri", "time": "1:25pm"}, {"days": "Sat-Sun", "time": "Closed"}], "id": "3140600093", "name": "USPS COLLECTION BOX - BLUE BOX", "address": {"city": "SAVANNAH", "state": "GA", "street": "1 DIAMOND CSWY", "postcode": "31406"}}},
{"geometry": {"type": "Point", "coordinates": [-81.1622038238, 32.1472815896]}, "type": "Feature", "properties": {"collection_times": [{"days": "Mon-Fri", "time": "4:20pm"}, {"days": "Sat-Sun", "time": "Closed"}], "id": "3140700001", "name": "USPS COLLECTION BOX - BLUE BOX", "address": {"city": "SAVANNAH", "state": "GA", "street": "305 S COASTAL HWY", "postcode": "31407"}}},
{"geometry": {"type": "Point", "coordinates": [-81.1530678317, 32.105928893]}, "type": "Feature", "properties": {"collection_times": [{"days": "Mon-Fri", "time": "5:00pm"}, {"days": "Sat", "time": "12:00pm"}, {"days": "Sun", "time": "Closed"}], "id": "3140800004", "name": "USPS COLLECTION BOX - BLUE BOX", "address": {"city": "SAVANNAH", "state": "GA", "street": "4431 AUGUSTA RD", "postcode": "31408"}}},
{"geometry": {"type": "Point", "coordinates": [-81.1482553335, 32.1033314612]}, "type": "Feature", "properties": {"collection_times": [{"days": "Mon-Fri", "time": "4:00pm"}, {"days": "Sat-Sun", "time": "Closed"}], "id": "3140800012", "name": "USPS COLLECTION BOX - BLUE BOX", "address": {"city": "SAVANNAH", "state": "GA", "street": "109 MINIS AVE", "postcode": "31408"}}},
{"geometry": {"type": "Point", "coordinates": [-81.1530678317, 32.105928893]}, "type": "Feature", "properties": {"collection_times": [{"days": "Mon-Fri", "time": "5:00pm"}, {"days": "Sat", "time": "12:00pm"}, {"days": "Sun", "time": "Closed"}], "id": "3140800027", "name": "USPS COLLECTION BOX - PO LOBBY", "address": {"city": "SAVANNAH", "state": "GA", "street": "4431 AUGUSTA RD", "postcode": "31408"}}},
{"geometry": {"type": "Point", "coordinates": [-81.2202835601, 32.1173444471]}, "type": "Feature", "properties": {"collection_times": [{"days": "Mon-Fri", "time": "4:45pm"}, {"days": "Sat-Sun", "time": "Closed"}], "id": "3140800029", "name": "USPS COLLECTION BOX - BLUE BOX", "address": {"city": "SAVANNAH", "state": "GA", "street": "210 BOURNE BLVD", "postcode": "31408"}}},
{"geometry": {"type": "Point", "coordinates": [-81.1491496873, 32.0131370947]}, "type": "Feature", "properties": {"collection_times": [{"days": "Mon-Sat", "time": "1:00pm"}, {"days": "Sun", "time": "Closed"}], "id": "3140900008", "name": "USPS COLLECTION BOX - BLUE BOX", "address": {"city": "SAVANNAH", "state": "GA", "street": "300 WILSON BLVD", "postcode": "31409"}}},
{"geometry": {"type": "Point", "coordinates": [-81.1263912133, 32.0180908031]}, "type": "Feature", "properties": {"collection_times": [{"days": "Mon-Fri", "time": "3:00pm"}, {"days": "Sat", "time": "1:00pm"}, {"days": "Sun", "time": "Closed"}], "id": "3140900009", "name": "USPS COLLECTION BOX - BLUE BOX", "address": {"city": "SAVANNAH", "state": "GA", "street": "37 N SCHMIDT STREET, #102", "postcode": "31409"}}},
{"geometry": {"type": "Point", "coordinates": [-81.1263912133, 32.0180908031]}, "type": "Feature", "properties": {"collection_times": [{"days": "Mon-Fri", "time": "3:00pm"}, {"days": "Sat-Sun", "time": "Closed"}], "id": "3140900013", "name": "USPS COLLECTION BOX - PO LOBBY", "address": {"city": "SAVANNAH", "state": "GA", "street": "37 N SCHMIDT STREET, #102", "postcode": "31409"}}},
{"geometry": {"type": "Point", "coordinates": [-81.0919007216, 32.0788187513]}, "type": "Feature", "properties": {"collection_times": [{"days": "Mon-Sat", "time": "2:00pm"}, {"days": "Sun", "time": "Closed"}], "id": "3141000001", "name": "USPS COLLECTION BOX - BLUE BOX", "address": {"city": "SAVANNAH", "state": "GA", "street": "102 BULL RIVER RD", "postcode": "31410"}}},
{"geometry": {"type": "Point", "coordinates": [-80.9782018104, 32.0167777044]}, "type": "Feature", "properties": {"collection_times": [{"days": "Mon-Fri", "time": "5:00pm"}, {"days": "Sat", "time": "2:00pm"}, {"days": "Sun", "time": "Closed"}], "id": "3141000003", "name": "USPS COLLECTION BOX - BLUE BOX", "address": {"city": "SAVANNAH", "state": "GA", "street": "463 JOHNNY MERCER BLVD", "postcode": "31410"}}},
{"geometry": {"type": "Point", "coordinates": [-80.9782018104, 32.0167777044]}, "type": "Feature", "properties": {"collection_times": [{"days": "Mon-Fri", "time": "5:00pm"}, {"days": "Sat", "time": "2:00pm"}, {"days": "Sun", "time": "Closed"}], "id": "3141000004", "name": "USPS COLLECTION BOX - BLUE BOX", "address": {"city": "SAVANNAH", "state": "GA", "street": "463 JOHNNY MERCER BLVD", "postcode": "31410"}}},
{"geometry": {"type": "Point", "coordinates": [-80.9864173045, 32.0149025666]}, "type": "Feature", "properties": {"collection_times": [{"days": "Mon-Sat", "time": "2:00pm"}, {"days": "Sun", "time": "Closed"}], "id": "3141000006", "name": "USPS COLLECTION BOX - BLUE BOX", "address": {"city": "SAVANNAH", "state": "GA", "street": "155 JOHNNY MERCER BLVD", "postcode": "31410"}}},
{"geometry": {"type": "Point", "coordinates": [-81.0093504523, 32.0432106336]}, "type": "Feature", "properties": {"collection_times": [{"days": "Mon-Sat", "time": "2:00pm"}, {"days": "Sun", "time": "Closed"}], "id": "3141000007", "name": "USPS COLLECTION BOX - BLUE BOX", "address": {"city": "SAVANNAH", "state": "GA", "street": "4717 HIGHWAY 80 E", "postcode": "31410"}}},
{"geometry": {"type": "Point", "coordinates": [-80.9782018104, 32.0167777044]}, "type": "Feature", "properties": {"collection_times": [{"days": "Mon-Fri", "time": "5:00pm"}, {"days": "Sat", "time": "2:00pm"}, {"days": "Sun", "time": "Closed"}], "id": "3141000011", "name": "USPS COLLECTION BOX - PO LOBBY", "address": {"city": "SAVANNAH", "state": "GA", "street": "463 JOHNNY MERCER BLVD", "postcode": "31410"}}},
{"geometry": {"type": "Point", "coordinates": [-81.052330107, 31.9391328721]}, "type": "Feature", "properties": {"collection_times": [{"days": "Mon-Fri", "time": "1:30pm"}, {"days": "Sat", "time": "1:00pm"}, {"days": "Sun", "time": "Closed"}], "id": "3141100001", "name": "USPS COLLECTION BOX - BLUE BOX", "address": {"city": "SAVANNAH", "state": "GA", "street": "50 MEETING ST STE C", "postcode": "31411"}}},
{"geometry": {"type": "Point", "coordinates": [-81.052330107, 31.9391328721]}, "type": "Feature", "properties": {"collection_times": [{"days": "Mon-Fri", "time": "1:30pm"}, {"days": "Sat", "time": "1:00pm"}, {"days": "Sun", "time": "Closed"}], "id": "3141100002", "name": "USPS COLLECTION BOX - BLUE BOX", "address": {"city": "SAVANNAH", "state": "GA", "street": "50 MEETING ST STE C", "postcode": "31411"}}},
{"geometry": {"type": "Point", "coordinates": [-81.052330107, 31.9391328721]}, "type": "Feature", "properties": {"collection_times": [{"days": "Mon-Fri", "time": "1:30pm"}, {"days": "Sat", "time": "1:00pm"}, {"days": "Sun", "time": "Closed"}], "id": "3141100004", "name": "USPS COLLECTION BOX - BLUE BOX", "address": {"city": "SAVANNAH", "state": "GA", "street": "50 MEETING ST STE C", "postcode": "31411"}}},
{"geometry": {"type": "Point", "coordinates": [-81.0935418749, 32.078558091]}, "type": "Feature", "properties": {"collection_times": [{"days": "Mon-Fri", "time": "5:00pm"}, {"days": "Sat", "time": "1:00pm"}, {"days": "Sun", "time": "Closed"}], "id": "3141200002", "name": "USPS COLLECTION BOX - BLUE BOX", "address": {"city": "SAVANNAH", "state": "GA", "street": "117 W STATE ST", "postcode": "31412"}}},
{"geometry": {"type": "Point", "coordinates": [-81.0943601485, 32.0788439062]}, "type": "Feature", "properties": {"collection_times": [{"days": "Mon-Fri", "time": "5:00pm"}, {"days": "Sat-Sun", "time": "Closed"}], "id": "3141200010", "name": "USPS COLLECTION BOX - PO LOBBY", "address": {"city": "SAVANNAH", "state": "GA", "street": "118 BARNARD ST", "postcode": "31412"}}},
{"geometry": {"type": "Point", "coordinates": [-81.0943601485, 32.0788439062]}, "type": "Feature", "properties": {"collection_times": [{"days": "Mon-Fri", "time": "5:00pm"}, {"days": "Sat-Sun", "time": "Closed"}], "id": "3141200011", "name": "USPS COLLECTION BOX - PO LOBBY", "address": {"city": "SAVANNAH", "state": "GA", "street": "118 BARNARD ST", "postcode": "31412"}}},
{"geometry": {"type": "Point", "coordinates": [-81.0935418749, 32.078558091]}, "type": "Feature", "properties": {"collection_times": [{"days": "Mon-Fri", "time": "5:00pm"}, {"days": "Sat", "time": "1:00pm"}, {"days": "Sun", "time": "Closed"}], "id": "3141200012", "name": "USPS COLLECTION BOX - BLUE BOX", "address": {"city": "SAVANNAH", "state": "GA", "street": "117 W STATE ST", "postcode": "31412"}}},
{"geometry": {"type": "Point", "coordinates": [-81.1351069657, 31.9802525156]}, "type": "Feature", "properties": {"collection_times": [{"days": "Mon-Fri", "time": "5:30pm"}, {"days": "Sat", "time": "4:30pm"}, {"days": "Sun", "time": "Closed"}], "id": "3141900004", "name": "USPS COLLECTION BOX - BLUE BOX", "address": {"city": "SAVANNAH", "state": "GA", "street": "10701 ABERCORN ST", "postcode": "31419"}}},
{"geometry": {"type": "Point", "coordinates": [-81.1618915226, 31.9822919368]}, "type": "Feature", "properties": {"collection_times": [{"days": "Mon-Sat", "time": "2:45pm"}, {"days": "Sun", "time": "Closed"}], "id": "3141900010", "name": "USPS COLLECTION BOX - BLUE BOX", "address": {"city": "SAVANNAH", "state": "GA", "street": "11935 ABERCORN ST", "postcode": "31419"}}},
{"geometry": {"type": "Point", "coordinates": [-81.1529187789, 31.985601856]}, "type": "Feature", "properties": {"collection_times": [{"days": "Mon-Sat", "time": "3:00pm"}, {"days": "Sun", "time": "Closed"}], "id": "3141900066", "name": "USPS COLLECTION BOX - BLUE BOX", "address": {"city": "SAVANNAH", "state": "GA", "street": "11706 MERCY BLVD", "postcode": "31419"}}},
{"geometry": {"type": "Point", "coordinates": [-81.1351069657, 31.9802525156]}, "type": "Feature", "properties": {"collection_times": [{"days": "Mon-Fri", "time": "5:30pm"}, {"days": "Sat", "time": "4:00pm"}, {"days": "Sun", "time": "Closed"}], "id": "3141900071", "name": "USPS COLLECTION BOX - PO LOBBY", "address": {"city": "SAVANNAH", "state": "GA", "street": "10701 ABERCORN ST", "postcode": "31419"}}},
{"geometry": {"type": "Point", "coordinates": [-81.1351069657, 31.9802525156]}, "type": "Feature", "properties": {"collection_times": [{"days": "Mon-Fri", "time": "5:30pm"}, {"days": "Sat", "time": "4:00pm"}, {"days": "Sun", "time": "Closed"}], "id": "3141900072", "name": "USPS COLLECTION BOX - APC", "address": {"city": "SAVANNAH", "state": "GA", "street": "10701 ABERCORN ST", "postcode": "31419"}}},
{"geometry": {"type": "Point", "coordinates": [-81.0473547035, 31.7892838912]}, "type": "Feature", "properties": {"collection_times": [{"days": "Mon-Sat", "time": "2:30pm"}, {"days": "Sun", "time": "Closed"}], "id": "3141900074", "name": "USPS COLLECTION BOX - BLUE BOX", "address": {"city": "SAVANNAH", "state": "GA", "street": "782 KING BLVD", "postcode": "31419"}}},
{"geometry": {"type": "Point", "coordinates": [-81.139166789, 31.9971329621]}, "type": "Feature", "properties": {"collection_times": [{"days": "Mon-Sat", "time": "2:00pm"}, {"days": "Sun", "time": "Closed"}], "id": "3141900076", "name": "USPS COLLECTION BOX - BLUE BOX", "address": {"city": "SAVANNAH", "state": "GA", "street": "50 BERWICK BLVD", "postcode": "31419"}}}
]}
