{"type": "FeatureCollection", "features": [
{"geometry": {"type": "Point", "coordinates": [-82.3251301605, 31.1990075531]}, "type": "Feature", "properties": {"collection_times": [{"days": "Mon-Fri", "time": "2:00pm"}, {"days": "Sat-Sun", "time": "Closed"}], "id": "3150100001", "name": "USPS COLLECTION BOX - BLUE BOX", "address": {"city": "WAYCROSS", "state": "GA", "street": "2215 MEMORIAL DR", "postcode": "31501"}}},
{"geometry": {"type": "Point", "coordinates": [-82.3456307871, 31.2254314743]}, "type": "Feature", "properties": {"collection_times": [{"days": "Mon-Fri", "time": "2:00pm"}, {"days": "Sat-Sun", "time": "Closed"}], "id": "3150100003", "name": "USPS COLLECTION BOX - BLUE BOX", "address": {"city": "WAYCROSS", "state": "GA", "street": "1921 ALICE ST", "postcode": "31501"}}},
{"geometry": {"type": "Point", "coordinates": [-82.3329781827, 31.2069889211]}, "type": "Feature", "properties": {"collection_times": [{"days": "Mon-Fri", "time": "2:00pm"}, {"days": "Sat", "time": "12:00pm"}, {"days": "Sun", "time": "Closed"}], "id": "3150100013", "name": "USPS COLLECTION BOX - BLUE BOX", "address": {"city": "WAYCROSS", "state": "GA", "street": "1803 KNIGHT AVE", "postcode": "31501"}}},
{"geometry": {"type": "Point", "coordinates": [-82.3605056119, 31.2096886517]}, "type": "Feature", "properties": {"collection_times": [{"days": "Mon-Fri", "time": "2:00pm"}, {"days": "Sat-Sun", "time": "Closed"}], "id": "3150100016", "name": "USPS COLLECTION BOX - BLUE BOX", "address": {"city": "WAYCROSS", "state": "GA", "street": "510 ELIZABETH ST", "postcode": "31501"}}},
{"geometry": {"type": "Point", "coordinates": [-82.355449172, 31.2138314233]}, "type": "Feature", "properties": {"collection_times": [{"days": "Mon-Fri", "time": "2:00pm"}, {"days": "Sat-Sun", "time": "Closed"}], "id": "3150100018", "name": "USPS COLLECTION BOX - BLUE BOX", "address": {"city": "WAYCROSS", "state": "GA", "street": "800 CHURCH ST", "postcode": "31501"}}},
{"geometry": {"type": "Point", "coordinates": [-82.3318486601, 31.2312932401]}, "type": "Feature", "properties": {"collection_times": [{"days": "Mon-Fri", "time": "2:00pm"}, {"days": "Sat-Sun", "time": "Closed"}], "id": "3150100020", "name": "USPS COLLECTION BOX - BLUE BOX", "address": {"city": "WAYCROSS", "state": "GA", "street": "2503 PLANT AVE", "postcode": "31501"}}},
{"geometry": {"type": "Point", "coordinates": [-82.3498256718, 31.2166870463]}, "type": "Feature", "properties": {"collection_times": [{"days": "Mon-Fri", "time": "2:00pm"}, {"days": "Sat-Sun", "time": "Closed"}], "id": "3150100027", "name": "USPS COLLECTION BOX - BLUE BOX", "address": {"city": "WAYCROSS", "state": "GA", "street": "1312 PLANT AVE", "postcode": "31501"}}},
{"geometry": {"type": "Point", "coordinates": [-82.3329781827, 31.2069889211]}, "type": "Feature", "properties": {"collection_times": [{"days": "Mon-Fri", "time": "2:00pm"}, {"days": "Sat", "time": "12:00pm"}, {"days": "Sun", "time": "Closed"}], "id": "3150100033", "name": "USPS COLLECTION BOX - BLUE BOX", "address": {"city": "WAYCROSS", "state": "GA", "street": "1803 KNIGHT AVE", "postcode": "31501"}}},
{"geometry": {"type": "Point", "coordinates": [-82.3609895272, 31.2131126245]}, "type": "Feature", "properties": {"collection_times": [{"days": "Mon-Fri", "time": "6:00pm"}, {"days": "Sat", "time": "5:00pm"}, {"days": "Sun", "time": "Closed"}], "id": "3150100039", "name": "USPS COLLECTION BOX - BLUE BOX", "address": {"city": "WAYCROSS", "state": "GA", "street": "601 TEBEAU ST", "postcode": "31501"}}},
{"geometry": {"type": "Point", "coordinates": [-82.3609895272, 31.2131126245]}, "type": "Feature", "properties": {"collection_times": [{"days": "Mon-Fri", "time": "6:00pm"}, {"days": "Sat", "time": "5:00pm"}, {"days": "Sun", "time": "Closed"}], "id": "3150100040", "name": "USPS COLLECTION BOX - BLUE BOX", "address": {"city": "WAYCROSS", "state": "GA", "street": "601 TEBEAU ST", "postcode": "31501"}}},
{"geometry": {"type": "Point", "coordinates": [-82.3609895272, 31.2131126245]}, "type": "Feature", "properties": {"collection_times": [{"days": "Mon-Fri", "time": "6:00pm"}, {"days": "Sat", "time": "5:00pm"}, {"days": "Sun", "time": "Closed"}], "id": "3150100041", "name": "USPS COLLECTION BOX - BLUE BOX", "address": {"city": "WAYCROSS", "state": "GA", "street": "601 TEBEAU ST", "postcode": "31501"}}},
{"geometry": {"type": "Point", "coordinates": [-82.3609895272, 31.2131126245]}, "type": "Feature", "properties": {"collection_times": [{"days": "Mon-Fri", "time": "6:00pm"}, {"days": "Sat", "time": "5:00pm"}, {"days": "Sun", "time": "Closed"}], "id": "3150100042", "name": "USPS COLLECTION BOX - BLUE BOX", "address": {"city": "WAYCROSS", "state": "GA", "street": "601 TEBEAU ST", "postcode": "31501"}}},
{"geometry": {"type": "Point", "coordinates": [-82.355449172, 31.2138314233]}, "type": "Feature", "properties": {"collection_times": [{"days": "Mon-Fri", "time": "2:00pm"}, {"days": "Sat-Sun", "time": "Closed"}], "id": "3150100045", "name": "USPS COLLECTION BOX - BLUE BOX", "address": {"city": "WAYCROSS", "state": "GA", "street": "800 CHURCH ST", "postcode": "31501"}}},
{"geometry": {"type": "Point", "coordinates": [-82.3609895272, 31.2131126245]}, "type": "Feature", "properties": {"collection_times": [{"days": "Mon-Fri", "time": "6:00pm"}, {"days": "Sat", "time": "5:00pm"}, {"days": "Sun", "time": "Closed"}], "id": "3150100058", "name": "USPS COLLECTION BOX - PO LOBBY", "address": {"city": "WAYCROSS", "state": "GA", "street": "601 TEBEAU ST", "postcode": "31501"}}},
{"geometry": {"type": "Point", "coordinates": [-82.3399769356, 31.2084537292]}, "type": "Feature", "properties": {"collection_times": [{"days": "Mon-Fri", "time": "2:00pm"}, {"days": "Sat-Sun", "time": "Closed"}], "id": "3150100069", "name": "USPS COLLECTION BOX - BLUE BOX", "address": {"city": "WAYCROSS", "state": "GA", "street": "1600 MEMORIAL DR", "postcode": "31501"}}},
{"geometry": {"type": "Point", "coordinates": [-82.3580526272, 31.2113188508]}, "type": "Feature", "properties": {"collection_times": [{"days": "Mon-Fri", "time": "3:00pm"}, {"days": "Sat-Sun", "time": "Closed"}], "id": "3150100079", "name": "USPS COLLECTION BOX - BLUE BOX", "address": {"city": "WAYCROSS", "state": "GA", "street": "303 ISABELLA ST", "postcode": "31501"}}},
{"geometry": {"type": "Point", "coordinates": [-82.3226449128, 31.1968087207]}, "type": "Feature", "properties": {"collection_times": [{"days": "Mon-Fri", "time": "2:00pm"}, {"days": "Sat-Sun", "time": "Closed"}], "id": "3150300003", "name": "USPS COLLECTION BOX - BLUE BOX", "address": {"city": "WAYCROSS", "state": "GA", "street": "2425 MEMORIAL DR", "postcode": "31503"}}},
{"geometry": {"type": "Point", "coordinates": [-82.3327841638, 31.2030862365]}, "type": "Feature", "properties": {"collection_times": [{"days": "Mon-Fri", "time": "9:00am"}, {"days": "Sat-Sun", "time": "Closed"}], "id": "3150300011", "name": "USPS COLLECTION BOX - BLUE BOX", "address": {"city": "WAYCROSS", "state": "GA", "street": "1912 MEMORIAL DR", "postcode": "31503"}}},
{"geometry": {"type": "Point", "coordinates": [-82.3221756291, 31.1959422945]}, "type": "Feature", "properties": {"collection_times": [{"days": "Mon-Fri", "time": "2:00pm"}, {"days": "Sat-Sun", "time": "Closed"}], "id": "3150300012", "name": "USPS COLLECTION BOX - BLUE BOX", "address": {"city": "WAYCROSS", "state": "GA", "street": "2496 MEMORIAL DR", "postcode": "31503"}}},
{"geometry": {"type": "Point", "coordinates": [-82.3596045281, 31.1071621652]}, "type": "Feature", "properties": {"collection_times": [{"days": "Mon-Fri", "time": "10:00am"}, {"days": "Sat-Sun", "time": "Closed"}], "id": "3150300015", "name": "USPS COLLECTION BOX - BLUE BOX", "address": {"city": "WAYCROSS", "state": "GA", "street": "1701 BOULEVARD SQ", "postcode": "31503"}}},
{"geometry": {"type": "Point", "coordinates": [-82.4719160713, 31.542443412]}, "type": "Feature", "properties": {"collection_times": [{"days": "Mon-Fri", "time": "4:30pm"}, {"days": "Sat", "time": "12:00pm"}, {"days": "Sun", "time": "Closed"}], "id": "3151000000", "name": "USPS COLLECTION BOX - PO LOBBY", "address": {"city": "ALMA", "state": "GA", "street": "523 W 12TH ST", "postcode": "31510"}}},
{"geometry": {"type": "Point", "coordinates": [-82.4719350938, 31.5423349716]}, "type": "Feature", "properties": {"collection_times": [{"days": "Mon-Fri", "time": "4:30pm"}, {"days": "Sat", "time": "12:00pm"}, {"days": "Sun", "time": "Closed"}], "id": "3151000004", "name": "USPS COLLECTION BOX - BLUE BOX", "address": {"city": "ALMA", "state": "GA", "street": "522 W 12TH ST", "postcode": "31510"}}},
{"geometry": {"type": "Point", "coordinates": [-82.4720899929, 31.5424646777]}, "type": "Feature", "properties": {"collection_times": [{"days": "Mon-Fri", "time": "4:30pm"}, {"days": "Sat", "time": "12:00pm"}, {"days": "Sun", "time": "Closed"}], "id": "3151000005", "name": "USPS COLLECTION BOX - BLUE BOX", "address": {"city": "ALMA", "state": "GA", "street": "527 W 12TH ST", "postcode": "31510"}}},
{"geometry": {"type": "Point", "coordinates": [-83.0141458512, 31.5935632632]}, "type": "Feature", "properties": {"collection_times": [{"days": "Mon-Fri", "time": "12:30pm"}, {"days": "Sat", "time": "11:00am"}, {"days": "Sun", "time": "Closed"}], "id": "3151200000", "name": "USPS COLLECTION BOX - BLUE BOX", "address": {"city": "AMBROSE", "state": "GA", "street": "17 PINE ST", "postcode": "31512"}}},
{"geometry": {"type": "Point", "coordinates": [-83.0141458512, 31.5935632632]}, "type": "Feature", "properties": {"collection_times": [{"days": "Mon-Fri", "time": "12:30pm"}, {"days": "Sat", "time": "11:00am"}, {"days": "Sun", "time": "Closed"}], "id": "3151200001", "name": "USPS COLLECTION BOX - PO LOBBY", "address": {"city": "AMBROSE", "state": "GA", "street": "17 PINE ST", "postcode": "31512"}}},
{"geometry": {"type": "Point", "coordinates": [-82.3459953684, 31.7757343484]}, "type": "Feature", "properties": {"collection_times": [{"days": "Mon-Sat", "time": "4:30pm"}, {"days": "Sun", "time": "Closed"}], "id": "3151300005", "name": "USPS COLLECTION BOX - BLUE BOX", "address": {"city": "BAXLEY", "state": "GA", "street": "125 N OAK ST", "postcode": "31513"}}},
{"geometry": {"type": "Point", "coordinates": [-82.3492392375, 31.7777129642]}, "type": "Feature", "properties": {"collection_times": [{"days": "Mon-Fri", "time": "2:45pm"}, {"days": "Sat", "time": "1:15pm"}, {"days": "Sun", "time": "Closed"}], "id": "3151300006", "name": "USPS COLLECTION BOX - BLUE BOX", "address": {"city": "BAXLEY", "state": "GA", "street": "69 TIPPINS ST", "postcode": "31513"}}},
{"geometry": {"type": "Point", "coordinates": [-82.3459953684, 31.7757343484]}, "type": "Feature", "properties": {"collection_times": [{"days": "Mon-Fri", "time": "5:00pm"}, {"days": "Sat", "time": "4:30pm"}, {"days": "Sun", "time": "Closed"}], "id": "3151300008", "name": "USPS COLLECTION BOX - PO LOBBY", "address": {"city": "BAXLEY", "state": "GA", "street": "125 N OAK ST", "postcode": "31513"}}},
{"geometry": {"type": "Point", "coordinates": [-82.3459953684, 31.7757343484]}, "type": "Feature", "properties": {"collection_times": [{"days": "Mon-Sat", "time": "4:30pm"}, {"days": "Sun", "time": "Closed"}], "id": "3151300010", "name": "USPS COLLECTION BOX - BLUE BOX", "address": {"city": "BAXLEY", "state": "GA", "street": "125 N OAK ST", "postcode": "31513"}}},
{"geometry": {"type": "Point", "coordinates": [-82.2819776613, 31.2709285827]}, "type": "Feature", "properties": {"collection_times": [{"days": "Mon-Fri", "time": "12:00pm"}, {"days": "Sat", "time": "10:00am"}, {"days": "Sun", "time": "Closed"}], "id": "3151600002", "name": "USPS COLLECTION BOX - BLUE BOX", "address": {"city": "BLACKSHEAR", "state": "GA", "street": "3503 US HIGHWAY 84", "postcode": "31516"}}},
{"geometry": {"type": "Point", "coordinates": [-82.2398187034, 31.3036381976]}, "type": "Feature", "properties": {"collection_times": [{"days": "Mon-Fri", "time": "5:00pm"}, {"days": "Sat", "time": "12:00pm"}, {"days": "Sun", "time": "Closed"}], "id": "3151600004", "name": "USPS COLLECTION BOX - BLUE BOX", "address": {"city": "BLACKSHEAR", "state": "GA", "street": "327 MAIN ST", "postcode": "31516"}}},
{"geometry": {"type": "Point", "coordinates": [-82.2398187034, 31.3036381976]}, "type": "Feature", "properties": {"collection_times": [{"days": "Mon-Fri", "time": "5:00pm"}, {"days": "Sat", "time": "12:00pm"}, {"days": "Sun", "time": "Closed"}], "id": "3151600006", "name": "USPS COLLECTION BOX - BLUE BOX", "address": {"city": "BLACKSHEAR", "state": "GA", "street": "327 MAIN ST", "postcode": "31516"}}},
{"geometry": {"type": "Point", "coordinates": [-82.2398187034, 31.3036381976]}, "type": "Feature", "properties": {"collection_times": [{"days": "Mon-Fri", "time": "5:00pm"}, {"days": "Sat", "time": "12:00pm"}, {"days": "Sun", "time": "Closed"}], "id": "3151600011", "name": "USPS COLLECTION BOX - PO LOBBY", "address": {"city": "BLACKSHEAR", "state": "GA", "street": "327 MAIN ST", "postcode": "31516"}}},
{"geometry": {"type": "Point", "coordinates": [-82.2041148085, 31.4891894354]}, "type": "Feature", "properties": {"collection_times": [{"days": "Mon-Fri", "time": "3:30pm"}, {"days": "Sat", "time": "10:45am"}, {"days": "Sun", "time": "Closed"}], "id": "3151800001", "name": "USPS COLLECTION BOX - BLUE BOX", "address": {"city": "BRISTOL", "state": "GA", "street": "1983 GA HIGHWAY 121", "postcode": "31518"}}},
{"geometry": {"type": "Point", "coordinates": [-82.2041148085, 31.4891894354]}, "type": "Feature", "properties": {"collection_times": [{"days": "Mon-Fri", "time": "3:30pm"}, {"days": "Sat", "time": "10:45am"}, {"days": "Sun", "time": "Closed"}], "id": "3151800002", "name": "USPS COLLECTION BOX - PO LOBBY", "address": {"city": "BRISTOL", "state": "GA", "street": "1983 GA HIGHWAY 121", "postcode": "31518"}}},
{"geometry": {"type": "Point", "coordinates": [-82.8866310712, 31.6254911478]}, "type": "Feature", "properties": {"collection_times": [{"days": "Mon-Fri", "time": "4:00pm"}, {"days": "Sat", "time": "11:30am"}, {"days": "Sun", "time": "Closed"}], "id": "3151900001", "name": "USPS COLLECTION BOX - BLUE BOX", "address": {"city": "BROXTON", "state": "GA", "street": "200 OCMULGEE ST E", "postcode": "31519"}}},
{"geometry": {"type": "Point", "coordinates": [-82.8866310712, 31.6254911478]}, "type": "Feature", "properties": {"collection_times": [{"days": "Mon-Fri", "time": "4:00pm"}, {"days": "Sat", "time": "11:30am"}, {"days": "Sun", "time": "Closed"}], "id": "3151900003", "name": "USPS COLLECTION BOX - PO LOBBY", "address": {"city": "BROXTON", "state": "GA", "street": "200 OCMULGEE ST E", "postcode": "31519"}}},
{"geometry": {"type": "Point", "coordinates": [-81.4925826782, 31.1498603156]}, "type": "Feature", "properties": {"collection_times": [{"days": "Mon-Sat", "time": "5:00pm"}, {"days": "Sun", "time": "Closed"}], "id": "3152000003", "name": "USPS COLLECTION BOX - BLUE BOX", "address": {"city": "BRUNSWICK", "state": "GA", "street": "1500 ELLIS ST", "postcode": "31520"}}},
{"geometry": {"type": "Point", "coordinates": [-81.486106551, 31.1516144519]}, "type": "Feature", "properties": {"collection_times": [{"days": "Mon-Fri", "time": "1:30pm"}, {"days": "Sat", "time": "1:00pm"}, {"days": "Sun", "time": "Closed"}], "id": "3152000014", "name": "USPS COLLECTION BOX - BLUE BOX", "address": {"city": "BRUNSWICK", "state": "GA", "street": "1703 GLOUCESTER ST", "postcode": "31520"}}},
{"geometry": {"type": "Point", "coordinates": [-81.4948208995, 31.1478110087]}, "type": "Feature", "properties": {"collection_times": [{"days": "Mon-Fri", "time": "1:30pm"}, {"days": "Sat", "time": "2:00pm"}, {"days": "Sun", "time": "Closed"}], "id": "3152000021", "name": "USPS COLLECTION BOX - BLUE BOX", "address": {"city": "BRUNSWICK", "state": "GA", "street": "1400 NEWCASTLE ST", "postcode": "31520"}}},
{"geometry": {"type": "Point", "coordinates": [-81.4957518386, 31.1504930939]}, "type": "Feature", "properties": {"collection_times": [{"days": "Mon-Fri", "time": "1:30pm"}, {"days": "Sat", "time": "2:00pm"}, {"days": "Sun", "time": "Closed"}], "id": "3152000024", "name": "USPS COLLECTION BOX - BLUE BOX", "address": {"city": "BRUNSWICK", "state": "GA", "street": "1600 NEWCASTLE ST", "postcode": "31520"}}},
{"geometry": {"type": "Point", "coordinates": [-81.4730531505, 31.1446765726]}, "type": "Feature", "properties": {"collection_times": [{"days": "Mon-Fri", "time": "1:30pm"}, {"days": "Sat", "time": "9:30am"}, {"days": "Sun", "time": "Closed"}], "id": "3152000026", "name": "USPS COLLECTION BOX - BLUE BOX", "address": {"city": "BRUNSWICK", "state": "GA", "street": "1 COLLEGE DR", "postcode": "31520"}}},
{"geometry": {"type": "Point", "coordinates": [-81.4863692259, 31.1912554208]}, "type": "Feature", "properties": {"collection_times": [{"days": "Mon-Fri", "time": "1:30pm"}, {"days": "Sat", "time": "10:30am"}, {"days": "Sun", "time": "Closed"}], "id": "3152000030", "name": "USPS COLLECTION BOX - BLUE BOX", "address": {"city": "BRUNSWICK", "state": "GA", "street": "4420 ALTAMA AVE", "postcode": "31520"}}},
{"geometry": {"type": "Point", "coordinates": [-81.4863692259, 31.1912554208]}, "type": "Feature", "properties": {"collection_times": [{"days": "Mon-Fri", "time": "1:30pm"}, {"days": "Sat", "time": "10:30am"}, {"days": "Sun", "time": "Closed"}], "id": "3152000032", "name": "USPS COLLECTION BOX - BLUE BOX", "address": {"city": "BRUNSWICK", "state": "GA", "street": "4420 ALTAMA AVE", "postcode": "31520"}}},
{"geometry": {"type": "Point", "coordinates": [-81.4822911392, 31.1736647785]}, "type": "Feature", "properties": {"collection_times": [{"days": "Mon-Fri", "time": "1:30pm"}, {"days": "Sat", "time": "10:00am"}, {"days": "Sun", "time": "Closed"}], "id": "3152000058", "name": "USPS COLLECTION BOX - BLUE BOX", "address": {"city": "BRUNSWICK", "state": "GA", "street": "3010 SHRINE RD", "postcode": "31520"}}},
{"geometry": {"type": "Point", "coordinates": [-81.4730531505, 31.1446765726]}, "type": "Feature", "properties": {"collection_times": [{"days": "Mon-Fri", "time": "1:30pm"}, {"days": "Sat", "time": "11:00am"}, {"days": "Sun", "time": "Closed"}], "id": "3152000066", "name": "USPS COLLECTION BOX - BLUE BOX", "address": {"city": "BRUNSWICK", "state": "GA", "street": "99 KEY DR", "postcode": "31520"}}},
{"geometry": {"type": "Point", "coordinates": [-81.4926149377, 31.1498648606]}, "type": "Feature", "properties": {"collection_times": [{"days": "Mon-Sat", "time": "5:00pm"}, {"days": "Sun", "time": "Closed"}], "id": "3152000081", "name": "USPS COLLECTION BOX - PO LOBBY", "address": {"city": "BRUNSWICK", "state": "GA", "street": "805 GLOUCESTER ST", "postcode": "31520"}}},
{"geometry": {"type": "Point", "coordinates": [-81.4925826782, 31.1498603156]}, "type": "Feature", "properties": {"collection_times": [{"days": "Mon-Sat", "time": "5:00pm"}, {"days": "Sun", "time": "Closed"}], "id": "3152000087", "name": "USPS COLLECTION BOX - BLUE BOX", "address": {"city": "BRUNSWICK", "state": "GA", "street": "1500 ELLIS ST", "postcode": "31520"}}},
{"geometry": {"type": "Point", "coordinates": [-81.4730531505, 31.1446765726]}, "type": "Feature", "properties": {"collection_times": [{"days": "Mon-Fri", "time": "1:30pm"}, {"days": "Sat", "time": "10:00am"}, {"days": "Sun", "time": "Closed"}], "id": "3152000091", "name": "USPS COLLECTION BOX - BLUE BOX", "address": {"city": "BRUNSWICK", "state": "GA", "street": "134 JUNIPER CIR", "postcode": "31520"}}},
{"geometry": {"type": "Point", "coordinates": [-81.3899510422, 31.1578654159]}, "type": "Feature", "properties": {"collection_times": [{"days": "Mon-Fri", "time": "4:15pm"}, {"days": "Sat", "time": "3:00pm"}, {"days": "Sun", "time": "Closed"}], "id": "3152200000", "name": "USPS COLLECTION BOX - BLUE BOX", "address": {"city": "BRUNSWICK", "state": "GA", "street": "200 RETREAT PL", "postcode": "31522"}}},
{"geometry": {"type": "Point", "coordinates": [-81.3944398676, 31.136427414]}, "type": "Feature", "properties": {"collection_times": [{"days": "Mon-Fri", "time": "4:30pm"}, {"days": "Sat", "time": "1:45pm"}, {"days": "Sun", "time": "Closed"}], "id": "3152200002", "name": "USPS COLLECTION BOX - BLUE BOX", "address": {"city": "BRUNSWICK", "state": "GA", "street": "520 OCEAN BLVD", "postcode": "31522"}}},
{"geometry": {"type": "Point", "coordinates": [-81.386920677, 31.1638835259]}, "type": "Feature", "properties": {"collection_times": [{"days": "Mon-Sat", "time": "5:00pm"}, {"days": "Sun", "time": "Closed"}], "id": "3152200004", "name": "USPS COLLECTION BOX - BLUE BOX", "address": {"city": "BRUNSWICK", "state": "GA", "street": "1705 FREDERICA RD", "postcode": "31522"}}},
{"geometry": {"type": "Point", "coordinates": [-81.386920677, 31.1638835259]}, "type": "Feature", "properties": {"collection_times": [{"days": "Mon-Sat", "time": "5:00pm"}, {"days": "Sun", "time": "Closed"}], "id": "3152200005", "name": "USPS COLLECTION BOX - BLUE BOX", "address": {"city": "BRUNSWICK", "state": "GA", "street": "1705 FREDERICA RD", "postcode": "31522"}}},
{"geometry": {"type": "Point", "coordinates": [-81.3770442661, 31.1863541722]}, "type": "Feature", "properties": {"collection_times": [{"days": "Mon-Fri", "time": "4:15pm"}, {"days": "Sat", "time": "2:45pm"}, {"days": "Sun", "time": "Closed"}], "id": "3152200013", "name": "USPS COLLECTION BOX - BLUE BOX", "address": {"city": "BRUNSWICK", "state": "GA", "street": "3415 FREDERICA RD", "postcode": "31522"}}},
{"geometry": {"type": "Point", "coordinates": [-81.3941160048, 31.1613740947]}, "type": "Feature", "properties": {"collection_times": [{"days": "Mon-Sat", "time": "2:00pm"}, {"days": "Sun", "time": "Closed"}], "id": "3152200022", "name": "USPS COLLECTION BOX - BLUE BOX", "address": {"city": "BRUNSWICK", "state": "GA", "street": "2500 DEMERE RD", "postcode": "31522"}}},
{"geometry": {"type": "Point", "coordinates": [-81.370034988, 31.2036749639]}, "type": "Feature", "properties": {"collection_times": [{"days": "Mon-Sat", "time": "11:15am"}, {"days": "Sun", "time": "Closed"}], "id": "3152200023", "name": "USPS COLLECTION BOX - BLUE BOX", "address": {"city": "BRUNSWICK", "state": "GA", "street": "101 LINKSIDE DR", "postcode": "31522"}}},
{"geometry": {"type": "Point", "coordinates": [-81.3897751903, 31.1451305126]}, "type": "Feature", "properties": {"collection_times": [{"days": "Mon-Sat", "time": "1:00pm"}, {"days": "Sun", "time": "Closed"}], "id": "3152200024", "name": "USPS COLLECTION BOX - BLUE BOX", "address": {"city": "BRUNSWICK", "state": "GA", "street": "803 MALLERY ST", "postcode": "31522"}}},
{"geometry": {"type": "Point", "coordinates": [-81.6201812512, 31.1319258907]}, "type": "Feature", "properties": {"collection_times": [{"days": "Mon-Sat", "time": "2:30pm"}, {"days": "Sun", "time": "Closed"}], "id": "3152200026", "name": "USPS COLLECTION BOX - BLUE BOX", "address": {"city": "BRUNSWICK", "state": "GA", "street": "100 ARTHUR MOORE DR", "postcode": "31522"}}},
{"geometry": {"type": "Point", "coordinates": [-81.3827289991, 31.184600296]}, "type": "Feature", "properties": {"collection_times": [{"days": "Mon-Fri", "time": "4:15pm"}, {"days": "Sat", "time": "2:45pm"}, {"days": "Sun", "time": "Closed"}], "id": "3152200027", "name": "USPS COLLECTION BOX - BLUE BOX", "address": {"city": "BRUNSWICK", "state": "GA", "street": "600 SEA ISLAND RD", "postcode": "31522"}}},
{"geometry": {"type": "Point", "coordinates": [-81.386920677, 31.1638835259]}, "type": "Feature", "properties": {"collection_times": [{"days": "Mon-Sat", "time": "5:15pm"}, {"days": "Sun", "time": "Closed"}], "id": "3152200029", "name": "USPS COLLECTION BOX - PO LOBBY", "address": {"city": "BRUNSWICK", "state": "GA", "street": "1705 FREDERICA RD", "postcode": "31522"}}},
{"geometry": {"type": "Point", "coordinates": [-81.306848299, 31.2552051219]}, "type": "Feature", "properties": {"collection_times": [{"days": "Mon-Fri", "time": "4:15pm"}, {"days": "Sat", "time": "2:30pm"}, {"days": "Sun", "time": "Closed"}], "id": "3152200030", "name": "USPS COLLECTION BOX - BLUE BOX", "address": {"city": "BRUNSWICK", "state": "GA", "street": "100 MAIN ST", "postcode": "31522"}}},
{"geometry": {"type": "Point", "coordinates": [-81.3907888854, 31.1450316068]}, "type": "Feature", "properties": {"collection_times": [{"days": "Mon-Fri", "time": "4:30pm"}, {"days": "Sat", "time": "1:45pm"}, {"days": "Sun", "time": "Closed"}], "id": "3152200031", "name": "USPS COLLECTION BOX - BLUE BOX", "address": {"city": "BRUNSWICK", "state": "GA", "street": "201 MALLERY ST", "postcode": "31522"}}},
{"geometry": {"type": "Point", "coordinates": [-81.3750635165, 31.1833385139]}, "type": "Feature", "properties": {"collection_times": [{"days": "Mon-Fri", "time": "4:00pm"}, {"days": "Sat", "time": "12:00pm"}, {"days": "Sun", "time": "Closed"}], "id": "3152200034", "name": "USPS COLLECTION BOX - BLUE BOX", "address": {"city": "BRUNSWICK", "state": "GA", "street": "351 SEA ISLAND RD STE 104", "postcode": "31522"}}},
{"geometry": {"type": "Point", "coordinates": [-81.5284133068, 31.2269702513]}, "type": "Feature", "properties": {"collection_times": [{"days": "Mon-Fri", "time": "1:30pm"}, {"days": "Sat", "time": "12:30pm"}, {"days": "Sun", "time": "Closed"}], "id": "3152300000", "name": "USPS COLLECTION BOX - BLUE BOX", "address": {"city": "BRUNSWICK", "state": "GA", "street": "5420 NEW JESUP HWY", "postcode": "31523"}}},
{"geometry": {"type": "Point", "coordinates": [-81.5284133068, 31.2269702513]}, "type": "Feature", "properties": {"collection_times": [{"days": "Mon-Fri", "time": "1:30pm"}, {"days": "Sat", "time": "12:30pm"}, {"days": "Sun", "time": "Closed"}], "id": "3152300001", "name": "USPS COLLECTION BOX - BLUE BOX", "address": {"city": "BRUNSWICK", "state": "GA", "street": "5420 NEW JESUP HWY", "postcode": "31523"}}},
{"geometry": {"type": "Point", "coordinates": [-81.579841693, 31.139867912]}, "type": "Feature", "properties": {"collection_times": [{"days": "Mon-Sat", "time": "11:30am"}, {"days": "Sun", "time": "Closed"}], "id": "3152300007", "name": "USPS COLLECTION BOX - BLUE BOX", "address": {"city": "BRUNSWICK", "state": "GA", "street": "2990 US HIGHWAY 17 S", "postcode": "31523"}}},
{"geometry": {"type": "Point", "coordinates": [-81.6330079688, 31.2214046464]}, "type": "Feature", "properties": {"collection_times": [{"days": "Mon-Sat", "time": "11:30am"}, {"days": "Sun", "time": "Closed"}], "id": "3152300008", "name": "USPS COLLECTION BOX - BLUE BOX", "address": {"city": "BRUNSWICK", "state": "GA", "street": "284 HYDE PARK CMNS", "postcode": "31523"}}},
{"geometry": {"type": "Point", "coordinates": [-81.4812354514, 31.2485672143]}, "type": "Feature", "properties": {"collection_times": [{"days": "Mon-Fri", "time": "3:30pm"}, {"days": "Sat", "time": "1:00pm"}, {"days": "Sun", "time": "Closed"}], "id": "3152400001", "name": "USPS COLLECTION BOX - BLUE BOX", "address": {"city": "BRUNSWICK", "state": "GA", "street": "#741 BUILDING (OUTSIDE FLETCH CPU)", "postcode": "31524"}}},
{"geometry": {"type": "Point", "coordinates": [-81.4834125129, 31.2034639234]}, "type": "Feature", "properties": {"collection_times": [{"days": "Mon-Fri", "time": "1:30pm"}, {"days": "Sat", "time": "11:00am"}, {"days": "Sun", "time": "Closed"}], "id": "3152500001", "name": "USPS COLLECTION BOX - BLUE BOX", "address": {"city": "BRUNSWICK", "state": "GA", "street": "4999 ALTAMA AVE", "postcode": "31525"}}},
{"geometry": {"type": "Point", "coordinates": [-81.4892164258, 31.2145587533]}, "type": "Feature", "properties": {"collection_times": [{"days": "Mon-Fri", "time": "1:30pm"}, {"days": "Sat", "time": "1:00pm"}, {"days": "Sun", "time": "Closed"}], "id": "3152500003", "name": "USPS COLLECTION BOX - BLUE BOX", "address": {"city": "BRUNSWICK", "state": "GA", "street": "100 MALL BLVD", "postcode": "31525"}}},
{"geometry": {"type": "Point", "coordinates": [-81.4892164258, 31.2145587533]}, "type": "Feature", "properties": {"collection_times": [{"days": "Mon-Fri", "time": "1:30pm"}, {"days": "Sat", "time": "1:00pm"}, {"days": "Sun", "time": "Closed"}], "id": "3152500004", "name": "USPS COLLECTION BOX - BLUE BOX", "address": {"city": "BRUNSWICK", "state": "GA", "street": "100 MALL BLVD", "postcode": "31525"}}},
{"geometry": {"type": "Point", "coordinates": [-81.4892164258, 31.2145587533]}, "type": "Feature", "properties": {"collection_times": [{"days": "Mon-Fri", "time": "1:30pm"}, {"days": "Sat", "time": "1:00pm"}, {"days": "Sun", "time": "Closed"}], "id": "3152500006", "name": "USPS COLLECTION BOX - BLUE BOX", "address": {"city": "BRUNSWICK", "state": "GA", "street": "100 MALL BLVD", "postcode": "31525"}}},
{"geometry": {"type": "Point", "coordinates": [-81.4892164258, 31.2145587533]}, "type": "Feature", "properties": {"collection_times": [{"days": "Mon-Fri", "time": "1:30pm"}, {"days": "Sat", "time": "1:00pm"}, {"days": "Sun", "time": "Closed"}], "id": "3152500007", "name": "USPS COLLECTION BOX - BLUE BOX", "address": {"city": "BRUNSWICK", "state": "GA", "street": "100 MALL BLVD", "postcode": "31525"}}},
{"geometry": {"type": "Point", "coordinates": [-81.475725994, 31.2127215514]}, "type": "Feature", "properties": {"collection_times": [{"days": "Mon-Sat", "time": "11:00am"}, {"days": "Sun", "time": "Closed"}], "id": "3152500023", "name": "USPS COLLECTION BOX - BLUE BOX", "address": {"city": "BRUNSWICK", "state": "GA", "street": "171 VILLAGE AT GLYNN PL STE 100", "postcode": "31525"}}},
{"geometry": {"type": "Point", "coordinates": [-81.4999624813, 31.2377112988]}, "type": "Feature", "properties": {"collection_times": [{"days": "Mon-Fri", "time": "1:30pm"}, {"days": "Sat", "time": "12:00pm"}, {"days": "Sun", "time": "Closed"}], "id": "3152500029", "name": "USPS COLLECTION BOX - BLUE BOX", "address": {"city": "BRUNSWICK", "state": "GA", "street": "1111 GLYNCO PKWY", "postcode": "31525"}}},
{"geometry": {"type": "Point", "coordinates": [-81.4999624813, 31.2377112988]}, "type": "Feature", "properties": {"collection_times": [{"days": "Mon-Fri", "time": "1:30pm"}, {"days": "Sat", "time": "12:00pm"}, {"days": "Sun", "time": "Closed"}], "id": "3152500030", "name": "USPS COLLECTION BOX - BLUE BOX", "address": {"city": "BRUNSWICK", "state": "GA", "street": "1111 GLYNCO PKWY", "postcode": "31525"}}},
{"geometry": {"type": "Point", "coordinates": [-81.5059580377, 31.2445414432]}, "type": "Feature", "properties": {"collection_times": [{"days": "Mon-Fri", "time": "1:30pm"}, {"days": "Sat", "time": "12:00pm"}, {"days": "Sun", "time": "Closed"}], "id": "3152500032", "name": "USPS COLLECTION BOX - BLUE BOX", "address": {"city": "BRUNSWICK", "state": "GA", "street": "301 VENTURE DR", "postcode": "31525"}}},
{"geometry": {"type": "Point", "coordinates": [-81.4057957392, 31.0618921106]}, "type": "Feature", "properties": {"collection_times": [{"days": "Mon-Fri", "time": "3:00pm"}, {"days": "Sat", "time": "2:30pm"}, {"days": "Sun", "time": "Closed"}], "id": "3152700000", "name": "USPS COLLECTION BOX - BLUE BOX", "address": {"city": "BRUNSWICK", "state": "GA", "street": "511 N BEACHVIEW DR", "postcode": "31527"}}},
{"geometry": {"type": "Point", "coordinates": [-81.4051029862, 31.067191117]}, "type": "Feature", "properties": {"collection_times": [{"days": "Mon-Sat", "time": "10:00am"}, {"days": "Sun", "time": "Closed"}], "id": "3152700001", "name": "USPS COLLECTION BOX - BLUE BOX", "address": {"city": "BRUNSWICK", "state": "GA", "street": "711 N BEACHVIEW DR", "postcode": "31527"}}},
{"geometry": {"type": "Point", "coordinates": [-81.4041846499, 31.1012560671]}, "type": "Feature", "properties": {"collection_times": [{"days": "Mon-Sat", "time": "10:00am"}, {"days": "Sun", "time": "Closed"}], "id": "3152700002", "name": "USPS COLLECTION BOX - BLUE BOX", "address": {"city": "BRUNSWICK", "state": "GA", "street": "1197 RIVERVIEW DR", "postcode": "31527"}}},
{"geometry": {"type": "Point", "coordinates": [-82.6970761406, 31.7209783146]}, "type": "Feature", "properties": {"collection_times": [{"days": "Mon-Fri", "time": "12:30pm"}, {"days": "Sat", "time": "11:30am"}, {"days": "Sun", "time": "Closed"}], "id": "3153200001", "name": "USPS COLLECTION BOX - BLUE BOX", "address": {"city": "DENTON", "state": "GA", "street": "5 E GEORGIA AVE", "postcode": "31532"}}},
{"geometry": {"type": "Point", "coordinates": [-82.8634114986, 31.5092943767]}, "type": "Feature", "properties": {"collection_times": [{"days": "Mon-Sat", "time": "12:00pm"}, {"days": "Sun", "time": "Closed"}], "id": "3153300004", "name": "USPS COLLECTION BOX - BLUE BOX", "address": {"city": "DOUGLAS", "state": "GA", "street": "1002 WARD ST W", "postcode": "31533"}}},
{"geometry": {"type": "Point", "coordinates": [-82.8491953651, 31.5220133521]}, "type": "Feature", "properties": {"collection_times": [{"days": "Mon-Fri", "time": "11:00am"}, {"days": "Sat", "time": "10:30am"}, {"days": "Sun", "time": "Closed"}], "id": "3153300013", "name": "USPS COLLECTION BOX - BLUE BOX", "address": {"city": "DOUGLAS", "state": "GA", "street": "1300 MADISON AVE S", "postcode": "31533"}}},
{"geometry": {"type": "Point", "coordinates": [-82.849334245, 31.5141537167]}, "type": "Feature", "properties": {"collection_times": [{"days": "Mon-Fri", "time": "5:00pm"}, {"days": "Sat", "time": "4:00pm"}, {"days": "Sun", "time": "Closed"}], "id": "3153300018", "name": "USPS COLLECTION BOX - BLUE BOX", "address": {"city": "DOUGLAS", "state": "GA", "street": "600 MADISON AVE S", "postcode": "31533"}}},
{"geometry": {"type": "Point", "coordinates": [-82.849334245, 31.5141537167]}, "type": "Feature", "properties": {"collection_times": [{"days": "Mon-Fri", "time": "5:00pm"}, {"days": "Sat", "time": "4:00pm"}, {"days": "Sun", "time": "Closed"}], "id": "3153300027", "name": "USPS COLLECTION BOX - PO LOBBY", "address": {"city": "DOUGLAS", "state": "GA", "street": "600 MADISON AVE S", "postcode": "31533"}}},
{"geometry": {"type": "Point", "coordinates": [-82.0011870261, 30.8439202911]}, "type": "Feature", "properties": {"collection_times": [{"days": "Mon-Fri", "time": "5:00pm"}, {"days": "Sat", "time": "12:00pm"}, {"days": "Sun", "time": "Closed"}], "id": "3153700002", "name": "USPS COLLECTION BOX - BLUE BOX", "address": {"city": "FOLKSTON", "state": "GA", "street": "3845 MAIN ST", "postcode": "31537"}}},
{"geometry": {"type": "Point", "coordinates": [-82.0011870261, 30.8439202911]}, "type": "Feature", "properties": {"collection_times": [{"days": "Mon-Fri", "time": "5:00pm"}, {"days": "Sat", "time": "12:00pm"}, {"days": "Sun", "time": "Closed"}], "id": "3153700003", "name": "USPS COLLECTION BOX - BLUE BOX", "address": {"city": "FOLKSTON", "state": "GA", "street": "3845 MAIN ST", "postcode": "31537"}}},
{"geometry": {"type": "Point", "coordinates": [-82.0011870261, 30.8439202911]}, "type": "Feature", "properties": {"collection_times": [{"days": "Mon-Fri", "time": "5:00pm"}, {"days": "Sat", "time": "12:00pm"}, {"days": "Sun", "time": "Closed"}], "id": "3153700005", "name": "USPS COLLECTION BOX - PO LOBBY", "address": {"city": "FOLKSTON", "state": "GA", "street": "3845 MAIN ST", "postcode": "31537"}}},
{"geometry": {"type": "Point", "coordinates": [-82.5965733085, 31.8653438325]}, "type": "Feature", "properties": {"collection_times": [{"days": "Mon-Fri", "time": "4:30pm"}, {"days": "Sat", "time": "12:00pm"}, {"days": "Sun", "time": "Closed"}], "id": "3153900004", "name": "USPS COLLECTION BOX - BLUE BOX", "address": {"city": "HAZLEHURST", "state": "GA", "street": "25 S CROMARTIE ST", "postcode": "31539"}}},
{"geometry": {"type": "Point", "coordinates": [-82.6011819559, 31.863426482]}, "type": "Feature", "properties": {"collection_times": [{"days": "Mon-Fri", "time": "3:30pm"}, {"days": "Sat-Sun", "time": "Closed"}], "id": "3153900011", "name": "USPS COLLECTION BOX - BLUE BOX", "address": {"city": "HAZLEHURST", "state": "GA", "street": "14 JEFF DAVIS ST", "postcode": "31539"}}},
{"geometry": {"type": "Point", "coordinates": [-82.5965733085, 31.8653438325]}, "type": "Feature", "properties": {"collection_times": [{"days": "Mon-Fri", "time": "4:30pm"}, {"days": "Sat", "time": "12:00pm"}, {"days": "Sun", "time": "Closed"}], "id": "3153900012", "name": "USPS COLLECTION BOX - BLUE BOX", "address": {"city": "HAZLEHURST", "state": "GA", "street": "25 S CROMARTIE ST", "postcode": "31539"}}},
{"geometry": {"type": "Point", "coordinates": [-82.5965733085, 31.8653438325]}, "type": "Feature", "properties": {"collection_times": [{"days": "Mon-Fri", "time": "4:30pm"}, {"days": "Sat", "time": "12:00pm"}, {"days": "Sun", "time": "Closed"}], "id": "3153900013", "name": "USPS COLLECTION BOX - PO LOBBY", "address": {"city": "HAZLEHURST", "state": "GA", "street": "25 S CROMARTIE ST", "postcode": "31539"}}},
{"geometry": {"type": "Point", "coordinates": [-82.1241619813, 31.1452136294]}, "type": "Feature", "properties": {"collection_times": [{"days": "Mon-Fri", "time": "3:00pm"}, {"days": "Sat", "time": "10:30am"}, {"days": "Sun", "time": "Closed"}], "id": "3154200001", "name": "USPS COLLECTION BOX - BLUE BOX", "address": {"city": "HOBOKEN", "state": "GA", "street": "4850 MAIN ST E", "postcode": "31542"}}},
{"geometry": {"type": "Point", "coordinates": [-82.1241619813, 31.1452136294]}, "type": "Feature", "properties": {"collection_times": [{"days": "Mon-Fri", "time": "3:00pm"}, {"days": "Sat", "time": "10:30am"}, {"days": "Sun", "time": "Closed"}], "id": "3154200002", "name": "USPS COLLECTION BOX - PO LOBBY", "address": {"city": "HOBOKEN", "state": "GA", "street": "4850 MAIN ST E", "postcode": "31542"}}},
{"geometry": {"type": "Point", "coordinates": [-81.94689916, 31.3196689795]}, "type": "Feature", "properties": {"collection_times": [{"days": "Mon-Fri", "time": "4:30pm"}, {"days": "Sat", "time": "10:00am"}, {"days": "Sun", "time": "Closed"}], "id": "3154300001", "name": "USPS COLLECTION BOX - BLUE BOX", "address": {"city": "HORTENSE", "state": "GA", "street": "4779 HIGHWAY 32 W", "postcode": "31543"}}},
{"geometry": {"type": "Point", "coordinates": [-81.94689916, 31.3196689795]}, "type": "Feature", "properties": {"collection_times": [{"days": "Mon-Fri", "time": "4:30pm"}, {"days": "Sat", "time": "10:00am"}, {"days": "Sun", "time": "Closed"}], "id": "3154300002", "name": "USPS COLLECTION BOX - PO LOBBY", "address": {"city": "HORTENSE", "state": "GA", "street": "4779 HIGHWAY 32 W", "postcode": "31543"}}},
{"geometry": {"type": "Point", "coordinates": [-82.9510645417, 31.8369654362]}, "type": "Feature", "properties": {"collection_times": [{"days": "Mon-Fri", "time": "12:30pm"}, {"days": "Sat", "time": "11:00am"}, {"days": "Sun", "time": "Closed"}], "id": "3154400001", "name": "USPS COLLECTION BOX - BLUE BOX", "address": {"city": "JACKSONVILLE", "state": "GA", "street": "16 WATER TOWER RD", "postcode": "31544"}}},
{"geometry": {"type": "Point", "coordinates": [-82.9510645417, 31.8369654362]}, "type": "Feature", "properties": {"collection_times": [{"days": "Mon-Fri", "time": "12:00pm"}, {"days": "Sat", "time": "11:00am"}, {"days": "Sun", "time": "Closed"}], "id": "3154400002", "name": "USPS COLLECTION BOX - PO LOBBY", "address": {"city": "JACKSONVILLE", "state": "GA", "street": "16 WATER TOWER RD", "postcode": "31544"}}},
{"geometry": {"type": "Point", "coordinates": [-81.9057081562, 31.6042943645]}, "type": "Feature", "properties": {"collection_times": [{"days": "Mon-Fri", "time": "2:00pm"}, {"days": "Sat", "time": "12:00pm"}, {"days": "Sun", "time": "Closed"}], "id": "3154500010", "name": "USPS COLLECTION BOX - BLUE BOX", "address": {"city": "JESUP", "state": "GA", "street": "955 S 1ST ST", "postcode": "31545"}}},
{"geometry": {"type": "Point", "coordinates": [-81.8860122315, 31.6067670138]}, "type": "Feature", "properties": {"collection_times": [{"days": "Mon-Fri", "time": "3:00pm"}, {"days": "Sat-Sun", "time": "Closed"}], "id": "3154500023", "name": "USPS COLLECTION BOX - BLUE BOX", "address": {"city": "JESUP", "state": "GA", "street": "150 S 1ST ST", "postcode": "31545"}}},
{"geometry": {"type": "Point", "coordinates": [-81.87692068, 31.6145596803]}, "type": "Feature", "properties": {"collection_times": [{"days": "Mon-Sat", "time": "12:00pm"}, {"days": "Sun", "time": "Closed"}], "id": "3154500028", "name": "USPS COLLECTION BOX - BLUE BOX", "address": {"city": "JESUP", "state": "GA", "street": "1100 N 1ST ST", "postcode": "31545"}}},
{"geometry": {"type": "Point", "coordinates": [-81.9029537979, 31.6182332094]}, "type": "Feature", "properties": {"collection_times": [{"days": "Mon-Sat", "time": "12:00pm"}, {"days": "Sun", "time": "Closed"}], "id": "3154500029", "name": "USPS COLLECTION BOX - BLUE BOX", "address": {"city": "JESUP", "state": "GA", "street": "1502 W ORANGE ST", "postcode": "31545"}}},
{"geometry": {"type": "Point", "coordinates": [-81.8773679401, 31.6025424247]}, "type": "Feature", "properties": {"collection_times": [{"days": "Mon-Fri", "time": "5:00pm"}, {"days": "Sat", "time": "4:00pm"}, {"days": "Sun", "time": "Closed"}], "id": "3154600005", "name": "USPS COLLECTION BOX - PO LOBBY", "address": {"city": "JESUP", "state": "GA", "street": "405 E WALNUT ST", "postcode": "31546"}}},
{"geometry": {"type": "Point", "coordinates": [-81.8773679401, 31.6025424247]}, "type": "Feature", "properties": {"collection_times": [{"days": "Mon-Fri", "time": "5:00pm"}, {"days": "Sat", "time": "4:00pm"}, {"days": "Sun", "time": "Closed"}], "id": "3154600006", "name": "USPS COLLECTION BOX - BLUE BOX", "address": {"city": "JESUP", "state": "GA", "street": "405 E WALNUT ST", "postcode": "31546"}}},
{"geometry": {"type": "Point", "coordinates": [-81.6795415477, 30.7975658978]}, "type": "Feature", "properties": {"collection_times": [{"days": "Mon-Fri", "time": "4:30pm"}, {"days": "Sat", "time": "12:00pm"}, {"days": "Sun", "time": "Closed"}], "id": "3154800006", "name": "USPS COLLECTION BOX - BLUE BOX", "address": {"city": "KINGSLAND", "state": "GA", "street": "310 S GROVE BLVD", "postcode": "31548"}}},
{"geometry": {"type": "Point", "coordinates": [-81.6206893891, 30.7743210456]}, "type": "Feature", "properties": {"collection_times": [{"days": "Mon-Sat", "time": "11:00am"}, {"days": "Sun", "time": "Closed"}], "id": "3154800007", "name": "USPS COLLECTION BOX - BLUE BOX", "address": {"city": "KINGSLAND", "state": "GA", "street": "2475 VILLAGE DR", "postcode": "31548"}}},
{"geometry": {"type": "Point", "coordinates": [-81.6795415477, 30.7975658978]}, "type": "Feature", "properties": {"collection_times": [{"days": "Mon-Fri", "time": "4:30pm"}, {"days": "Sat", "time": "12:00pm"}, {"days": "Sun", "time": "Closed"}], "id": "3154800008", "name": "USPS COLLECTION BOX - BLUE BOX", "address": {"city": "KINGSLAND", "state": "GA", "street": "310 S GROVE BLVD", "postcode": "31548"}}},
{"geometry": {"type": "Point", "coordinates": [-81.6307782365, 30.8077464816]}, "type": "Feature", "properties": {"collection_times": [{"days": "Mon-Sat", "time": "10:30am"}, {"days": "Sun", "time": "Closed"}], "id": "3154800015", "name": "USPS COLLECTION BOX - BLUE BOX", "address": {"city": "KINGSLAND", "state": "GA", "street": "250 N GROSS RD", "postcode": "31548"}}},
{"geometry": {"type": "Point", "coordinates": [-81.6795415477, 30.7975658978]}, "type": "Feature", "properties": {"collection_times": [{"days": "Mon-Fri", "time": "4:30pm"}, {"days": "Sat", "time": "12:00pm"}, {"days": "Sun", "time": "Closed"}], "id": "3154800017", "name": "USPS COLLECTION BOX - PO LOBBY", "address": {"city": "KINGSLAND", "state": "GA", "street": "310 S GROVE BLVD", "postcode": "31548"}}},
{"geometry": {"type": "Point", "coordinates": [-81.6342155584, 30.7830263098]}, "type": "Feature", "properties": {"collection_times": [{"days": "Mon-Sat", "time": "9:00am"}, {"days": "Sun", "time": "Closed"}], "id": "3154800019", "name": "USPS COLLECTION BOX - BLUE BOX", "address": {"city": "KINGSLAND", "state": "GA", "street": "1601 GA HIGHWAY 40 E", "postcode": "31548"}}},
{"geometry": {"type": "Point", "coordinates": [-81.6160399188, 30.7829558833]}, "type": "Feature", "properties": {"collection_times": [{"days": "Mon-Sat", "time": "10:00am"}, {"days": "Sun", "time": "Closed"}], "id": "3154800022", "name": "USPS COLLECTION BOX - BLUE BOX", "address": {"city": "KINGSLAND", "state": "GA", "street": "40 ANDREWS WAY", "postcode": "31548"}}},
{"geometry": {"type": "Point", "coordinates": [-82.6851292728, 31.9340973182]}, "type": "Feature", "properties": {"collection_times": [{"days": "Mon-Fri", "time": "4:15pm"}, {"days": "Sat", "time": "12:15pm"}, {"days": "Sun", "time": "Closed"}], "id": "3154900001", "name": "USPS COLLECTION BOX - BLUE BOX", "address": {"city": "LUMBER CITY", "state": "GA", "street": "68 N CHURCH ST", "postcode": "31549"}}},
{"geometry": {"type": "Point", "coordinates": [-82.6851292728, 31.9340973182]}, "type": "Feature", "properties": {"collection_times": [{"days": "Mon-Fri", "time": "4:30pm"}, {"days": "Sat", "time": "12:15pm"}, {"days": "Sun", "time": "Closed"}], "id": "3154900002", "name": "USPS COLLECTION BOX - PO LOBBY", "address": {"city": "LUMBER CITY", "state": "GA", "street": "334 N CHURCH ST", "postcode": "31549"}}},
{"geometry": {"type": "Point", "coordinates": [-82.57162, 31.10454]}, "type": "Feature", "properties": {"collection_times": [{"days": "Mon-Sat", "time": "11:00am"}, {"days": "Sun", "time": "Closed"}], "id": "3155000001", "name": "USPS COLLECTION BOX - BLUE BOX", "address": {"city": "MANOR", "state": "GA", "street": "6264 VALDOSTA HWY", "postcode": "31550"}}},
{"geometry": {"type": "Point", "coordinates": [-82.3223982484, 31.5060490673]}, "type": "Feature", "properties": {"collection_times": [{"days": "Mon-Fri", "time": "1:00pm"}, {"days": "Sat", "time": "10:45am"}, {"days": "Sun", "time": "Closed"}], "id": "3155100001", "name": "USPS COLLECTION BOX - BLUE BOX", "address": {"city": "MERSHON", "state": "GA", "street": "2547 HIGHWAY 32", "postcode": "31551"}}},
{"geometry": {"type": "Point", "coordinates": [-82.3223982484, 31.5060490673]}, "type": "Feature", "properties": {"collection_times": [{"days": "Mon-Fri", "time": "1:00pm"}, {"days": "Sat", "time": "10:45am"}, {"days": "Sun", "time": "Closed"}], "id": "3155100002", "name": "USPS COLLECTION BOX - PO LOBBY", "address": {"city": "MERSHON", "state": "GA", "street": "2547 HIGHWAY 32", "postcode": "31551"}}},
{"geometry": {"type": "Point", "coordinates": [-82.6178388967, 31.294953587]}, "type": "Feature", "properties": {"collection_times": [{"days": "Mon-Fri", "time": "11:00am"}, {"days": "Sat", "time": "10:25am"}, {"days": "Sun", "time": "Closed"}], "id": "3155200001", "name": "USPS COLLECTION BOX - BLUE BOX", "address": {"city": "MILLWOOD", "state": "GA", "street": "7471 ALBANY HWY", "postcode": "31552"}}},
{"geometry": {"type": "Point", "coordinates": [-81.9816781838, 31.2038602948]}, "type": "Feature", "properties": {"collection_times": [{"days": "Mon-Fri", "time": "4:30pm"}, {"days": "Sat", "time": "11:00am"}, {"days": "Sun", "time": "Closed"}], "id": "3155300001", "name": "USPS COLLECTION BOX - BLUE BOX", "address": {"city": "NAHUNTA", "state": "GA", "street": "119 N MAIN ST", "postcode": "31553"}}},
{"geometry": {"type": "Point", "coordinates": [-81.9816781838, 31.2038602948]}, "type": "Feature", "properties": {"collection_times": [{"days": "Mon-Fri", "time": "4:30pm"}, {"days": "Sat", "time": "11:00am"}, {"days": "Sun", "time": "Closed"}], "id": "3155300002", "name": "USPS COLLECTION BOX - PO LOBBY", "address": {"city": "NAHUNTA", "state": "GA", "street": "119 N MAIN ST", "postcode": "31553"}}},
{"geometry": {"type": "Point", "coordinates": [-82.6349999775, 31.5150403542]}, "type": "Feature", "properties": {"collection_times": [{"days": "Mon-Fri", "time": "4:00pm"}, {"days": "Sat", "time": "11:00am"}, {"days": "Sun", "time": "Closed"}], "id": "3155400002", "name": "USPS COLLECTION BOX - BLUE BOX", "address": {"city": "NICHOLLS", "state": "GA", "street": "103 N LIBERTY ST", "postcode": "31554"}}},
{"geometry": {"type": "Point", "coordinates": [-82.6349999775, 31.5150403542]}, "type": "Feature", "properties": {"collection_times": [{"days": "Mon-Fri", "time": "4:00pm"}, {"days": "Sat", "time": "11:00am"}, {"days": "Sun", "time": "Closed"}], "id": "3155400003", "name": "USPS COLLECTION BOX - PO LOBBY", "address": {"city": "NICHOLLS", "state": "GA", "street": "103 N LIBERTY ST", "postcode": "31554"}}},
{"geometry": {"type": "Point", "coordinates": [-82.0292247725, 31.6633915709]}, "type": "Feature", "properties": {"collection_times": [{"days": "Mon-Fri", "time": "3:15pm"}, {"days": "Sat", "time": "12:00pm"}, {"days": "Sun", "time": "Closed"}], "id": "3155500002", "name": "USPS COLLECTION BOX - PO LOBBY", "address": {"city": "ODUM", "state": "GA", "street": "219 S CHURCH ST", "postcode": "31555"}}},
{"geometry": {"type": "Point", "coordinates": [-82.0292247725, 31.6633915709]}, "type": "Feature", "properties": {"collection_times": [{"days": "Mon-Fri", "time": "3:15pm"}, {"days": "Sat", "time": "12:00pm"}, {"days": "Sun", "time": "Closed"}], "id": "3155500003", "name": "USPS COLLECTION BOX - BLUE BOX", "address": {"city": "ODUM", "state": "GA", "street": "219 S CHURCH ST", "postcode": "31555"}}},
{"geometry": {"type": "Point", "coordinates": [-82.111865087, 31.4097240167]}, "type": "Feature", "properties": {"collection_times": [{"days": "Mon-Fri", "time": "11:00am"}, {"days": "Sat", "time": "9:45am"}, {"days": "Sun", "time": "Closed"}], "id": "3155600001", "name": "USPS COLLECTION BOX - BLUE BOX", "address": {"city": "OFFERMAN", "state": "GA", "street": "7203 US HIGHWAY 84", "postcode": "31556"}}},
{"geometry": {"type": "Point", "coordinates": [-82.111865087, 31.4097240167]}, "type": "Feature", "properties": {"collection_times": [{"days": "Mon-Fri", "time": "11:00am"}, {"days": "Sat", "time": "9:45am"}, {"days": "Sun", "time": "Closed"}], "id": "3155600002", "name": "USPS COLLECTION BOX - PO LOBBY", "address": {"city": "OFFERMAN", "state": "GA", "street": "7203 US HIGHWAY 84", "postcode": "31556"}}},
{"geometry": {"type": "Point", "coordinates": [-82.0954280252, 31.3742214408]}, "type": "Feature", "properties": {"collection_times": [{"days": "Mon-Fri", "time": "4:30pm"}, {"days": "Sat", "time": "9:45am"}, {"days": "Sun", "time": "Closed"}], "id": "3155700001", "name": "USPS COLLECTION BOX - BLUE BOX", "address": {"city": "PATTERSON", "state": "GA", "street": "6469 US HIGHWAY 84", "postcode": "31557"}}},
{"geometry": {"type": "Point", "coordinates": [-82.1455591056, 31.3815369147]}, "type": "Feature", "properties": {"collection_times": [{"days": "Mon-Fri", "time": "4:30pm"}, {"days": "Sat", "time": "9:45am"}, {"days": "Sun", "time": "Closed"}], "id": "3155700002", "name": "USPS COLLECTION BOX - PO LOBBY", "address": {"city": "PATTERSON", "state": "GA", "street": "6469 US HIGHWAY 84", "postcode": "31557"}}},
{"geometry": {"type": "Point", "coordinates": [-81.5701706073, 30.7578834337]}, "type": "Feature", "properties": {"collection_times": [{"days": "Mon-Sat", "time": "9:15am"}, {"days": "Sun", "time": "Closed"}], "id": "3155800005", "name": "USPS COLLECTION BOX - BLUE BOX", "address": {"city": "SAINT MARYS", "state": "GA", "street": "100 MARY POWELL DR", "postcode": "31558"}}},
{"geometry": {"type": "Point", "coordinates": [-81.4503646346, 30.8633483531]}, "type": "Feature", "properties": {"collection_times": [{"days": "Mon-Fri", "time": "4:00pm"}, {"days": "Sat-Sun", "time": "Closed"}], "id": "3155800006", "name": "USPS COLLECTION BOX - BLUE BOX", "address": {"city": "SAINT MARYS", "state": "GA", "street": "1219 USS DANIEL BOONE AVE", "postcode": "31558"}}},
{"geometry": {"type": "Point", "coordinates": [-81.4503646346, 30.8633483531]}, "type": "Feature", "properties": {"collection_times": [{"days": "Mon-Fri", "time": "3:45pm"}, {"days": "Sat-Sun", "time": "Closed"}], "id": "3155800009", "name": "USPS COLLECTION BOX - BLUE BOX", "address": {"city": "SAINT MARYS", "state": "GA", "street": "1360 USS SIMON BOLIVAR RD", "postcode": "31558"}}},
{"geometry": {"type": "Point", "coordinates": [-81.5762160683, 30.7592610805]}, "type": "Feature", "properties": {"collection_times": [{"days": "Mon-Fri", "time": "5:00pm"}, {"days": "Sat", "time": "4:00pm"}, {"days": "Sun", "time": "Closed"}], "id": "3155800016", "name": "USPS COLLECTION BOX - BLUE BOX", "address": {"city": "SAINT MARYS", "state": "GA", "street": "724 CHARLIE SMITH SR HWY", "postcode": "31558"}}},
{"geometry": {"type": "Point", "coordinates": [-81.571357357, 30.7645935257]}, "type": "Feature", "properties": {"collection_times": [{"days": "Mon-Fri", "time": "5:00pm"}, {"days": "Sat", "time": "4:00pm"}, {"days": "Sun", "time": "Closed"}], "id": "3155800017", "name": "USPS COLLECTION BOX - BLUE BOX", "address": {"city": "SAINT MARYS", "state": "GA", "street": "724 CHARLIE SMITH SR HWY", "postcode": "31558"}}},
{"geometry": {"type": "Point", "coordinates": [-81.5762160683, 30.7592610805]}, "type": "Feature", "properties": {"collection_times": [{"days": "Mon-Fri", "time": "5:00pm"}, {"days": "Sat", "time": "4:00pm"}, {"days": "Sun", "time": "Closed"}], "id": "3155800018", "name": "USPS COLLECTION BOX - PO LOBBY", "address": {"city": "SAINT MARYS", "state": "GA", "street": "724 CHARLIE SMITH SR HWY", "postcode": "31558"}}},
{"geometry": {"type": "Point", "coordinates": [-82.016804734, 31.4867455339]}, "type": "Feature", "properties": {"collection_times": [{"days": "Mon-Fri", "time": "3:15pm"}, {"days": "Sat", "time": "11:15am"}, {"days": "Sun", "time": "Closed"}], "id": "3156000001", "name": "USPS COLLECTION BOX - BLUE BOX", "address": {"city": "SCREVEN", "state": "GA", "street": "117 W JL TYRE ST", "postcode": "31560"}}},
{"geometry": {"type": "Point", "coordinates": [-82.016804734, 31.4867455339]}, "type": "Feature", "properties": {"collection_times": [{"days": "Mon-Fri", "time": "3:15pm"}, {"days": "Sat", "time": "11:15am"}, {"days": "Sun", "time": "Closed"}], "id": "3156000002", "name": "USPS COLLECTION BOX - PO LOBBY", "address": {"city": "SCREVEN", "state": "GA", "street": "117 W JL TYRE ST", "postcode": "31560"}}},
{"geometry": {"type": "Point", "coordinates": [-81.3369419463, 31.1997305711]}, "type": "Feature", "properties": {"collection_times": [{"days": "Mon-Fri", "time": "4:00pm"}, {"days": "Sat", "time": "12:00pm"}, {"days": "Sun", "time": "Closed"}], "id": "3156100002", "name": "USPS COLLECTION BOX - BLUE BOX", "address": {"city": "BRUNSWICK", "state": "GA", "street": "325 HUDSON PL", "postcode": "31561"}}},
{"geometry": {"type": "Point", "coordinates": [-82.1120000616, 30.5729313718]}, "type": "Feature", "properties": {"collection_times": [{"days": "Mon-Fri", "time": "12:15pm"}, {"days": "Sat", "time": "10:45am"}, {"days": "Sun", "time": "Closed"}], "id": "3156200000", "name": "USPS COLLECTION BOX - BLUE BOX", "address": {"city": "SAINT GEORGE", "state": "GA", "street": "12995 FLORIDA AVE", "postcode": "31562"}}},
{"geometry": {"type": "Point", "coordinates": [-82.1120000616, 30.5729313718]}, "type": "Feature", "properties": {"collection_times": [{"days": "Mon-Fri", "time": "12:15pm"}, {"days": "Sat", "time": "10:45am"}, {"days": "Sun", "time": "Closed"}], "id": "3156200001", "name": "USPS COLLECTION BOX - PO LOBBY", "address": {"city": "SAINT GEORGE", "state": "GA", "street": "12995 FLORIDA AVE", "postcode": "31562"}}},
{"geometry": {"type": "Point", "coordinates": [-82.1831828115, 31.7237231876]}, "type": "Feature", "properties": {"collection_times": [{"days": "Mon-Fri", "time": "12:30pm"}, {"days": "Sat", "time": "10:45am"}, {"days": "Sun", "time": "Closed"}], "id": "3156300001", "name": "USPS COLLECTION BOX - BLUE BOX", "address": {"city": "SURRENCY", "state": "GA", "street": "117 STATE HIGHWAY 121 SE", "postcode": "31563"}}},
{"geometry": {"type": "Point", "coordinates": [-82.1831828115, 31.7237231876]}, "type": "Feature", "properties": {"collection_times": [{"days": "Mon-Fri", "time": "12:30pm"}, {"days": "Sat", "time": "10:45am"}, {"days": "Sun", "time": "Closed"}], "id": "3156300002", "name": "USPS COLLECTION BOX - PO LOBBY", "address": {"city": "SURRENCY", "state": "GA", "street": "117 STATE HIGHWAY 121 SE", "postcode": "31563"}}},
{"geometry": {"type": "Point", "coordinates": [-82.4612616957, 31.2449783114]}, "type": "Feature", "properties": {"collection_times": [{"days": "Mon-Fri", "time": "5:00pm"}, {"days": "Sat", "time": "11:30am"}, {"days": "Sun", "time": "Closed"}], "id": "3156400001", "name": "USPS COLLECTION BOX - BLUE BOX", "address": {"city": "WARESBORO", "state": "GA", "street": "4308 ALBANY AVE", "postcode": "31564"}}},
{"geometry": {"type": "Point", "coordinates": [-82.4612616957, 31.2449783114]}, "type": "Feature", "properties": {"collection_times": [{"days": "Mon-Fri", "time": "5:00pm"}, {"days": "Sat", "time": "11:30am"}, {"days": "Sun", "time": "Closed"}], "id": "3156400002", "name": "USPS COLLECTION BOX - PO LOBBY", "address": {"city": "WARESBORO", "state": "GA", "street": "4308 ALBANY AVE", "postcode": "31564"}}},
{"geometry": {"type": "Point", "coordinates": [-81.6278281262, 31.1064666039]}, "type": "Feature", "properties": {"collection_times": [{"days": "Mon-Fri", "time": "4:00pm"}, {"days": "Sat", "time": "10:45am"}, {"days": "Sun", "time": "Closed"}], "id": "3156500001", "name": "USPS COLLECTION BOX - BLUE BOX", "address": {"city": "WAVERLY", "state": "GA", "street": "24311 US HIGHWAY 17", "postcode": "31565"}}},
{"geometry": {"type": "Point", "coordinates": [-81.6278281262, 31.1064666039]}, "type": "Feature", "properties": {"collection_times": [{"days": "Mon-Fri", "time": "12:00pm"}, {"days": "Sat", "time": "10:45am"}, {"days": "Sun", "time": "Closed"}], "id": "3156500002", "name": "USPS COLLECTION BOX - PO LOBBY", "address": {"city": "WAVERLY", "state": "GA", "street": "24311 US HIGHWAY 17", "postcode": "31565"}}},
{"geometry": {"type": "Point", "coordinates": [-81.8379576276, 31.2017296156]}, "type": "Feature", "properties": {"collection_times": [{"days": "Mon-Fri", "time": "4:30pm"}, {"days": "Sat", "time": "10:30am"}, {"days": "Sun", "time": "Closed"}], "id": "3156600001", "name": "USPS COLLECTION BOX - BLUE BOX", "address": {"city": "WAYNESVILLE", "state": "GA", "street": "25380 HIGHWAY 82", "postcode": "31566"}}},
{"geometry": {"type": "Point", "coordinates": [-81.8379576276, 31.2017296156]}, "type": "Feature", "properties": {"collection_times": [{"days": "Mon-Fri", "time": "4:30pm"}, {"days": "Sat", "time": "10:30am"}, {"days": "Sun", "time": "Closed"}], "id": "3156600002", "name": "USPS COLLECTION BOX - PO LOBBY", "address": {"city": "WAYNESVILLE", "state": "GA", "street": "25380 HIGHWAY 82", "postcode": "31566"}}},
{"geometry": {"type": "Point", "coordinates": [-82.7342985858, 31.6260922144]}, "type": "Feature", "properties": {"collection_times": [{"days": "Mon-Fri", "time": "1:00pm"}, {"days": "Sat", "time": "11:15am"}, {"days": "Sun", "time": "Closed"}], "id": "3156700001", "name": "USPS COLLECTION BOX - PO LOBBY", "address": {"city": "WEST GREEN", "state": "GA", "street": "9978 US HIGHWAY 221 N", "postcode": "31567"}}},
{"geometry": {"type": "Point", "coordinates": [-82.7342985858, 31.6260922144]}, "type": "Feature", "properties": {"collection_times": [{"days": "Mon-Fri", "time": "3:45pm"}, {"days": "Sat", "time": "11:15am"}, {"days": "Sun", "time": "Closed"}], "id": "3156700002", "name": "USPS COLLECTION BOX - BLUE BOX", "address": {"city": "WEST GREEN", "state": "GA", "street": "9978 US HIGHWAY 221 N", "postcode": "31567"}}},
{"geometry": {"type": "Point", "coordinates": [-81.7310920191, 31.0318345676]}, "type": "Feature", "properties": {"collection_times": [{"days": "Mon-Fri", "time": "4:00pm"}, {"days": "Sat", "time": "2:00pm"}, {"days": "Sun", "time": "Closed"}], "id": "3156800001", "name": "USPS COLLECTION BOX - BLUE BOX", "address": {"city": "WHITE OAK", "state": "GA", "street": "25 MCKINNON RD N", "postcode": "31568"}}},
{"geometry": {"type": "Point", "coordinates": [-81.7310920191, 31.0318345676]}, "type": "Feature", "properties": {"collection_times": [{"days": "Mon-Fri", "time": "4:00pm"}, {"days": "Sat", "time": "2:00pm"}, {"days": "Sun", "time": "Closed"}], "id": "3156800002", "name": "USPS COLLECTION BOX - PO LOBBY", "address": {"city": "WHITE OAK", "state": "GA", "street": "25 MCKINNON RD N", "postcode": "31568"}}},
{"geometry": {"type": "Point", "coordinates": [-81.7248863374, 30.9722849777]}, "type": "Feature", "properties": {"collection_times": [{"days": "Mon-Fri", "time": "4:30pm"}, {"days": "Sat", "time": "12:00pm"}, {"days": "Sun", "time": "Closed"}], "id": "3156900001", "name": "USPS COLLECTION BOX - BLUE BOX", "address": {"city": "WOODBINE", "state": "GA", "street": "202 BEDELL AVE", "postcode": "31569"}}},
{"geometry": {"type": "Point", "coordinates": [-81.7248863374, 30.9722849777]}, "type": "Feature", "properties": {"collection_times": [{"days": "Mon-Fri", "time": "4:30pm"}, {"days": "Sat", "time": "12:00pm"}, {"days": "Sun", "time": "Closed"}], "id": "3156900002", "name": "USPS COLLECTION BOX - PO LOBBY", "address": {"city": "WOODBINE", "state": "GA", "street": "202 BEDELL AVE", "postcode": "31569"}}}
]}
