{"type": "FeatureCollection", "features": [
{"geometry": {"type": "Point", "coordinates": [-83.2805881053, 30.8340880434]}, "type": "Feature", "properties": {"collection_times": [{"days": "Mon-Fri", "time": "5:00pm"}, {"days": "Sat", "time": "3:30pm"}, {"days": "Sun", "time": "Closed"}], "id": "3160100002", "name": "USPS COLLECTION BOX - BLUE BOX", "address": {"city": "VALDOSTA", "state": "GA", "street": "101 W MAGNOLIA ST", "postcode": "31601"}}},
{"geometry": {"type": "Point", "coordinates": [-83.2805881053, 30.8340880434]}, "type": "Feature", "properties": {"collection_times": [{"days": "Mon-Fri", "time": "5:00pm"}, {"days": "Sat", "time": "3:30pm"}, {"days": "Sun", "time": "Closed"}], "id": "3160100003", "name": "USPS COLLECTION BOX - BLUE BOX", "address": {"city": "VALDOSTA", "state": "GA", "street": "101 W MAGNOLIA ST", "postcode": "31601"}}},
{"geometry": {"type": "Point", "coordinates": [-83.2782774851, 30.8297161574]}, "type": "Feature", "properties": {"collection_times": [{"days": "Mon-Fri", "time": "3:45pm"}, {"days": "Sat", "time": "10:00am"}, {"days": "Sun", "time": "Closed"}], "id": "3160100010", "name": "USPS COLLECTION BOX - BLUE BOX", "address": {"city": "VALDOSTA", "state": "GA", "street": "206 S PATTERSON ST", "postcode": "31601"}}},
{"geometry": {"type": "Point", "coordinates": [-83.3184245415, 30.8421881743]}, "type": "Feature", "properties": {"collection_times": [{"days": "Mon-Fri", "time": "3:45pm"}, {"days": "Sat", "time": "11:00am"}, {"days": "Sun", "time": "Closed"}], "id": "3160100015", "name": "USPS COLLECTION BOX - BLUE BOX", "address": {"city": "VALDOSTA", "state": "GA", "street": "1715 NORMAN DR", "postcode": "31601"}}},
{"geometry": {"type": "Point", "coordinates": [-83.2794597674, 30.8320375674]}, "type": "Feature", "properties": {"collection_times": [{"days": "Mon-Fri", "time": "3:00pm"}, {"days": "Sat", "time": "10:30am"}, {"days": "Sun", "time": "Closed"}], "id": "3160100020", "name": "USPS COLLECTION BOX - BLUE BOX", "address": {"city": "VALDOSTA", "state": "GA", "street": "100 E CENTRAL AVE", "postcode": "31601"}}},
{"geometry": {"type": "Point", "coordinates": [-83.2751053353, 30.8189682851]}, "type": "Feature", "properties": {"collection_times": [{"days": "Mon-Sat", "time": "10:30am"}, {"days": "Sun", "time": "Closed"}], "id": "3160100030", "name": "USPS COLLECTION BOX - BLUE BOX", "address": {"city": "VALDOSTA", "state": "GA", "street": "1000 MADISON HWY", "postcode": "31601"}}},
{"geometry": {"type": "Point", "coordinates": [-83.2781593169, 30.7944095256]}, "type": "Feature", "properties": {"collection_times": [{"days": "Mon-Sat", "time": "9:30am"}, {"days": "Sun", "time": "Closed"}], "id": "3160100031", "name": "USPS COLLECTION BOX - BLUE BOX", "address": {"city": "VALDOSTA", "state": "GA", "street": "1750 AIRPORT RD", "postcode": "31601"}}},
{"geometry": {"type": "Point", "coordinates": [-83.2742697409, 30.8033682724]}, "type": "Feature", "properties": {"collection_times": [{"days": "Mon-Sat", "time": "10:00am"}, {"days": "Sun", "time": "Closed"}], "id": "3160100033", "name": "USPS COLLECTION BOX - BLUE BOX", "address": {"city": "VALDOSTA", "state": "GA", "street": "601 GIL HARBIN INDUSTRIAL BLVD", "postcode": "31601"}}},
{"geometry": {"type": "Point", "coordinates": [-83.3187272526, 30.8419186182]}, "type": "Feature", "properties": {"collection_times": [{"days": "Mon-Sat", "time": "11:00am"}, {"days": "Sun", "time": "Closed"}], "id": "3160100036", "name": "USPS COLLECTION BOX - BLUE BOX", "address": {"city": "VALDOSTA", "state": "GA", "street": "1700 NORMAN DR", "postcode": "31601"}}},
{"geometry": {"type": "Point", "coordinates": [-83.3243991436, 30.8429848115]}, "type": "Feature", "properties": {"collection_times": [{"days": "Mon-Fri", "time": "4:00pm"}, {"days": "Sat", "time": "12:00pm"}, {"days": "Sun", "time": "Closed"}], "id": "3160100045", "name": "USPS COLLECTION BOX - BLUE BOX", "address": {"city": "VALDOSTA", "state": "GA", "street": "1741 GORNTO RD", "postcode": "31601"}}},
{"geometry": {"type": "Point", "coordinates": [-83.3184245415, 30.8421881743]}, "type": "Feature", "properties": {"collection_times": [{"days": "Mon-Fri", "time": "3:45pm"}, {"days": "Sat", "time": "11:00am"}, {"days": "Sun", "time": "Closed"}], "id": "3160100050", "name": "USPS COLLECTION BOX - BLUE BOX", "address": {"city": "VALDOSTA", "state": "GA", "street": "1715 NORMAN DR", "postcode": "31601"}}},
{"geometry": {"type": "Point", "coordinates": [-83.2805284633, 30.8342098285]}, "type": "Feature", "properties": {"collection_times": [{"days": "Mon-Sat", "time": "5:00pm"}, {"days": "Sun", "time": "Closed"}], "id": "3160100051", "name": "USPS COLLECTION BOX - PO LOBBY", "address": {"city": "VALDOSTA", "state": "GA", "street": "401 N PATTERSON ST", "postcode": "31601"}}},
{"geometry": {"type": "Point", "coordinates": [-83.3207782243, 30.8388290931]}, "type": "Feature", "properties": {"collection_times": [{"days": "Mon-Sat", "time": "12:00pm"}, {"days": "Sun", "time": "Closed"}], "id": "3160100052", "name": "USPS COLLECTION BOX - BLUE BOX", "address": {"city": "VALDOSTA", "state": "GA", "street": "1601 NORMAN DR", "postcode": "31601"}}},
{"geometry": {"type": "Point", "coordinates": [-83.3151776998, 30.823142376]}, "type": "Feature", "properties": {"collection_times": [{"days": "Mon-Sat", "time": "10:30am"}, {"days": "Sun", "time": "Closed"}], "id": "3160100053", "name": "USPS COLLECTION BOX - BLUE BOX", "address": {"city": "VALDOSTA", "state": "GA", "street": "450 NORMAN DR", "postcode": "31601"}}},
{"geometry": {"type": "Point", "coordinates": [-83.3243991436, 30.8429848115]}, "type": "Feature", "properties": {"collection_times": [{"days": "Mon-Fri", "time": "4:00pm"}, {"days": "Sat", "time": "12:00pm"}, {"days": "Sun", "time": "Closed"}], "id": "3160100056", "name": "USPS COLLECTION BOX - BLUE BOX", "address": {"city": "VALDOSTA", "state": "GA", "street": "1741 GORNTO RD", "postcode": "31601"}}},
{"geometry": {"type": "Point", "coordinates": [-83.2869908585, 30.8439541615]}, "type": "Feature", "properties": {"collection_times": [{"days": "Mon-Fri", "time": "4:30pm"}, {"days": "Sat-Sun", "time": "Closed"}], "id": "3160100057", "name": "USPS COLLECTION BOX - BLUE BOX", "address": {"city": "VALDOSTA", "state": "GA", "street": "107 W JANE ST", "postcode": "31601"}}},
{"geometry": {"type": "Point", "coordinates": [-83.2782774851, 30.8297161574]}, "type": "Feature", "properties": {"collection_times": [{"days": "Mon-Fri", "time": "3:45pm"}, {"days": "Sat", "time": "10:00am"}, {"days": "Sun", "time": "Closed"}], "id": "3160100058", "name": "USPS COLLECTION BOX - BLUE BOX", "address": {"city": "VALDOSTA", "state": "GA", "street": "206 S PATTERSON ST", "postcode": "31601"}}},
{"geometry": {"type": "Point", "coordinates": [-83.2592428428, 30.871256577]}, "type": "Feature", "properties": {"collection_times": [{"days": "Mon-Sat", "time": "10:00am"}, {"days": "Sun", "time": "Closed"}], "id": "3160200000", "name": "USPS COLLECTION BOX - BLUE BOX", "address": {"city": "VALDOSTA", "state": "GA", "street": "1718 NORTHSIDE DR", "postcode": "31602"}}},
{"geometry": {"type": "Point", "coordinates": [-83.2780061221, 30.8722909889]}, "type": "Feature", "properties": {"collection_times": [{"days": "Mon-Sat", "time": "9:30am"}, {"days": "Sun", "time": "Closed"}], "id": "3160200001", "name": "USPS COLLECTION BOX - BLUE BOX", "address": {"city": "VALDOSTA", "state": "GA", "street": "406 NORTHSIDE DR", "postcode": "31602"}}},
{"geometry": {"type": "Point", "coordinates": [-83.2923769064, 30.8642657896]}, "type": "Feature", "properties": {"collection_times": [{"days": "Mon-Fri", "time": "4:15pm"}, {"days": "Sat", "time": "10:00am"}, {"days": "Sun", "time": "Closed"}], "id": "3160200003", "name": "USPS COLLECTION BOX - BLUE BOX", "address": {"city": "VALDOSTA", "state": "GA", "street": "2704 N OAK ST", "postcode": "31602"}}},
{"geometry": {"type": "Point", "coordinates": [-83.2923769064, 30.8642657896]}, "type": "Feature", "properties": {"collection_times": [{"days": "Mon-Fri", "time": "4:15pm"}, {"days": "Sat", "time": "10:00am"}, {"days": "Sun", "time": "Closed"}], "id": "3160200004", "name": "USPS COLLECTION BOX - BLUE BOX", "address": {"city": "VALDOSTA", "state": "GA", "street": "2704 N OAK ST", "postcode": "31602"}}},
{"geometry": {"type": "Point", "coordinates": [-83.2539996147, 30.8616903457]}, "type": "Feature", "properties": {"collection_times": [{"days": "Mon-Sat", "time": "9:30am"}, {"days": "Sun", "time": "Closed"}], "id": "3160200008", "name": "USPS COLLECTION BOX - BLUE BOX", "address": {"city": "VALDOSTA", "state": "GA", "street": "1500 E PARK AVE", "postcode": "31602"}}},
{"geometry": {"type": "Point", "coordinates": [-83.2873061511, 30.8484251239]}, "type": "Feature", "properties": {"collection_times": [{"days": "Mon-Sat", "time": "2:30pm"}, {"days": "Sun", "time": "Closed"}], "id": "3160200014", "name": "USPS COLLECTION BOX - BLUE BOX", "address": {"city": "VALDOSTA", "state": "GA", "street": "1500 N PATTERSON ST", "postcode": "31602"}}},
{"geometry": {"type": "Point", "coordinates": [-83.2807425494, 30.8557363299]}, "type": "Feature", "properties": {"collection_times": [{"days": "Mon-Fri", "time": "12:00pm"}, {"days": "Sat", "time": "11:00am"}, {"days": "Sun", "time": "Closed"}], "id": "3160200018", "name": "USPS COLLECTION BOX - BLUE BOX", "address": {"city": "VALDOSTA", "state": "GA", "street": "1900 N ASHLEY ST", "postcode": "31602"}}},
{"geometry": {"type": "Point", "coordinates": [-83.2915761111, 30.8750998335]}, "type": "Feature", "properties": {"collection_times": [{"days": "Mon-Fri", "time": "4:30pm"}, {"days": "Sat", "time": "10:00am"}, {"days": "Sun", "time": "Closed"}], "id": "3160200027", "name": "USPS COLLECTION BOX - BLUE BOX", "address": {"city": "VALDOSTA", "state": "GA", "street": "3200 N ASHLEY ST", "postcode": "31602"}}},
{"geometry": {"type": "Point", "coordinates": [-83.2915761111, 30.8750998335]}, "type": "Feature", "properties": {"collection_times": [{"days": "Mon-Fri", "time": "4:30pm"}, {"days": "Sat", "time": "10:00am"}, {"days": "Sun", "time": "Closed"}], "id": "3160200028", "name": "USPS COLLECTION BOX - BLUE BOX", "address": {"city": "VALDOSTA", "state": "GA", "street": "3200 N ASHLEY ST", "postcode": "31602"}}},
{"geometry": {"type": "Point", "coordinates": [-83.2915761111, 30.8750998335]}, "type": "Feature", "properties": {"collection_times": [{"days": "Mon-Fri", "time": "4:30pm"}, {"days": "Sat", "time": "10:00am"}, {"days": "Sun", "time": "Closed"}], "id": "3160200029", "name": "USPS COLLECTION BOX - BLUE BOX", "address": {"city": "VALDOSTA", "state": "GA", "street": "3200 N ASHLEY ST", "postcode": "31602"}}},
{"geometry": {"type": "Point", "coordinates": [-83.2888492924, 30.8636219317]}, "type": "Feature", "properties": {"collection_times": [{"days": "Mon-Fri", "time": "4:30pm"}, {"days": "Sat", "time": "9:00am"}, {"days": "Sun", "time": "Closed"}], "id": "3160200046", "name": "USPS COLLECTION BOX - BLUE BOX", "address": {"city": "VALDOSTA", "state": "GA", "street": "2501 N PATTERSON ST", "postcode": "31602"}}},
{"geometry": {"type": "Point", "coordinates": [-83.3078614598, 30.8467818339]}, "type": "Feature", "properties": {"collection_times": [{"days": "Mon-Fri", "time": "4:15pm"}, {"days": "Sat", "time": "10:30am"}, {"days": "Sun", "time": "Closed"}], "id": "3160200051", "name": "USPS COLLECTION BOX - BLUE BOX", "address": {"city": "VALDOSTA", "state": "GA", "street": "1307 BAYTREE RD", "postcode": "31602"}}},
{"geometry": {"type": "Point", "coordinates": [-83.3078614598, 30.8467818339]}, "type": "Feature", "properties": {"collection_times": [{"days": "Mon-Fri", "time": "4:15pm"}, {"days": "Sat", "time": "10:30am"}, {"days": "Sun", "time": "Closed"}], "id": "3160200052", "name": "USPS COLLECTION BOX - BLUE BOX", "address": {"city": "VALDOSTA", "state": "GA", "street": "1307 BAYTREE RD", "postcode": "31602"}}},
{"geometry": {"type": "Point", "coordinates": [-83.251769808, 30.8817039736]}, "type": "Feature", "properties": {"collection_times": [{"days": "Mon-Fri", "time": "5:00pm"}, {"days": "Sat", "time": "3:30pm"}, {"days": "Sun", "time": "Closed"}], "id": "3160200055", "name": "USPS COLLECTION BOX - PO LOBBY", "address": {"city": "VALDOSTA", "state": "GA", "street": "3698 INNER PERIMETER RD", "postcode": "31602"}}},
{"geometry": {"type": "Point", "coordinates": [-83.251769808, 30.8817039736]}, "type": "Feature", "properties": {"collection_times": [{"days": "Mon-Fri", "time": "5:00pm"}, {"days": "Sat", "time": "3:30pm"}, {"days": "Sun", "time": "Closed"}], "id": "3160200056", "name": "USPS COLLECTION BOX - BLUE BOX", "address": {"city": "VALDOSTA", "state": "GA", "street": "3698 INNER PERIMETER RD", "postcode": "31602"}}},
{"geometry": {"type": "Point", "coordinates": [-83.251769808, 30.8817039736]}, "type": "Feature", "properties": {"collection_times": [{"days": "Mon-Fri", "time": "5:00pm"}, {"days": "Sat", "time": "3:30pm"}, {"days": "Sun", "time": "Closed"}], "id": "3160200057", "name": "USPS COLLECTION BOX - BLUE BOX", "address": {"city": "VALDOSTA", "state": "GA", "street": "3698 INNER PERIMETER RD", "postcode": "31602"}}},
{"geometry": {"type": "Point", "coordinates": [-83.251769808, 30.8817039736]}, "type": "Feature", "properties": {"collection_times": [{"days": "Mon-Fri", "time": "5:00pm"}, {"days": "Sat", "time": "3:30pm"}, {"days": "Sun", "time": "Closed"}], "id": "3160200059", "name": "USPS COLLECTION BOX - BLUE BOX", "address": {"city": "VALDOSTA", "state": "GA", "street": "3698 INNER PERIMETER RD", "postcode": "31602"}}},
{"geometry": {"type": "Point", "coordinates": [-83.251769808, 30.8817039736]}, "type": "Feature", "properties": {"collection_times": [{"days": "Mon-Fri", "time": "5:00pm"}, {"days": "Sat", "time": "3:30pm"}, {"days": "Sun", "time": "Closed"}], "id": "3160200060", "name": "USPS COLLECTION BOX - BLUE BOX", "address": {"city": "VALDOSTA", "state": "GA", "street": "3698 INNER PERIMETER RD", "postcode": "31602"}}},
{"geometry": {"type": "Point", "coordinates": [-83.251769808, 30.8817039736]}, "type": "Feature", "properties": {"collection_times": [{"days": "Mon-Fri", "time": "5:00pm"}, {"days": "Sat", "time": "3:30pm"}, {"days": "Sun", "time": "Closed"}], "id": "3160200061", "name": "USPS COLLECTION BOX - BLUE BOX", "address": {"city": "VALDOSTA", "state": "GA", "street": "3698 INNER PERIMETER RD", "postcode": "31602"}}},
{"geometry": {"type": "Point", "coordinates": [-83.3364918275, 30.8966869288]}, "type": "Feature", "properties": {"collection_times": [{"days": "Mon-Sat", "time": "10:00am"}, {"days": "Sun", "time": "Closed"}], "id": "3160200063", "name": "USPS COLLECTION BOX - BLUE BOX", "address": {"city": "VALDOSTA", "state": "GA", "street": "4280 N VALDOSTA RD", "postcode": "31602"}}},
{"geometry": {"type": "Point", "coordinates": [-83.251769808, 30.8817039736]}, "type": "Feature", "properties": {"collection_times": [{"days": "Mon-Fri", "time": "5:00pm"}, {"days": "Sat", "time": "3:30pm"}, {"days": "Sun", "time": "Closed"}], "id": "3160500001", "name": "USPS COLLECTION BOX - APC", "address": {"city": "VALDOSTA", "state": "GA", "street": "3698 INNER PERIMETER RD", "postcode": "31605"}}},
{"geometry": {"type": "Point", "coordinates": [-83.4189290784, 31.1247627894]}, "type": "Feature", "properties": {"collection_times": [{"days": "Mon-Fri", "time": "5:00pm"}, {"days": "Sat", "time": "12:00pm"}, {"days": "Sun", "time": "Closed"}], "id": "3162000003", "name": "USPS COLLECTION BOX - BLUE BOX", "address": {"city": "ADEL", "state": "GA", "street": "1009 S HUTCHINSON AVE", "postcode": "31620"}}},
{"geometry": {"type": "Point", "coordinates": [-83.4189290784, 31.1247627894]}, "type": "Feature", "properties": {"collection_times": [{"days": "Mon-Fri", "time": "5:00pm"}, {"days": "Sat", "time": "12:00pm"}, {"days": "Sun", "time": "Closed"}], "id": "3162000005", "name": "USPS COLLECTION BOX - BLUE BOX", "address": {"city": "ADEL", "state": "GA", "street": "1009 S HUTCHINSON AVE", "postcode": "31620"}}},
{"geometry": {"type": "Point", "coordinates": [-83.4189290784, 31.1247627894]}, "type": "Feature", "properties": {"collection_times": [{"days": "Mon-Fri", "time": "5:00pm"}, {"days": "Sat", "time": "12:00pm"}, {"days": "Sun", "time": "Closed"}], "id": "3162000011", "name": "USPS COLLECTION BOX - PO LOBBY", "address": {"city": "ADEL", "state": "GA", "street": "1009 S HUTCHINSON AVE", "postcode": "31620"}}},
{"geometry": {"type": "Point", "coordinates": [-83.4237804159, 31.1384917198]}, "type": "Feature", "properties": {"collection_times": [{"days": "Mon-Fri", "time": "4:00pm"}, {"days": "Sat-Sun", "time": "Closed"}], "id": "3162000012", "name": "USPS COLLECTION BOX - BLUE BOX", "address": {"city": "ADEL", "state": "GA", "street": "212 N HUTCHINSON AVE", "postcode": "31620"}}},
{"geometry": {"type": "Point", "coordinates": [-83.1965477762, 31.3916360027]}, "type": "Feature", "properties": {"collection_times": [{"days": "Mon-Fri", "time": "4:00pm"}, {"days": "Sat", "time": "10:30am"}, {"days": "Sun", "time": "Closed"}], "id": "3162200000", "name": "USPS COLLECTION BOX - BLUE BOX", "address": {"city": "ALAPAHA", "state": "GA", "street": "22261 MAIN ST", "postcode": "31622"}}},
{"geometry": {"type": "Point", "coordinates": [-83.1965477762, 31.3916360027]}, "type": "Feature", "properties": {"collection_times": [{"days": "Mon-Fri", "time": "12:00pm"}, {"days": "Sat", "time": "10:30am"}, {"days": "Sun", "time": "Closed"}], "id": "3162200001", "name": "USPS COLLECTION BOX - PO LOBBY", "address": {"city": "ALAPAHA", "state": "GA", "street": "22261 MAIN ST", "postcode": "31622"}}},
{"geometry": {"type": "Point", "coordinates": [-82.6481670351, 31.0704341178]}, "type": "Feature", "properties": {"collection_times": [{"days": "Mon-Fri", "time": "2:45pm"}, {"days": "Sat", "time": "2:00pm"}, {"days": "Sun", "time": "Closed"}], "id": "3162300000", "name": "USPS COLLECTION BOX - BLUE BOX", "address": {"city": "ARGYLE", "state": "GA", "street": "6427 MAIN ST", "postcode": "31623"}}},
{"geometry": {"type": "Point", "coordinates": [-82.6481670351, 31.0704341178]}, "type": "Feature", "properties": {"collection_times": [{"days": "Mon-Fri", "time": "2:45pm"}, {"days": "Sat", "time": "2:00pm"}, {"days": "Sun", "time": "Closed"}], "id": "3162300001", "name": "USPS COLLECTION BOX - PO LOBBY", "address": {"city": "ARGYLE", "state": "GA", "street": "6427 MAIN ST", "postcode": "31623"}}},
{"geometry": {"type": "Point", "coordinates": [-82.7238057166, 31.3022728878]}, "type": "Feature", "properties": {"collection_times": [{"days": "Mon-Fri", "time": "11:00am"}, {"days": "Sat", "time": "10:45am"}, {"days": "Sun", "time": "Closed"}], "id": "3162400000", "name": "USPS COLLECTION BOX - BLUE BOX", "address": {"city": "AXSON", "state": "GA", "street": "7400 ATKINSON BLVD E", "postcode": "31624"}}},
{"geometry": {"type": "Point", "coordinates": [-82.7238057166, 31.3022728878]}, "type": "Feature", "properties": {"collection_times": [{"days": "Mon-Fri", "time": "11:00am"}, {"days": "Sat", "time": "10:45am"}, {"days": "Sun", "time": "Closed"}], "id": "3162400001", "name": "USPS COLLECTION BOX - PO LOBBY", "address": {"city": "AXSON", "state": "GA", "street": "7400 ATKINSON BLVD E", "postcode": "31624"}}},
{"geometry": {"type": "Point", "coordinates": [-83.5347031339, 30.9974335179]}, "type": "Feature", "properties": {"collection_times": [{"days": "Mon-Fri", "time": "3:30pm"}, {"days": "Sat", "time": "10:30am"}, {"days": "Sun", "time": "Closed"}], "id": "3162500000", "name": "USPS COLLECTION BOX - BLUE BOX", "address": {"city": "BARNEY", "state": "GA", "street": "13841 GA HIGHWAY 122", "postcode": "31625"}}},
{"geometry": {"type": "Point", "coordinates": [-83.5347031339, 30.9974335179]}, "type": "Feature", "properties": {"collection_times": [{"days": "Mon-Fri", "time": "12:00pm"}, {"days": "Sat", "time": "10:30am"}, {"days": "Sun", "time": "Closed"}], "id": "3162500001", "name": "USPS COLLECTION BOX - PO LOBBY", "address": {"city": "BARNEY", "state": "GA", "street": "13841 GA HIGHWAY 122", "postcode": "31625"}}},
{"geometry": {"type": "Point", "coordinates": [-83.7896756463, 30.7938825226]}, "type": "Feature", "properties": {"collection_times": [{"days": "Mon-Fri", "time": "4:15pm"}, {"days": "Sat", "time": "10:30am"}, {"days": "Sun", "time": "Closed"}], "id": "3162600000", "name": "USPS COLLECTION BOX - BLUE BOX", "address": {"city": "BOSTON", "state": "GA", "street": "126 N MAIN ST", "postcode": "31626"}}},
{"geometry": {"type": "Point", "coordinates": [-83.7896756463, 30.7938825226]}, "type": "Feature", "properties": {"collection_times": [{"days": "Mon-Fri", "time": "4:15pm"}, {"days": "Sat", "time": "10:30am"}, {"days": "Sun", "time": "Closed"}], "id": "3162600002", "name": "USPS COLLECTION BOX - PO LOBBY", "address": {"city": "BOSTON", "state": "GA", "street": "126 N MAIN ST", "postcode": "31626"}}},
{"geometry": {"type": "Point", "coordinates": [-83.3943096837, 31.0460641473]}, "type": "Feature", "properties": {"collection_times": [{"days": "Mon-Fri", "time": "4:30pm"}, {"days": "Sat", "time": "2:30pm"}, {"days": "Sun", "time": "Closed"}], "id": "3162700000", "name": "USPS COLLECTION BOX - BLUE BOX", "address": {"city": "CECIL", "state": "GA", "street": "51 MAIN ST", "postcode": "31627"}}},
{"geometry": {"type": "Point", "coordinates": [-83.3943096837, 31.0460641473]}, "type": "Feature", "properties": {"collection_times": [{"days": "Mon-Sat", "time": "11:30am"}, {"days": "Sun", "time": "Closed"}], "id": "3162700001", "name": "USPS COLLECTION BOX - PO LOBBY", "address": {"city": "CECIL", "state": "GA", "street": "51 MAIN ST", "postcode": "31627"}}},
{"geometry": {"type": "Point", "coordinates": [-83.663570246, 30.7860543517]}, "type": "Feature", "properties": {"collection_times": [{"days": "Mon-Fri", "time": "4:15pm"}, {"days": "Sat", "time": "11:00am"}, {"days": "Sun", "time": "Closed"}], "id": "3162900000", "name": "USPS COLLECTION BOX - BLUE BOX", "address": {"city": "DIXIE", "state": "GA", "street": "5308 DIXIE RD", "postcode": "31629"}}},
{"geometry": {"type": "Point", "coordinates": [-83.663570246, 30.7860543517]}, "type": "Feature", "properties": {"collection_times": [{"days": "Mon-Fri", "time": "12:30pm"}, {"days": "Sat", "time": "11:30am"}, {"days": "Sun", "time": "Closed"}], "id": "3162900001", "name": "USPS COLLECTION BOX - PO LOBBY", "address": {"city": "DIXIE", "state": "GA", "street": "5308 DIXIE RD", "postcode": "31629"}}},
{"geometry": {"type": "Point", "coordinates": [-82.8824733037, 30.9448005371]}, "type": "Feature", "properties": {"collection_times": [{"days": "Mon-Fri", "time": "4:30pm"}, {"days": "Sat", "time": "10:30am"}, {"days": "Sun", "time": "Closed"}], "id": "3163000000", "name": "USPS COLLECTION BOX - BLUE BOX", "address": {"city": "DUPONT", "state": "GA", "street": "8402 VALDOSTA HWY", "postcode": "31630"}}},
{"geometry": {"type": "Point", "coordinates": [-82.8824733037, 30.9448005371]}, "type": "Feature", "properties": {"collection_times": [{"days": "Mon-Fri", "time": "12:15pm"}, {"days": "Sat", "time": "10:30am"}, {"days": "Sun", "time": "Closed"}], "id": "3163000001", "name": "USPS COLLECTION BOX - PO LOBBY", "address": {"city": "DUPONT", "state": "GA", "street": "8402 VALDOSTA HWY", "postcode": "31630"}}},
{"geometry": {"type": "Point", "coordinates": [-82.6076309677, 30.7890199852]}, "type": "Feature", "properties": {"collection_times": [{"days": "Mon-Fri", "time": "4:15pm"}, {"days": "Sat", "time": "1:30pm"}, {"days": "Sun", "time": "Closed"}], "id": "3163100000", "name": "USPS COLLECTION BOX - BLUE BOX", "address": {"city": "FARGO", "state": "GA", "street": "700 US HIGHWAY 441", "postcode": "31631"}}},
{"geometry": {"type": "Point", "coordinates": [-82.6076309677, 30.7890199852]}, "type": "Feature", "properties": {"collection_times": [{"days": "Mon-Fri", "time": "4:15pm"}, {"days": "Sat", "time": "11:00am"}, {"days": "Sun", "time": "Closed"}], "id": "3163100001", "name": "USPS COLLECTION BOX - PO LOBBY", "address": {"city": "FARGO", "state": "GA", "street": "700 US HIGHWAY 441", "postcode": "31631"}}},
{"geometry": {"type": "Point", "coordinates": [-83.3726925572, 30.9915607209]}, "type": "Feature", "properties": {"collection_times": [{"days": "Mon-Fri", "time": "4:30pm"}, {"days": "Sat", "time": "11:00am"}, {"days": "Sun", "time": "Closed"}], "id": "3163200000", "name": "USPS COLLECTION BOX - BLUE BOX", "address": {"city": "HAHIRA", "state": "GA", "street": "112 N CHURCH ST", "postcode": "31632"}}},
{"geometry": {"type": "Point", "coordinates": [-83.3726925572, 30.9915607209]}, "type": "Feature", "properties": {"collection_times": [{"days": "Mon-Fri", "time": "4:30pm"}, {"days": "Sat", "time": "11:00am"}, {"days": "Sun", "time": "Closed"}], "id": "3163200001", "name": "USPS COLLECTION BOX - BLUE BOX", "address": {"city": "HAHIRA", "state": "GA", "street": "112 N CHURCH ST", "postcode": "31632"}}},
{"geometry": {"type": "Point", "coordinates": [-83.3726925572, 30.9915607209]}, "type": "Feature", "properties": {"collection_times": [{"days": "Mon-Fri", "time": "4:30pm"}, {"days": "Sat", "time": "11:00am"}, {"days": "Sun", "time": "Closed"}], "id": "3163200002", "name": "USPS COLLECTION BOX - PO LOBBY", "address": {"city": "HAHIRA", "state": "GA", "street": "112 N CHURCH ST", "postcode": "31632"}}},
{"geometry": {"type": "Point", "coordinates": [-82.7469074843, 31.0368072655]}, "type": "Feature", "properties": {"collection_times": [{"days": "Mon-Fri", "time": "4:30pm"}, {"days": "Sat", "time": "11:00am"}, {"days": "Sun", "time": "Closed"}], "id": "3163400000", "name": "USPS COLLECTION BOX - BLUE BOX", "address": {"city": "HOMERVILLE", "state": "GA", "street": "57 E DAME AVE", "postcode": "31634"}}},
{"geometry": {"type": "Point", "coordinates": [-82.7469074843, 31.0368072655]}, "type": "Feature", "properties": {"collection_times": [{"days": "Mon-Fri", "time": "4:30pm"}, {"days": "Sat", "time": "11:00am"}, {"days": "Sun", "time": "Closed"}], "id": "3163400006", "name": "USPS COLLECTION BOX - PO LOBBY", "address": {"city": "HOMERVILLE", "state": "GA", "street": "57 E DAME AVE", "postcode": "31634"}}},
{"geometry": {"type": "Point", "coordinates": [-83.1069203953, 31.0421896665]}, "type": "Feature", "properties": {"collection_times": [{"days": "Mon-Fri", "time": "5:00pm"}, {"days": "Sat", "time": "12:00pm"}, {"days": "Sun", "time": "Closed"}], "id": "3163500000", "name": "USPS COLLECTION BOX - BLUE BOX", "address": {"city": "LAKELAND", "state": "GA", "street": "15 S VALDOSTA RD", "postcode": "31635"}}},
{"geometry": {"type": "Point", "coordinates": [-83.0753396834, 31.0411063499]}, "type": "Feature", "properties": {"collection_times": [{"days": "Mon-Fri", "time": "5:00pm"}, {"days": "Sat-Sun", "time": "Closed"}], "id": "3163500001", "name": "USPS COLLECTION BOX - BLUE BOX", "address": {"city": "LAKELAND", "state": "GA", "street": "56 W MAIN ST", "postcode": "31635"}}},
{"geometry": {"type": "Point", "coordinates": [-83.1069203953, 31.0421896665]}, "type": "Feature", "properties": {"collection_times": [{"days": "Mon-Fri", "time": "5:00pm"}, {"days": "Sat", "time": "12:00pm"}, {"days": "Sun", "time": "Closed"}], "id": "3163500008", "name": "USPS COLLECTION BOX - PO LOBBY", "address": {"city": "LAKELAND", "state": "GA", "street": "15 S VALDOSTA RD", "postcode": "31635"}}},
{"geometry": {"type": "Point", "coordinates": [-83.2093081333, 30.6839766989]}, "type": "Feature", "properties": {"collection_times": [{"days": "Mon-Fri", "time": "4:30pm"}, {"days": "Sat", "time": "10:30am"}, {"days": "Sun", "time": "Closed"}], "id": "3163600004", "name": "USPS COLLECTION BOX - BLUE BOX", "address": {"city": "LAKE PARK", "state": "GA", "street": "687 LAKES BLVD", "postcode": "31636"}}},
{"geometry": {"type": "Point", "coordinates": [-83.2093081333, 30.6839766989]}, "type": "Feature", "properties": {"collection_times": [{"days": "Mon-Fri", "time": "4:30pm"}, {"days": "Sat", "time": "10:30am"}, {"days": "Sun", "time": "Closed"}], "id": "3163600005", "name": "USPS COLLECTION BOX - BLUE BOX", "address": {"city": "LAKE PARK", "state": "GA", "street": "687 LAKES BLVD", "postcode": "31636"}}},
{"geometry": {"type": "Point", "coordinates": [-83.2093081333, 30.6839766989]}, "type": "Feature", "properties": {"collection_times": [{"days": "Mon-Fri", "time": "5:00pm"}, {"days": "Sat", "time": "11:00am"}, {"days": "Sun", "time": "Closed"}], "id": "3163600008", "name": "USPS COLLECTION BOX - PO LOBBY", "address": {"city": "LAKE PARK", "state": "GA", "street": "687 LAKES BLVD", "postcode": "31636"}}},
{"geometry": {"type": "Point", "coordinates": [-83.4537084427, 31.2708550688]}, "type": "Feature", "properties": {"collection_times": [{"days": "Mon-Fri", "time": "4:15pm"}, {"days": "Sat", "time": "11:00am"}, {"days": "Sun", "time": "Closed"}], "id": "3163700000", "name": "USPS COLLECTION BOX - BLUE BOX", "address": {"city": "LENOX", "state": "GA", "street": "44 S DEPOT ST", "postcode": "31637"}}},
{"geometry": {"type": "Point", "coordinates": [-83.4537084427, 31.2708550688]}, "type": "Feature", "properties": {"collection_times": [{"days": "Mon-Fri", "time": "4:15pm"}, {"days": "Sat", "time": "11:00am"}, {"days": "Sun", "time": "Closed"}], "id": "3163700002", "name": "USPS COLLECTION BOX - PO LOBBY", "address": {"city": "LENOX", "state": "GA", "street": "44 S DEPOT ST", "postcode": "31637"}}},
{"geometry": {"type": "Point", "coordinates": [-83.5147808864, 30.9157042808]}, "type": "Feature", "properties": {"collection_times": [{"days": "Mon-Fri", "time": "12:30pm"}, {"days": "Sat", "time": "11:15am"}, {"days": "Sun", "time": "Closed"}], "id": "3163800000", "name": "USPS COLLECTION BOX - BLUE BOX", "address": {"city": "MORVEN", "state": "GA", "street": "100 GORDON ST", "postcode": "31638"}}},
{"geometry": {"type": "Point", "coordinates": [-83.5147808864, 30.9157042808]}, "type": "Feature", "properties": {"collection_times": [{"days": "Mon-Fri", "time": "12:15pm"}, {"days": "Sat", "time": "11:15am"}, {"days": "Sun", "time": "Closed"}], "id": "3163800001", "name": "USPS COLLECTION BOX - PO LOBBY", "address": {"city": "MORVEN", "state": "GA", "street": "100 GORDON ST", "postcode": "31638"}}},
{"geometry": {"type": "Point", "coordinates": [-83.251120592, 31.2056875314]}, "type": "Feature", "properties": {"collection_times": [{"days": "Mon-Fri", "time": "5:00pm"}, {"days": "Sat", "time": "12:00pm"}, {"days": "Sun", "time": "Closed"}], "id": "3163900001", "name": "USPS COLLECTION BOX - BLUE BOX", "address": {"city": "NASHVILLE", "state": "GA", "street": "200 W MCPHERSON AVE", "postcode": "31639"}}},
{"geometry": {"type": "Point", "coordinates": [-83.2492981839, 31.2055327164]}, "type": "Feature", "properties": {"collection_times": [{"days": "Mon-Fri", "time": "9:30am"}, {"days": "Sat-Sun", "time": "Closed"}], "id": "3163900006", "name": "USPS COLLECTION BOX - BLUE BOX", "address": {"city": "NASHVILLE", "state": "GA", "street": "207 E MCPHERSON AVE", "postcode": "31639"}}},
{"geometry": {"type": "Point", "coordinates": [-83.251120592, 31.2056875314]}, "type": "Feature", "properties": {"collection_times": [{"days": "Mon-Fri", "time": "5:00pm"}, {"days": "Sat", "time": "12:00pm"}, {"days": "Sun", "time": "Closed"}], "id": "3163900008", "name": "USPS COLLECTION BOX - BLUE BOX", "address": {"city": "NASHVILLE", "state": "GA", "street": "200 W MCPHERSON AVE", "postcode": "31639"}}},
{"geometry": {"type": "Point", "coordinates": [-83.2511568704, 31.2057183126]}, "type": "Feature", "properties": {"collection_times": [{"days": "Mon-Fri", "time": "5:00pm"}, {"days": "Sat", "time": "12:00pm"}, {"days": "Sun", "time": "Closed"}], "id": "3163900009", "name": "USPS COLLECTION BOX - PO LOBBY", "address": {"city": "NASHVILLE", "state": "GA", "street": "301 S BARTOW ST", "postcode": "31639"}}},
{"geometry": {"type": "Point", "coordinates": [-83.0813467517, 30.9076831826]}, "type": "Feature", "properties": {"collection_times": [{"days": "Mon-Fri", "time": "4:30pm"}, {"days": "Sat", "time": "10:45am"}, {"days": "Sun", "time": "Closed"}], "id": "3164100000", "name": "USPS COLLECTION BOX - BLUE BOX", "address": {"city": "NAYLOR", "state": "GA", "street": "6030 US HIGHWAY 84 E", "postcode": "31641"}}},
{"geometry": {"type": "Point", "coordinates": [-83.0813467517, 30.9076831826]}, "type": "Feature", "properties": {"collection_times": [{"days": "Mon-Fri", "time": "4:15pm"}, {"days": "Sat", "time": "10:45am"}, {"days": "Sun", "time": "Closed"}], "id": "3164100001", "name": "USPS COLLECTION BOX - PO LOBBY", "address": {"city": "NAYLOR", "state": "GA", "street": "6030 US HIGHWAY 84 E", "postcode": "31641"}}},
{"geometry": {"type": "Point", "coordinates": [-82.8518714468, 31.2975421762]}, "type": "Feature", "properties": {"collection_times": [{"days": "Mon-Fri", "time": "4:00pm"}, {"days": "Sat", "time": "11:00am"}, {"days": "Sun", "time": "Closed"}], "id": "3164200000", "name": "USPS COLLECTION BOX - PO LOBBY", "address": {"city": "PEARSON", "state": "GA", "street": "102 S CHURCH ST", "postcode": "31642"}}},
{"geometry": {"type": "Point", "coordinates": [-82.8518714468, 31.2975421762]}, "type": "Feature", "properties": {"collection_times": [{"days": "Mon-Fri", "time": "4:00pm"}, {"days": "Sat", "time": "11:00am"}, {"days": "Sun", "time": "Closed"}], "id": "3164200001", "name": "USPS COLLECTION BOX - BLUE BOX", "address": {"city": "PEARSON", "state": "GA", "street": "102 S CHURCH ST", "postcode": "31642"}}},
{"geometry": {"type": "Point", "coordinates": [-83.5571913512, 30.7857618697]}, "type": "Feature", "properties": {"collection_times": [{"days": "Mon-Fri", "time": "5:00pm"}, {"days": "Sat", "time": "4:00pm"}, {"days": "Sun", "time": "Closed"}], "id": "3164300000", "name": "USPS COLLECTION BOX - BLUE BOX", "address": {"city": "QUITMAN", "state": "GA", "street": "404 E STEPHENS ST", "postcode": "31643"}}},
{"geometry": {"type": "Point", "coordinates": [-83.5571913512, 30.7857618697]}, "type": "Feature", "properties": {"collection_times": [{"days": "Mon-Fri", "time": "5:00pm"}, {"days": "Sat", "time": "4:00pm"}, {"days": "Sun", "time": "Closed"}], "id": "3164300001", "name": "USPS COLLECTION BOX - BLUE BOX", "address": {"city": "QUITMAN", "state": "GA", "street": "404 E STEPHENS ST", "postcode": "31643"}}},
{"geometry": {"type": "Point", "coordinates": [-83.5571804933, 30.7849849903]}, "type": "Feature", "properties": {"collection_times": [{"days": "Mon-Fri", "time": "5:00pm"}, {"days": "Sat", "time": "4:00pm"}, {"days": "Sun", "time": "Closed"}], "id": "3164300010", "name": "USPS COLLECTION BOX - PO LOBBY", "address": {"city": "QUITMAN", "state": "GA", "street": "410 E SCREVEN ST", "postcode": "31643"}}},
{"geometry": {"type": "Point", "coordinates": [-83.2322577867, 31.0713541205]}, "type": "Feature", "properties": {"collection_times": [{"days": "Mon-Fri", "time": "4:30pm"}, {"days": "Sat", "time": "10:30am"}, {"days": "Sun", "time": "Closed"}], "id": "3164500001", "name": "USPS COLLECTION BOX - PO LOBBY", "address": {"city": "RAY CITY", "state": "GA", "street": "8122 MAIN ST", "postcode": "31645"}}},
{"geometry": {"type": "Point", "coordinates": [-83.2322577867, 31.0713541205]}, "type": "Feature", "properties": {"collection_times": [{"days": "Mon-Fri", "time": "4:30pm"}, {"days": "Sat", "time": "10:30am"}, {"days": "Sun", "time": "Closed"}], "id": "3164500002", "name": "USPS COLLECTION BOX - BLUE BOX", "address": {"city": "RAY CITY", "state": "GA", "street": "8122 MAIN ST", "postcode": "31645"}}},
{"geometry": {"type": "Point", "coordinates": [-83.4373922323, 31.1669480984]}, "type": "Feature", "properties": {"collection_times": [{"days": "Mon-Fri", "time": "4:15pm"}, {"days": "Sat", "time": "11:00am"}, {"days": "Sun", "time": "Closed"}], "id": "3164700000", "name": "USPS COLLECTION BOX - BLUE BOX", "address": {"city": "SPARKS", "state": "GA", "street": "102 S GOODMAN ST", "postcode": "31647"}}},
{"geometry": {"type": "Point", "coordinates": [-83.4373922323, 31.1669480984]}, "type": "Feature", "properties": {"collection_times": [{"days": "Mon-Fri", "time": "4:15pm"}, {"days": "Sat", "time": "11:00am"}, {"days": "Sun", "time": "Closed"}], "id": "3164700001", "name": "USPS COLLECTION BOX - PO LOBBY", "address": {"city": "SPARKS", "state": "GA", "street": "102 S GOODMAN ST", "postcode": "31647"}}},
{"geometry": {"type": "Point", "coordinates": [-83.0275611729, 30.7033931006]}, "type": "Feature", "properties": {"collection_times": [{"days": "Mon-Fri", "time": "12:00pm"}, {"days": "Sat", "time": "10:00am"}, {"days": "Sun", "time": "Closed"}], "id": "3164800000", "name": "USPS COLLECTION BOX - BLUE BOX", "address": {"city": "STATENVILLE", "state": "GA", "street": "113 GA HIGHWAY 94 E", "postcode": "31648"}}},
{"geometry": {"type": "Point", "coordinates": [-83.0275611729, 30.7033931006]}, "type": "Feature", "properties": {"collection_times": [{"days": "Mon-Fri", "time": "12:00pm"}, {"days": "Sat", "time": "10:00am"}, {"days": "Sun", "time": "Closed"}], "id": "3164800001", "name": "USPS COLLECTION BOX - PO LOBBY", "address": {"city": "STATENVILLE", "state": "GA", "street": "113 GA HIGHWAY 94 E", "postcode": "31648"}}},
{"geometry": {"type": "Point", "coordinates": [-83.0024891986, 30.9300339551]}, "type": "Feature", "properties": {"collection_times": [{"days": "Mon-Fri", "time": "11:30am"}, {"days": "Sat", "time": "10:30am"}, {"days": "Sun", "time": "Closed"}], "id": "3164900000", "name": "USPS COLLECTION BOX - PO LOBBY", "address": {"city": "STOCKTON", "state": "GA", "street": "417 W HIGHWAY 84", "postcode": "31649"}}},
{"geometry": {"type": "Point", "coordinates": [-83.0024891986, 30.9300339551]}, "type": "Feature", "properties": {"collection_times": [{"days": "Mon-Fri", "time": "11:30am"}, {"days": "Sat", "time": "10:30am"}, {"days": "Sun", "time": "Closed"}], "id": "3164900001", "name": "USPS COLLECTION BOX - BLUE BOX", "address": {"city": "STOCKTON", "state": "GA", "street": "417 W HIGHWAY 84", "postcode": "31649"}}},
{"geometry": {"type": "Point", "coordinates": [-83.0256827498, 31.3535575436]}, "type": "Feature", "properties": {"collection_times": [{"days": "Mon-Fri", "time": "4:15pm"}, {"days": "Sat", "time": "11:00am"}, {"days": "Sun", "time": "Closed"}], "id": "3165000000", "name": "USPS COLLECTION BOX - BLUE BOX", "address": {"city": "WILLACOOCHEE", "state": "GA", "street": "801 E MAIN ST", "postcode": "31650"}}},
{"geometry": {"type": "Point", "coordinates": [-83.030649179, 31.3901527036]}, "type": "Feature", "properties": {"collection_times": [{"days": "Mon-Fri", "time": "3:45pm"}, {"days": "Sat", "time": "11:00am"}, {"days": "Sun", "time": "Closed"}], "id": "3165000002", "name": "USPS COLLECTION BOX - PO LOBBY", "address": {"city": "WILLACOOCHEE", "state": "GA", "street": "801 MAIN ST E", "postcode": "31650"}}},
{"geometry": {"type": "Point", "coordinates": [-83.2065629484, 30.9739559511]}, "type": "Feature", "properties": {"collection_times": [{"days": "Mon-Fri", "time": "10:00am"}, {"days": "Sat-Sun", "time": "Closed"}], "id": "3169900002", "name": "USPS COLLECTION BOX - BLUE BOX", "address": {"city": "MOODY A F B", "state": "GA", "street": "4333 GEORGE ST", "postcode": "31699"}}}
]}
