{"type": "FeatureCollection", "features": [
{"geometry": {"type": "Point", "coordinates": [-84.1667022901, 31.6071706475]}, "type": "Feature", "properties": {"collection_times": [{"days": "Mon-Fri", "time": "3:00pm"}, {"days": "Sat", "time": "10:00am"}, {"days": "Sun", "time": "Closed"}], "id": "3170100006", "name": "USPS COLLECTION BOX - BLUE BOX", "address": {"city": "ALBANY", "state": "GA", "street": "801 13TH AVE", "postcode": "31701"}}},
{"geometry": {"type": "Point", "coordinates": [-84.1765589139, 31.5600027618]}, "type": "Feature", "properties": {"collection_times": [{"days": "Mon-Fri", "time": "6:00pm"}, {"days": "Sat", "time": "5:00pm"}, {"days": "Sun", "time": "Closed"}], "id": "3170100008", "name": "USPS COLLECTION BOX - BLUE BOX", "address": {"city": "ALBANY", "state": "GA", "street": "1501 S SLAPPEY BLVD", "postcode": "31701"}}},
{"geometry": {"type": "Point", "coordinates": [-84.1765589139, 31.5600027618]}, "type": "Feature", "properties": {"collection_times": [{"days": "Mon-Fri", "time": "6:00pm"}, {"days": "Sat", "time": "5:00pm"}, {"days": "Sun", "time": "Closed"}], "id": "3170100010", "name": "USPS COLLECTION BOX - BLUE BOX", "address": {"city": "ALBANY", "state": "GA", "street": "1501 S SLAPPEY BLVD", "postcode": "31701"}}},
{"geometry": {"type": "Point", "coordinates": [-84.1514520772, 31.5752957822]}, "type": "Feature", "properties": {"collection_times": [{"days": "Mon-Fri", "time": "4:00pm"}, {"days": "Sat", "time": "10:00am"}, {"days": "Sun", "time": "Closed"}], "id": "3170100022", "name": "USPS COLLECTION BOX - BLUE BOX", "address": {"city": "ALBANY", "state": "GA", "street": "200 W OGLETHORPE BLVD", "postcode": "31701"}}},
{"geometry": {"type": "Point", "coordinates": [-84.1757171143, 31.607347457]}, "type": "Feature", "properties": {"collection_times": [{"days": "Mon-Fri", "time": "3:00pm"}, {"days": "Sat", "time": "10:00am"}, {"days": "Sun", "time": "Closed"}], "id": "3170100029", "name": "USPS COLLECTION BOX - BLUE BOX", "address": {"city": "ALBANY", "state": "GA", "street": "2310 N SLAPPEY BLVD", "postcode": "31701"}}},
{"geometry": {"type": "Point", "coordinates": [-84.1759028382, 31.6038127929]}, "type": "Feature", "properties": {"collection_times": [{"days": "Mon-Fri", "time": "4:30pm"}, {"days": "Sat", "time": "4:00pm"}, {"days": "Sun", "time": "Closed"}], "id": "3170100030", "name": "USPS COLLECTION BOX - BLUE BOX", "address": {"city": "ALBANY", "state": "GA", "street": "2017 N SLAPPEY BLVD", "postcode": "31701"}}},
{"geometry": {"type": "Point", "coordinates": [-84.1759028382, 31.6038127929]}, "type": "Feature", "properties": {"collection_times": [{"days": "Mon-Fri", "time": "4:30pm"}, {"days": "Sat", "time": "4:00pm"}, {"days": "Sun", "time": "Closed"}], "id": "3170100032", "name": "USPS COLLECTION BOX - BLUE BOX", "address": {"city": "ALBANY", "state": "GA", "street": "2017 N SLAPPEY BLVD", "postcode": "31701"}}},
{"geometry": {"type": "Point", "coordinates": [-84.1761253849, 31.590253007]}, "type": "Feature", "properties": {"collection_times": [{"days": "Mon-Sat", "time": "10:00am"}, {"days": "Sun", "time": "Closed"}], "id": "3170100036", "name": "USPS COLLECTION BOX - BLUE BOX", "address": {"city": "ALBANY", "state": "GA", "street": "1001 N SLAPPEY BLVD", "postcode": "31701"}}},
{"geometry": {"type": "Point", "coordinates": [-84.1560985733, 31.5767871863]}, "type": "Feature", "properties": {"collection_times": [{"days": "Mon-Fri", "time": "5:30pm"}, {"days": "Sat", "time": "4:00pm"}, {"days": "Sun", "time": "Closed"}], "id": "3170100055", "name": "USPS COLLECTION BOX - BLUE BOX", "address": {"city": "ALBANY", "state": "GA", "street": "400 W BROAD AVE", "postcode": "31701"}}},
{"geometry": {"type": "Point", "coordinates": [-84.1560985733, 31.5767871863]}, "type": "Feature", "properties": {"collection_times": [{"days": "Mon-Fri", "time": "5:30pm"}, {"days": "Sat", "time": "4:00pm"}, {"days": "Sun", "time": "Closed"}], "id": "3170100056", "name": "USPS COLLECTION BOX - BLUE BOX", "address": {"city": "ALBANY", "state": "GA", "street": "400 W BROAD AVE", "postcode": "31701"}}},
{"geometry": {"type": "Point", "coordinates": [-84.1560985733, 31.5767871863]}, "type": "Feature", "properties": {"collection_times": [{"days": "Mon-Fri", "time": "5:30pm"}, {"days": "Sat", "time": "4:00pm"}, {"days": "Sun", "time": "Closed"}], "id": "3170100057", "name": "USPS COLLECTION BOX - BLUE BOX", "address": {"city": "ALBANY", "state": "GA", "street": "400 W BROAD AVE", "postcode": "31701"}}},
{"geometry": {"type": "Point", "coordinates": [-84.1560985733, 31.5767871863]}, "type": "Feature", "properties": {"collection_times": [{"days": "Mon-Fri", "time": "5:30pm"}, {"days": "Sat", "time": "4:00pm"}, {"days": "Sun", "time": "Closed"}], "id": "3170100058", "name": "USPS COLLECTION BOX - BLUE BOX", "address": {"city": "ALBANY", "state": "GA", "street": "400 W BROAD AVE", "postcode": "31701"}}},
{"geometry": {"type": "Point", "coordinates": [-84.1560985733, 31.5767871863]}, "type": "Feature", "properties": {"collection_times": [{"days": "Mon-Fri", "time": "5:30pm"}, {"days": "Sat", "time": "4:00pm"}, {"days": "Sun", "time": "Closed"}], "id": "3170100060", "name": "USPS COLLECTION BOX - BLUE BOX", "address": {"city": "ALBANY", "state": "GA", "street": "400 W BROAD AVE", "postcode": "31701"}}},
{"geometry": {"type": "Point", "coordinates": [-84.1560985733, 31.5767871863]}, "type": "Feature", "properties": {"collection_times": [{"days": "Mon-Fri", "time": "5:30pm"}, {"days": "Sat", "time": "4:00pm"}, {"days": "Sun", "time": "Closed"}], "id": "3170100061", "name": "USPS COLLECTION BOX - BLUE BOX", "address": {"city": "ALBANY", "state": "GA", "street": "400 W BROAD AVE", "postcode": "31701"}}},
{"geometry": {"type": "Point", "coordinates": [-84.1560985733, 31.5767871863]}, "type": "Feature", "properties": {"collection_times": [{"days": "Mon-Fri", "time": "5:30pm"}, {"days": "Sat", "time": "4:00pm"}, {"days": "Sun", "time": "Closed"}], "id": "3170100064", "name": "USPS COLLECTION BOX - BLUE BOX", "address": {"city": "ALBANY", "state": "GA", "street": "400 W BROAD AVE", "postcode": "31701"}}},
{"geometry": {"type": "Point", "coordinates": [-84.1560985733, 31.5767871863]}, "type": "Feature", "properties": {"collection_times": [{"days": "Mon-Fri", "time": "5:30pm"}, {"days": "Sat", "time": "4:00pm"}, {"days": "Sun", "time": "Closed"}], "id": "3170100065", "name": "USPS COLLECTION BOX - BLUE BOX", "address": {"city": "ALBANY", "state": "GA", "street": "400 W BROAD AVE", "postcode": "31701"}}},
{"geometry": {"type": "Point", "coordinates": [-84.1560985733, 31.5767871863]}, "type": "Feature", "properties": {"collection_times": [{"days": "Mon-Fri", "time": "5:30pm"}, {"days": "Sat", "time": "4:00pm"}, {"days": "Sun", "time": "Closed"}], "id": "3170100066", "name": "USPS COLLECTION BOX - BLUE BOX", "address": {"city": "ALBANY", "state": "GA", "street": "400 W BROAD AVE", "postcode": "31701"}}},
{"geometry": {"type": "Point", "coordinates": [-84.1542335118, 31.5830301734]}, "type": "Feature", "properties": {"collection_times": [{"days": "Mon-Fri", "time": "3:00pm"}, {"days": "Sat", "time": "10:00am"}, {"days": "Sun", "time": "Closed"}], "id": "3170100072", "name": "USPS COLLECTION BOX - BLUE BOX", "address": {"city": "ALBANY", "state": "GA", "street": "320 W RESIDENCE AVE", "postcode": "31701"}}},
{"geometry": {"type": "Point", "coordinates": [-84.1522344803, 31.5815925823]}, "type": "Feature", "properties": {"collection_times": [{"days": "Mon-Fri", "time": "3:00pm"}, {"days": "Sat", "time": "10:00am"}, {"days": "Sun", "time": "Closed"}], "id": "3170100080", "name": "USPS COLLECTION BOX - BLUE BOX", "address": {"city": "ALBANY", "state": "GA", "street": "235 W ROOSEVELT AVE", "postcode": "31701"}}},
{"geometry": {"type": "Point", "coordinates": [-84.1513239852, 31.5773603428]}, "type": "Feature", "properties": {"collection_times": [{"days": "Mon-Fri", "time": "3:00pm"}, {"days": "Sat", "time": "10:00am"}, {"days": "Sun", "time": "Closed"}], "id": "3170100087", "name": "USPS COLLECTION BOX - BLUE BOX", "address": {"city": "ALBANY", "state": "GA", "street": "126 N WASHINGTON ST", "postcode": "31701"}}},
{"geometry": {"type": "Point", "coordinates": [-84.1762447467, 31.5620654462]}, "type": "Feature", "properties": {"collection_times": [{"days": "Mon-Sat", "time": "10:00am"}, {"days": "Sun", "time": "Closed"}], "id": "3170100093", "name": "USPS COLLECTION BOX - BLUE BOX", "address": {"city": "ALBANY", "state": "GA", "street": "1306 S SLAPPEY BLVD", "postcode": "31701"}}},
{"geometry": {"type": "Point", "coordinates": [-84.1765589139, 31.5600027618]}, "type": "Feature", "properties": {"collection_times": [{"days": "Mon-Fri", "time": "6:00pm"}, {"days": "Sat", "time": "5:00pm"}, {"days": "Sun", "time": "Closed"}], "id": "3170100094", "name": "USPS COLLECTION BOX - PO LOBBY", "address": {"city": "ALBANY", "state": "GA", "street": "1501 S SLAPPEY BLVD", "postcode": "31701"}}},
{"geometry": {"type": "Point", "coordinates": [-84.1546915888, 31.5769892755]}, "type": "Feature", "properties": {"collection_times": [{"days": "Mon-Fri", "time": "4:30pm"}, {"days": "Sat-Sun", "time": "Closed"}], "id": "3170100096", "name": "USPS COLLECTION BOX - PO LOBBY", "address": {"city": "ALBANY", "state": "GA", "street": "345 W BROAD AVE", "postcode": "31701"}}},
{"geometry": {"type": "Point", "coordinates": [-84.0886800568, 31.5752580778]}, "type": "Feature", "properties": {"collection_times": [{"days": "Mon-Sat", "time": "10:00am"}, {"days": "Sun", "time": "Closed"}], "id": "3170500001", "name": "USPS COLLECTION BOX - BLUE BOX", "address": {"city": "ALBANY", "state": "GA", "street": "2507 SYLVESTER RD", "postcode": "31705"}}},
{"geometry": {"type": "Point", "coordinates": [-84.0946188442, 31.5675200507]}, "type": "Feature", "properties": {"collection_times": [{"days": "Mon-Fri", "time": "5:00pm"}, {"days": "Sat", "time": "4:00pm"}, {"days": "Sun", "time": "Closed"}], "id": "3170500016", "name": "USPS COLLECTION BOX - BLUE BOX", "address": {"city": "ALBANY", "state": "GA", "street": "328 S MOCK RD", "postcode": "31705"}}},
{"geometry": {"type": "Point", "coordinates": [-84.0950191065, 31.5491233738]}, "type": "Feature", "properties": {"collection_times": [{"days": "Mon-Fri", "time": "5:00pm"}, {"days": "Sat", "time": "4:00pm"}, {"days": "Sun", "time": "Closed"}], "id": "3170500018", "name": "USPS COLLECTION BOX - BLUE BOX", "address": {"city": "ALBANY", "state": "GA", "street": "328 S MOCK RD", "postcode": "31705"}}},
{"geometry": {"type": "Point", "coordinates": [-84.0946188442, 31.5675200507]}, "type": "Feature", "properties": {"collection_times": [{"days": "Mon-Fri", "time": "5:00pm"}, {"days": "Sat", "time": "4:00pm"}, {"days": "Sun", "time": "Closed"}], "id": "3170500021", "name": "USPS COLLECTION BOX - BLUE BOX", "address": {"city": "ALBANY", "state": "GA", "street": "328 S MOCK RD", "postcode": "31705"}}},
{"geometry": {"type": "Point", "coordinates": [-84.0999215862, 31.5737912376]}, "type": "Feature", "properties": {"collection_times": [{"days": "Mon-Fri", "time": "3:00pm"}, {"days": "Sat", "time": "10:00am"}, {"days": "Sun", "time": "Closed"}], "id": "3170500022", "name": "USPS COLLECTION BOX - BLUE BOX", "address": {"city": "ALBANY", "state": "GA", "street": "200 LOFTUS DR", "postcode": "31705"}}},
{"geometry": {"type": "Point", "coordinates": [-84.054167161, 31.5510074355]}, "type": "Feature", "properties": {"collection_times": [{"days": "Mon-Sat", "time": "10:00am"}, {"days": "Sun", "time": "Closed"}], "id": "3170500036", "name": "USPS COLLECTION BOX - BLUE BOX", "address": {"city": "ALBANY", "state": "GA", "street": "814 RADFORD BLVD BLD 3600", "postcode": "31705"}}},
{"geometry": {"type": "Point", "coordinates": [-84.1157778458, 31.5961229624]}, "type": "Feature", "properties": {"collection_times": [{"days": "Mon-Sat", "time": "10:00am"}, {"days": "Sun", "time": "Closed"}], "id": "3170500048", "name": "USPS COLLECTION BOX - BLUE BOX", "address": {"city": "ALBANY", "state": "GA", "street": "1302 EVELYN AVE", "postcode": "31705"}}},
{"geometry": {"type": "Point", "coordinates": [-84.0946188442, 31.5675200507]}, "type": "Feature", "properties": {"collection_times": [{"days": "Mon-Fri", "time": "4:00pm"}, {"days": "Sat-Sun", "time": "Closed"}], "id": "3170500051", "name": "USPS COLLECTION BOX - PO LOBBY", "address": {"city": "ALBANY", "state": "GA", "street": "328 S MOCK RD", "postcode": "31705"}}},
{"geometry": {"type": "Point", "coordinates": [-84.2214141376, 31.6045251218]}, "type": "Feature", "properties": {"collection_times": [{"days": "Mon-Sat", "time": "10:00am"}, {"days": "Sun", "time": "Closed"}], "id": "3170700000", "name": "USPS COLLECTION BOX - BLUE BOX", "address": {"city": "ALBANY", "state": "GA", "street": "509 N WESTOVER BLVD", "postcode": "31707"}}},
{"geometry": {"type": "Point", "coordinates": [-84.1823891791, 31.6048956871]}, "type": "Feature", "properties": {"collection_times": [{"days": "Mon-Sat", "time": "10:00am"}, {"days": "Sun", "time": "Closed"}], "id": "3170700002", "name": "USPS COLLECTION BOX - BLUE BOX", "address": {"city": "ALBANY", "state": "GA", "street": "1404 WHISPERING PINES RD", "postcode": "31707"}}},
{"geometry": {"type": "Point", "coordinates": [-84.1832204534, 31.6172558668]}, "type": "Feature", "properties": {"collection_times": [{"days": "Mon-Fri", "time": "4:30pm"}, {"days": "Sat", "time": "10:00am"}, {"days": "Sun", "time": "Closed"}], "id": "3170700004", "name": "USPS COLLECTION BOX - BLUE BOX", "address": {"city": "ALBANY", "state": "GA", "street": "2700 PALMYRA RD", "postcode": "31707"}}},
{"geometry": {"type": "Point", "coordinates": [-84.1985866576, 31.5944808862]}, "type": "Feature", "properties": {"collection_times": [{"days": "Mon-Fri", "time": "5:30pm"}, {"days": "Sat", "time": "4:30pm"}, {"days": "Sun", "time": "Closed"}], "id": "3170700009", "name": "USPS COLLECTION BOX - BLUE BOX", "address": {"city": "ALBANY", "state": "GA", "street": "2823 MEREDYTH DR", "postcode": "31707"}}},
{"geometry": {"type": "Point", "coordinates": [-84.2203641155, 31.6106536443]}, "type": "Feature", "properties": {"collection_times": [{"days": "Mon-Fri", "time": "5:30pm"}, {"days": "Sat", "time": "4:30pm"}, {"days": "Sun", "time": "Closed"}], "id": "3170700010", "name": "USPS COLLECTION BOX - BLUE BOX", "address": {"city": "ALBANY", "state": "GA", "street": "2823 MEREDYTH DR", "postcode": "31707"}}},
{"geometry": {"type": "Point", "coordinates": [-84.2203641155, 31.6106536443]}, "type": "Feature", "properties": {"collection_times": [{"days": "Mon-Fri", "time": "5:30pm"}, {"days": "Sat", "time": "4:30pm"}, {"days": "Sun", "time": "Closed"}], "id": "3170700012", "name": "USPS COLLECTION BOX - BLUE BOX", "address": {"city": "ALBANY", "state": "GA", "street": "2823 MEREDYTH DR", "postcode": "31707"}}},
{"geometry": {"type": "Point", "coordinates": [-84.217735475, 31.5858126015]}, "type": "Feature", "properties": {"collection_times": [{"days": "Mon-Sat", "time": "10:00am"}, {"days": "Sun", "time": "Closed"}], "id": "3170700020", "name": "USPS COLLECTION BOX - BLUE BOX", "address": {"city": "ALBANY", "state": "GA", "street": "2701 GILLIONVILLE RD", "postcode": "31707"}}},
{"geometry": {"type": "Point", "coordinates": [-84.179619167, 31.5807463283]}, "type": "Feature", "properties": {"collection_times": [{"days": "Mon-Sat", "time": "10:00am"}, {"days": "Sun", "time": "Closed"}], "id": "3170700030", "name": "USPS COLLECTION BOX - BLUE BOX", "address": {"city": "ALBANY", "state": "GA", "street": "322 EVA ST", "postcode": "31707"}}},
{"geometry": {"type": "Point", "coordinates": [-84.2193269158, 31.6157769877]}, "type": "Feature", "properties": {"collection_times": [{"days": "Mon-Fri", "time": "3:00pm"}, {"days": "Sat", "time": "10:00am"}, {"days": "Sun", "time": "Closed"}], "id": "3170700033", "name": "USPS COLLECTION BOX - BLUE BOX", "address": {"city": "ALBANY", "state": "GA", "street": "2700 DAWSON RD", "postcode": "31707"}}},
{"geometry": {"type": "Point", "coordinates": [-84.2081797733, 31.6072635188]}, "type": "Feature", "properties": {"collection_times": [{"days": "Mon-Sat", "time": "3:00pm"}, {"days": "Sun", "time": "Closed"}], "id": "3170700038", "name": "USPS COLLECTION BOX - BLUE BOX", "address": {"city": "ALBANY", "state": "GA", "street": "2401 DAWSON RD", "postcode": "31707"}}},
{"geometry": {"type": "Point", "coordinates": [-84.1969628365, 31.5969702466]}, "type": "Feature", "properties": {"collection_times": [{"days": "Mon-Fri", "time": "3:00pm"}, {"days": "Sat", "time": "10:00am"}, {"days": "Sun", "time": "Closed"}], "id": "3170700041", "name": "USPS COLLECTION BOX - BLUE BOX", "address": {"city": "ALBANY", "state": "GA", "street": "1921 DAWSON RD", "postcode": "31707"}}},
{"geometry": {"type": "Point", "coordinates": [-84.1848293341, 31.587017693]}, "type": "Feature", "properties": {"collection_times": [{"days": "Mon-Fri", "time": "3:00pm"}, {"days": "Sat", "time": "10:00am"}, {"days": "Sun", "time": "Closed"}], "id": "3170700045", "name": "USPS COLLECTION BOX - BLUE BOX", "address": {"city": "ALBANY", "state": "GA", "street": "1410 DAWSON RD", "postcode": "31707"}}},
{"geometry": {"type": "Point", "coordinates": [-84.2192549521, 31.6134438336]}, "type": "Feature", "properties": {"collection_times": [{"days": "Mon-Sat", "time": "10:00am"}, {"days": "Sun", "time": "Closed"}], "id": "3170700063", "name": "USPS COLLECTION BOX - BLUE BOX", "address": {"city": "ALBANY", "state": "GA", "street": "2800 OLD DAWSON RD", "postcode": "31707"}}},
{"geometry": {"type": "Point", "coordinates": [-84.2081797733, 31.6072635188]}, "type": "Feature", "properties": {"collection_times": [{"days": "Mon-Sat", "time": "3:00pm"}, {"days": "Sun", "time": "Closed"}], "id": "3170700067", "name": "USPS COLLECTION BOX - BLUE BOX", "address": {"city": "ALBANY", "state": "GA", "street": "2401 DAWSON RD", "postcode": "31707"}}},
{"geometry": {"type": "Point", "coordinates": [-84.1903880865, 31.5768420153]}, "type": "Feature", "properties": {"collection_times": [{"days": "Mon-Sat", "time": "10:00am"}, {"days": "Sun", "time": "Closed"}], "id": "3170700068", "name": "USPS COLLECTION BOX - BLUE BOX", "address": {"city": "ALBANY", "state": "GA", "street": "100 N MAGNOLIA ST", "postcode": "31707"}}},
{"geometry": {"type": "Point", "coordinates": [-84.2091362985, 31.5857736606]}, "type": "Feature", "properties": {"collection_times": [{"days": "Mon-Fri", "time": "3:00pm"}, {"days": "Sat", "time": "10:00am"}, {"days": "Sun", "time": "Closed"}], "id": "3170700070", "name": "USPS COLLECTION BOX - BLUE BOX", "address": {"city": "ALBANY", "state": "GA", "street": "2400 GILLIONVILLE RD", "postcode": "31707"}}},
{"geometry": {"type": "Point", "coordinates": [-84.211130288, 31.6224639544]}, "type": "Feature", "properties": {"collection_times": [{"days": "Mon-Sat", "time": "10:00am"}, {"days": "Sun", "time": "Closed"}], "id": "3170700073", "name": "USPS COLLECTION BOX - BLUE BOX", "address": {"city": "ALBANY", "state": "GA", "street": "2724 LEDO RD", "postcode": "31707"}}},
{"geometry": {"type": "Point", "coordinates": [-84.2203641155, 31.6106536443]}, "type": "Feature", "properties": {"collection_times": [{"days": "Mon-Fri", "time": "5:30pm"}, {"days": "Sat-Sun", "time": "Closed"}], "id": "3170700074", "name": "USPS COLLECTION BOX - PO LOBBY", "address": {"city": "ALBANY", "state": "GA", "street": "2823 MEREDYTH DR", "postcode": "31707"}}},
{"geometry": {"type": "Point", "coordinates": [-84.2203641155, 31.6106536443]}, "type": "Feature", "properties": {"collection_times": [{"days": "Mon-Fri", "time": "5:30pm"}, {"days": "Sat", "time": "4:30pm"}, {"days": "Sun", "time": "Closed"}], "id": "3170700076", "name": "USPS COLLECTION BOX - BLUE BOX", "address": {"city": "ALBANY", "state": "GA", "street": "2823 MEREDYTH DR", "postcode": "31707"}}},
{"geometry": {"type": "Point", "coordinates": [-84.1832204534, 31.6172558668]}, "type": "Feature", "properties": {"collection_times": [{"days": "Mon-Fri", "time": "4:30pm"}, {"days": "Sat", "time": "10:00am"}, {"days": "Sun", "time": "Closed"}], "id": "3170700078", "name": "USPS COLLECTION BOX - BLUE BOX", "address": {"city": "ALBANY", "state": "GA", "street": "2700 PALMYRA RD", "postcode": "31707"}}},
{"geometry": {"type": "Point", "coordinates": [-84.2217242767, 31.5708390075]}, "type": "Feature", "properties": {"collection_times": [{"days": "Mon-Sat", "time": "10:00am"}, {"days": "Sun", "time": "Closed"}], "id": "3170700079", "name": "USPS COLLECTION BOX - BLUE BOX", "address": {"city": "ALBANY", "state": "GA", "street": "421 S WESTOVER BLVD", "postcode": "31707"}}},
{"geometry": {"type": "Point", "coordinates": [-84.2203641155, 31.6106536443]}, "type": "Feature", "properties": {"collection_times": [{"days": "Mon-Fri", "time": "5:30pm"}, {"days": "Sat", "time": "4:30pm"}, {"days": "Sun", "time": "Closed"}], "id": "3170700080", "name": "USPS COLLECTION BOX - APC", "address": {"city": "ALBANY", "state": "GA", "street": "2823 MEREDYTH DR", "postcode": "31707"}}},
{"geometry": {"type": "Point", "coordinates": [-84.2320573452, 32.0733607509]}, "type": "Feature", "properties": {"collection_times": [{"days": "Mon-Fri", "time": "5:00pm"}, {"days": "Sat", "time": "3:00pm"}, {"days": "Sun", "time": "Closed"}], "id": "3170900000", "name": "USPS COLLECTION BOX - BLUE BOX", "address": {"city": "AMERICUS", "state": "GA", "street": "128 E FORSYTH ST", "postcode": "31709"}}},
{"geometry": {"type": "Point", "coordinates": [-84.2087603319, 32.0712650441]}, "type": "Feature", "properties": {"collection_times": [{"days": "Mon-Sat", "time": "9:00am"}, {"days": "Sun", "time": "Closed"}], "id": "3170900008", "name": "USPS COLLECTION BOX - BLUE BOX", "address": {"city": "AMERICUS", "state": "GA", "street": "1610 E FORSYTH ST", "postcode": "31709"}}},
{"geometry": {"type": "Point", "coordinates": [-84.2348298885, 32.072133149]}, "type": "Feature", "properties": {"collection_times": [{"days": "Mon-Fri", "time": "3:00pm"}, {"days": "Sat", "time": "9:00am"}, {"days": "Sun", "time": "Closed"}], "id": "3170900011", "name": "USPS COLLECTION BOX - BLUE BOX", "address": {"city": "AMERICUS", "state": "GA", "street": "208 W LAMAR ST", "postcode": "31709"}}},
{"geometry": {"type": "Point", "coordinates": [-84.2412344742, 32.0733534309]}, "type": "Feature", "properties": {"collection_times": [{"days": "Mon-Fri", "time": "3:00pm"}, {"days": "Sat-Sun", "time": "Closed"}], "id": "3170900014", "name": "USPS COLLECTION BOX - BLUE BOX", "address": {"city": "AMERICUS", "state": "GA", "street": "500 W LAMAR ST", "postcode": "31709"}}},
{"geometry": {"type": "Point", "coordinates": [-84.2129822328, 32.0712794124]}, "type": "Feature", "properties": {"collection_times": [{"days": "Mon-Sat", "time": "9:00am"}, {"days": "Sun", "time": "Closed"}], "id": "3170900027", "name": "USPS COLLECTION BOX - BLUE BOX", "address": {"city": "AMERICUS", "state": "GA", "street": "1711 E LAMAR ST", "postcode": "31709"}}},
{"geometry": {"type": "Point", "coordinates": [-84.2320573452, 32.0733607509]}, "type": "Feature", "properties": {"collection_times": [{"days": "Mon-Fri", "time": "5:00pm"}, {"days": "Sat", "time": "4:00pm"}, {"days": "Sun", "time": "Closed"}], "id": "3170900030", "name": "USPS COLLECTION BOX - PO LOBBY", "address": {"city": "AMERICUS", "state": "GA", "street": "128 E FORSYTH ST", "postcode": "31709"}}},
{"geometry": {"type": "Point", "coordinates": [-84.1426058193, 32.1958473155]}, "type": "Feature", "properties": {"collection_times": [{"days": "Mon-Fri", "time": "2:00pm"}, {"days": "Sat", "time": "10:30am"}, {"days": "Sun", "time": "Closed"}], "id": "3171100002", "name": "USPS COLLECTION BOX - PO LOBBY", "address": {"city": "ANDERSONVILLE", "state": "GA", "street": "113 E CHURCH ST", "postcode": "31711"}}},
{"geometry": {"type": "Point", "coordinates": [-83.7405828372, 31.8312699302]}, "type": "Feature", "properties": {"collection_times": [{"days": "Mon-Fri", "time": "12:00pm"}, {"days": "Sat", "time": "10:00am"}, {"days": "Sun", "time": "Closed"}], "id": "3171200000", "name": "USPS COLLECTION BOX - BLUE BOX", "address": {"city": "ARABI", "state": "GA", "street": "4185 BEDGOOD AVE", "postcode": "31712"}}},
{"geometry": {"type": "Point", "coordinates": [-83.7405828372, 31.8312699302]}, "type": "Feature", "properties": {"collection_times": [{"days": "Mon-Fri", "time": "12:00pm"}, {"days": "Sat", "time": "10:00am"}, {"days": "Sun", "time": "Closed"}], "id": "3171200001", "name": "USPS COLLECTION BOX - PO LOBBY", "address": {"city": "ARABI", "state": "GA", "street": "4185 BEDGOOD AVE", "postcode": "31712"}}},
{"geometry": {"type": "Point", "coordinates": [-83.6522071564, 31.7078826402]}, "type": "Feature", "properties": {"collection_times": [{"days": "Mon-Fri", "time": "5:00pm"}, {"days": "Sat", "time": "4:30pm"}, {"days": "Sun", "time": "Closed"}], "id": "3171400015", "name": "USPS COLLECTION BOX - PO LOBBY", "address": {"city": "ASHBURN", "state": "GA", "street": "218 E COLLEGE AVE", "postcode": "31714"}}},
{"geometry": {"type": "Point", "coordinates": [-83.6522071564, 31.7078826402]}, "type": "Feature", "properties": {"collection_times": [{"days": "Mon-Fri", "time": "5:00pm"}, {"days": "Sat", "time": "4:30pm"}, {"days": "Sun", "time": "Closed"}], "id": "3171400016", "name": "USPS COLLECTION BOX - BLUE BOX", "address": {"city": "ASHBURN", "state": "GA", "street": "218 E COLLEGE AVE", "postcode": "31714"}}},
{"geometry": {"type": "Point", "coordinates": [-83.6522071564, 31.7078826402]}, "type": "Feature", "properties": {"collection_times": [{"days": "Mon-Fri", "time": "5:00pm"}, {"days": "Sat", "time": "4:30pm"}, {"days": "Sun", "time": "Closed"}], "id": "3171400017", "name": "USPS COLLECTION BOX - BLUE BOX", "address": {"city": "ASHBURN", "state": "GA", "street": "218 E COLLEGE AVE", "postcode": "31714"}}},
{"geometry": {"type": "Point", "coordinates": [-84.1615550629, 31.3764337711]}, "type": "Feature", "properties": {"collection_times": [{"days": "Mon-Fri", "time": "3:30pm"}, {"days": "Sat", "time": "10:30am"}, {"days": "Sun", "time": "Closed"}], "id": "3171600000", "name": "USPS COLLECTION BOX - BLUE BOX", "address": {"city": "BACONTON", "state": "GA", "street": "140 E WALTON ST", "postcode": "31716"}}},
{"geometry": {"type": "Point", "coordinates": [-84.1615550629, 31.3764337711]}, "type": "Feature", "properties": {"collection_times": [{"days": "Mon-Fri", "time": "3:30pm"}, {"days": "Sat", "time": "10:30am"}, {"days": "Sun", "time": "Closed"}], "id": "3171600001", "name": "USPS COLLECTION BOX - PO LOBBY", "address": {"city": "BACONTON", "state": "GA", "street": "140 E WALTON ST", "postcode": "31716"}}},
{"geometry": {"type": "Point", "coordinates": [-83.7457276113, 30.8930113882]}, "type": "Feature", "properties": {"collection_times": [{"days": "Mon-Fri", "time": "1:00pm"}, {"days": "Sat", "time": "11:00am"}, {"days": "Sun", "time": "Closed"}], "id": "3172000000", "name": "USPS COLLECTION BOX - BLUE BOX", "address": {"city": "BARWICK", "state": "GA", "street": "2032 E MAIN ST", "postcode": "31720"}}},
{"geometry": {"type": "Point", "coordinates": [-83.7457276113, 30.8930113882]}, "type": "Feature", "properties": {"collection_times": [{"days": "Mon-Fri", "time": "1:00pm"}, {"days": "Sat", "time": "11:00am"}, {"days": "Sun", "time": "Closed"}], "id": "3172000001", "name": "USPS COLLECTION BOX - PO LOBBY", "address": {"city": "BARWICK", "state": "GA", "street": "2032 E MAIN ST", "postcode": "31720"}}},
{"geometry": {"type": "Point", "coordinates": [-83.6237646272, 31.0687932557]}, "type": "Feature", "properties": {"collection_times": [{"days": "Mon-Fri", "time": "4:30pm"}, {"days": "Sat", "time": "11:00am"}, {"days": "Sun", "time": "Closed"}], "id": "3172200000", "name": "USPS COLLECTION BOX - BLUE BOX", "address": {"city": "BERLIN", "state": "GA", "street": "293 N LANGFORD ST", "postcode": "31722"}}},
{"geometry": {"type": "Point", "coordinates": [-83.6237646272, 31.0687932557]}, "type": "Feature", "properties": {"collection_times": [{"days": "Mon-Fri", "time": "12:30pm"}, {"days": "Sat", "time": "11:00am"}, {"days": "Sun", "time": "Closed"}], "id": "3172200001", "name": "USPS COLLECTION BOX - PO LOBBY", "address": {"city": "BERLIN", "state": "GA", "street": "293 N LANGFORD ST", "postcode": "31722"}}},
{"geometry": {"type": "Point", "coordinates": [-83.3909353193, 31.4173593154]}, "type": "Feature", "properties": {"collection_times": [{"days": "Mon-Fri", "time": "12:15pm"}, {"days": "Sat", "time": "10:15am"}, {"days": "Sun", "time": "Closed"}], "id": "3172700000", "name": "USPS COLLECTION BOX - BLUE BOX", "address": {"city": "BROOKFIELD", "state": "GA", "street": "999 LOWER BROOKFIELD RD", "postcode": "31727"}}},
{"geometry": {"type": "Point", "coordinates": [-83.3909353193, 31.4173593154]}, "type": "Feature", "properties": {"collection_times": [{"days": "Mon-Fri", "time": "12:15pm"}, {"days": "Sat", "time": "10:30am"}, {"days": "Sun", "time": "Closed"}], "id": "3172700001", "name": "USPS COLLECTION BOX - PO LOBBY", "address": {"city": "BROOKFIELD", "state": "GA", "street": "999 LOWER BROOKFIELD RD", "postcode": "31727"}}},
{"geometry": {"type": "Point", "coordinates": [-84.2082835895, 31.2311995191]}, "type": "Feature", "properties": {"collection_times": [{"days": "Mon-Fri", "time": "5:15pm"}, {"days": "Sat", "time": "4:45pm"}, {"days": "Sun", "time": "Closed"}], "id": "3173000000", "name": "USPS COLLECTION BOX - BLUE BOX", "address": {"city": "CAMILLA", "state": "GA", "street": "13 E BROAD ST", "postcode": "31730"}}},
{"geometry": {"type": "Point", "coordinates": [-84.2082835895, 31.2311995191]}, "type": "Feature", "properties": {"collection_times": [{"days": "Mon-Fri", "time": "5:15pm"}, {"days": "Sat", "time": "4:45pm"}, {"days": "Sun", "time": "Closed"}], "id": "3173000001", "name": "USPS COLLECTION BOX - BLUE BOX", "address": {"city": "CAMILLA", "state": "GA", "street": "13 E BROAD ST", "postcode": "31730"}}},
{"geometry": {"type": "Point", "coordinates": [-84.2082835895, 31.2311995191]}, "type": "Feature", "properties": {"collection_times": [{"days": "Mon-Fri", "time": "5:15pm"}, {"days": "Sat", "time": "4:45pm"}, {"days": "Sun", "time": "Closed"}], "id": "3173000008", "name": "USPS COLLECTION BOX - PO LOBBY", "address": {"city": "CAMILLA", "state": "GA", "street": "13 E BROAD ST", "postcode": "31730"}}},
{"geometry": {"type": "Point", "coordinates": [-83.5435660344, 31.5486736302]}, "type": "Feature", "properties": {"collection_times": [{"days": "Mon-Fri", "time": "3:00pm"}, {"days": "Sat", "time": "1:45pm"}, {"days": "Sun", "time": "Closed"}], "id": "3173300000", "name": "USPS COLLECTION BOX - BLUE BOX", "address": {"city": "CHULA", "state": "GA", "street": "3272 US HIGHWAY 41 N", "postcode": "31733"}}},
{"geometry": {"type": "Point", "coordinates": [-83.5435660344, 31.5486736302]}, "type": "Feature", "properties": {"collection_times": [{"days": "Mon-Fri", "time": "3:00pm"}, {"days": "Sat", "time": "1:45pm"}, {"days": "Sun", "time": "Closed"}], "id": "3173300001", "name": "USPS COLLECTION BOX - PO LOBBY", "address": {"city": "CHULA", "state": "GA", "street": "3272 US HIGHWAY 41 N", "postcode": "31733"}}},
{"geometry": {"type": "Point", "coordinates": [-84.0046237011, 31.9330641621]}, "type": "Feature", "properties": {"collection_times": [{"days": "Mon-Fri", "time": "1:00pm"}, {"days": "Sat", "time": "10:30am"}, {"days": "Sun", "time": "Closed"}], "id": "3173500000", "name": "USPS COLLECTION BOX - BLUE BOX", "address": {"city": "COBB", "state": "GA", "street": "106 PRYOR COBB RD", "postcode": "31735"}}},
{"geometry": {"type": "Point", "coordinates": [-84.0046237011, 31.9330641621]}, "type": "Feature", "properties": {"collection_times": [{"days": "Mon-Fri", "time": "1:00pm"}, {"days": "Sat", "time": "10:30am"}, {"days": "Sun", "time": "Closed"}], "id": "3173500001", "name": "USPS COLLECTION BOX - PO LOBBY", "address": {"city": "COBB", "state": "GA", "street": "106 PRYOR COBB RD", "postcode": "31735"}}},
{"geometry": {"type": "Point", "coordinates": [-83.8799510503, 31.00807946]}, "type": "Feature", "properties": {"collection_times": [{"days": "Mon-Fri", "time": "4:30pm"}, {"days": "Sat", "time": "10:30am"}, {"days": "Sun", "time": "Closed"}], "id": "3173800000", "name": "USPS COLLECTION BOX - BLUE BOX", "address": {"city": "COOLIDGE", "state": "GA", "street": "1020 W STETSON AVE", "postcode": "31738"}}},
{"geometry": {"type": "Point", "coordinates": [-83.8799510503, 31.00807946]}, "type": "Feature", "properties": {"collection_times": [{"days": "Mon-Fri", "time": "4:00pm"}, {"days": "Sat", "time": "10:30am"}, {"days": "Sun", "time": "Closed"}], "id": "3173800001", "name": "USPS COLLECTION BOX - PO LOBBY", "address": {"city": "COOLIDGE", "state": "GA", "street": "1020 W STETSON AVE", "postcode": "31738"}}},
{"geometry": {"type": "Point", "coordinates": [-84.0679664648, 31.9527903833]}, "type": "Feature", "properties": {"collection_times": [{"days": "Mon-Fri", "time": "12:15pm"}, {"days": "Sat", "time": "9:30am"}, {"days": "Sun", "time": "Closed"}], "id": "3174300000", "name": "USPS COLLECTION BOX - PO LOBBY", "address": {"city": "DESOTO", "state": "GA", "street": "360 BAGLEY ST", "postcode": "31743"}}},
{"geometry": {"type": "Point", "coordinates": [-84.0679664648, 31.9527903833]}, "type": "Feature", "properties": {"collection_times": [{"days": "Mon-Fri", "time": "12:15pm"}, {"days": "Sat", "time": "9:30am"}, {"days": "Sun", "time": "Closed"}], "id": "3174300001", "name": "USPS COLLECTION BOX - BLUE BOX", "address": {"city": "DESOTO", "state": "GA", "street": "360 BAGLEY ST", "postcode": "31743"}}},
{"geometry": {"type": "Point", "coordinates": [-83.9189065591, 31.3195496909]}, "type": "Feature", "properties": {"collection_times": [{"days": "Mon-Fri", "time": "4:30pm"}, {"days": "Sat", "time": "11:00am"}, {"days": "Sun", "time": "Closed"}], "id": "3174400001", "name": "USPS COLLECTION BOX - PO LOBBY", "address": {"city": "DOERUN", "state": "GA", "street": "241 W BROAD AVE", "postcode": "31744"}}},
{"geometry": {"type": "Point", "coordinates": [-83.9189065591, 31.3195496909]}, "type": "Feature", "properties": {"collection_times": [{"days": "Mon-Fri", "time": "4:30pm"}, {"days": "Sat", "time": "11:00am"}, {"days": "Sun", "time": "Closed"}], "id": "3174400002", "name": "USPS COLLECTION BOX - BLUE BOX", "address": {"city": "DOERUN", "state": "GA", "street": "241 W BROAD AVE", "postcode": "31744"}}},
{"geometry": {"type": "Point", "coordinates": [-83.5875514953, 31.1756793846]}, "type": "Feature", "properties": {"collection_times": [{"days": "Mon-Fri", "time": "4:15pm"}, {"days": "Sat", "time": "10:15am"}, {"days": "Sun", "time": "Closed"}], "id": "3174700000", "name": "USPS COLLECTION BOX - BLUE BOX", "address": {"city": "ELLENTON", "state": "GA", "street": "158 BAKER ST", "postcode": "31747"}}},
{"geometry": {"type": "Point", "coordinates": [-83.5875514953, 31.1756793846]}, "type": "Feature", "properties": {"collection_times": [{"days": "Mon-Fri", "time": "2:00pm"}, {"days": "Sat", "time": "10:30am"}, {"days": "Sun", "time": "Closed"}], "id": "3174700001", "name": "USPS COLLECTION BOX - PO LOBBY", "address": {"city": "ELLENTON", "state": "GA", "street": "158 BAKER ST", "postcode": "31747"}}},
{"geometry": {"type": "Point", "coordinates": [-83.3299201738, 31.4041562536]}, "type": "Feature", "properties": {"collection_times": [{"days": "Mon-Fri", "time": "2:00pm"}, {"days": "Sat", "time": "10:30am"}, {"days": "Sun", "time": "Closed"}], "id": "3174900000", "name": "USPS COLLECTION BOX - BLUE BOX", "address": {"city": "ENIGMA", "state": "GA", "street": "552 MAIN ST", "postcode": "31749"}}},
{"geometry": {"type": "Point", "coordinates": [-83.3299201738, 31.4041562536]}, "type": "Feature", "properties": {"collection_times": [{"days": "Mon-Fri", "time": "2:00pm"}, {"days": "Sat", "time": "10:30am"}, {"days": "Sun", "time": "Closed"}], "id": "3174900001", "name": "USPS COLLECTION BOX - PO LOBBY", "address": {"city": "ENIGMA", "state": "GA", "street": "552 MAIN ST", "postcode": "31749"}}},
{"geometry": {"type": "Point", "coordinates": [-83.254498907, 31.7124159225]}, "type": "Feature", "properties": {"collection_times": [{"days": "Mon-Fri", "time": "2:30pm"}, {"days": "Sat", "time": "1:00pm"}, {"days": "Sun", "time": "Closed"}], "id": "3175000003", "name": "USPS COLLECTION BOX - BLUE BOX", "address": {"city": "FITZGERALD", "state": "GA", "street": "301 S MAIN ST", "postcode": "31750"}}},
{"geometry": {"type": "Point", "coordinates": [-83.2545503181, 31.7152373409]}, "type": "Feature", "properties": {"collection_times": [{"days": "Mon-Fri", "time": "5:00pm"}, {"days": "Sat", "time": "2:00pm"}, {"days": "Sun", "time": "Closed"}], "id": "3175000004", "name": "USPS COLLECTION BOX - BLUE BOX", "address": {"city": "FITZGERALD", "state": "GA", "street": "124 N MAIN ST", "postcode": "31750"}}},
{"geometry": {"type": "Point", "coordinates": [-83.2545503181, 31.7152373409]}, "type": "Feature", "properties": {"collection_times": [{"days": "Mon-Fri", "time": "5:00pm"}, {"days": "Sat", "time": "2:00pm"}, {"days": "Sun", "time": "Closed"}], "id": "3175000005", "name": "USPS COLLECTION BOX - BLUE BOX", "address": {"city": "FITZGERALD", "state": "GA", "street": "124 N MAIN ST", "postcode": "31750"}}},
{"geometry": {"type": "Point", "coordinates": [-83.2545503181, 31.7152373409]}, "type": "Feature", "properties": {"collection_times": [{"days": "Mon-Fri", "time": "5:00pm"}, {"days": "Sat", "time": "2:00pm"}, {"days": "Sun", "time": "Closed"}], "id": "3175000006", "name": "USPS COLLECTION BOX - BLUE BOX", "address": {"city": "FITZGERALD", "state": "GA", "street": "124 N MAIN ST", "postcode": "31750"}}},
{"geometry": {"type": "Point", "coordinates": [-83.2545503181, 31.7152373409]}, "type": "Feature", "properties": {"collection_times": [{"days": "Mon-Fri", "time": "5:00pm"}, {"days": "Sat", "time": "2:00pm"}, {"days": "Sun", "time": "Closed"}], "id": "3175000007", "name": "USPS COLLECTION BOX - BLUE BOX", "address": {"city": "FITZGERALD", "state": "GA", "street": "124 N MAIN ST", "postcode": "31750"}}},
{"geometry": {"type": "Point", "coordinates": [-83.2545503181, 31.7152373409]}, "type": "Feature", "properties": {"collection_times": [{"days": "Mon-Fri", "time": "5:00pm"}, {"days": "Sat", "time": "2:00pm"}, {"days": "Sun", "time": "Closed"}], "id": "3175000014", "name": "USPS COLLECTION BOX - PO LOBBY", "address": {"city": "FITZGERALD", "state": "GA", "street": "124 N MAIN ST", "postcode": "31750"}}},
{"geometry": {"type": "Point", "coordinates": [-83.8722525757, 31.1996221209]}, "type": "Feature", "properties": {"collection_times": [{"days": "Mon-Fri", "time": "4:15pm"}, {"days": "Sat", "time": "10:15am"}, {"days": "Sun", "time": "Closed"}], "id": "3175300000", "name": "USPS COLLECTION BOX - BLUE BOX", "address": {"city": "FUNSTON", "state": "GA", "street": "126 W MULBERRY ST", "postcode": "31753"}}},
{"geometry": {"type": "Point", "coordinates": [-83.8722525757, 31.1996221209]}, "type": "Feature", "properties": {"collection_times": [{"days": "Mon-Fri", "time": "1:00pm"}, {"days": "Sat", "time": "10:15am"}, {"days": "Sun", "time": "Closed"}], "id": "3175300001", "name": "USPS COLLECTION BOX - PO LOBBY", "address": {"city": "FUNSTON", "state": "GA", "street": "126 W MULBERRY ST", "postcode": "31753"}}},
{"geometry": {"type": "Point", "coordinates": [-83.998519342, 31.2216344337]}, "type": "Feature", "properties": {"collection_times": [{"days": "Mon-Fri", "time": "4:15pm"}, {"days": "Sat", "time": "10:15am"}, {"days": "Sun", "time": "Closed"}], "id": "3175600001", "name": "USPS COLLECTION BOX - BLUE BOX", "address": {"city": "HARTSFIELD", "state": "GA", "street": "7226 GA HIGHWAY 37 W", "postcode": "31756"}}},
{"geometry": {"type": "Point", "coordinates": [-83.998519342, 31.2216344337]}, "type": "Feature", "properties": {"collection_times": [{"days": "Mon-Fri", "time": "4:15pm"}, {"days": "Sat", "time": "10:15am"}, {"days": "Sun", "time": "Closed"}], "id": "3175600002", "name": "USPS COLLECTION BOX - PO LOBBY", "address": {"city": "HARTSFIELD", "state": "GA", "street": "7226 GA HIGHWAY 37 W", "postcode": "31756"}}},
{"geometry": {"type": "Point", "coordinates": [-83.9432828318, 30.8419942383]}, "type": "Feature", "properties": {"collection_times": [{"days": "Mon-Fri", "time": "4:30pm"}, {"days": "Sat", "time": "10:00am"}, {"days": "Sun", "time": "Closed"}], "id": "3175700007", "name": "USPS COLLECTION BOX - PO LOBBY", "address": {"city": "THOMASVILLE", "state": "GA", "street": "15 LIBERTY ST", "postcode": "31757"}}},
{"geometry": {"type": "Point", "coordinates": [-83.9432828318, 30.8419942383]}, "type": "Feature", "properties": {"collection_times": [{"days": "Mon-Fri", "time": "4:30pm"}, {"days": "Sat", "time": "11:15am"}, {"days": "Sun", "time": "Closed"}], "id": "3175700008", "name": "USPS COLLECTION BOX - BLUE BOX", "address": {"city": "THOMASVILLE", "state": "GA", "street": "15 LIBERTY ST", "postcode": "31757"}}},
{"geometry": {"type": "Point", "coordinates": [-83.8997297985, 30.870995018]}, "type": "Feature", "properties": {"collection_times": [{"days": "Mon-Fri", "time": "4:00pm"}, {"days": "Sat-Sun", "time": "Closed"}], "id": "3175700011", "name": "USPS COLLECTION BOX - BLUE BOX", "address": {"city": "THOMASVILLE", "state": "GA", "street": "15328 U S HIGHWAY 19 S", "postcode": "31757"}}},
{"geometry": {"type": "Point", "coordinates": [-84.2184147184, 31.7288252266]}, "type": "Feature", "properties": {"collection_times": [{"days": "Mon-Fri", "time": "5:00pm"}, {"days": "Sat", "time": "11:30am"}, {"days": "Sun", "time": "Closed"}], "id": "3176300000", "name": "USPS COLLECTION BOX - BLUE BOX", "address": {"city": "LEESBURG", "state": "GA", "street": "152 ROBERT B LEE DR", "postcode": "31763"}}},
{"geometry": {"type": "Point", "coordinates": [-84.176492258, 31.6339270615]}, "type": "Feature", "properties": {"collection_times": [{"days": "Mon-Sat", "time": "12:30pm"}, {"days": "Sun", "time": "Closed"}], "id": "3176300003", "name": "USPS COLLECTION BOX - BLUE BOX", "address": {"city": "LEESBURG", "state": "GA", "street": "1553 US HIGHWAY 19 S", "postcode": "31763"}}},
{"geometry": {"type": "Point", "coordinates": [-84.2184147184, 31.7288252266]}, "type": "Feature", "properties": {"collection_times": [{"days": "Mon-Fri", "time": "5:00pm"}, {"days": "Sat", "time": "11:30am"}, {"days": "Sun", "time": "Closed"}], "id": "3176300005", "name": "USPS COLLECTION BOX - PO LOBBY", "address": {"city": "LEESBURG", "state": "GA", "street": "152 ROBERT B LEE DR", "postcode": "31763"}}},
{"geometry": {"type": "Point", "coordinates": [-84.2184147184, 31.7288252266]}, "type": "Feature", "properties": {"collection_times": [{"days": "Mon-Fri", "time": "5:00pm"}, {"days": "Sat", "time": "11:30am"}, {"days": "Sun", "time": "Closed"}], "id": "3176300006", "name": "USPS COLLECTION BOX - BLUE BOX", "address": {"city": "LEESBURG", "state": "GA", "street": "152 ROBERT B LEE DR", "postcode": "31763"}}},
{"geometry": {"type": "Point", "coordinates": [-84.176492258, 31.6339270615]}, "type": "Feature", "properties": {"collection_times": [{"days": "Mon-Sat", "time": "12:30pm"}, {"days": "Sun", "time": "Closed"}], "id": "3176300010", "name": "USPS COLLECTION BOX - BLUE BOX", "address": {"city": "LEESBURG", "state": "GA", "street": "1553 US HIGHWAY 19 S", "postcode": "31763"}}},
{"geometry": {"type": "Point", "coordinates": [-84.2184147184, 31.7288252266]}, "type": "Feature", "properties": {"collection_times": [{"days": "Mon-Fri", "time": "5:00pm"}, {"days": "Sat", "time": "11:30am"}, {"days": "Sun", "time": "Closed"}], "id": "3176300011", "name": "USPS COLLECTION BOX - BLUE BOX", "address": {"city": "LEESBURG", "state": "GA", "street": "152 ROBERT B LEE DR", "postcode": "31763"}}},
{"geometry": {"type": "Point", "coordinates": [-84.2184147184, 31.7288252266]}, "type": "Feature", "properties": {"collection_times": [{"days": "Mon-Sat", "time": "12:30pm"}, {"days": "Sun", "time": "Closed"}], "id": "3176300012", "name": "USPS COLLECTION BOX - BLUE BOX", "address": {"city": "LEESBURG", "state": "GA", "street": "1553 US HIGHWAY 19 S", "postcode": "31763"}}},
{"geometry": {"type": "Point", "coordinates": [-84.0897834051, 31.0724775252]}, "type": "Feature", "properties": {"collection_times": [{"days": "Mon-Fri", "time": "4:30pm"}, {"days": "Sat", "time": "10:30am"}, {"days": "Sun", "time": "Closed"}], "id": "3176500000", "name": "USPS COLLECTION BOX - BLUE BOX", "address": {"city": "MEIGS", "state": "GA", "street": "2010 E DEPOT ST", "postcode": "31765"}}},
{"geometry": {"type": "Point", "coordinates": [-84.0897834051, 31.0724775252]}, "type": "Feature", "properties": {"collection_times": [{"days": "Mon-Fri", "time": "4:30pm"}, {"days": "Sat", "time": "10:30am"}, {"days": "Sun", "time": "Closed"}], "id": "3176500001", "name": "USPS COLLECTION BOX - PO LOBBY", "address": {"city": "MEIGS", "state": "GA", "street": "2010 E DEPOT ST", "postcode": "31765"}}},
{"geometry": {"type": "Point", "coordinates": [-83.7829968855, 31.1777897213]}, "type": "Feature", "properties": {"collection_times": [{"days": "Mon-Fri", "time": "4:45pm"}, {"days": "Sat", "time": "10:00am"}, {"days": "Sun", "time": "Closed"}], "id": "3176800003", "name": "USPS COLLECTION BOX - BLUE BOX", "address": {"city": "MOULTRIE", "state": "GA", "street": "204 5TH ST SE", "postcode": "31768"}}},
{"geometry": {"type": "Point", "coordinates": [-83.7889767061, 31.1619905423]}, "type": "Feature", "properties": {"collection_times": [{"days": "Mon-Fri", "time": "5:00pm"}, {"days": "Sat", "time": "10:00am"}, {"days": "Sun", "time": "Closed"}], "id": "3176800015", "name": "USPS COLLECTION BOX - BLUE BOX", "address": {"city": "MOULTRIE", "state": "GA", "street": "1401 S MAIN ST", "postcode": "31768"}}},
{"geometry": {"type": "Point", "coordinates": [-83.787555786, 31.179984477]}, "type": "Feature", "properties": {"collection_times": [{"days": "Mon-Fri", "time": "5:00pm"}, {"days": "Sat", "time": "9:30am"}, {"days": "Sun", "time": "Closed"}], "id": "3176800018", "name": "USPS COLLECTION BOX - BLUE BOX", "address": {"city": "MOULTRIE", "state": "GA", "street": "101 E CENTRAL AVE", "postcode": "31768"}}},
{"geometry": {"type": "Point", "coordinates": [-83.7890164183, 31.1789740079]}, "type": "Feature", "properties": {"collection_times": [{"days": "Mon-Fri", "time": "5:00pm"}, {"days": "Sat", "time": "10:00am"}, {"days": "Sun", "time": "Closed"}], "id": "3176800021", "name": "USPS COLLECTION BOX - BLUE BOX", "address": {"city": "MOULTRIE", "state": "GA", "street": "28 1ST AVE SW", "postcode": "31768"}}},
{"geometry": {"type": "Point", "coordinates": [-83.7889513016, 31.1747241714]}, "type": "Feature", "properties": {"collection_times": [{"days": "Mon-Fri", "time": "5:00pm"}, {"days": "Sat", "time": "10:00am"}, {"days": "Sun", "time": "Closed"}], "id": "3176800023", "name": "USPS COLLECTION BOX - BLUE BOX", "address": {"city": "MOULTRIE", "state": "GA", "street": "132 S MAIN ST", "postcode": "31768"}}},
{"geometry": {"type": "Point", "coordinates": [-83.7887594152, 31.1808033622]}, "type": "Feature", "properties": {"collection_times": [{"days": "Mon-Fri", "time": "5:00pm"}, {"days": "Sat", "time": "10:00am"}, {"days": "Sun", "time": "Closed"}], "id": "3176800028", "name": "USPS COLLECTION BOX - BLUE BOX", "address": {"city": "MOULTRIE", "state": "GA", "street": "101 N MAIN ST", "postcode": "31768"}}},
{"geometry": {"type": "Point", "coordinates": [-83.7888370392, 31.1731787021]}, "type": "Feature", "properties": {"collection_times": [{"days": "Mon-Fri", "time": "5:00pm"}, {"days": "Sat", "time": "9:30am"}, {"days": "Sun", "time": "Closed"}], "id": "3176800030", "name": "USPS COLLECTION BOX - BLUE BOX", "address": {"city": "MOULTRIE", "state": "GA", "street": "711 S MAIN ST", "postcode": "31768"}}},
{"geometry": {"type": "Point", "coordinates": [-83.784184761, 31.1401117528]}, "type": "Feature", "properties": {"collection_times": [{"days": "Mon-Fri", "time": "5:00pm"}, {"days": "Sat", "time": "10:00am"}, {"days": "Sun", "time": "Closed"}], "id": "3176800031", "name": "USPS COLLECTION BOX - BLUE BOX", "address": {"city": "MOULTRIE", "state": "GA", "street": "2439 S MAIN ST", "postcode": "31768"}}},
{"geometry": {"type": "Point", "coordinates": [-83.784184761, 31.1401117528]}, "type": "Feature", "properties": {"collection_times": [{"days": "Mon-Fri", "time": "5:00pm"}, {"days": "Sat", "time": "10:00am"}, {"days": "Sun", "time": "Closed"}], "id": "3176800033", "name": "USPS COLLECTION BOX - BLUE BOX", "address": {"city": "MOULTRIE", "state": "GA", "street": "2439 S MAIN ST", "postcode": "31768"}}},
{"geometry": {"type": "Point", "coordinates": [-83.7656193133, 31.1776596076]}, "type": "Feature", "properties": {"collection_times": [{"days": "Mon-Fri", "time": "4:45pm"}, {"days": "Sat", "time": "10:00am"}, {"days": "Sun", "time": "Closed"}], "id": "3176800037", "name": "USPS COLLECTION BOX - BLUE BOX", "address": {"city": "MOULTRIE", "state": "GA", "street": "1707 1ST AVE SE", "postcode": "31768"}}},
{"geometry": {"type": "Point", "coordinates": [-83.7887476065, 31.1818443932]}, "type": "Feature", "properties": {"collection_times": [{"days": "Mon-Fri", "time": "5:45pm"}, {"days": "Sat", "time": "3:45pm"}, {"days": "Sun", "time": "Closed"}], "id": "3176800045", "name": "USPS COLLECTION BOX - PO LOBBY", "address": {"city": "MOULTRIE", "state": "GA", "street": "215 N MAIN ST", "postcode": "31768"}}},
{"geometry": {"type": "Point", "coordinates": [-83.7887476065, 31.1818443932]}, "type": "Feature", "properties": {"collection_times": [{"days": "Mon-Fri", "time": "5:30pm"}, {"days": "Sat", "time": "4:00pm"}, {"days": "Sun", "time": "Closed"}], "id": "3176800049", "name": "USPS COLLECTION BOX - BLUE BOX", "address": {"city": "MOULTRIE", "state": "GA", "street": "215 N MAIN ST", "postcode": "31768"}}},
{"geometry": {"type": "Point", "coordinates": [-83.7887476065, 31.1818443932]}, "type": "Feature", "properties": {"collection_times": [{"days": "Mon-Fri", "time": "5:30pm"}, {"days": "Sat", "time": "4:00pm"}, {"days": "Sun", "time": "Closed"}], "id": "3176800050", "name": "USPS COLLECTION BOX - BLUE BOX", "address": {"city": "MOULTRIE", "state": "GA", "street": "215 N MAIN ST", "postcode": "31768"}}},
{"geometry": {"type": "Point", "coordinates": [-83.7887476065, 31.1818443932]}, "type": "Feature", "properties": {"collection_times": [{"days": "Mon-Fri", "time": "5:30pm"}, {"days": "Sat", "time": "4:00pm"}, {"days": "Sun", "time": "Closed"}], "id": "3176800051", "name": "USPS COLLECTION BOX - BLUE BOX", "address": {"city": "MOULTRIE", "state": "GA", "street": "215 N MAIN ST", "postcode": "31768"}}},
{"geometry": {"type": "Point", "coordinates": [-83.7887476065, 31.1818443932]}, "type": "Feature", "properties": {"collection_times": [{"days": "Mon-Fri", "time": "5:30pm"}, {"days": "Sat", "time": "4:00pm"}, {"days": "Sun", "time": "Closed"}], "id": "3176800052", "name": "USPS COLLECTION BOX - BLUE BOX", "address": {"city": "MOULTRIE", "state": "GA", "street": "215 N MAIN ST", "postcode": "31768"}}},
{"geometry": {"type": "Point", "coordinates": [-83.7620458378, 31.174485751]}, "type": "Feature", "properties": {"collection_times": [{"days": "Mon-Fri", "time": "4:30pm"}, {"days": "Sat", "time": "10:00am"}, {"days": "Sun", "time": "Closed"}], "id": "3176800055", "name": "USPS COLLECTION BOX - BLUE BOX", "address": {"city": "MOULTRIE", "state": "GA", "street": "410 LANE ST", "postcode": "31768"}}},
{"geometry": {"type": "Point", "coordinates": [-83.3330440131, 31.621550275]}, "type": "Feature", "properties": {"collection_times": [{"days": "Mon-Fri", "time": "4:40pm"}, {"days": "Sat", "time": "10:10am"}, {"days": "Sun", "time": "Closed"}], "id": "3176900000", "name": "USPS COLLECTION BOX - BLUE BOX", "address": {"city": "MYSTIC", "state": "GA", "street": "224 JACKSON ST", "postcode": "31769"}}},
{"geometry": {"type": "Point", "coordinates": [-83.3330440131, 31.621550275]}, "type": "Feature", "properties": {"collection_times": [{"days": "Mon-Fri", "time": "4:45pm"}, {"days": "Sat", "time": "10:15am"}, {"days": "Sun", "time": "Closed"}], "id": "3176900001", "name": "USPS COLLECTION BOX - PO LOBBY", "address": {"city": "MYSTIC", "state": "GA", "street": "224 JACKSON ST", "postcode": "31769"}}},
{"geometry": {"type": "Point", "coordinates": [-83.6857179016, 31.2699878513]}, "type": "Feature", "properties": {"collection_times": [{"days": "Mon-Fri", "time": "4:30pm"}, {"days": "Sat", "time": "11:30am"}, {"days": "Sun", "time": "Closed"}], "id": "3177100000", "name": "USPS COLLECTION BOX - BLUE BOX", "address": {"city": "NORMAN PARK", "state": "GA", "street": "113 E BROAD", "postcode": "31771"}}},
{"geometry": {"type": "Point", "coordinates": [-83.6863995807, 31.2702472294]}, "type": "Feature", "properties": {"collection_times": [{"days": "Mon-Fri", "time": "4:30pm"}, {"days": "Sat", "time": "11:30am"}, {"days": "Sun", "time": "Closed"}], "id": "3177100001", "name": "USPS COLLECTION BOX - PO LOBBY", "address": {"city": "NORMAN PARK", "state": "GA", "street": "113 E BROAD", "postcode": "31771"}}},
{"geometry": {"type": "Point", "coordinates": [-83.9727768669, 31.7791861348]}, "type": "Feature", "properties": {"collection_times": [{"days": "Mon-Fri", "time": "4:15pm"}, {"days": "Sat", "time": "10:45am"}, {"days": "Sun", "time": "Closed"}], "id": "3177200000", "name": "USPS COLLECTION BOX - BLUE BOX", "address": {"city": "OAKFIELD", "state": "GA", "street": "408 WHITEHALL ST", "postcode": "31772"}}},
{"geometry": {"type": "Point", "coordinates": [-83.9727768669, 31.7791861348]}, "type": "Feature", "properties": {"collection_times": [{"days": "Mon-Fri", "time": "4:15pm"}, {"days": "Sat", "time": "10:45am"}, {"days": "Sun", "time": "Closed"}], "id": "3177200001", "name": "USPS COLLECTION BOX - PO LOBBY", "address": {"city": "OAKFIELD", "state": "GA", "street": "408 WHITEHALL ST", "postcode": "31772"}}},
{"geometry": {"type": "Point", "coordinates": [-84.0431097388, 30.9721051834]}, "type": "Feature", "properties": {"collection_times": [{"days": "Mon-Fri", "time": "4:30pm"}, {"days": "Sat", "time": "10:30am"}, {"days": "Sun", "time": "Closed"}], "id": "3177300000", "name": "USPS COLLECTION BOX - BLUE BOX", "address": {"city": "OCHLOCKNEE", "state": "GA", "street": "2065 SPENCE ST", "postcode": "31773"}}},
{"geometry": {"type": "Point", "coordinates": [-84.0431097388, 30.9721051834]}, "type": "Feature", "properties": {"collection_times": [{"days": "Mon-Fri", "time": "4:30pm"}, {"days": "Sat", "time": "10:30am"}, {"days": "Sun", "time": "Closed"}], "id": "3177300001", "name": "USPS COLLECTION BOX - PO LOBBY", "address": {"city": "OCHLOCKNEE", "state": "GA", "street": "2065 SPENCE ST", "postcode": "31773"}}},
{"geometry": {"type": "Point", "coordinates": [-83.2506609458, 31.5930721356]}, "type": "Feature", "properties": {"collection_times": [{"days": "Mon-Fri", "time": "5:15pm"}, {"days": "Sat", "time": "12:00pm"}, {"days": "Sun", "time": "Closed"}], "id": "3177400000", "name": "USPS COLLECTION BOX - BLUE BOX", "address": {"city": "OCILLA", "state": "GA", "street": "210 S IRWIN AVE", "postcode": "31774"}}},
{"geometry": {"type": "Point", "coordinates": [-83.2506609458, 31.5930721356]}, "type": "Feature", "properties": {"collection_times": [{"days": "Mon-Fri", "time": "5:15pm"}, {"days": "Sat", "time": "12:00pm"}, {"days": "Sun", "time": "Closed"}], "id": "3177400001", "name": "USPS COLLECTION BOX - BLUE BOX", "address": {"city": "OCILLA", "state": "GA", "street": "210 S IRWIN AVE", "postcode": "31774"}}},
{"geometry": {"type": "Point", "coordinates": [-83.2506609458, 31.5930721356]}, "type": "Feature", "properties": {"collection_times": [{"days": "Mon-Fri", "time": "5:15pm"}, {"days": "Sat", "time": "12:00pm"}, {"days": "Sun", "time": "Closed"}], "id": "3177400007", "name": "USPS COLLECTION BOX - PO LOBBY", "address": {"city": "OCILLA", "state": "GA", "street": "210 S IRWIN AVE", "postcode": "31774"}}},
{"geometry": {"type": "Point", "coordinates": [-83.2654185164, 31.5768140938]}, "type": "Feature", "properties": {"collection_times": [{"days": "Mon-Sat", "time": "10:45am"}, {"days": "Sun", "time": "Closed"}], "id": "3177400009", "name": "USPS COLLECTION BOX - BLUE BOX", "address": {"city": "OCILLA", "state": "GA", "street": "1962 GA HIGHWAY 32 W", "postcode": "31774"}}},
{"geometry": {"type": "Point", "coordinates": [-83.5896378114, 31.3450503565]}, "type": "Feature", "properties": {"collection_times": [{"days": "Mon-Fri", "time": "4:15pm"}, {"days": "Sat", "time": "10:30am"}, {"days": "Sun", "time": "Closed"}], "id": "3177500000", "name": "USPS COLLECTION BOX - BLUE BOX", "address": {"city": "OMEGA", "state": "GA", "street": "5523 N ALABAMA AVE", "postcode": "31775"}}},
{"geometry": {"type": "Point", "coordinates": [-83.5896378114, 31.3450503565]}, "type": "Feature", "properties": {"collection_times": [{"days": "Mon-Fri", "time": "4:15pm"}, {"days": "Sat", "time": "10:30am"}, {"days": "Sun", "time": "Closed"}], "id": "3177500001", "name": "USPS COLLECTION BOX - PO LOBBY", "address": {"city": "OMEGA", "state": "GA", "street": "5523 N ALABAMA AVE", "postcode": "31775"}}},
{"geometry": {"type": "Point", "coordinates": [-83.7414300555, 30.9599151382]}, "type": "Feature", "properties": {"collection_times": [{"days": "Mon-Fri", "time": "4:30pm"}, {"days": "Sat", "time": "10:45am"}, {"days": "Sun", "time": "Closed"}], "id": "3177800000", "name": "USPS COLLECTION BOX - BLUE BOX", "address": {"city": "PAVO", "state": "GA", "street": "2028 E HARRIS ST", "postcode": "31778"}}},
{"geometry": {"type": "Point", "coordinates": [-83.7414300555, 30.9599151382]}, "type": "Feature", "properties": {"collection_times": [{"days": "Mon-Fri", "time": "4:15pm"}, {"days": "Sat", "time": "10:45am"}, {"days": "Sun", "time": "Closed"}], "id": "3177800001", "name": "USPS COLLECTION BOX - PO LOBBY", "address": {"city": "PAVO", "state": "GA", "street": "2028 E HARRIS ST", "postcode": "31778"}}},
{"geometry": {"type": "Point", "coordinates": [-84.1529141646, 31.1260757331]}, "type": "Feature", "properties": {"collection_times": [{"days": "Mon-Fri", "time": "5:00pm"}, {"days": "Sat", "time": "2:00pm"}, {"days": "Sun", "time": "Closed"}], "id": "3177900000", "name": "USPS COLLECTION BOX - BLUE BOX", "address": {"city": "PELHAM", "state": "GA", "street": "100 PRIMITIVE AVE SW", "postcode": "31779"}}},
{"geometry": {"type": "Point", "coordinates": [-84.1529141646, 31.1260757331]}, "type": "Feature", "properties": {"collection_times": [{"days": "Mon-Fri", "time": "5:00pm"}, {"days": "Sat", "time": "2:00pm"}, {"days": "Sun", "time": "Closed"}], "id": "3177900007", "name": "USPS COLLECTION BOX - BLUE BOX", "address": {"city": "PELHAM", "state": "GA", "street": "100 PRIMITIVE AVE SW", "postcode": "31779"}}},
{"geometry": {"type": "Point", "coordinates": [-84.1529728133, 31.1255802415]}, "type": "Feature", "properties": {"collection_times": [{"days": "Mon-Fri", "time": "5:00pm"}, {"days": "Sat", "time": "2:00pm"}, {"days": "Sun", "time": "Closed"}], "id": "3177900008", "name": "USPS COLLECTION BOX - PO LOBBY", "address": {"city": "PELHAM", "state": "GA", "street": "160 MATHEWSON AVE SW", "postcode": "31779"}}},
{"geometry": {"type": "Point", "coordinates": [-84.3928189924, 32.0335716713]}, "type": "Feature", "properties": {"collection_times": [{"days": "Mon-Fri", "time": "5:00pm"}, {"days": "Sat", "time": "11:00am"}, {"days": "Sun", "time": "Closed"}], "id": "3178000001", "name": "USPS COLLECTION BOX - BLUE BOX", "address": {"city": "PLAINS", "state": "GA", "street": "119 MAIN ST", "postcode": "31780"}}},
{"geometry": {"type": "Point", "coordinates": [-84.3928189924, 32.0335716713]}, "type": "Feature", "properties": {"collection_times": [{"days": "Mon-Fri", "time": "5:00pm"}, {"days": "Sat", "time": "11:00am"}, {"days": "Sun", "time": "Closed"}], "id": "3178000002", "name": "USPS COLLECTION BOX - PO LOBBY", "address": {"city": "PLAINS", "state": "GA", "street": "119 MAIN ST", "postcode": "31780"}}},
{"geometry": {"type": "Point", "coordinates": [-83.7845220291, 31.5100157851]}, "type": "Feature", "properties": {"collection_times": [{"days": "Mon-Fri", "time": "1:00pm"}, {"days": "Sat", "time": "10:45am"}, {"days": "Sun", "time": "Closed"}], "id": "3178100000", "name": "USPS COLLECTION BOX - BLUE BOX", "address": {"city": "POULAN", "state": "GA", "street": "120 BROAD ST SE", "postcode": "31781"}}},
{"geometry": {"type": "Point", "coordinates": [-83.7845220291, 31.5100157851]}, "type": "Feature", "properties": {"collection_times": [{"days": "Mon-Fri", "time": "1:00pm"}, {"days": "Sat", "time": "10:45am"}, {"days": "Sun", "time": "Closed"}], "id": "3178100001", "name": "USPS COLLECTION BOX - PO LOBBY", "address": {"city": "POULAN", "state": "GA", "street": "120 BROAD ST SE", "postcode": "31781"}}},
{"geometry": {"type": "Point", "coordinates": [-84.1293088345, 31.4780729878]}, "type": "Feature", "properties": {"collection_times": [{"days": "Mon-Fri", "time": "4:45pm"}, {"days": "Sat", "time": "10:45am"}, {"days": "Sun", "time": "Closed"}], "id": "3178200000", "name": "USPS COLLECTION BOX - BLUE BOX", "address": {"city": "PUTNEY", "state": "GA", "street": "4314 RADIUM SPRINGS RD", "postcode": "31782"}}},
{"geometry": {"type": "Point", "coordinates": [-84.1293088345, 31.4780729878]}, "type": "Feature", "properties": {"collection_times": [{"days": "Mon-Fri", "time": "4:45pm"}, {"days": "Sat", "time": "11:00am"}, {"days": "Sun", "time": "Closed"}], "id": "3178200001", "name": "USPS COLLECTION BOX - PO LOBBY", "address": {"city": "PUTNEY", "state": "GA", "street": "4314 RADIUM SPRINGS RD", "postcode": "31782"}}},
{"geometry": {"type": "Point", "coordinates": [-83.4723704538, 31.7628714978]}, "type": "Feature", "properties": {"collection_times": [{"days": "Mon-Fri", "time": "1:00pm"}, {"days": "Sat", "time": "12:00pm"}, {"days": "Sun", "time": "Closed"}], "id": "3178300000", "name": "USPS COLLECTION BOX - BLUE BOX", "address": {"city": "REBECCA", "state": "GA", "street": "41 N RAILROAD ST", "postcode": "31783"}}},
{"geometry": {"type": "Point", "coordinates": [-83.4723704538, 31.7628714978]}, "type": "Feature", "properties": {"collection_times": [{"days": "Mon-Fri", "time": "1:00pm"}, {"days": "Sat", "time": "12:00pm"}, {"days": "Sun", "time": "Closed"}], "id": "3178300001", "name": "USPS COLLECTION BOX - PO LOBBY", "address": {"city": "REBECCA", "state": "GA", "street": "41 N RAILROAD ST", "postcode": "31783"}}},
{"geometry": {"type": "Point", "coordinates": [-84.0214386217, 31.2604725637]}, "type": "Feature", "properties": {"collection_times": [{"days": "Mon-Fri", "time": "12:00pm"}, {"days": "Sat", "time": "10:30am"}, {"days": "Sun", "time": "Closed"}], "id": "3178400000", "name": "USPS COLLECTION BOX - BLUE BOX", "address": {"city": "SALE CITY", "state": "GA", "street": "166 S BARNES ST", "postcode": "31784"}}},
{"geometry": {"type": "Point", "coordinates": [-84.0214386217, 31.2604725637]}, "type": "Feature", "properties": {"collection_times": [{"days": "Mon-Fri", "time": "12:00pm"}, {"days": "Sat", "time": "10:30am"}, {"days": "Sun", "time": "Closed"}], "id": "3178400001", "name": "USPS COLLECTION BOX - PO LOBBY", "address": {"city": "SALE CITY", "state": "GA", "street": "166 S BARNES ST", "postcode": "31784"}}},
{"geometry": {"type": "Point", "coordinates": [-84.2539985127, 31.9057136302]}, "type": "Feature", "properties": {"collection_times": [{"days": "Mon-Fri", "time": "12:30pm"}, {"days": "Sat", "time": "11:00am"}, {"days": "Sun", "time": "Closed"}], "id": "3178700000", "name": "USPS COLLECTION BOX - BLUE BOX", "address": {"city": "SMITHVILLE", "state": "GA", "street": "103 LE CONTE ST", "postcode": "31787"}}},
{"geometry": {"type": "Point", "coordinates": [-84.2539985127, 31.9057136302]}, "type": "Feature", "properties": {"collection_times": [{"days": "Mon-Fri", "time": "12:30pm"}, {"days": "Sat", "time": "11:00am"}, {"days": "Sun", "time": "Closed"}], "id": "3178700001", "name": "USPS COLLECTION BOX - PO LOBBY", "address": {"city": "SMITHVILLE", "state": "GA", "street": "103 LE CONTE ST", "postcode": "31787"}}},
{"geometry": {"type": "Point", "coordinates": [-83.7614603609, 31.1680732301]}, "type": "Feature", "properties": {"collection_times": [{"days": "Mon-Fri", "time": "4:30pm"}, {"days": "Sat", "time": "9:00am"}, {"days": "Sun", "time": "Closed"}], "id": "3178800001", "name": "USPS COLLECTION BOX - BLUE BOX", "address": {"city": "MOULTRIE", "state": "GA", "street": "631 VETERANS PKWY S", "postcode": "31788"}}},
{"geometry": {"type": "Point", "coordinates": [-83.7388578162, 31.5163474366]}, "type": "Feature", "properties": {"collection_times": [{"days": "Mon-Fri", "time": "1:00pm"}, {"days": "Sat", "time": "10:45am"}, {"days": "Sun", "time": "Closed"}], "id": "3178900000", "name": "USPS COLLECTION BOX - BLUE BOX", "address": {"city": "SUMNER", "state": "GA", "street": "501 MAIN ST", "postcode": "31789"}}},
{"geometry": {"type": "Point", "coordinates": [-83.7388578162, 31.5163474366]}, "type": "Feature", "properties": {"collection_times": [{"days": "Mon-Fri", "time": "12:45pm"}, {"days": "Sat", "time": "10:45am"}, {"days": "Sun", "time": "Closed"}], "id": "3178900001", "name": "USPS COLLECTION BOX - PO LOBBY", "address": {"city": "SUMNER", "state": "GA", "street": "501 MAIN ST", "postcode": "31789"}}},
{"geometry": {"type": "Point", "coordinates": [-83.5651477151, 31.6501052122]}, "type": "Feature", "properties": {"collection_times": [{"days": "Mon-Fri", "time": "4:00pm"}, {"days": "Sat", "time": "10:10am"}, {"days": "Sun", "time": "Closed"}], "id": "3179000000", "name": "USPS COLLECTION BOX - BLUE BOX", "address": {"city": "SYCAMORE", "state": "GA", "street": "33 W JEWETT ST", "postcode": "31790"}}},
{"geometry": {"type": "Point", "coordinates": [-83.5651477151, 31.6501052122]}, "type": "Feature", "properties": {"collection_times": [{"days": "Mon-Fri", "time": "3:45pm"}, {"days": "Sat", "time": "10:00am"}, {"days": "Sun", "time": "Closed"}], "id": "3179000001", "name": "USPS COLLECTION BOX - PO LOBBY", "address": {"city": "SYCAMORE", "state": "GA", "street": "33 W JEWETT ST", "postcode": "31790"}}},
{"geometry": {"type": "Point", "coordinates": [-83.8354003352, 31.5304200881]}, "type": "Feature", "properties": {"collection_times": [{"days": "Mon-Sat", "time": "10:30am"}, {"days": "Sun", "time": "Closed"}], "id": "3179100002", "name": "USPS COLLECTION BOX - BLUE BOX", "address": {"city": "SYLVESTER", "state": "GA", "street": "101 W FRANKLIN ST", "postcode": "31791"}}},
{"geometry": {"type": "Point", "coordinates": [-83.8240857165, 31.5294303057]}, "type": "Feature", "properties": {"collection_times": [{"days": "Mon-Sat", "time": "10:30am"}, {"days": "Sun", "time": "Closed"}], "id": "3179100003", "name": "USPS COLLECTION BOX - BLUE BOX", "address": {"city": "SYLVESTER", "state": "GA", "street": "600 E FRANKLIN ST", "postcode": "31791"}}},
{"geometry": {"type": "Point", "coordinates": [-83.8361052025, 31.5275177672]}, "type": "Feature", "properties": {"collection_times": [{"days": "Mon-Sat", "time": "10:30am"}, {"days": "Sun", "time": "Closed"}], "id": "3179100004", "name": "USPS COLLECTION BOX - BLUE BOX", "address": {"city": "SYLVESTER", "state": "GA", "street": "201 E KELLY ST", "postcode": "31791"}}},
{"geometry": {"type": "Point", "coordinates": [-83.8361052025, 31.5275177672]}, "type": "Feature", "properties": {"collection_times": [{"days": "Mon-Sat", "time": "10:30am"}, {"days": "Sun", "time": "Closed"}], "id": "3179100005", "name": "USPS COLLECTION BOX - BLUE BOX", "address": {"city": "SYLVESTER", "state": "GA", "street": "201 E KELLY ST", "postcode": "31791"}}},
{"geometry": {"type": "Point", "coordinates": [-83.8230482168, 31.5285326763]}, "type": "Feature", "properties": {"collection_times": [{"days": "Mon-Fri", "time": "4:30pm"}, {"days": "Sat", "time": "12:00pm"}, {"days": "Sun", "time": "Closed"}], "id": "3179100008", "name": "USPS COLLECTION BOX - BLUE BOX", "address": {"city": "SYLVESTER", "state": "GA", "street": "404 HARDY ST", "postcode": "31791"}}},
{"geometry": {"type": "Point", "coordinates": [-83.8230482168, 31.5285326763]}, "type": "Feature", "properties": {"collection_times": [{"days": "Mon-Fri", "time": "4:30pm"}, {"days": "Sat", "time": "12:00pm"}, {"days": "Sun", "time": "Closed"}], "id": "3179100009", "name": "USPS COLLECTION BOX - BLUE BOX", "address": {"city": "SYLVESTER", "state": "GA", "street": "404 HARDY ST", "postcode": "31791"}}},
{"geometry": {"type": "Point", "coordinates": [-83.8230482168, 31.5285326763]}, "type": "Feature", "properties": {"collection_times": [{"days": "Mon-Fri", "time": "4:30pm"}, {"days": "Sat", "time": "12:00pm"}, {"days": "Sun", "time": "Closed"}], "id": "3179100010", "name": "USPS COLLECTION BOX - PO LOBBY", "address": {"city": "SYLVESTER", "state": "GA", "street": "404 HARDY ST", "postcode": "31791"}}},
{"geometry": {"type": "Point", "coordinates": [-83.9476496903, 30.8459025715]}, "type": "Feature", "properties": {"collection_times": [{"days": "Mon-Fri", "time": "4:00pm"}, {"days": "Sat", "time": "10:45am"}, {"days": "Sun", "time": "Closed"}], "id": "3179200000", "name": "USPS COLLECTION BOX - BLUE BOX", "address": {"city": "THOMASVILLE", "state": "GA", "street": "2243 E PINETREE BLVD", "postcode": "31792"}}},
{"geometry": {"type": "Point", "coordinates": [-83.9753693451, 30.8297833993]}, "type": "Feature", "properties": {"collection_times": [{"days": "Mon-Fri", "time": "3:45pm"}, {"days": "Sat-Sun", "time": "Closed"}], "id": "3179200010", "name": "USPS COLLECTION BOX - BLUE BOX", "address": {"city": "THOMASVILLE", "state": "GA", "street": "501 GORDON AVE", "postcode": "31792"}}},
{"geometry": {"type": "Point", "coordinates": [-83.9711666526, 30.8276386124]}, "type": "Feature", "properties": {"collection_times": [{"days": "Mon-Fri", "time": "3:45pm"}, {"days": "Sat-Sun", "time": "Closed"}], "id": "3179200012", "name": "USPS COLLECTION BOX - BLUE BOX", "address": {"city": "THOMASVILLE", "state": "GA", "street": "918 S BROAD ST", "postcode": "31792"}}},
{"geometry": {"type": "Point", "coordinates": [-83.945636961, 30.8515166208]}, "type": "Feature", "properties": {"collection_times": [{"days": "Mon-Fri", "time": "4:00pm"}, {"days": "Sat", "time": "10:45am"}, {"days": "Sun", "time": "Closed"}], "id": "3179200017", "name": "USPS COLLECTION BOX - BLUE BOX", "address": {"city": "THOMASVILLE", "state": "GA", "street": "15125 US HIGHWAY 19 S", "postcode": "31792"}}},
{"geometry": {"type": "Point", "coordinates": [-83.9801758895, 30.8374914877]}, "type": "Feature", "properties": {"collection_times": [{"days": "Mon-Fri", "time": "3:45pm"}, {"days": "Sat-Sun", "time": "Closed"}], "id": "3179200020", "name": "USPS COLLECTION BOX - BLUE BOX", "address": {"city": "THOMASVILLE", "state": "GA", "street": "100 E JACKSON ST", "postcode": "31792"}}},
{"geometry": {"type": "Point", "coordinates": [-83.9770720386, 30.8388478339]}, "type": "Feature", "properties": {"collection_times": [{"days": "Mon-Fri", "time": "4:15pm"}, {"days": "Sat-Sun", "time": "Closed"}], "id": "3179200022", "name": "USPS COLLECTION BOX - BLUE BOX", "address": {"city": "THOMASVILLE", "state": "GA", "street": "131 S DAWSON ST", "postcode": "31792"}}},
{"geometry": {"type": "Point", "coordinates": [-83.9800590894, 30.839700601]}, "type": "Feature", "properties": {"collection_times": [{"days": "Mon-Fri", "time": "4:15pm"}, {"days": "Sat-Sun", "time": "Closed"}], "id": "3179200024", "name": "USPS COLLECTION BOX - BLUE BOX", "address": {"city": "THOMASVILLE", "state": "GA", "street": "220 N CRAWFORD ST", "postcode": "31792"}}},
{"geometry": {"type": "Point", "coordinates": [-83.9832477052, 30.8408106091]}, "type": "Feature", "properties": {"collection_times": [{"days": "Mon-Sat", "time": "5:00pm"}, {"days": "Sun", "time": "Closed"}], "id": "3179200025", "name": "USPS COLLECTION BOX - BLUE BOX", "address": {"city": "THOMASVILLE", "state": "GA", "street": "404 N BROAD ST", "postcode": "31792"}}},
{"geometry": {"type": "Point", "coordinates": [-83.9732910876, 30.8355005899]}, "type": "Feature", "properties": {"collection_times": [{"days": "Mon-Fri", "time": "4:15pm"}, {"days": "Sat-Sun", "time": "Closed"}], "id": "3179200032", "name": "USPS COLLECTION BOX - BLUE BOX", "address": {"city": "THOMASVILLE", "state": "GA", "street": "438 SMITH AVE", "postcode": "31792"}}},
{"geometry": {"type": "Point", "coordinates": [-83.9829632509, 30.840594765]}, "type": "Feature", "properties": {"collection_times": [{"days": "Mon-Sat", "time": "5:00pm"}, {"days": "Sun", "time": "Closed"}], "id": "3179200035", "name": "USPS COLLECTION BOX - BLUE BOX", "address": {"city": "THOMASVILLE", "state": "GA", "street": "404 N BROAD ST", "postcode": "31792"}}},
{"geometry": {"type": "Point", "coordinates": [-83.9733149521, 30.8247525844]}, "type": "Feature", "properties": {"collection_times": [{"days": "Mon-Fri", "time": "3:45pm"}, {"days": "Sat-Sun", "time": "Closed"}], "id": "3179200043", "name": "USPS COLLECTION BOX - BLUE BOX", "address": {"city": "THOMASVILLE", "state": "GA", "street": "915 GORDON AVE", "postcode": "31792"}}},
{"geometry": {"type": "Point", "coordinates": [-83.9561454596, 30.8352477651]}, "type": "Feature", "properties": {"collection_times": [{"days": "Mon-Fri", "time": "4:00pm"}, {"days": "Sat-Sun", "time": "Closed"}], "id": "3179200048", "name": "USPS COLLECTION BOX - BLUE BOX", "address": {"city": "THOMASVILLE", "state": "GA", "street": "1102 SMITH AVE", "postcode": "31792"}}},
{"geometry": {"type": "Point", "coordinates": [-83.9829632509, 30.840594765]}, "type": "Feature", "properties": {"collection_times": [{"days": "Mon-Sat", "time": "5:00pm"}, {"days": "Sun", "time": "Closed"}], "id": "3179200051", "name": "USPS COLLECTION BOX - PO LOBBY", "address": {"city": "THOMASVILLE", "state": "GA", "street": "404 N BROAD ST", "postcode": "31792"}}},
{"geometry": {"type": "Point", "coordinates": [-83.5432129856, 31.4455364546]}, "type": "Feature", "properties": {"collection_times": [{"days": "Mon-Fri", "time": "4:45pm"}, {"days": "Sat", "time": "10:00am"}, {"days": "Sun", "time": "Closed"}], "id": "3179300001", "name": "USPS COLLECTION BOX - BLUE BOX", "address": {"city": "TIFTON", "state": "GA", "street": "1909 US HIGHWAY 82 W", "postcode": "31793"}}},
{"geometry": {"type": "Point", "coordinates": [-83.5030216666, 31.4706392919]}, "type": "Feature", "properties": {"collection_times": [{"days": "Mon-Fri", "time": "4:15pm"}, {"days": "Sat", "time": "10:00am"}, {"days": "Sun", "time": "Closed"}], "id": "3179400001", "name": "USPS COLLECTION BOX - BLUE BOX", "address": {"city": "TIFTON", "state": "GA", "street": "216 18TH ST E", "postcode": "31794"}}},
{"geometry": {"type": "Point", "coordinates": [-83.4921096685, 31.4705611895]}, "type": "Feature", "properties": {"collection_times": [{"days": "Mon-Fri", "time": "4:30pm"}, {"days": "Sat", "time": "10:00am"}, {"days": "Sun", "time": "Closed"}], "id": "3179400004", "name": "USPS COLLECTION BOX - BLUE BOX", "address": {"city": "TIFTON", "state": "GA", "street": "901 18TH ST E", "postcode": "31794"}}},
{"geometry": {"type": "Point", "coordinates": [-83.5267916996, 31.4610971707]}, "type": "Feature", "properties": {"collection_times": [{"days": "Mon-Fri", "time": "4:45pm"}, {"days": "Sat", "time": "10:00am"}, {"days": "Sun", "time": "Closed"}], "id": "3179400011", "name": "USPS COLLECTION BOX - BLUE BOX", "address": {"city": "TIFTON", "state": "GA", "street": "600 VIRGINIA AVE N", "postcode": "31794"}}},
{"geometry": {"type": "Point", "coordinates": [-83.5083696637, 31.4491448019]}, "type": "Feature", "properties": {"collection_times": [{"days": "Mon-Fri", "time": "5:05pm"}, {"days": "Sat", "time": "10:00am"}, {"days": "Sun", "time": "Closed"}], "id": "3179400016", "name": "USPS COLLECTION BOX - BLUE BOX", "address": {"city": "TIFTON", "state": "GA", "street": "353 MAIN ST S", "postcode": "31794"}}},
{"geometry": {"type": "Point", "coordinates": [-83.5088595111, 31.4549966598]}, "type": "Feature", "properties": {"collection_times": [{"days": "Mon-Fri", "time": "5:08pm"}, {"days": "Sat", "time": "10:00am"}, {"days": "Sun", "time": "Closed"}], "id": "3179400018", "name": "USPS COLLECTION BOX - BLUE BOX", "address": {"city": "TIFTON", "state": "GA", "street": "199 LOVE AVE", "postcode": "31794"}}},
{"geometry": {"type": "Point", "coordinates": [-83.5077551222, 31.4546295446]}, "type": "Feature", "properties": {"collection_times": [{"days": "Mon-Fri", "time": "5:10pm"}, {"days": "Sat", "time": "10:00am"}, {"days": "Sun", "time": "Closed"}], "id": "3179400021", "name": "USPS COLLECTION BOX - BLUE BOX", "address": {"city": "TIFTON", "state": "GA", "street": "226 LIBRARY LN", "postcode": "31794"}}},
{"geometry": {"type": "Point", "coordinates": [-83.4919846569, 31.4705486144]}, "type": "Feature", "properties": {"collection_times": [{"days": "Mon-Fri", "time": "4:25pm"}, {"days": "Sat", "time": "10:00am"}, {"days": "Sun", "time": "Closed"}], "id": "3179400026", "name": "USPS COLLECTION BOX - BLUE BOX", "address": {"city": "TIFTON", "state": "GA", "street": "907 18TH ST E", "postcode": "31794"}}},
{"geometry": {"type": "Point", "coordinates": [-83.4919846569, 31.4705486144]}, "type": "Feature", "properties": {"collection_times": [{"days": "Mon-Fri", "time": "4:25pm"}, {"days": "Sat", "time": "10:00am"}, {"days": "Sun", "time": "Closed"}], "id": "3179400029", "name": "USPS COLLECTION BOX - BLUE BOX", "address": {"city": "TIFTON", "state": "GA", "street": "907 18TH ST E", "postcode": "31794"}}},
{"geometry": {"type": "Point", "coordinates": [-83.5131662082, 31.4567167901]}, "type": "Feature", "properties": {"collection_times": [{"days": "Mon-Fri", "time": "5:30pm"}, {"days": "Sat", "time": "4:00pm"}, {"days": "Sun", "time": "Closed"}], "id": "3179400031", "name": "USPS COLLECTION BOX - BLUE BOX", "address": {"city": "TIFTON", "state": "GA", "street": "205 JOHN HOWARD WAY", "postcode": "31794"}}},
{"geometry": {"type": "Point", "coordinates": [-83.511864192, 31.4562810398]}, "type": "Feature", "properties": {"collection_times": [{"days": "Mon-Fri", "time": "5:45pm"}, {"days": "Sat", "time": "4:00pm"}, {"days": "Sun", "time": "Closed"}], "id": "3179400035", "name": "USPS COLLECTION BOX - PO LOBBY", "address": {"city": "TIFTON", "state": "GA", "street": "205 JOHN HOWARD WAY", "postcode": "31794"}}},
{"geometry": {"type": "Point", "coordinates": [-83.6511280324, 31.4768384558]}, "type": "Feature", "properties": {"collection_times": [{"days": "Mon-Fri", "time": "4:15pm"}, {"days": "Sat", "time": "10:00am"}, {"days": "Sun", "time": "Closed"}], "id": "3179500000", "name": "USPS COLLECTION BOX - BLUE BOX", "address": {"city": "TY TY", "state": "GA", "street": "103 N PICKETT ST", "postcode": "31795"}}},
{"geometry": {"type": "Point", "coordinates": [-83.6511280324, 31.4768384558]}, "type": "Feature", "properties": {"collection_times": [{"days": "Mon-Fri", "time": "4:30pm"}, {"days": "Sat", "time": "10:00am"}, {"days": "Sun", "time": "Closed"}], "id": "3179500002", "name": "USPS COLLECTION BOX - PO LOBBY", "address": {"city": "TY TY", "state": "GA", "street": "103 N PICKETT ST", "postcode": "31795"}}},
{"geometry": {"type": "Point", "coordinates": [-83.8805563048, 31.7594289358]}, "type": "Feature", "properties": {"collection_times": [{"days": "Mon-Fri", "time": "1:00pm"}, {"days": "Sat", "time": "10:30am"}, {"days": "Sun", "time": "Closed"}], "id": "3179600000", "name": "USPS COLLECTION BOX - BLUE BOX", "address": {"city": "WARWICK", "state": "GA", "street": "121 DOGWOOD ST SW", "postcode": "31796"}}},
{"geometry": {"type": "Point", "coordinates": [-83.8805563048, 31.7594289358]}, "type": "Feature", "properties": {"collection_times": [{"days": "Mon-Fri", "time": "1:00pm"}, {"days": "Sat", "time": "10:30am"}, {"days": "Sun", "time": "Closed"}], "id": "3179600001", "name": "USPS COLLECTION BOX - PO LOBBY", "address": {"city": "WARWICK", "state": "GA", "street": "121 DOGWOOD ST SW", "postcode": "31796"}}},
{"geometry": {"type": "Point", "coordinates": [-83.0557484941, 31.6219656002]}, "type": "Feature", "properties": {"collection_times": [{"days": "Mon-Fri", "time": "4:15pm"}, {"days": "Sat", "time": "11:00am"}, {"days": "Sun", "time": "Closed"}], "id": "3179800000", "name": "USPS COLLECTION BOX - BLUE BOX", "address": {"city": "WRAY", "state": "GA", "street": "1118 WRAY RD", "postcode": "31798"}}},
{"geometry": {"type": "Point", "coordinates": [-83.0557484941, 31.6219656002]}, "type": "Feature", "properties": {"collection_times": [{"days": "Mon-Fri", "time": "4:15pm"}, {"days": "Sat", "time": "11:00am"}, {"days": "Sun", "time": "Closed"}], "id": "3179800001", "name": "USPS COLLECTION BOX - PO LOBBY", "address": {"city": "WRAY", "state": "GA", "street": "1118 WRAY RD", "postcode": "31798"}}}
]}
