{"type": "FeatureCollection", "features": [
{"geometry": {"type": "Point", "coordinates": [-84.6461431889, 32.5608389162]}, "type": "Feature", "properties": {"collection_times": [{"days": "Mon-Fri", "time": "4:00pm"}, {"days": "Sat", "time": "10:15am"}, {"days": "Sun", "time": "Closed"}], "id": "3180100001", "name": "USPS COLLECTION BOX - BLUE BOX", "address": {"city": "BOX SPRINGS", "state": "GA", "street": "6150 COLUMBUS HWY", "postcode": "31801"}}},
{"geometry": {"type": "Point", "coordinates": [-84.6461431889, 32.5608389162]}, "type": "Feature", "properties": {"collection_times": [{"days": "Mon-Fri", "time": "4:00pm"}, {"days": "Sat", "time": "10:15am"}, {"days": "Sun", "time": "Closed"}], "id": "3180100002", "name": "USPS COLLECTION BOX - PO LOBBY", "address": {"city": "BOX SPRINGS", "state": "GA", "street": "6150 COLUMBUS HWY", "postcode": "31801"}}},
{"geometry": {"type": "Point", "coordinates": [-84.5174582381, 32.3177675065]}, "type": "Feature", "properties": {"collection_times": [{"days": "Mon-Fri", "time": "5:00pm"}, {"days": "Sat", "time": "11:00am"}, {"days": "Sun", "time": "Closed"}], "id": "3180300002", "name": "USPS COLLECTION BOX - BLUE BOX", "address": {"city": "BUENA VISTA", "state": "GA", "street": "112 FORSYTH ST", "postcode": "31803"}}},
{"geometry": {"type": "Point", "coordinates": [-84.5183783682, 32.3203131337]}, "type": "Feature", "properties": {"collection_times": [{"days": "Mon-Fri", "time": "5:00pm"}, {"days": "Sat", "time": "11:00am"}, {"days": "Sun", "time": "Closed"}], "id": "3180300003", "name": "USPS COLLECTION BOX - PO LOBBY", "address": {"city": "BUENA VISTA", "state": "GA", "street": "107 E 3RD AVE", "postcode": "31803"}}},
{"geometry": {"type": "Point", "coordinates": [-84.8861475278, 32.6407421562]}, "type": "Feature", "properties": {"collection_times": [{"days": "Mon-Fri", "time": "4:00pm"}, {"days": "Sat", "time": "11:30am"}, {"days": "Sun", "time": "Closed"}], "id": "3180400000", "name": "USPS COLLECTION BOX - BLUE BOX", "address": {"city": "CATAULA", "state": "GA", "street": "20 PRESTON RD", "postcode": "31804"}}},
{"geometry": {"type": "Point", "coordinates": [-84.8861475278, 32.6407421562]}, "type": "Feature", "properties": {"collection_times": [{"days": "Mon-Fri", "time": "4:00pm"}, {"days": "Sat", "time": "11:30am"}, {"days": "Sun", "time": "Closed"}], "id": "3180400001", "name": "USPS COLLECTION BOX - PO LOBBY", "address": {"city": "CATAULA", "state": "GA", "street": "20 PRESTON RD", "postcode": "31804"}}},
{"geometry": {"type": "Point", "coordinates": [-84.7541245489, 32.2822124642]}, "type": "Feature", "properties": {"collection_times": [{"days": "Mon-Fri", "time": "4:30pm"}, {"days": "Sat", "time": "10:00am"}, {"days": "Sun", "time": "Closed"}], "id": "3180500000", "name": "USPS COLLECTION BOX - BLUE BOX", "address": {"city": "CUSSETA", "state": "GA", "street": "173 WELLS ST", "postcode": "31805"}}},
{"geometry": {"type": "Point", "coordinates": [-84.7541245489, 32.2822124642]}, "type": "Feature", "properties": {"collection_times": [{"days": "Mon-Fri", "time": "4:30pm"}, {"days": "Sat", "time": "10:00am"}, {"days": "Sun", "time": "Closed"}], "id": "3180500002", "name": "USPS COLLECTION BOX - PO LOBBY", "address": {"city": "CUSSETA", "state": "GA", "street": "173 WELLS ST", "postcode": "31805"}}},
{"geometry": {"type": "Point", "coordinates": [-84.3144668892, 32.2644739634]}, "type": "Feature", "properties": {"collection_times": [{"days": "Mon-Fri", "time": "5:00pm"}, {"days": "Sat", "time": "11:30am"}, {"days": "Sun", "time": "Closed"}], "id": "3180600001", "name": "USPS COLLECTION BOX - BLUE BOX", "address": {"city": "ELLAVILLE", "state": "GA", "street": "38 S BROAD ST", "postcode": "31806"}}},
{"geometry": {"type": "Point", "coordinates": [-84.3144668892, 32.2644739634]}, "type": "Feature", "properties": {"collection_times": [{"days": "Mon-Fri", "time": "5:00pm"}, {"days": "Sat", "time": "11:30am"}, {"days": "Sun", "time": "Closed"}], "id": "3180600002", "name": "USPS COLLECTION BOX - PO LOBBY", "address": {"city": "ELLAVILLE", "state": "GA", "street": "38 S BROAD ST", "postcode": "31806"}}},
{"geometry": {"type": "Point", "coordinates": [-84.7955001206, 32.6350351954]}, "type": "Feature", "properties": {"collection_times": [{"days": "Mon-Fri", "time": "4:15pm"}, {"days": "Sat", "time": "11:45am"}, {"days": "Sun", "time": "Closed"}], "id": "3180700000", "name": "USPS COLLECTION BOX - BLUE BOX", "address": {"city": "ELLERSLIE", "state": "GA", "street": "3750 GA HIGHWAY 85", "postcode": "31807"}}},
{"geometry": {"type": "Point", "coordinates": [-84.7955001206, 32.6350351954]}, "type": "Feature", "properties": {"collection_times": [{"days": "Mon-Fri", "time": "4:30pm"}, {"days": "Sat", "time": "11:45am"}, {"days": "Sun", "time": "Closed"}], "id": "3180700001", "name": "USPS COLLECTION BOX - PO LOBBY", "address": {"city": "ELLERSLIE", "state": "GA", "street": "3750 GA HIGHWAY 85", "postcode": "31807"}}},
{"geometry": {"type": "Point", "coordinates": [-85.004797911, 32.6355730631]}, "type": "Feature", "properties": {"collection_times": [{"days": "Mon-Fri", "time": "5:00pm"}, {"days": "Sat", "time": "12:00pm"}, {"days": "Sun", "time": "Closed"}], "id": "3180800000", "name": "USPS COLLECTION BOX - BLUE BOX", "address": {"city": "FORTSON", "state": "GA", "street": "2511 DOUBLE CHURCHES RD", "postcode": "31808"}}},
{"geometry": {"type": "Point", "coordinates": [-85.004797911, 32.6355730631]}, "type": "Feature", "properties": {"collection_times": [{"days": "Mon-Fri", "time": "5:00pm"}, {"days": "Sat", "time": "12:00pm"}, {"days": "Sun", "time": "Closed"}], "id": "3180800001", "name": "USPS COLLECTION BOX - BLUE BOX", "address": {"city": "FORTSON", "state": "GA", "street": "2511 DOUBLE CHURCHES RD", "postcode": "31808"}}},
{"geometry": {"type": "Point", "coordinates": [-85.004797911, 32.6355730631]}, "type": "Feature", "properties": {"collection_times": [{"days": "Mon-Fri", "time": "5:00pm"}, {"days": "Sat", "time": "12:00pm"}, {"days": "Sun", "time": "Closed"}], "id": "3180800002", "name": "USPS COLLECTION BOX - BLUE BOX", "address": {"city": "FORTSON", "state": "GA", "street": "2511 DOUBLE CHURCHES RD", "postcode": "31808"}}},
{"geometry": {"type": "Point", "coordinates": [-85.004797911, 32.6355730631]}, "type": "Feature", "properties": {"collection_times": [{"days": "Mon-Fri", "time": "4:45pm"}, {"days": "Sat", "time": "12:00pm"}, {"days": "Sun", "time": "Closed"}], "id": "3180800003", "name": "USPS COLLECTION BOX - PO LOBBY", "address": {"city": "FORTSON", "state": "GA", "street": "2511 DOUBLE CHURCHES RD", "postcode": "31808"}}},
{"geometry": {"type": "Point", "coordinates": [-84.5576466168, 32.5764864013]}, "type": "Feature", "properties": {"collection_times": [{"days": "Mon-Fri", "time": "4:15pm"}, {"days": "Sat", "time": "10:30am"}, {"days": "Sun", "time": "Closed"}], "id": "3181000001", "name": "USPS COLLECTION BOX - BLUE BOX", "address": {"city": "GENEVA", "state": "GA", "street": "446 COLUMBUS HWY", "postcode": "31810"}}},
{"geometry": {"type": "Point", "coordinates": [-84.5576466168, 32.5764864013]}, "type": "Feature", "properties": {"collection_times": [{"days": "Mon-Fri", "time": "4:15pm"}, {"days": "Sat", "time": "10:30am"}, {"days": "Sun", "time": "Closed"}], "id": "3181000002", "name": "USPS COLLECTION BOX - PO LOBBY", "address": {"city": "GENEVA", "state": "GA", "street": "446 COLUMBUS HWY", "postcode": "31810"}}},
{"geometry": {"type": "Point", "coordinates": [-84.9216172978, 32.7406803021]}, "type": "Feature", "properties": {"collection_times": [{"days": "Mon-Fri", "time": "4:30pm"}, {"days": "Sat", "time": "11:30am"}, {"days": "Sun", "time": "Closed"}], "id": "3181100001", "name": "USPS COLLECTION BOX - BLUE BOX", "address": {"city": "HAMILTON", "state": "GA", "street": "9078 GA HIGHWAY 116 W", "postcode": "31811"}}},
{"geometry": {"type": "Point", "coordinates": [-84.9216172978, 32.7406803021]}, "type": "Feature", "properties": {"collection_times": [{"days": "Mon-Fri", "time": "4:30pm"}, {"days": "Sat", "time": "11:30am"}, {"days": "Sun", "time": "Closed"}], "id": "3181100002", "name": "USPS COLLECTION BOX - PO LOBBY", "address": {"city": "HAMILTON", "state": "GA", "street": "9078 GA HIGHWAY 116 W", "postcode": "31811"}}},
{"geometry": {"type": "Point", "coordinates": [-84.4628263959, 32.6025275209]}, "type": "Feature", "properties": {"collection_times": [{"days": "Mon-Fri", "time": "12:00pm"}, {"days": "Sat", "time": "10:45am"}, {"days": "Sun", "time": "Closed"}], "id": "3181200001", "name": "USPS COLLECTION BOX - BLUE BOX", "address": {"city": "JUNCTION CITY", "state": "GA", "street": "65 BROAD ST", "postcode": "31812"}}},
{"geometry": {"type": "Point", "coordinates": [-84.4628263959, 32.6025275209]}, "type": "Feature", "properties": {"collection_times": [{"days": "Mon-Fri", "time": "11:45am"}, {"days": "Sat", "time": "10:45am"}, {"days": "Sun", "time": "Closed"}], "id": "3181200002", "name": "USPS COLLECTION BOX - PO LOBBY", "address": {"city": "JUNCTION CITY", "state": "GA", "street": "65 BROAD ST", "postcode": "31812"}}},
{"geometry": {"type": "Point", "coordinates": [-84.8702225754, 32.0167089482]}, "type": "Feature", "properties": {"collection_times": [{"days": "Mon-Fri", "time": "5:00pm"}, {"days": "Sat", "time": "10:00am"}, {"days": "Sun", "time": "Closed"}], "id": "3181500001", "name": "USPS COLLECTION BOX - BLUE BOX", "address": {"city": "LUMPKIN", "state": "GA", "street": "1688 BROAD ST", "postcode": "31815"}}},
{"geometry": {"type": "Point", "coordinates": [-84.8702225754, 32.0167089482]}, "type": "Feature", "properties": {"collection_times": [{"days": "Mon-Fri", "time": "5:00pm"}, {"days": "Sat", "time": "10:00am"}, {"days": "Sun", "time": "Closed"}], "id": "3181500002", "name": "USPS COLLECTION BOX - PO LOBBY", "address": {"city": "LUMPKIN", "state": "GA", "street": "1688 BROAD ST", "postcode": "31815"}}},
{"geometry": {"type": "Point", "coordinates": [-84.6188591485, 32.8540850095]}, "type": "Feature", "properties": {"collection_times": [{"days": "Mon-Fri", "time": "5:00pm"}, {"days": "Sat", "time": "4:15pm"}, {"days": "Sun", "time": "Closed"}], "id": "3181600005", "name": "USPS COLLECTION BOX - BLUE BOX", "address": {"city": "MANCHESTER", "state": "GA", "street": "415 W MAIN ST", "postcode": "31816"}}},
{"geometry": {"type": "Point", "coordinates": [-84.6188591485, 32.8540850095]}, "type": "Feature", "properties": {"collection_times": [{"days": "Mon-Fri", "time": "5:00pm"}, {"days": "Sat", "time": "4:15pm"}, {"days": "Sun", "time": "Closed"}], "id": "3181600022", "name": "USPS COLLECTION BOX - BLUE BOX", "address": {"city": "MANCHESTER", "state": "GA", "street": "415 W MAIN ST", "postcode": "31816"}}},
{"geometry": {"type": "Point", "coordinates": [-84.6188591485, 32.8540850095]}, "type": "Feature", "properties": {"collection_times": [{"days": "Mon-Fri", "time": "5:15pm"}, {"days": "Sat", "time": "4:30pm"}, {"days": "Sun", "time": "Closed"}], "id": "3181600024", "name": "USPS COLLECTION BOX - PO LOBBY", "address": {"city": "MANCHESTER", "state": "GA", "street": "415 W MAIN ST", "postcode": "31816"}}},
{"geometry": {"type": "Point", "coordinates": [-84.8309457231, 32.5741623113]}, "type": "Feature", "properties": {"collection_times": [{"days": "Mon-Fri", "time": "4:15pm"}, {"days": "Sat", "time": "11:30am"}, {"days": "Sun", "time": "Closed"}], "id": "3182000000", "name": "USPS COLLECTION BOX - BLUE BOX", "address": {"city": "MIDLAND", "state": "GA", "street": "9232 COUNTY LINE RD", "postcode": "31820"}}},
{"geometry": {"type": "Point", "coordinates": [-84.8309457231, 32.5741623113]}, "type": "Feature", "properties": {"collection_times": [{"days": "Mon-Fri", "time": "4:15pm"}, {"days": "Sat", "time": "11:30am"}, {"days": "Sun", "time": "Closed"}], "id": "3182000001", "name": "USPS COLLECTION BOX - PO LOBBY", "address": {"city": "MIDLAND", "state": "GA", "street": "9232 COUNTY LINE RD", "postcode": "31820"}}},
{"geometry": {"type": "Point", "coordinates": [-84.9039306999, 32.1460700028]}, "type": "Feature", "properties": {"collection_times": [{"days": "Mon-Fri", "time": "3:45pm"}, {"days": "Sat", "time": "10:30am"}, {"days": "Sun", "time": "Closed"}], "id": "3182100000", "name": "USPS COLLECTION BOX - BLUE BOX", "address": {"city": "OMAHA", "state": "GA", "street": "206 2ND ST", "postcode": "31821"}}},
{"geometry": {"type": "Point", "coordinates": [-84.9039306999, 32.1460700028]}, "type": "Feature", "properties": {"collection_times": [{"days": "Mon-Fri", "time": "3:45pm"}, {"days": "Sat", "time": "10:30am"}, {"days": "Sun", "time": "Closed"}], "id": "3182100001", "name": "USPS COLLECTION BOX - PO LOBBY", "address": {"city": "OMAHA", "state": "GA", "street": "206 2ND ST", "postcode": "31821"}}},
{"geometry": {"type": "Point", "coordinates": [-84.8543656527, 32.867296613]}, "type": "Feature", "properties": {"collection_times": [{"days": "Mon-Fri", "time": "4:45pm"}, {"days": "Sat", "time": "1:30pm"}, {"days": "Sun", "time": "Closed"}], "id": "3182200002", "name": "USPS COLLECTION BOX - BLUE BOX", "address": {"city": "PINE MOUNTAIN", "state": "GA", "street": "158 N MCDOUGALD AVE", "postcode": "31822"}}},
{"geometry": {"type": "Point", "coordinates": [-84.8543656527, 32.867296613]}, "type": "Feature", "properties": {"collection_times": [{"days": "Mon-Fri", "time": "5:00pm"}, {"days": "Sat", "time": "1:30pm"}, {"days": "Sun", "time": "Closed"}], "id": "3182200003", "name": "USPS COLLECTION BOX - PO LOBBY", "address": {"city": "PINE MOUNTAIN", "state": "GA", "street": "158 N MCDOUGALD AVE", "postcode": "31822"}}},
{"geometry": {"type": "Point", "coordinates": [-84.8156676187, 32.7973985205]}, "type": "Feature", "properties": {"collection_times": [{"days": "Mon-Fri", "time": "12:00pm"}, {"days": "Sat", "time": "10:30am"}, {"days": "Sun", "time": "Closed"}], "id": "3182300001", "name": "USPS COLLECTION BOX - BLUE BOX", "address": {"city": "PINE MTN VALY", "state": "GA", "street": "13642 GA HIGHWAY 116", "postcode": "31823"}}},
{"geometry": {"type": "Point", "coordinates": [-84.8156676187, 32.7973985205]}, "type": "Feature", "properties": {"collection_times": [{"days": "Mon-Fri", "time": "12:00pm"}, {"days": "Sat", "time": "10:30am"}, {"days": "Sun", "time": "Closed"}], "id": "3182300002", "name": "USPS COLLECTION BOX - PO LOBBY", "address": {"city": "PINE MTN VALY", "state": "GA", "street": "13642 GA HIGHWAY 116", "postcode": "31823"}}},
{"geometry": {"type": "Point", "coordinates": [-84.5452577858, 32.0819698662]}, "type": "Feature", "properties": {"collection_times": [{"days": "Mon-Fri", "time": "1:00pm"}, {"days": "Sat", "time": "11:00am"}, {"days": "Sun", "time": "Closed"}], "id": "3182400000", "name": "USPS COLLECTION BOX - BLUE BOX", "address": {"city": "PRESTON", "state": "GA", "street": "190 MONTGOMERY ST", "postcode": "31824"}}},
{"geometry": {"type": "Point", "coordinates": [-84.5452577858, 32.0819698662]}, "type": "Feature", "properties": {"collection_times": [{"days": "Mon-Fri", "time": "1:00pm"}, {"days": "Sat", "time": "11:00am"}, {"days": "Sun", "time": "Closed"}], "id": "3182400001", "name": "USPS COLLECTION BOX - PO LOBBY", "address": {"city": "PRESTON", "state": "GA", "street": "190 MONTGOMERY ST", "postcode": "31824"}}},
{"geometry": {"type": "Point", "coordinates": [-84.6652232686, 32.089750364]}, "type": "Feature", "properties": {"collection_times": [{"days": "Mon-Fri", "time": "4:00pm"}, {"days": "Sat", "time": "11:00am"}, {"days": "Sun", "time": "Closed"}], "id": "3182500001", "name": "USPS COLLECTION BOX - BLUE BOX", "address": {"city": "RICHLAND", "state": "GA", "street": "508 DEPOT ST", "postcode": "31825"}}},
{"geometry": {"type": "Point", "coordinates": [-84.6652232686, 32.089750364]}, "type": "Feature", "properties": {"collection_times": [{"days": "Mon-Fri", "time": "4:00pm"}, {"days": "Sat", "time": "11:00am"}, {"days": "Sun", "time": "Closed"}], "id": "3182500004", "name": "USPS COLLECTION BOX - PO LOBBY", "address": {"city": "RICHLAND", "state": "GA", "street": "508 DEPOT ST", "postcode": "31825"}}},
{"geometry": {"type": "Point", "coordinates": [-84.6958680415, 32.8045965191]}, "type": "Feature", "properties": {"collection_times": [{"days": "Mon-Fri", "time": "1:00pm"}, {"days": "Sat", "time": "10:30am"}, {"days": "Sun", "time": "Closed"}], "id": "3182600001", "name": "USPS COLLECTION BOX - BLUE BOX", "address": {"city": "SHILOH", "state": "GA", "street": "21901 GA HIGHWAY 116", "postcode": "31826"}}},
{"geometry": {"type": "Point", "coordinates": [-84.6958680415, 32.8045965191]}, "type": "Feature", "properties": {"collection_times": [{"days": "Mon-Fri", "time": "1:00pm"}, {"days": "Sat", "time": "10:30am"}, {"days": "Sun", "time": "Closed"}], "id": "3182600002", "name": "USPS COLLECTION BOX - PO LOBBY", "address": {"city": "SHILOH", "state": "GA", "street": "21901 GA HIGHWAY 116", "postcode": "31826"}}},
{"geometry": {"type": "Point", "coordinates": [-84.4886380823, 32.7004603147]}, "type": "Feature", "properties": {"collection_times": [{"days": "Mon-Fri", "time": "4:00pm"}, {"days": "Sat", "time": "11:00am"}, {"days": "Sun", "time": "Closed"}], "id": "3182700000", "name": "USPS COLLECTION BOX - BLUE BOX", "address": {"city": "TALBOTTON", "state": "GA", "street": "8 S JEFFERSON AVE", "postcode": "31827"}}},
{"geometry": {"type": "Point", "coordinates": [-84.4886380823, 32.7004603147]}, "type": "Feature", "properties": {"collection_times": [{"days": "Mon-Fri", "time": "4:00pm"}, {"days": "Sat", "time": "11:00am"}, {"days": "Sun", "time": "Closed"}], "id": "3182700001", "name": "USPS COLLECTION BOX - PO LOBBY", "address": {"city": "TALBOTTON", "state": "GA", "street": "8 S JEFFERSON AVE", "postcode": "31827"}}},
{"geometry": {"type": "Point", "coordinates": [-84.6811260198, 32.8893712405]}, "type": "Feature", "properties": {"collection_times": [{"days": "Mon-Fri", "time": "4:00pm"}, {"days": "Sat", "time": "11:00am"}, {"days": "Sun", "time": "Closed"}], "id": "3183000001", "name": "USPS COLLECTION BOX - BLUE BOX", "address": {"city": "WARM SPRINGS", "state": "GA", "street": "3795 WHITE HOUSE PKWY", "postcode": "31830"}}},
{"geometry": {"type": "Point", "coordinates": [-84.6811260198, 32.8893712405]}, "type": "Feature", "properties": {"collection_times": [{"days": "Mon-Fri", "time": "4:00pm"}, {"days": "Sat", "time": "11:00am"}, {"days": "Sun", "time": "Closed"}], "id": "3183000003", "name": "USPS COLLECTION BOX - PO LOBBY", "address": {"city": "WARM SPRINGS", "state": "GA", "street": "3795 WHITE HOUSE PKWY", "postcode": "31830"}}},
{"geometry": {"type": "Point", "coordinates": [-84.7369232282, 32.681725415]}, "type": "Feature", "properties": {"collection_times": [{"days": "Mon-Fri", "time": "4:30pm"}, {"days": "Sat", "time": "11:00am"}, {"days": "Sun", "time": "Closed"}], "id": "3183100000", "name": "USPS COLLECTION BOX - BLUE BOX", "address": {"city": "WAVERLY HALL", "state": "GA", "street": "99 RIDGEWAY RD", "postcode": "31831"}}},
{"geometry": {"type": "Point", "coordinates": [-84.7369232282, 32.681725415]}, "type": "Feature", "properties": {"collection_times": [{"days": "Mon-Fri", "time": "4:30pm"}, {"days": "Sat", "time": "11:00am"}, {"days": "Sun", "time": "Closed"}], "id": "3183100001", "name": "USPS COLLECTION BOX - PO LOBBY", "address": {"city": "WAVERLY HALL", "state": "GA", "street": "99 RIDGEWAY RD", "postcode": "31831"}}},
{"geometry": {"type": "Point", "coordinates": [-84.5646443973, 31.9584837576]}, "type": "Feature", "properties": {"collection_times": [{"days": "Mon-Fri", "time": "4:00pm"}, {"days": "Sat", "time": "10:30am"}, {"days": "Sun", "time": "Closed"}], "id": "3183200001", "name": "USPS COLLECTION BOX - BLUE BOX", "address": {"city": "WESTON", "state": "GA", "street": "3286 WESTON BLVD", "postcode": "31832"}}},
{"geometry": {"type": "Point", "coordinates": [-84.5646443973, 31.9584837576]}, "type": "Feature", "properties": {"collection_times": [{"days": "Mon-Fri", "time": "4:00pm"}, {"days": "Sat", "time": "10:30am"}, {"days": "Sun", "time": "Closed"}], "id": "3183200002", "name": "USPS COLLECTION BOX - PO LOBBY", "address": {"city": "WESTON", "state": "GA", "street": "3286 WESTON BLVD", "postcode": "31832"}}},
{"geometry": {"type": "Point", "coordinates": [-85.1853234605, 32.8767538088]}, "type": "Feature", "properties": {"collection_times": [{"days": "Mon-Fri", "time": "5:00pm"}, {"days": "Sat", "time": "3:45pm"}, {"days": "Sun", "time": "Closed"}], "id": "3183300001", "name": "USPS COLLECTION BOX - BLUE BOX", "address": {"city": "WEST POINT", "state": "GA", "street": "729 4TH AVE", "postcode": "31833"}}},
{"geometry": {"type": "Point", "coordinates": [-85.1853234605, 32.8767538088]}, "type": "Feature", "properties": {"collection_times": [{"days": "Mon-Fri", "time": "5:00pm"}, {"days": "Sat", "time": "3:45pm"}, {"days": "Sun", "time": "Closed"}], "id": "3183300003", "name": "USPS COLLECTION BOX - PO LOBBY", "address": {"city": "WEST POINT", "state": "GA", "street": "729 4TH AVE", "postcode": "31833"}}},
{"geometry": {"type": "Point", "coordinates": [-84.5610136055, 32.7874990927]}, "type": "Feature", "properties": {"collection_times": [{"days": "Mon-Fri", "time": "12:30pm"}, {"days": "Sat", "time": "10:30am"}, {"days": "Sun", "time": "Closed"}], "id": "3183600000", "name": "USPS COLLECTION BOX - BLUE BOX", "address": {"city": "WOODLAND", "state": "GA", "street": "60 E MAIN ST", "postcode": "31836"}}},
{"geometry": {"type": "Point", "coordinates": [-84.5610136055, 32.7874990927]}, "type": "Feature", "properties": {"collection_times": [{"days": "Mon-Fri", "time": "12:30pm"}, {"days": "Sat", "time": "10:30am"}, {"days": "Sun", "time": "Closed"}], "id": "3183600001", "name": "USPS COLLECTION BOX - PO LOBBY", "address": {"city": "WOODLAND", "state": "GA", "street": "60 E MAIN ST", "postcode": "31836"}}}
]}
