{"type": "FeatureCollection", "features": [
{"geometry": {"type": "Point", "coordinates": [-84.9913836822, 32.4685442884]}, "type": "Feature", "properties": {"collection_times": [{"days": "Mon-Fri", "time": "5:00pm"}, {"days": "Sat", "time": "10:30am"}, {"days": "Sun", "time": "Closed"}], "id": "3190100000", "name": "USPS COLLECTION BOX - PO LOBBY", "address": {"city": "COLUMBUS", "state": "GA", "street": "120 12TH ST", "postcode": "31901"}}},
{"geometry": {"type": "Point", "coordinates": [-84.9913836822, 32.4685442884]}, "type": "Feature", "properties": {"collection_times": [{"days": "Mon-Fri", "time": "6:00pm"}, {"days": "Sat", "time": "4:15pm"}, {"days": "Sun", "time": "Closed"}], "id": "3190100001", "name": "USPS COLLECTION BOX - BLUE BOX", "address": {"city": "COLUMBUS", "state": "GA", "street": "120 12TH ST", "postcode": "31901"}}},
{"geometry": {"type": "Point", "coordinates": [-84.990446915, 32.4685055607]}, "type": "Feature", "properties": {"collection_times": [{"days": "Mon-Fri", "time": "6:00pm"}, {"days": "Sat", "time": "4:15pm"}, {"days": "Sun", "time": "Closed"}], "id": "3190100004", "name": "USPS COLLECTION BOX - BLUE BOX", "address": {"city": "COLUMBUS", "state": "GA", "street": "1197 2ND AVE", "postcode": "31901"}}},
{"geometry": {"type": "Point", "coordinates": [-84.9945644823, 32.4610262477]}, "type": "Feature", "properties": {"collection_times": [{"days": "Mon-Fri", "time": "4:45pm"}, {"days": "Sat", "time": "9:00am"}, {"days": "Sun", "time": "Closed"}], "id": "3190100020", "name": "USPS COLLECTION BOX - BLUE BOX", "address": {"city": "COLUMBUS", "state": "GA", "street": "800 FRONT AVE", "postcode": "31901"}}},
{"geometry": {"type": "Point", "coordinates": [-84.9830871197, 32.4813416483]}, "type": "Feature", "properties": {"collection_times": [{"days": "Mon-Fri", "time": "4:30pm"}, {"days": "Sat", "time": "9:00am"}, {"days": "Sun", "time": "Closed"}], "id": "3190100023", "name": "USPS COLLECTION BOX - BLUE BOX", "address": {"city": "COLUMBUS", "state": "GA", "street": "710 CENTER ST", "postcode": "31901"}}},
{"geometry": {"type": "Point", "coordinates": [-84.9903607907, 32.4667405052]}, "type": "Feature", "properties": {"collection_times": [{"days": "Mon-Fri", "time": "5:45pm"}, {"days": "Sat", "time": "4:30pm"}, {"days": "Sun", "time": "Closed"}], "id": "3190100033", "name": "USPS COLLECTION BOX - BLUE BOX", "address": {"city": "COLUMBUS", "state": "GA", "street": "201 W 11TH ST", "postcode": "31901"}}},
{"geometry": {"type": "Point", "coordinates": [-84.9720431123, 32.4710751612]}, "type": "Feature", "properties": {"collection_times": [{"days": "Mon-Fri", "time": "4:45pm"}, {"days": "Sat", "time": "9:00am"}, {"days": "Sun", "time": "Closed"}], "id": "3190100065", "name": "USPS COLLECTION BOX - BLUE BOX", "address": {"city": "COLUMBUS", "state": "GA", "street": "1359 13TH ST", "postcode": "31901"}}},
{"geometry": {"type": "Point", "coordinates": [-84.9832211043, 32.4813763595]}, "type": "Feature", "properties": {"collection_times": [{"days": "Mon-Fri", "time": "4:30pm"}, {"days": "Sat", "time": "9:00am"}, {"days": "Sun", "time": "Closed"}], "id": "3190100075", "name": "USPS COLLECTION BOX - BLUE BOX", "address": {"city": "COLUMBUS", "state": "GA", "street": "707 CENTER ST", "postcode": "31901"}}},
{"geometry": {"type": "Point", "coordinates": [-84.9934212484, 32.4671245528]}, "type": "Feature", "properties": {"collection_times": [{"days": "Mon-Fri", "time": "5:00pm"}, {"days": "Sat-Sun", "time": "Closed"}], "id": "3190100086", "name": "USPS COLLECTION BOX - BLUE BOX", "address": {"city": "COLUMBUS", "state": "GA", "street": "1121 BROADWAY", "postcode": "31901"}}},
{"geometry": {"type": "Point", "coordinates": [-84.9447949703, 32.4266773627]}, "type": "Feature", "properties": {"collection_times": [{"days": "Mon-Fri", "time": "5:00pm"}, {"days": "Sat-Sun", "time": "Closed"}], "id": "3190300002", "name": "USPS COLLECTION BOX - PO LOBBY", "address": {"city": "COLUMBUS", "state": "GA", "street": "1435 BENNING DR", "postcode": "31903"}}},
{"geometry": {"type": "Point", "coordinates": [-84.9447949703, 32.4266773627]}, "type": "Feature", "properties": {"collection_times": [{"days": "Mon-Fri", "time": "5:30pm"}, {"days": "Sat", "time": "4:00pm"}, {"days": "Sun", "time": "Closed"}], "id": "3190300003", "name": "USPS COLLECTION BOX - BLUE BOX", "address": {"city": "COLUMBUS", "state": "GA", "street": "1435 BENNING DR", "postcode": "31903"}}},
{"geometry": {"type": "Point", "coordinates": [-84.9447949703, 32.4266773627]}, "type": "Feature", "properties": {"collection_times": [{"days": "Mon-Fri", "time": "5:30pm"}, {"days": "Sat", "time": "4:00pm"}, {"days": "Sun", "time": "Closed"}], "id": "3190300004", "name": "USPS COLLECTION BOX - BLUE BOX", "address": {"city": "COLUMBUS", "state": "GA", "street": "1435 BENNING DR", "postcode": "31903"}}},
{"geometry": {"type": "Point", "coordinates": [-84.9447949703, 32.4266773627]}, "type": "Feature", "properties": {"collection_times": [{"days": "Mon-Fri", "time": "5:30pm"}, {"days": "Sat", "time": "4:00pm"}, {"days": "Sun", "time": "Closed"}], "id": "3190300005", "name": "USPS COLLECTION BOX - BLUE BOX", "address": {"city": "COLUMBUS", "state": "GA", "street": "1435 BENNING DR", "postcode": "31903"}}},
{"geometry": {"type": "Point", "coordinates": [-84.95557173, 32.402528787]}, "type": "Feature", "properties": {"collection_times": [{"days": "Mon-Fri", "time": "5:15pm"}, {"days": "Sat", "time": "9:00am"}, {"days": "Sun", "time": "Closed"}], "id": "3190300016", "name": "USPS COLLECTION BOX - BLUE BOX", "address": {"city": "COLUMBUS", "state": "GA", "street": "2067 S LUMPKIN RD", "postcode": "31903"}}},
{"geometry": {"type": "Point", "coordinates": [-84.9548885751, 32.4145045983]}, "type": "Feature", "properties": {"collection_times": [{"days": "Mon-Sat", "time": "4:00pm"}, {"days": "Sun", "time": "Closed"}], "id": "3190300031", "name": "USPS COLLECTION BOX - BLUE BOX", "address": {"city": "COLUMBUS", "state": "GA", "street": "1775 LEGACY WAY", "postcode": "31903"}}},
{"geometry": {"type": "Point", "coordinates": [-84.9555201342, 32.5189594664]}, "type": "Feature", "properties": {"collection_times": [{"days": "Mon-Fri", "time": "5:30pm"}, {"days": "Sat", "time": "9:00am"}, {"days": "Sun", "time": "Closed"}], "id": "3190400000", "name": "USPS COLLECTION BOX - BLUE BOX", "address": {"city": "COLUMBUS", "state": "GA", "street": "2500 AIRPORT THRUWAY", "postcode": "31904"}}},
{"geometry": {"type": "Point", "coordinates": [-84.9555201342, 32.5189594664]}, "type": "Feature", "properties": {"collection_times": [{"days": "Mon-Fri", "time": "5:30pm"}, {"days": "Sat", "time": "9:00am"}, {"days": "Sun", "time": "Closed"}], "id": "3190400001", "name": "USPS COLLECTION BOX - BLUE BOX", "address": {"city": "COLUMBUS", "state": "GA", "street": "2500 AIRPORT THRUWAY", "postcode": "31904"}}},
{"geometry": {"type": "Point", "coordinates": [-84.9736831794, 32.5019696708]}, "type": "Feature", "properties": {"collection_times": [{"days": "Mon-Fri", "time": "5:00pm"}, {"days": "Sat-Sun", "time": "Closed"}], "id": "3190400003", "name": "USPS COLLECTION BOX - PO LOBBY", "address": {"city": "COLUMBUS", "state": "GA", "street": "4012 HAMILTON RD", "postcode": "31904"}}},
{"geometry": {"type": "Point", "coordinates": [-84.9736831794, 32.5019696708]}, "type": "Feature", "properties": {"collection_times": [{"days": "Mon-Fri", "time": "5:45pm"}, {"days": "Sat", "time": "4:45pm"}, {"days": "Sun", "time": "Closed"}], "id": "3190400005", "name": "USPS COLLECTION BOX - BLUE BOX", "address": {"city": "COLUMBUS", "state": "GA", "street": "4012 HAMILTON RD", "postcode": "31904"}}},
{"geometry": {"type": "Point", "coordinates": [-84.9697898682, 32.5093308588]}, "type": "Feature", "properties": {"collection_times": [{"days": "Mon-Fri", "time": "5:45pm"}, {"days": "Sat", "time": "9:00am"}, {"days": "Sun", "time": "Closed"}], "id": "3190400016", "name": "USPS COLLECTION BOX - BLUE BOX", "address": {"city": "COLUMBUS", "state": "GA", "street": "4747 HAMILTON RD", "postcode": "31904"}}},
{"geometry": {"type": "Point", "coordinates": [-84.9661477655, 32.5277728703]}, "type": "Feature", "properties": {"collection_times": [{"days": "Mon-Fri", "time": "5:00pm"}, {"days": "Sat", "time": "9:00am"}, {"days": "Sun", "time": "Closed"}], "id": "3190400022", "name": "USPS COLLECTION BOX - BLUE BOX", "address": {"city": "COLUMBUS", "state": "GA", "street": "1800 NORTHSIDE INDUSTRIAL BLVD", "postcode": "31904"}}},
{"geometry": {"type": "Point", "coordinates": [-84.9612700855, 32.5240353809]}, "type": "Feature", "properties": {"collection_times": [{"days": "Mon-Fri", "time": "5:30pm"}, {"days": "Sat", "time": "9:00am"}, {"days": "Sun", "time": "Closed"}], "id": "3190400027", "name": "USPS COLLECTION BOX - BLUE BOX", "address": {"city": "COLUMBUS", "state": "GA", "street": "5636 PRINCETON AVE", "postcode": "31904"}}},
{"geometry": {"type": "Point", "coordinates": [-84.9598083944, 32.4996694764]}, "type": "Feature", "properties": {"collection_times": [{"days": "Mon-Fri", "time": "6:00pm"}, {"days": "Sat", "time": "9:00am"}, {"days": "Sun", "time": "Closed"}], "id": "3190400034", "name": "USPS COLLECTION BOX - BLUE BOX", "address": {"city": "COLUMBUS", "state": "GA", "street": "3726 WOODRUFF RD", "postcode": "31904"}}},
{"geometry": {"type": "Point", "coordinates": [-84.9620008502, 32.5365063798]}, "type": "Feature", "properties": {"collection_times": [{"days": "Mon-Fri", "time": "5:00pm"}, {"days": "Sat", "time": "9:00am"}, {"days": "Sun", "time": "Closed"}], "id": "3190400048", "name": "USPS COLLECTION BOX - BLUE BOX", "address": {"city": "COLUMBUS", "state": "GA", "street": "5 BRADLEY PARK CT", "postcode": "31904"}}},
{"geometry": {"type": "Point", "coordinates": [-84.9806098529, 32.5308615824]}, "type": "Feature", "properties": {"collection_times": [{"days": "Mon-Fri", "time": "5:00pm"}, {"days": "Sat", "time": "9:00am"}, {"days": "Sun", "time": "Closed"}], "id": "3190400049", "name": "USPS COLLECTION BOX - BLUE BOX", "address": {"city": "COLUMBUS", "state": "GA", "street": "100 BROOKSTONE CENTRE PKWY", "postcode": "31904"}}},
{"geometry": {"type": "Point", "coordinates": [-84.9672176375, 32.5324927275]}, "type": "Feature", "properties": {"collection_times": [{"days": "Mon-Fri", "time": "5:00pm"}, {"days": "Sat", "time": "9:00am"}, {"days": "Sun", "time": "Closed"}], "id": "3190400053", "name": "USPS COLLECTION BOX - BLUE BOX", "address": {"city": "COLUMBUS", "state": "GA", "street": "1633 BRADLEY PARK DR", "postcode": "31904"}}},
{"geometry": {"type": "Point", "coordinates": [-84.9607652114, 32.5254229902]}, "type": "Feature", "properties": {"collection_times": [{"days": "Mon-Fri", "time": "5:00pm"}, {"days": "Sat", "time": "9:00am"}, {"days": "Sun", "time": "Closed"}], "id": "3190400058", "name": "USPS COLLECTION BOX - BLUE BOX", "address": {"city": "COLUMBUS", "state": "GA", "street": "5670 WHITESVILLE RD", "postcode": "31904"}}},
{"geometry": {"type": "Point", "coordinates": [-84.9667753325, 32.5697499731]}, "type": "Feature", "properties": {"collection_times": [{"days": "Mon-Sat", "time": "12:00pm"}, {"days": "Sun", "time": "Closed"}], "id": "3190400059", "name": "USPS COLLECTION BOX - BLUE BOX", "address": {"city": "COLUMBUS", "state": "GA", "street": "1751 WILLIAMS RD", "postcode": "31904"}}},
{"geometry": {"type": "Point", "coordinates": [-84.9953435023, 32.5495679404]}, "type": "Feature", "properties": {"collection_times": [{"days": "Mon-Sat", "time": "9:00am"}, {"days": "Sun", "time": "Closed"}], "id": "3190400063", "name": "USPS COLLECTION BOX - BLUE BOX", "address": {"city": "COLUMBUS", "state": "GA", "street": "6801 RIVER RD", "postcode": "31904"}}},
{"geometry": {"type": "Point", "coordinates": [-84.9630201321, 32.5090209292]}, "type": "Feature", "properties": {"collection_times": [{"days": "Mon-Fri", "time": "5:30pm"}, {"days": "Sat", "time": "9:00am"}, {"days": "Sun", "time": "Closed"}], "id": "3190400069", "name": "USPS COLLECTION BOX - BLUE BOX", "address": {"city": "COLUMBUS", "state": "GA", "street": "2000 DEVONSHIRE DR", "postcode": "31904"}}},
{"geometry": {"type": "Point", "coordinates": [-84.9736831794, 32.5019696708]}, "type": "Feature", "properties": {"collection_times": [{"days": "Mon-Fri", "time": "5:45pm"}, {"days": "Sat", "time": "4:45pm"}, {"days": "Sun", "time": "Closed"}], "id": "3190400075", "name": "USPS COLLECTION BOX - BLUE BOX", "address": {"city": "COLUMBUS", "state": "GA", "street": "4012 HAMILTON RD", "postcode": "31904"}}},
{"geometry": {"type": "Point", "coordinates": [-84.9765294771, 32.5193935633]}, "type": "Feature", "properties": {"collection_times": [{"days": "Mon-Fri", "time": "5:00pm"}, {"days": "Sat", "time": "9:00am"}, {"days": "Sun", "time": "Closed"}], "id": "3190400076", "name": "USPS COLLECTION BOX - BLUE BOX", "address": {"city": "COLUMBUS", "state": "GA", "street": "1455 BELFAST AVE", "postcode": "31904"}}},
{"geometry": {"type": "Point", "coordinates": [-84.8137108516, 32.3767600237]}, "type": "Feature", "properties": {"collection_times": [{"days": "Mon-Fri", "time": "4:30pm"}, {"days": "Sat-Sun", "time": "Closed"}], "id": "3190500004", "name": "USPS COLLECTION BOX - BLUE BOX", "address": {"city": "COLUMBUS", "state": "GA", "street": "1 RIORDON ST @ BURR ST", "postcode": "31905"}}},
{"geometry": {"type": "Point", "coordinates": [-84.9374852104, 32.4088519542]}, "type": "Feature", "properties": {"collection_times": [{"days": "Mon-Fri", "time": "4:15pm"}, {"days": "Sat-Sun", "time": "Closed"}], "id": "3190500011", "name": "USPS COLLECTION BOX - BLUE BOX", "address": {"city": "COLUMBUS", "state": "GA", "street": "1 COLLINS DR", "postcode": "31905"}}},
{"geometry": {"type": "Point", "coordinates": [-84.8137108516, 32.3767600237]}, "type": "Feature", "properties": {"collection_times": [{"days": "Mon-Fri", "time": "5:00pm"}, {"days": "Sat", "time": "2:30pm"}, {"days": "Sun", "time": "Closed"}], "id": "3190500013", "name": "USPS COLLECTION BOX - BLUE BOX", "address": {"city": "COLUMBUS", "state": "GA", "street": "110 VIBBERT AVE", "postcode": "31905"}}},
{"geometry": {"type": "Point", "coordinates": [-84.8137108516, 32.3767600237]}, "type": "Feature", "properties": {"collection_times": [{"days": "Mon-Fri", "time": "5:00pm"}, {"days": "Sat", "time": "2:30pm"}, {"days": "Sun", "time": "Closed"}], "id": "3190500014", "name": "USPS COLLECTION BOX - BLUE BOX", "address": {"city": "COLUMBUS", "state": "GA", "street": "110 VIBBERT AVE", "postcode": "31905"}}},
{"geometry": {"type": "Point", "coordinates": [-84.8137108516, 32.3767600237]}, "type": "Feature", "properties": {"collection_times": [{"days": "Mon-Fri", "time": "4:30pm"}, {"days": "Sat-Sun", "time": "Closed"}], "id": "3190500018", "name": "USPS COLLECTION BOX - BLUE BOX", "address": {"city": "COLUMBUS", "state": "GA", "street": "1 CHESNEY ST", "postcode": "31905"}}},
{"geometry": {"type": "Point", "coordinates": [-84.8137108516, 32.3767600237]}, "type": "Feature", "properties": {"collection_times": [{"days": "Mon-Fri", "time": "10:15am"}, {"days": "Sat", "time": "2:45pm"}, {"days": "Sun", "time": "Closed"}], "id": "3190500020", "name": "USPS COLLECTION BOX - BLUE BOX", "address": {"city": "COLUMBUS", "state": "GA", "street": "8800 WATKINS AVE-BLDG 9076", "postcode": "31905"}}},
{"geometry": {"type": "Point", "coordinates": [-84.8137108516, 32.3767600237]}, "type": "Feature", "properties": {"collection_times": [{"days": "Mon-Fri", "time": "4:00pm"}, {"days": "Sat", "time": "2:45pm"}, {"days": "Sun", "time": "Closed"}], "id": "3190500024", "name": "USPS COLLECTION BOX - BLUE BOX", "address": {"city": "COLUMBUS", "state": "GA", "street": "3 FT BENNING", "postcode": "31905"}}},
{"geometry": {"type": "Point", "coordinates": [-84.9371595981, 32.406246009]}, "type": "Feature", "properties": {"collection_times": [{"days": "Mon-Fri", "time": "4:00pm"}, {"days": "Sat", "time": "2:45pm"}, {"days": "Sun", "time": "Closed"}], "id": "3190500026", "name": "USPS COLLECTION BOX - BLUE BOX", "address": {"city": "COLUMBUS", "state": "GA", "street": "1 ENGINEER RD", "postcode": "31905"}}},
{"geometry": {"type": "Point", "coordinates": [-84.8137108516, 32.3767600237]}, "type": "Feature", "properties": {"collection_times": [{"days": "Mon-Fri", "time": "4:45pm"}, {"days": "Sat-Sun", "time": "Closed"}], "id": "3190500028", "name": "USPS COLLECTION BOX - BLUE BOX", "address": {"city": "COLUMBUS", "state": "GA", "street": "4 FT BENNING", "postcode": "31905"}}},
{"geometry": {"type": "Point", "coordinates": [-84.8137108516, 32.3767600237]}, "type": "Feature", "properties": {"collection_times": [{"days": "Mon-Fri", "time": "4:45pm"}, {"days": "Sat-Sun", "time": "Closed"}], "id": "3190500029", "name": "USPS COLLECTION BOX - BLUE BOX", "address": {"city": "COLUMBUS", "state": "GA", "street": "1 DILBOY ST", "postcode": "31905"}}},
{"geometry": {"type": "Point", "coordinates": [-84.8137108516, 32.3767600237]}, "type": "Feature", "properties": {"collection_times": [{"days": "Mon-Fri", "time": "4:45pm"}, {"days": "Sat-Sun", "time": "Closed"}], "id": "3190500030", "name": "USPS COLLECTION BOX - BLUE BOX", "address": {"city": "COLUMBUS", "state": "GA", "street": "1 EDWARDS ST", "postcode": "31905"}}},
{"geometry": {"type": "Point", "coordinates": [-84.8137108516, 32.3767600237]}, "type": "Feature", "properties": {"collection_times": [{"days": "Mon-Fri", "time": "5:00pm"}, {"days": "Sat-Sun", "time": "Closed"}], "id": "3190500033", "name": "USPS COLLECTION BOX - BLUE BOX", "address": {"city": "COLUMBUS", "state": "GA", "street": "1 MORRISON AVE", "postcode": "31905"}}},
{"geometry": {"type": "Point", "coordinates": [-84.8137108516, 32.3767600237]}, "type": "Feature", "properties": {"collection_times": [{"days": "Mon-Fri", "time": "10:30am"}, {"days": "Sat", "time": "3:45pm"}, {"days": "Sun", "time": "Closed"}], "id": "3190500034", "name": "USPS COLLECTION BOX - BLUE BOX", "address": {"city": "COLUMBUS", "state": "GA", "street": "6 2ND INF DIV RD (30TH AG)", "postcode": "31905"}}},
{"geometry": {"type": "Point", "coordinates": [-84.993103802, 32.4667498286]}, "type": "Feature", "properties": {"collection_times": [{"days": "Mon-Fri", "time": "10:30am"}, {"days": "Sat", "time": "3:00pm"}, {"days": "Sun", "time": "Closed"}], "id": "3190500035", "name": "USPS COLLECTION BOX - BLUE BOX", "address": {"city": "COLUMBUS", "state": "GA", "street": "1 11TH ABN DIV RD  (1/38TH)", "postcode": "31905"}}},
{"geometry": {"type": "Point", "coordinates": [-84.8137108516, 32.3767600237]}, "type": "Feature", "properties": {"collection_times": [{"days": "Mon-Fri", "time": "10:30am"}, {"days": "Sat", "time": "3:45pm"}, {"days": "Sun", "time": "Closed"}], "id": "3190500037", "name": "USPS COLLECTION BOX - BLUE BOX", "address": {"city": "COLUMBUS", "state": "GA", "street": "9240 TREADWELL DR BLDG 3405", "postcode": "31905"}}},
{"geometry": {"type": "Point", "coordinates": [-84.8137108516, 32.3767600237]}, "type": "Feature", "properties": {"collection_times": [{"days": "Mon-Fri", "time": "10:30am"}, {"days": "Sat", "time": "3:15pm"}, {"days": "Sun", "time": "Closed"}], "id": "3190500039", "name": "USPS COLLECTION BOX - BLUE BOX", "address": {"city": "COLUMBUS", "state": "GA", "street": "3 SAND HILL CONTRACT STATION #107", "postcode": "31905"}}},
{"geometry": {"type": "Point", "coordinates": [-84.8137108516, 32.3767600237]}, "type": "Feature", "properties": {"collection_times": [{"days": "Mon-Fri", "time": "10:30am"}, {"days": "Sat", "time": "3:45pm"}, {"days": "Sun", "time": "Closed"}], "id": "3190500040", "name": "USPS COLLECTION BOX - BLUE BOX", "address": {"city": "COLUMBUS", "state": "GA", "street": "9 2ND INFANTRY DIV ROAD (1/19TH)", "postcode": "31905"}}},
{"geometry": {"type": "Point", "coordinates": [-84.8137108516, 32.3767600237]}, "type": "Feature", "properties": {"collection_times": [{"days": "Mon-Fri", "time": "10:30am"}, {"days": "Sat", "time": "3:30pm"}, {"days": "Sun", "time": "Closed"}], "id": "3190500041", "name": "USPS COLLECTION BOX - BLUE BOX", "address": {"city": "COLUMBUS", "state": "GA", "street": "9747 SECOND ARMORED DIVISION RD", "postcode": "31905"}}},
{"geometry": {"type": "Point", "coordinates": [-84.8137108516, 32.3767600237]}, "type": "Feature", "properties": {"collection_times": [{"days": "Mon-Fri", "time": "10:30am"}, {"days": "Sat-Sun", "time": "Closed"}], "id": "3190500047", "name": "USPS COLLECTION BOX - BLUE BOX", "address": {"city": "COLUMBUS", "state": "GA", "street": "10850 SCHNEIDER RD", "postcode": "31905"}}},
{"geometry": {"type": "Point", "coordinates": [-84.993103802, 32.4667498286]}, "type": "Feature", "properties": {"collection_times": [{"days": "Mon-Fri", "time": "10:30am"}, {"days": "Sat", "time": "3:15pm"}, {"days": "Sun", "time": "Closed"}], "id": "3190500053", "name": "USPS COLLECTION BOX - BLUE BOX", "address": {"city": "COLUMBUS", "state": "GA", "street": "5065 MOYE RD BLDG 3465", "postcode": "31905"}}},
{"geometry": {"type": "Point", "coordinates": [-84.8137108516, 32.3767600237]}, "type": "Feature", "properties": {"collection_times": [{"days": "Mon-Fri", "time": "10:30am"}, {"days": "Sat", "time": "3:45pm"}, {"days": "Sun", "time": "Closed"}], "id": "3190500055", "name": "USPS COLLECTION BOX - BLUE BOX", "address": {"city": "COLUMBUS", "state": "GA", "street": "10 2ND INF DIV RD", "postcode": "31905"}}},
{"geometry": {"type": "Point", "coordinates": [-84.993103802, 32.4666401831]}, "type": "Feature", "properties": {"collection_times": [{"days": "Mon-Fri", "time": "10:30am"}, {"days": "Sat", "time": "3:00pm"}, {"days": "Sun", "time": "Closed"}], "id": "3190500057", "name": "USPS COLLECTION BOX - BLUE BOX", "address": {"city": "COLUMBUS", "state": "GA", "street": "2 11TH AIRBORNE STREET (SAND HILL", "postcode": "31905"}}},
{"geometry": {"type": "Point", "coordinates": [-84.8137108516, 32.3767600237]}, "type": "Feature", "properties": {"collection_times": [{"days": "Mon-Fri", "time": "10:30am"}, {"days": "Sat", "time": "3:30pm"}, {"days": "Sun", "time": "Closed"}], "id": "3190500059", "name": "USPS COLLECTION BOX - BLUE BOX", "address": {"city": "COLUMBUS", "state": "GA", "street": "1 AIRBORNE DIV RD", "postcode": "31905"}}},
{"geometry": {"type": "Point", "coordinates": [-84.8137108516, 32.3767600237]}, "type": "Feature", "properties": {"collection_times": [{"days": "Mon-Fri", "time": "10:30am"}, {"days": "Sat", "time": "3:15pm"}, {"days": "Sun", "time": "Closed"}], "id": "3190500060", "name": "USPS COLLECTION BOX - BLUE BOX", "address": {"city": "COLUMBUS", "state": "GA", "street": "3 AIRBORNE DIV RD", "postcode": "31905"}}},
{"geometry": {"type": "Point", "coordinates": [-84.8137108516, 32.3767600237]}, "type": "Feature", "properties": {"collection_times": [{"days": "Mon-Fri", "time": "10:30am"}, {"days": "Sat", "time": "3:45pm"}, {"days": "Sun", "time": "Closed"}], "id": "3190500067", "name": "USPS COLLECTION BOX - BLUE BOX", "address": {"city": "COLUMBUS", "state": "GA", "street": "9697 2ND ARMORED DIV RD", "postcode": "31905"}}},
{"geometry": {"type": "Point", "coordinates": [-84.8137108516, 32.3767600237]}, "type": "Feature", "properties": {"collection_times": [{"days": "Mon-Fri", "time": "5:00pm"}, {"days": "Sat", "time": "2:00pm"}, {"days": "Sun", "time": "Closed"}], "id": "3190500069", "name": "USPS COLLECTION BOX - PO LOBBY", "address": {"city": "COLUMBUS", "state": "GA", "street": "110 VIBBERT AVE", "postcode": "31905"}}},
{"geometry": {"type": "Point", "coordinates": [-84.9312092167, 32.4466709203]}, "type": "Feature", "properties": {"collection_times": [{"days": "Mon-Fri", "time": "5:45pm"}, {"days": "Sat", "time": "9:00am"}, {"days": "Sun", "time": "Closed"}], "id": "3190600030", "name": "USPS COLLECTION BOX - BLUE BOX", "address": {"city": "COLUMBUS", "state": "GA", "street": "3863 SAINT MARYS RD", "postcode": "31906"}}},
{"geometry": {"type": "Point", "coordinates": [-84.9583461085, 32.4695836683]}, "type": "Feature", "properties": {"collection_times": [{"days": "Mon-Fri", "time": "5:00pm"}, {"days": "Sat-Sun", "time": "Closed"}], "id": "3190600032", "name": "USPS COLLECTION BOX - PO LOBBY", "address": {"city": "COLUMBUS", "state": "GA", "street": "1179 HENRY AVE", "postcode": "31906"}}},
{"geometry": {"type": "Point", "coordinates": [-84.9583461085, 32.4695836683]}, "type": "Feature", "properties": {"collection_times": [{"days": "Mon-Fri", "time": "5:15pm"}, {"days": "Sat", "time": "5:00pm"}, {"days": "Sun", "time": "Closed"}], "id": "3190600033", "name": "USPS COLLECTION BOX - BLUE BOX", "address": {"city": "COLUMBUS", "state": "GA", "street": "1179 HENRY AVE", "postcode": "31906"}}},
{"geometry": {"type": "Point", "coordinates": [-84.9246814886, 32.463701947]}, "type": "Feature", "properties": {"collection_times": [{"days": "Mon-Fri", "time": "5:15pm"}, {"days": "Sat", "time": "9:00am"}, {"days": "Sun", "time": "Closed"}], "id": "3190700000", "name": "USPS COLLECTION BOX - BLUE BOX", "address": {"city": "COLUMBUS", "state": "GA", "street": "4115 BUENA VISTA RD", "postcode": "31907"}}},
{"geometry": {"type": "Point", "coordinates": [-84.8986762359, 32.4786569081]}, "type": "Feature", "properties": {"collection_times": [{"days": "Mon-Fri", "time": "5:00pm"}, {"days": "Sat", "time": "9:00am"}, {"days": "Sun", "time": "Closed"}], "id": "3190700013", "name": "USPS COLLECTION BOX - BLUE BOX", "address": {"city": "COLUMBUS", "state": "GA", "street": "1900 FLOYD RD", "postcode": "31907"}}},
{"geometry": {"type": "Point", "coordinates": [-84.9373465661, 32.4845403537]}, "type": "Feature", "properties": {"collection_times": [{"days": "Mon-Fri", "time": "5:00pm"}, {"days": "Sat-Sun", "time": "Closed"}], "id": "3190700016", "name": "USPS COLLECTION BOX - PO LOBBY", "address": {"city": "COLUMBUS", "state": "GA", "street": "3469 MACON RD", "postcode": "31907"}}},
{"geometry": {"type": "Point", "coordinates": [-84.9373465661, 32.4845403537]}, "type": "Feature", "properties": {"collection_times": [{"days": "Mon-Fri", "time": "6:00pm"}, {"days": "Sat", "time": "5:15pm"}, {"days": "Sun", "time": "Closed"}], "id": "3190700019", "name": "USPS COLLECTION BOX - BLUE BOX", "address": {"city": "COLUMBUS", "state": "GA", "street": "3469 MACON RD", "postcode": "31907"}}},
{"geometry": {"type": "Point", "coordinates": [-84.918999747, 32.4905085729]}, "type": "Feature", "properties": {"collection_times": [{"days": "Mon-Fri", "time": "5:45pm"}, {"days": "Sat", "time": "9:00am"}, {"days": "Sun", "time": "Closed"}], "id": "3190700022", "name": "USPS COLLECTION BOX - BLUE BOX", "address": {"city": "COLUMBUS", "state": "GA", "street": "4231 MACON RD", "postcode": "31907"}}},
{"geometry": {"type": "Point", "coordinates": [-84.8881767472, 32.524151147]}, "type": "Feature", "properties": {"collection_times": [{"days": "Mon-Fri", "time": "4:45pm"}, {"days": "Sat", "time": "9:00am"}, {"days": "Sun", "time": "Closed"}], "id": "3190700024", "name": "USPS COLLECTION BOX - BLUE BOX", "address": {"city": "COLUMBUS", "state": "GA", "street": "5600 MILGEN RD", "postcode": "31907"}}},
{"geometry": {"type": "Point", "coordinates": [-84.8861203015, 32.5267341518]}, "type": "Feature", "properties": {"collection_times": [{"days": "Mon-Sat", "time": "9:00am"}, {"days": "Sun", "time": "Closed"}], "id": "3190700026", "name": "USPS COLLECTION BOX - BLUE BOX", "address": {"city": "COLUMBUS", "state": "GA", "street": "5750 MILGEN RD", "postcode": "31907"}}},
{"geometry": {"type": "Point", "coordinates": [-84.9324616294, 32.4882528339]}, "type": "Feature", "properties": {"collection_times": [{"days": "Mon-Fri", "time": "5:30pm"}, {"days": "Sat", "time": "9:00am"}, {"days": "Sun", "time": "Closed"}], "id": "3190700042", "name": "USPS COLLECTION BOX - BLUE BOX", "address": {"city": "COLUMBUS", "state": "GA", "street": "3604 MACON RD", "postcode": "31907"}}},
{"geometry": {"type": "Point", "coordinates": [-84.9144504947, 32.4670244504]}, "type": "Feature", "properties": {"collection_times": [{"days": "Mon-Fri", "time": "5:00pm"}, {"days": "Sat", "time": "9:00am"}, {"days": "Sun", "time": "Closed"}], "id": "3190700052", "name": "USPS COLLECTION BOX - BLUE BOX", "address": {"city": "COLUMBUS", "state": "GA", "street": "4701 BUENA VISTA RD", "postcode": "31907"}}},
{"geometry": {"type": "Point", "coordinates": [-84.8692910033, 32.5351340196]}, "type": "Feature", "properties": {"collection_times": [{"days": "Mon-Sat", "time": "9:00am"}, {"days": "Sun", "time": "Closed"}], "id": "3190700061", "name": "USPS COLLECTION BOX - BLUE BOX", "address": {"city": "COLUMBUS", "state": "GA", "street": "6363 FLAT ROCK RD", "postcode": "31907"}}},
{"geometry": {"type": "Point", "coordinates": [-84.9289191945, 32.5109886608]}, "type": "Feature", "properties": {"collection_times": [{"days": "Mon-Fri", "time": "6:30pm"}, {"days": "Sat", "time": "6:00pm"}, {"days": "Sun", "time": "Closed"}], "id": "3190700062", "name": "USPS COLLECTION BOX - BLUE BOX", "address": {"city": "COLUMBUS", "state": "GA", "street": "3916 MILGEN RD", "postcode": "31907"}}},
{"geometry": {"type": "Point", "coordinates": [-84.9289191945, 32.5109886608]}, "type": "Feature", "properties": {"collection_times": [{"days": "Mon-Fri", "time": "6:30pm"}, {"days": "Sat", "time": "6:00pm"}, {"days": "Sun", "time": "Closed"}], "id": "3190700064", "name": "USPS COLLECTION BOX - BLUE BOX", "address": {"city": "COLUMBUS", "state": "GA", "street": "3916 MILGEN RD", "postcode": "31907"}}},
{"geometry": {"type": "Point", "coordinates": [-84.9289191945, 32.5109886608]}, "type": "Feature", "properties": {"collection_times": [{"days": "Mon-Fri", "time": "6:30pm"}, {"days": "Sat", "time": "6:00pm"}, {"days": "Sun", "time": "Closed"}], "id": "3190700065", "name": "USPS COLLECTION BOX - PO LOBBY", "address": {"city": "COLUMBUS", "state": "GA", "street": "3916 MILGEN RD", "postcode": "31907"}}},
{"geometry": {"type": "Point", "coordinates": [-84.9289191945, 32.5109886608]}, "type": "Feature", "properties": {"collection_times": [{"days": "Mon-Fri", "time": "6:30pm"}, {"days": "Sat", "time": "6:00pm"}, {"days": "Sun", "time": "Closed"}], "id": "3190700067", "name": "USPS COLLECTION BOX - APC", "address": {"city": "COLUMBUS", "state": "GA", "street": "3916 MILGEN RD", "postcode": "31907"}}},
{"geometry": {"type": "Point", "coordinates": [-84.9343570734, 32.5554988446]}, "type": "Feature", "properties": {"collection_times": [{"days": "Mon-Sat", "time": "9:00am"}, {"days": "Sun", "time": "Closed"}], "id": "3190900001", "name": "USPS COLLECTION BOX - BLUE BOX", "address": {"city": "COLUMBUS", "state": "GA", "street": "7482 OLD MOON RD", "postcode": "31909"}}},
{"geometry": {"type": "Point", "coordinates": [-84.9252461537, 32.5279256243]}, "type": "Feature", "properties": {"collection_times": [{"days": "Mon-Sat", "time": "9:00am"}, {"days": "Sun", "time": "Closed"}], "id": "3190900002", "name": "USPS COLLECTION BOX - BLUE BOX", "address": {"city": "COLUMBUS", "state": "GA", "street": "5838 MOON RD", "postcode": "31909"}}},
{"geometry": {"type": "Point", "coordinates": [-84.9297141008, 32.5233298721]}, "type": "Feature", "properties": {"collection_times": [{"days": "Mon-Fri", "time": "4:30pm"}, {"days": "Sat", "time": "9:00am"}, {"days": "Sun", "time": "Closed"}], "id": "3190900003", "name": "USPS COLLECTION BOX - BLUE BOX", "address": {"city": "COLUMBUS", "state": "GA", "street": "3915 MILLER RD", "postcode": "31909"}}},
{"geometry": {"type": "Point", "coordinates": [-84.9396286482, 32.5075022189]}, "type": "Feature", "properties": {"collection_times": [{"days": "Mon-Fri", "time": "4:30pm"}, {"days": "Sat", "time": "5:15pm"}, {"days": "Sun", "time": "Closed"}], "id": "3190900006", "name": "USPS COLLECTION BOX - BLUE BOX", "address": {"city": "COLUMBUS", "state": "GA", "street": "3247 MANCHESTER EXPY", "postcode": "31909"}}},
{"geometry": {"type": "Point", "coordinates": [-84.9443371555, 32.5060934371]}, "type": "Feature", "properties": {"collection_times": [{"days": "Mon-Fri", "time": "4:30pm"}, {"days": "Sat", "time": "5:15pm"}, {"days": "Sun", "time": "Closed"}], "id": "3190900007", "name": "USPS COLLECTION BOX - BLUE BOX", "address": {"city": "COLUMBUS", "state": "GA", "street": "3091 MANCHESTER EXPY", "postcode": "31909"}}},
{"geometry": {"type": "Point", "coordinates": [-84.9545706245, 32.538390107]}, "type": "Feature", "properties": {"collection_times": [{"days": "Mon-Fri", "time": "5:15pm"}, {"days": "Sat", "time": "9:00am"}, {"days": "Sun", "time": "Closed"}], "id": "3190900009", "name": "USPS COLLECTION BOX - BLUE BOX", "address": {"city": "COLUMBUS", "state": "GA", "street": "6298 VETERANS PKWY", "postcode": "31909"}}},
{"geometry": {"type": "Point", "coordinates": [-84.9514534585, 32.5520728947]}, "type": "Feature", "properties": {"collection_times": [{"days": "Mon-Sat", "time": "9:00am"}, {"days": "Sun", "time": "Closed"}], "id": "3190900011", "name": "USPS COLLECTION BOX - BLUE BOX", "address": {"city": "COLUMBUS", "state": "GA", "street": "2700 DOUBLE CHURCHES RD", "postcode": "31909"}}},
{"geometry": {"type": "Point", "coordinates": [-84.9196687158, 32.5186183933]}, "type": "Feature", "properties": {"collection_times": [{"days": "Mon-Sat", "time": "9:00am"}, {"days": "Sun", "time": "Closed"}], "id": "3190900029", "name": "USPS COLLECTION BOX - BLUE BOX", "address": {"city": "COLUMBUS", "state": "GA", "street": "4343 WARM SPRINGS RD", "postcode": "31909"}}},
{"geometry": {"type": "Point", "coordinates": [-84.9067688943, 32.5342913425]}, "type": "Feature", "properties": {"collection_times": [{"days": "Mon-Sat", "time": "9:00am"}, {"days": "Sun", "time": "Closed"}], "id": "3190900034", "name": "USPS COLLECTION BOX - BLUE BOX", "address": {"city": "COLUMBUS", "state": "GA", "street": "5120 WARM SPRINGS RD", "postcode": "31909"}}},
{"geometry": {"type": "Point", "coordinates": [-84.8981210629, 32.5579076208]}, "type": "Feature", "properties": {"collection_times": [{"days": "Mon-Sat", "time": "9:00am"}, {"days": "Sun", "time": "Closed"}], "id": "3190900035", "name": "USPS COLLECTION BOX - BLUE BOX", "address": {"city": "COLUMBUS", "state": "GA", "street": "7401 BLACKMON RD", "postcode": "31909"}}},
{"geometry": {"type": "Point", "coordinates": [-84.938084338, 32.5547285487]}, "type": "Feature", "properties": {"collection_times": [{"days": "Mon-Sat", "time": "9:00am"}, {"days": "Sun", "time": "Closed"}], "id": "3190900037", "name": "USPS COLLECTION BOX - BLUE BOX", "address": {"city": "COLUMBUS", "state": "GA", "street": "3706 INVERNESS PKWY", "postcode": "31909"}}},
{"geometry": {"type": "Point", "coordinates": [-84.9057008573, 32.5561820319]}, "type": "Feature", "properties": {"collection_times": [{"days": "Mon-Sat", "time": "9:00am"}, {"days": "Sun", "time": "Closed"}], "id": "3190900040", "name": "USPS COLLECTION BOX - BLUE BOX", "address": {"city": "COLUMBUS", "state": "GA", "street": "7600 SCHOMBURG RD", "postcode": "31909"}}}
]}
