{"type": "FeatureCollection", "features": [
{"geometry": {"type": "Point", "coordinates": [-84.7260393418, 31.4391637618]}, "type": "Feature", "properties": {"collection_times": [{"days": "Mon-Fri", "time": "4:30pm"}, {"days": "Sat", "time": "11:00am"}, {"days": "Sun", "time": "Closed"}], "id": "3981300000", "name": "USPS COLLECTION BOX - BLUE BOX", "address": {"city": "ARLINGTON", "state": "GA", "street": "58 LAUREL AVE NW", "postcode": "39813"}}},
{"geometry": {"type": "Point", "coordinates": [-84.7260894331, 31.4396441555]}, "type": "Feature", "properties": {"collection_times": [{"days": "Mon-Fri", "time": "4:30pm"}, {"days": "Sat", "time": "11:00am"}, {"days": "Sun", "time": "Closed"}], "id": "3981300001", "name": "USPS COLLECTION BOX - PO LOBBY", "address": {"city": "ARLINGTON", "state": "GA", "street": "438 PIONEER RD NW", "postcode": "39813"}}},
{"geometry": {"type": "Point", "coordinates": [-84.4855602672, 30.7490135278]}, "type": "Feature", "properties": {"collection_times": [{"days": "Mon-Fri", "time": "4:30pm"}, {"days": "Sat", "time": "10:30am"}, {"days": "Sun", "time": "Closed"}], "id": "3981500000", "name": "USPS COLLECTION BOX - BLUE BOX", "address": {"city": "ATTAPULGUS", "state": "GA", "street": "208 E GRIFFIN AVE", "postcode": "39815"}}},
{"geometry": {"type": "Point", "coordinates": [-84.4855602672, 30.7490135278]}, "type": "Feature", "properties": {"collection_times": [{"days": "Mon-Fri", "time": "12:30pm"}, {"days": "Sat", "time": "10:30am"}, {"days": "Sun", "time": "Closed"}], "id": "3981500001", "name": "USPS COLLECTION BOX - PO LOBBY", "address": {"city": "ATTAPULGUS", "state": "GA", "street": "208 E GRIFFIN AVE", "postcode": "39815"}}},
{"geometry": {"type": "Point", "coordinates": [-84.5765692419, 30.9079475415]}, "type": "Feature", "properties": {"collection_times": [{"days": "Mon-Sat", "time": "5:00pm"}, {"days": "Sun", "time": "Closed"}], "id": "3981700000", "name": "USPS COLLECTION BOX - BLUE BOX", "address": {"city": "BAINBRIDGE", "state": "GA", "street": "401 N WEST ST", "postcode": "39817"}}},
{"geometry": {"type": "Point", "coordinates": [-84.5765692419, 30.9079475415]}, "type": "Feature", "properties": {"collection_times": [{"days": "Mon-Sat", "time": "5:00pm"}, {"days": "Sun", "time": "Closed"}], "id": "3981700001", "name": "USPS COLLECTION BOX - BLUE BOX", "address": {"city": "BAINBRIDGE", "state": "GA", "street": "401 N WEST ST", "postcode": "39817"}}},
{"geometry": {"type": "Point", "coordinates": [-84.5765692419, 30.9079475415]}, "type": "Feature", "properties": {"collection_times": [{"days": "Mon-Sat", "time": "5:00pm"}, {"days": "Sun", "time": "Closed"}], "id": "3981700004", "name": "USPS COLLECTION BOX - BLUE BOX", "address": {"city": "BAINBRIDGE", "state": "GA", "street": "401 N WEST ST", "postcode": "39817"}}},
{"geometry": {"type": "Point", "coordinates": [-84.5765692419, 30.9079475415]}, "type": "Feature", "properties": {"collection_times": [{"days": "Mon-Sat", "time": "5:00pm"}, {"days": "Sun", "time": "Closed"}], "id": "3981700005", "name": "USPS COLLECTION BOX - BLUE BOX", "address": {"city": "BAINBRIDGE", "state": "GA", "street": "401 N WEST ST", "postcode": "39817"}}},
{"geometry": {"type": "Point", "coordinates": [-84.5765692419, 30.9079475415]}, "type": "Feature", "properties": {"collection_times": [{"days": "Mon-Sat", "time": "5:00pm"}, {"days": "Sun", "time": "Closed"}], "id": "3981700018", "name": "USPS COLLECTION BOX - PO LOBBY", "address": {"city": "BAINBRIDGE", "state": "GA", "street": "401 N WEST ST", "postcode": "39817"}}},
{"geometry": {"type": "Point", "coordinates": [-84.5755288631, 30.9058443675]}, "type": "Feature", "properties": {"collection_times": [{"days": "Mon-Sat", "time": "12:00pm"}, {"days": "Sun", "time": "Closed"}], "id": "3981700022", "name": "USPS COLLECTION BOX - BLUE BOX", "address": {"city": "BAINBRIDGE", "state": "GA", "street": "101 S BROAD ST", "postcode": "39817"}}},
{"geometry": {"type": "Point", "coordinates": [-84.5764968709, 30.90658344]}, "type": "Feature", "properties": {"collection_times": [{"days": "Mon-Sat", "time": "12:00pm"}, {"days": "Sun", "time": "Closed"}], "id": "3981700023", "name": "USPS COLLECTION BOX - BLUE BOX", "address": {"city": "BAINBRIDGE", "state": "GA", "street": "102 W WATER ST", "postcode": "39817"}}},
{"geometry": {"type": "Point", "coordinates": [-84.576518749, 30.9058441042]}, "type": "Feature", "properties": {"collection_times": [{"days": "Mon-Sat", "time": "12:00pm"}, {"days": "Sun", "time": "Closed"}], "id": "3981700024", "name": "USPS COLLECTION BOX - BLUE BOX", "address": {"city": "BAINBRIDGE", "state": "GA", "street": "100 S WEST ST", "postcode": "39817"}}},
{"geometry": {"type": "Point", "coordinates": [-84.5679203157, 30.9000067514]}, "type": "Feature", "properties": {"collection_times": [{"days": "Mon-Fri", "time": "12:00pm"}, {"days": "Sat", "time": "10:00am"}, {"days": "Sun", "time": "Closed"}], "id": "3981900000", "name": "USPS COLLECTION BOX - BLUE BOX", "address": {"city": "BAINBRIDGE", "state": "GA", "street": "517 S SCOTT ST", "postcode": "39819"}}},
{"geometry": {"type": "Point", "coordinates": [-84.5533472933, 30.9039522096]}, "type": "Feature", "properties": {"collection_times": [{"days": "Mon-Fri", "time": "12:00pm"}, {"days": "Sat", "time": "10:00am"}, {"days": "Sun", "time": "Closed"}], "id": "3981900002", "name": "USPS COLLECTION BOX - BLUE BOX", "address": {"city": "BAINBRIDGE", "state": "GA", "street": "1509 E SHOTWELL ST", "postcode": "39819"}}},
{"geometry": {"type": "Point", "coordinates": [-84.9426556162, 31.3825429786]}, "type": "Feature", "properties": {"collection_times": [{"days": "Mon-Fri", "time": "4:30pm"}, {"days": "Sat", "time": "12:00pm"}, {"days": "Sun", "time": "Closed"}], "id": "3982300001", "name": "USPS COLLECTION BOX - PO LOBBY", "address": {"city": "BLAKELY", "state": "GA", "street": "2243 S MAIN ST", "postcode": "39823"}}},
{"geometry": {"type": "Point", "coordinates": [-84.9346445489, 31.3772541818]}, "type": "Feature", "properties": {"collection_times": [{"days": "Mon-Fri", "time": "4:15pm"}, {"days": "Sat", "time": "12:00pm"}, {"days": "Sun", "time": "Closed"}], "id": "3982300003", "name": "USPS COLLECTION BOX - BLUE BOX", "address": {"city": "BLAKELY", "state": "GA", "street": "42 COURT SQ", "postcode": "39823"}}},
{"geometry": {"type": "Point", "coordinates": [-84.9426556162, 31.3825429786]}, "type": "Feature", "properties": {"collection_times": [{"days": "Mon-Fri", "time": "4:30pm"}, {"days": "Sat", "time": "12:00pm"}, {"days": "Sun", "time": "Closed"}], "id": "3982300004", "name": "USPS COLLECTION BOX - BLUE BOX", "address": {"city": "BLAKELY", "state": "GA", "street": "2243 S MAIN ST", "postcode": "39823"}}},
{"geometry": {"type": "Point", "coordinates": [-84.8660674259, 31.5214948557]}, "type": "Feature", "properties": {"collection_times": [{"days": "Mon-Fri", "time": "12:30pm"}, {"days": "Sat", "time": "10:30am"}, {"days": "Sun", "time": "Closed"}], "id": "3982400000", "name": "USPS COLLECTION BOX - BLUE BOX", "address": {"city": "BLUFFTON", "state": "GA", "street": "105 PINE ST N", "postcode": "39824"}}},
{"geometry": {"type": "Point", "coordinates": [-84.8660674259, 31.5214948557]}, "type": "Feature", "properties": {"collection_times": [{"days": "Mon-Fri", "time": "12:30pm"}, {"days": "Sat", "time": "10:30am"}, {"days": "Sun", "time": "Closed"}], "id": "3982400001", "name": "USPS COLLECTION BOX - PO LOBBY", "address": {"city": "BLUFFTON", "state": "GA", "street": "105 PINE ST N", "postcode": "39824"}}},
{"geometry": {"type": "Point", "coordinates": [-84.7361097026, 30.9804155739]}, "type": "Feature", "properties": {"collection_times": [{"days": "Mon-Fri", "time": "12:00pm"}, {"days": "Sat", "time": "11:00am"}, {"days": "Sun", "time": "Closed"}], "id": "3982500000", "name": "USPS COLLECTION BOX - BLUE BOX", "address": {"city": "BRINSON", "state": "GA", "street": "122 RUTHERFORD ST", "postcode": "39825"}}},
{"geometry": {"type": "Point", "coordinates": [-84.7361097026, 30.9804155739]}, "type": "Feature", "properties": {"collection_times": [{"days": "Mon-Fri", "time": "12:00pm"}, {"days": "Sat", "time": "11:00am"}, {"days": "Sun", "time": "Closed"}], "id": "3982500001", "name": "USPS COLLECTION BOX - PO LOBBY", "address": {"city": "BRINSON", "state": "GA", "street": "122 RUTHERFORD ST", "postcode": "39825"}}},
{"geometry": {"type": "Point", "coordinates": [-84.3641787496, 31.830215687]}, "type": "Feature", "properties": {"collection_times": [{"days": "Mon-Fri", "time": "1:00pm"}, {"days": "Sat", "time": "11:00am"}, {"days": "Sun", "time": "Closed"}], "id": "3982600000", "name": "USPS COLLECTION BOX - BLUE BOX", "address": {"city": "BRONWOOD", "state": "GA", "street": "122 GEISE ST S", "postcode": "39826"}}},
{"geometry": {"type": "Point", "coordinates": [-84.3641787496, 31.830215687]}, "type": "Feature", "properties": {"collection_times": [{"days": "Mon-Fri", "time": "12:45pm"}, {"days": "Sat", "time": "11:15am"}, {"days": "Sun", "time": "Closed"}], "id": "3982600001", "name": "USPS COLLECTION BOX - PO LOBBY", "address": {"city": "BRONWOOD", "state": "GA", "street": "122 GEISE ST S", "postcode": "39826"}}},
{"geometry": {"type": "Point", "coordinates": [-84.2090709758, 30.8766654127]}, "type": "Feature", "properties": {"collection_times": [{"days": "Mon-Fri", "time": "5:00pm"}, {"days": "Sat", "time": "4:00pm"}, {"days": "Sun", "time": "Closed"}], "id": "3982800000", "name": "USPS COLLECTION BOX - BLUE BOX", "address": {"city": "CAIRO", "state": "GA", "street": "110 1ST ST SW", "postcode": "39828"}}},
{"geometry": {"type": "Point", "coordinates": [-84.2090709758, 30.8766654127]}, "type": "Feature", "properties": {"collection_times": [{"days": "Mon-Fri", "time": "5:00pm"}, {"days": "Sat", "time": "4:00pm"}, {"days": "Sun", "time": "Closed"}], "id": "3982800005", "name": "USPS COLLECTION BOX - BLUE BOX", "address": {"city": "CAIRO", "state": "GA", "street": "110 1ST ST SW", "postcode": "39828"}}},
{"geometry": {"type": "Point", "coordinates": [-84.2090709758, 30.8766654127]}, "type": "Feature", "properties": {"collection_times": [{"days": "Mon-Fri", "time": "5:00pm"}, {"days": "Sat", "time": "4:00pm"}, {"days": "Sun", "time": "Closed"}], "id": "3982800006", "name": "USPS COLLECTION BOX - PO LOBBY", "address": {"city": "CAIRO", "state": "GA", "street": "110 1ST ST SW", "postcode": "39828"}}},
{"geometry": {"type": "Point", "coordinates": [-84.3464004531, 30.7281791293]}, "type": "Feature", "properties": {"collection_times": [{"days": "Mon-Fri", "time": "12:30pm"}, {"days": "Sat", "time": "10:30am"}, {"days": "Sun", "time": "Closed"}], "id": "3982900000", "name": "USPS COLLECTION BOX - BLUE BOX", "address": {"city": "CALVARY", "state": "GA", "street": "6468 GA HIGHWAY 111 S", "postcode": "39829"}}},
{"geometry": {"type": "Point", "coordinates": [-84.3464004531, 30.7281791293]}, "type": "Feature", "properties": {"collection_times": [{"days": "Mon-Fri", "time": "12:30pm"}, {"days": "Sat", "time": "10:30am"}, {"days": "Sun", "time": "Closed"}], "id": "3982900001", "name": "USPS COLLECTION BOX - PO LOBBY", "address": {"city": "CALVARY", "state": "GA", "street": "6468 GA HIGHWAY 111 S", "postcode": "39829"}}},
{"geometry": {"type": "Point", "coordinates": [-85.0382673436, 31.1832721975]}, "type": "Feature", "properties": {"collection_times": [{"days": "Mon-Fri", "time": "3:45pm"}, {"days": "Sat", "time": "2:15pm"}, {"days": "Sun", "time": "Closed"}], "id": "3983200000", "name": "USPS COLLECTION BOX - BLUE BOX", "address": {"city": "CEDAR SPRINGS", "state": "GA", "street": "21 SHEFFIELD ST", "postcode": "39832"}}},
{"geometry": {"type": "Point", "coordinates": [-85.0382673436, 31.1832721975]}, "type": "Feature", "properties": {"collection_times": [{"days": "Mon-Fri", "time": "3:45pm"}, {"days": "Sat", "time": "2:15pm"}, {"days": "Sun", "time": "Closed"}], "id": "3983200001", "name": "USPS COLLECTION BOX - PO LOBBY", "address": {"city": "CEDAR SPRINGS", "state": "GA", "street": "21 SHEFFIELD ST", "postcode": "39832"}}},
{"geometry": {"type": "Point", "coordinates": [-84.431334486, 30.8760805287]}, "type": "Feature", "properties": {"collection_times": [{"days": "Mon-Fri", "time": "12:00pm"}, {"days": "Sat", "time": "10:15am"}, {"days": "Sun", "time": "Closed"}], "id": "3983400000", "name": "USPS COLLECTION BOX - BLUE BOX", "address": {"city": "CLIMAX", "state": "GA", "street": "115 W BROAD ST", "postcode": "39834"}}},
{"geometry": {"type": "Point", "coordinates": [-84.431449303, 30.876152962]}, "type": "Feature", "properties": {"collection_times": [{"days": "Mon-Fri", "time": "3:45pm"}, {"days": "Sat", "time": "10:45am"}, {"days": "Sun", "time": "Closed"}], "id": "3983400003", "name": "USPS COLLECTION BOX - BLUE BOX", "address": {"city": "CLIMAX", "state": "GA", "street": "102 W BROAD ST", "postcode": "39834"}}},
{"geometry": {"type": "Point", "coordinates": [-84.431449303, 30.876152962]}, "type": "Feature", "properties": {"collection_times": [{"days": "Mon-Fri", "time": "3:45pm"}, {"days": "Sat", "time": "10:45am"}, {"days": "Sun", "time": "Closed"}], "id": "3983400004", "name": "USPS COLLECTION BOX - PO LOBBY", "address": {"city": "CLIMAX", "state": "GA", "street": "102 W BROAD ST", "postcode": "39834"}}},
{"geometry": {"type": "Point", "coordinates": [-84.88379837, 31.6537337262]}, "type": "Feature", "properties": {"collection_times": [{"days": "Mon-Fri", "time": "12:00pm"}, {"days": "Sat", "time": "10:00am"}, {"days": "Sun", "time": "Closed"}], "id": "3983600000", "name": "USPS COLLECTION BOX - BLUE BOX", "address": {"city": "COLEMAN", "state": "GA", "street": "2623 BAY ST", "postcode": "39836"}}},
{"geometry": {"type": "Point", "coordinates": [-84.88379837, 31.6537337262]}, "type": "Feature", "properties": {"collection_times": [{"days": "Mon-Fri", "time": "12:00pm"}, {"days": "Sat", "time": "10:00am"}, {"days": "Sun", "time": "Closed"}], "id": "3983600001", "name": "USPS COLLECTION BOX - PO LOBBY", "address": {"city": "COLEMAN", "state": "GA", "street": "2623 BAY ST", "postcode": "39836"}}},
{"geometry": {"type": "Point", "coordinates": [-84.7334796582, 31.1711311386]}, "type": "Feature", "properties": {"collection_times": [{"days": "Mon-Fri", "time": "5:00pm"}, {"days": "Sat", "time": "12:00pm"}, {"days": "Sun", "time": "Closed"}], "id": "3983700001", "name": "USPS COLLECTION BOX - BLUE BOX", "address": {"city": "COLQUITT", "state": "GA", "street": "103 W COLLEGE ST", "postcode": "39837"}}},
{"geometry": {"type": "Point", "coordinates": [-84.7334796582, 31.1711311386]}, "type": "Feature", "properties": {"collection_times": [{"days": "Mon-Fri", "time": "5:00pm"}, {"days": "Sat", "time": "12:00pm"}, {"days": "Sun", "time": "Closed"}], "id": "3983700002", "name": "USPS COLLECTION BOX - PO LOBBY", "address": {"city": "COLQUITT", "state": "GA", "street": "103 W COLLEGE ST", "postcode": "39837"}}},
{"geometry": {"type": "Point", "coordinates": [-84.774683308, 31.7872990546]}, "type": "Feature", "properties": {"collection_times": [{"days": "Mon-Fri", "time": "5:00pm"}, {"days": "Sat", "time": "12:00pm"}, {"days": "Sun", "time": "Closed"}], "id": "3984000000", "name": "USPS COLLECTION BOX - BLUE BOX", "address": {"city": "CUTHBERT", "state": "GA", "street": "23 COURT ST", "postcode": "39840"}}},
{"geometry": {"type": "Point", "coordinates": [-84.789098986, 31.7723760836]}, "type": "Feature", "properties": {"collection_times": [{"days": "Mon-Fri", "time": "5:00pm"}, {"days": "Sat", "time": "12:00pm"}, {"days": "Sun", "time": "Closed"}], "id": "3984000002", "name": "USPS COLLECTION BOX - BLUE BOX", "address": {"city": "CUTHBERT", "state": "GA", "street": "23 COURT ST", "postcode": "39840"}}},
{"geometry": {"type": "Point", "coordinates": [-84.774683308, 31.7872990546]}, "type": "Feature", "properties": {"collection_times": [{"days": "Mon-Fri", "time": "5:00pm"}, {"days": "Sat", "time": "12:00pm"}, {"days": "Sun", "time": "Closed"}], "id": "3984000007", "name": "USPS COLLECTION BOX - PO LOBBY", "address": {"city": "CUTHBERT", "state": "GA", "street": "23 COURT ST", "postcode": "39840"}}},
{"geometry": {"type": "Point", "coordinates": [-84.7265072196, 31.2951987673]}, "type": "Feature", "properties": {"collection_times": [{"days": "Mon-Fri", "time": "12:30pm"}, {"days": "Sat", "time": "10:30am"}, {"days": "Sun", "time": "Closed"}], "id": "3984100000", "name": "USPS COLLECTION BOX - BLUE BOX", "address": {"city": "DAMASCUS", "state": "GA", "street": "1290 SAMMONS ST", "postcode": "39841"}}},
{"geometry": {"type": "Point", "coordinates": [-84.7265072196, 31.2951987673]}, "type": "Feature", "properties": {"collection_times": [{"days": "Mon-Fri", "time": "12:30pm"}, {"days": "Sat", "time": "10:30am"}, {"days": "Sun", "time": "Closed"}], "id": "3984100001", "name": "USPS COLLECTION BOX - PO LOBBY", "address": {"city": "DAMASCUS", "state": "GA", "street": "1290 SAMMONS ST", "postcode": "39841"}}},
{"geometry": {"type": "Point", "coordinates": [-84.4455013053, 31.7734187116]}, "type": "Feature", "properties": {"collection_times": [{"days": "Mon-Fri", "time": "4:30pm"}, {"days": "Sat", "time": "12:00pm"}, {"days": "Sun", "time": "Closed"}], "id": "3984200000", "name": "USPS COLLECTION BOX - BLUE BOX", "address": {"city": "DAWSON", "state": "GA", "street": "124 STONEWALL ST SE", "postcode": "39842"}}},
{"geometry": {"type": "Point", "coordinates": [-84.4453996001, 31.7738725024]}, "type": "Feature", "properties": {"collection_times": [{"days": "Mon-Fri", "time": "4:30pm"}, {"days": "Sat", "time": "12:00pm"}, {"days": "Sun", "time": "Closed"}], "id": "3984200001", "name": "USPS COLLECTION BOX - BLUE BOX", "address": {"city": "DAWSON", "state": "GA", "street": "124 STONEWALL ST SE", "postcode": "39842"}}},
{"geometry": {"type": "Point", "coordinates": [-84.4466994989, 31.7737039789]}, "type": "Feature", "properties": {"collection_times": [{"days": "Mon-Sat", "time": "10:00am"}, {"days": "Sun", "time": "Closed"}], "id": "3984200004", "name": "USPS COLLECTION BOX - BLUE BOX", "address": {"city": "DAWSON", "state": "GA", "street": "101 E LEE ST", "postcode": "39842"}}},
{"geometry": {"type": "Point", "coordinates": [-84.4455013053, 31.7734187116]}, "type": "Feature", "properties": {"collection_times": [{"days": "Mon-Fri", "time": "4:30pm"}, {"days": "Sat", "time": "12:00pm"}, {"days": "Sun", "time": "Closed"}], "id": "3984200007", "name": "USPS COLLECTION BOX - PO LOBBY", "address": {"city": "DAWSON", "state": "GA", "street": "124 STONEWALL ST SE", "postcode": "39842"}}},
{"geometry": {"type": "Point", "coordinates": [-84.8808785263, 30.9739532707]}, "type": "Feature", "properties": {"collection_times": [{"days": "Mon-Fri", "time": "4:30pm"}, {"days": "Sat", "time": "1:30pm"}, {"days": "Sun", "time": "Closed"}], "id": "3984500000", "name": "USPS COLLECTION BOX - BLUE BOX", "address": {"city": "DONALDSONVILLE", "state": "GA", "street": "102 W 2ND ST", "postcode": "39845"}}},
{"geometry": {"type": "Point", "coordinates": [-84.8808785263, 30.9739532707]}, "type": "Feature", "properties": {"collection_times": [{"days": "Mon-Fri", "time": "4:30pm"}, {"days": "Sat", "time": "1:30pm"}, {"days": "Sun", "time": "Closed"}], "id": "3984500001", "name": "USPS COLLECTION BOX - PO LOBBY", "address": {"city": "DONALDSONVILLE", "state": "GA", "street": "102 W 2ND ST", "postcode": "39845"}}},
{"geometry": {"type": "Point", "coordinates": [-84.7368433416, 31.5584542035]}, "type": "Feature", "properties": {"collection_times": [{"days": "Mon-Fri", "time": "4:30pm"}, {"days": "Sat", "time": "11:00am"}, {"days": "Sun", "time": "Closed"}], "id": "3984600000", "name": "USPS COLLECTION BOX - BLUE BOX", "address": {"city": "EDISON", "state": "GA", "street": "19372 HARTFORD ST", "postcode": "39846"}}},
{"geometry": {"type": "Point", "coordinates": [-84.7368433416, 31.5584542035]}, "type": "Feature", "properties": {"collection_times": [{"days": "Mon-Fri", "time": "4:30pm"}, {"days": "Sat", "time": "11:00am"}, {"days": "Sun", "time": "Closed"}], "id": "3984600001", "name": "USPS COLLECTION BOX - PO LOBBY", "address": {"city": "EDISON", "state": "GA", "street": "19372 HARTFORD ST", "postcode": "39846"}}},
{"geometry": {"type": "Point", "coordinates": [-85.0499162336, 31.6071849153]}, "type": "Feature", "properties": {"collection_times": [{"days": "Mon-Fri", "time": "4:30pm"}, {"days": "Sat", "time": "11:30am"}, {"days": "Sun", "time": "Closed"}], "id": "3985100001", "name": "USPS COLLECTION BOX - BLUE BOX", "address": {"city": "FT GAINES", "state": "GA", "street": "203 HANCOCK ST S", "postcode": "39851"}}},
{"geometry": {"type": "Point", "coordinates": [-85.0499162336, 31.6071849153]}, "type": "Feature", "properties": {"collection_times": [{"days": "Mon-Fri", "time": "4:30pm"}, {"days": "Sat", "time": "11:30am"}, {"days": "Sun", "time": "Closed"}], "id": "3985100002", "name": "USPS COLLECTION BOX - PO LOBBY", "address": {"city": "FT GAINES", "state": "GA", "street": "203 HANCOCK ST S", "postcode": "39851"}}},
{"geometry": {"type": "Point", "coordinates": [-84.5526273977, 30.8006562144]}, "type": "Feature", "properties": {"collection_times": [{"days": "Mon-Fri", "time": "4:15pm"}, {"days": "Sat", "time": "10:45am"}, {"days": "Sun", "time": "Closed"}], "id": "3985200000", "name": "USPS COLLECTION BOX - BLUE BOX", "address": {"city": "FOWLSTOWN", "state": "GA", "street": "3408 FOWLSTOWN RD", "postcode": "39852"}}},
{"geometry": {"type": "Point", "coordinates": [-84.5526273977, 30.8006562144]}, "type": "Feature", "properties": {"collection_times": [{"days": "Mon-Fri", "time": "4:30pm"}, {"days": "Sat", "time": "11:00am"}, {"days": "Sun", "time": "Closed"}], "id": "3985200001", "name": "USPS COLLECTION BOX - PO LOBBY", "address": {"city": "FOWLSTOWN", "state": "GA", "street": "3408 FOWLSTOWN RD", "postcode": "39852"}}},
{"geometry": {"type": "Point", "coordinates": [-85.1088524788, 31.8823913098]}, "type": "Feature", "properties": {"collection_times": [{"days": "Mon-Fri", "time": "4:00pm"}, {"days": "Sat", "time": "11:00am"}, {"days": "Sun", "time": "Closed"}], "id": "3985400000", "name": "USPS COLLECTION BOX - BLUE BOX", "address": {"city": "GEORGETOWN", "state": "GA", "street": "130 MAIN ST", "postcode": "39854"}}},
{"geometry": {"type": "Point", "coordinates": [-85.1088524788, 31.8823913098]}, "type": "Feature", "properties": {"collection_times": [{"days": "Mon-Fri", "time": "4:00pm"}, {"days": "Sat", "time": "11:00am"}, {"days": "Sun", "time": "Closed"}], "id": "3985400001", "name": "USPS COLLECTION BOX - PO LOBBY", "address": {"city": "GEORGETOWN", "state": "GA", "street": "130 MAIN ST", "postcode": "39854"}}},
{"geometry": {"type": "Point", "coordinates": [-84.8132995722, 31.0126964548]}, "type": "Feature", "properties": {"collection_times": [{"days": "Mon-Fri", "time": "12:00pm"}, {"days": "Sat", "time": "10:30am"}, {"days": "Sun", "time": "Closed"}], "id": "3985900000", "name": "USPS COLLECTION BOX - BLUE BOX", "address": {"city": "IRON CITY", "state": "GA", "street": "150 S CHURCH ST", "postcode": "39859"}}},
{"geometry": {"type": "Point", "coordinates": [-84.8132995722, 31.0126964548]}, "type": "Feature", "properties": {"collection_times": [{"days": "Mon-Fri", "time": "11:45am"}, {"days": "Sat", "time": "10:30am"}, {"days": "Sun", "time": "Closed"}], "id": "3985900001", "name": "USPS COLLECTION BOX - PO LOBBY", "address": {"city": "IRON CITY", "state": "GA", "street": "150 S CHURCH ST", "postcode": "39859"}}},
{"geometry": {"type": "Point", "coordinates": [-85.0031824785, 31.1863496178]}, "type": "Feature", "properties": {"collection_times": [{"days": "Mon-Fri", "time": "12:45pm"}, {"days": "Sat", "time": "10:45am"}, {"days": "Sun", "time": "Closed"}], "id": "3986100000", "name": "USPS COLLECTION BOX - BLUE BOX", "address": {"city": "JAKIN", "state": "GA", "street": "1145 N PEARL ST", "postcode": "39861"}}},
{"geometry": {"type": "Point", "coordinates": [-85.0031824785, 31.1863496178]}, "type": "Feature", "properties": {"collection_times": [{"days": "Mon-Fri", "time": "12:45pm"}, {"days": "Sat", "time": "10:45am"}, {"days": "Sun", "time": "Closed"}], "id": "3986100001", "name": "USPS COLLECTION BOX - PO LOBBY", "address": {"city": "JAKIN", "state": "GA", "street": "1145 N PEARL ST", "postcode": "39861"}}},
{"geometry": {"type": "Point", "coordinates": [-84.5155146287, 31.4848084575]}, "type": "Feature", "properties": {"collection_times": [{"days": "Mon-Fri", "time": "12:30pm"}, {"days": "Sat", "time": "10:00am"}, {"days": "Sun", "time": "Closed"}], "id": "3986200000", "name": "USPS COLLECTION BOX - BLUE BOX", "address": {"city": "LEARY", "state": "GA", "street": "59 COLLEY ST", "postcode": "39862"}}},
{"geometry": {"type": "Point", "coordinates": [-84.5155146287, 31.4848084575]}, "type": "Feature", "properties": {"collection_times": [{"days": "Mon-Fri", "time": "12:30pm"}, {"days": "Sat", "time": "10:00am"}, {"days": "Sun", "time": "Closed"}], "id": "3986200001", "name": "USPS COLLECTION BOX - PO LOBBY", "address": {"city": "LEARY", "state": "GA", "street": "59 COLLEY ST", "postcode": "39862"}}},
{"geometry": {"type": "Point", "coordinates": [-84.60105922, 31.5372063763]}, "type": "Feature", "properties": {"collection_times": [{"days": "Mon-Fri", "time": "4:00pm"}, {"days": "Sat", "time": "10:30am"}, {"days": "Sun", "time": "Closed"}], "id": "3986600000", "name": "USPS COLLECTION BOX - BLUE BOX", "address": {"city": "MORGAN", "state": "GA", "street": "11017 DICKEY ST", "postcode": "39866"}}},
{"geometry": {"type": "Point", "coordinates": [-84.60105922, 31.5372063763]}, "type": "Feature", "properties": {"collection_times": [{"days": "Mon-Fri", "time": "4:00pm"}, {"days": "Sat", "time": "10:30am"}, {"days": "Sun", "time": "Closed"}], "id": "3986600001", "name": "USPS COLLECTION BOX - PO LOBBY", "address": {"city": "MORGAN", "state": "GA", "street": "11017 DICKEY ST", "postcode": "39866"}}},
{"geometry": {"type": "Point", "coordinates": [-84.3422926176, 31.313233161]}, "type": "Feature", "properties": {"collection_times": [{"days": "Mon-Fri", "time": "4:30pm"}, {"days": "Sat", "time": "11:00am"}, {"days": "Sun", "time": "Closed"}], "id": "3987000000", "name": "USPS COLLECTION BOX - BLUE BOX", "address": {"city": "NEWTON", "state": "GA", "street": "343 SUNSET BLVD", "postcode": "39870"}}},
{"geometry": {"type": "Point", "coordinates": [-84.3422926176, 31.313233161]}, "type": "Feature", "properties": {"collection_times": [{"days": "Mon-Fri", "time": "4:30pm"}, {"days": "Sat", "time": "11:00am"}, {"days": "Sun", "time": "Closed"}], "id": "3987000001", "name": "USPS COLLECTION BOX - PO LOBBY", "address": {"city": "NEWTON", "state": "GA", "street": "343 SUNSET BLVD", "postcode": "39870"}}},
{"geometry": {"type": "Point", "coordinates": [-84.5114237852, 31.8940183687]}, "type": "Feature", "properties": {"collection_times": [{"days": "Mon-Fri", "time": "1:00pm"}, {"days": "Sat", "time": "10:30am"}, {"days": "Sun", "time": "Closed"}], "id": "3987700000", "name": "USPS COLLECTION BOX - BLUE BOX", "address": {"city": "PARROTT", "state": "GA", "street": "107 OLD DAWSON RD", "postcode": "39877"}}},
{"geometry": {"type": "Point", "coordinates": [-84.5114237852, 31.8940183687]}, "type": "Feature", "properties": {"collection_times": [{"days": "Mon-Fri", "time": "12:45pm"}, {"days": "Sat", "time": "10:30am"}, {"days": "Sun", "time": "Closed"}], "id": "3987700001", "name": "USPS COLLECTION BOX - PO LOBBY", "address": {"city": "PARROTT", "state": "GA", "street": "107 OLD DAWSON RD", "postcode": "39877"}}},
{"geometry": {"type": "Point", "coordinates": [-84.3489283106, 31.7193396786]}, "type": "Feature", "properties": {"collection_times": [{"days": "Mon-Fri", "time": "12:00pm"}, {"days": "Sat", "time": "10:30am"}, {"days": "Sun", "time": "Closed"}], "id": "3988500000", "name": "USPS COLLECTION BOX - BLUE BOX", "address": {"city": "SASSER", "state": "GA", "street": "135 E MAIN ST", "postcode": "39885"}}},
{"geometry": {"type": "Point", "coordinates": [-84.3489283106, 31.7193396786]}, "type": "Feature", "properties": {"collection_times": [{"days": "Mon-Fri", "time": "11:50am"}, {"days": "Sat", "time": "10:30am"}, {"days": "Sun", "time": "Closed"}], "id": "3988500001", "name": "USPS COLLECTION BOX - PO LOBBY", "address": {"city": "SASSER", "state": "GA", "street": "135 E MAIN ST", "postcode": "39885"}}},
{"geometry": {"type": "Point", "coordinates": [-84.6099390235, 31.7178496624]}, "type": "Feature", "properties": {"collection_times": [{"days": "Mon-Fri", "time": "4:00pm"}, {"days": "Sat", "time": "10:00am"}, {"days": "Sun", "time": "Closed"}], "id": "3988600000", "name": "USPS COLLECTION BOX - BLUE BOX", "address": {"city": "SHELLMAN", "state": "GA", "street": "3247 PEARL ST", "postcode": "39886"}}},
{"geometry": {"type": "Point", "coordinates": [-84.6099390235, 31.7178496624]}, "type": "Feature", "properties": {"collection_times": [{"days": "Mon-Fri", "time": "4:00pm"}, {"days": "Sat", "time": "10:00am"}, {"days": "Sun", "time": "Closed"}], "id": "3988600001", "name": "USPS COLLECTION BOX - PO LOBBY", "address": {"city": "SHELLMAN", "state": "GA", "street": "3247 PEARL ST", "postcode": "39886"}}},
{"geometry": {"type": "Point", "coordinates": [-84.3325520616, 30.9117360283]}, "type": "Feature", "properties": {"collection_times": [{"days": "Mon-Fri", "time": "4:30pm"}, {"days": "Sat", "time": "10:00am"}, {"days": "Sun", "time": "Closed"}], "id": "3989700000", "name": "USPS COLLECTION BOX - BLUE BOX", "address": {"city": "WHIGHAM", "state": "GA", "street": "115 W BROAD AVE", "postcode": "39897"}}},
{"geometry": {"type": "Point", "coordinates": [-84.3325520616, 30.9117360283]}, "type": "Feature", "properties": {"collection_times": [{"days": "Mon-Fri", "time": "4:30pm"}, {"days": "Sat", "time": "10:00am"}, {"days": "Sun", "time": "Closed"}], "id": "3989700001", "name": "USPS COLLECTION BOX - PO LOBBY", "address": {"city": "WHIGHAM", "state": "GA", "street": "115 W BROAD AVE", "postcode": "39897"}}}
]}
