{"type": "FeatureCollection", "features": [
{"geometry": {"type": "Point", "coordinates": [-96.7300673459, 46.4477685174]}, "type": "Feature", "properties": {"collection_times": [{"days": "Mon-Fri", "time": "4:30pm"}, {"days": "Sat", "time": "5:20pm"}, {"days": "Sun", "time": "Closed"}], "id": "5800100001", "name": "USPS COLLECTION BOX - BLUE BOX", "address": {"city": "ABERCROMBIE", "state": "ND", "street": "515 BROADWAY", "postcode": "58001"}}},
{"geometry": {"type": "Point", "coordinates": [-96.7299247181, 46.4476900238]}, "type": "Feature", "properties": {"collection_times": [{"days": "Mon-Fri", "time": "10:45am"}, {"days": "Sat-Sun", "time": "Closed"}], "id": "5800100002", "name": "USPS COLLECTION BOX - PO LOBBY", "address": {"city": "ABERCROMBIE", "state": "ND", "street": "515 BROADWAY", "postcode": "58001"}}},
{"geometry": {"type": "Point", "coordinates": [-97.2180201714, 47.1038295528]}, "type": "Feature", "properties": {"collection_times": [{"days": "Mon-Fri", "time": "4:20pm"}, {"days": "Sat", "time": "5:30pm"}, {"days": "Sun", "time": "Closed"}], "id": "5800600001", "name": "USPS COLLECTION BOX - BLUE BOX", "address": {"city": "ARTHUR", "state": "ND", "street": "330 MAIN ST", "postcode": "58006"}}},
{"geometry": {"type": "Point", "coordinates": [-97.2180201714, 47.1038295528]}, "type": "Feature", "properties": {"collection_times": [{"days": "Mon-Fri", "time": "12:00pm"}, {"days": "Sat-Sun", "time": "Closed"}], "id": "5800600002", "name": "USPS COLLECTION BOX - PO LOBBY", "address": {"city": "ARTHUR", "state": "ND", "street": "330 MAIN ST", "postcode": "58006"}}},
{"geometry": {"type": "Point", "coordinates": [-97.4905733686, 47.0416551607]}, "type": "Feature", "properties": {"collection_times": [{"days": "Mon-Sat", "time": "11:00am"}, {"days": "Sun", "time": "Closed"}], "id": "5800700001", "name": "USPS COLLECTION BOX - BLUE BOX", "address": {"city": "AYR", "state": "ND", "street": "200B MAIN AVE", "postcode": "58007"}}},
{"geometry": {"type": "Point", "coordinates": [-97.5499827873, 46.9196460963]}, "type": "Feature", "properties": {"collection_times": [{"days": "Mon-Sat", "time": "5:45pm"}, {"days": "Sun", "time": "Closed"}], "id": "5801100001", "name": "USPS COLLECTION BOX - BLUE BOX", "address": {"city": "BUFFALO", "state": "ND", "street": "305 MAIN ST", "postcode": "58011"}}},
{"geometry": {"type": "Point", "coordinates": [-97.5499827873, 46.9196460963]}, "type": "Feature", "properties": {"collection_times": [{"days": "Mon-Fri", "time": "12:00pm"}, {"days": "Sat-Sun", "time": "Closed"}], "id": "5801100002", "name": "USPS COLLECTION BOX - PO LOBBY", "address": {"city": "BUFFALO", "state": "ND", "street": "305 MAIN ST", "postcode": "58011"}}},
{"geometry": {"type": "Point", "coordinates": [-97.5478691231, 46.9195472295]}, "type": "Feature", "properties": {"collection_times": [{"days": "Mon-Fri", "time": "2:30pm"}, {"days": "Sat", "time": "1:30pm"}, {"days": "Sun", "time": "Closed"}], "id": "5801100003", "name": "USPS COLLECTION BOX - BLUE BOX", "address": {"city": "BUFFALO", "state": "ND", "street": "501 MAIN ST", "postcode": "58011"}}},
{"geometry": {"type": "Point", "coordinates": [-97.2084779126, 46.9003354742]}, "type": "Feature", "properties": {"collection_times": [{"days": "Mon-Fri", "time": "4:50pm"}, {"days": "Sat", "time": "6:25pm"}, {"days": "Sun", "time": "Closed"}], "id": "5801200002", "name": "USPS COLLECTION BOX - BLUE BOX", "address": {"city": "CASSELTON", "state": "ND", "street": "840 FRONT ST", "postcode": "58012"}}},
{"geometry": {"type": "Point", "coordinates": [-97.2084779126, 46.9003354742]}, "type": "Feature", "properties": {"collection_times": [{"days": "Mon-Fri", "time": "4:50pm"}, {"days": "Sat-Sun", "time": "Closed"}], "id": "5801200003", "name": "USPS COLLECTION BOX - PO LOBBY", "address": {"city": "CASSELTON", "state": "ND", "street": "840 FRONT ST", "postcode": "58012"}}},
{"geometry": {"type": "Point", "coordinates": [-96.8048148756, 46.5747416784]}, "type": "Feature", "properties": {"collection_times": [{"days": "Mon-Sat", "time": "4:30pm"}, {"days": "Sun", "time": "Closed"}], "id": "5801500001", "name": "USPS COLLECTION BOX - BLUE BOX", "address": {"city": "CHRISTINE", "state": "ND", "street": "209 MAINE ST", "postcode": "58015"}}},
{"geometry": {"type": "Point", "coordinates": [-96.8048148756, 46.5747416784]}, "type": "Feature", "properties": {"collection_times": [{"days": "Mon-Fri", "time": "4:30pm"}, {"days": "Sat-Sun", "time": "Closed"}], "id": "5801500002", "name": "USPS COLLECTION BOX - PO LOBBY", "address": {"city": "CHRISTINE", "state": "ND", "street": "209 MAINE ST", "postcode": "58015"}}},
{"geometry": {"type": "Point", "coordinates": [-97.4103921932, 47.3677965751]}, "type": "Feature", "properties": {"collection_times": [{"days": "Mon-Sat", "time": "4:55pm"}, {"days": "Sun", "time": "Closed"}], "id": "5801600001", "name": "USPS COLLECTION BOX - BLUE BOX", "address": {"city": "CLIFFORD", "state": "ND", "street": "100 GARFIELD AVE W", "postcode": "58016"}}},
{"geometry": {"type": "Point", "coordinates": [-97.4103921932, 47.3677965751]}, "type": "Feature", "properties": {"collection_times": [{"days": "Mon-Fri", "time": "10:50am"}, {"days": "Sat-Sun", "time": "Closed"}], "id": "5801600002", "name": "USPS COLLECTION BOX - PO LOBBY", "address": {"city": "CLIFFORD", "state": "ND", "street": "100 GARFIELD AVE W", "postcode": "58016"}}},
{"geometry": {"type": "Point", "coordinates": [-97.7820002513, 46.1066858088]}, "type": "Feature", "properties": {"collection_times": [{"days": "Mon-Sat", "time": "3:30pm"}, {"days": "Sun", "time": "Closed"}], "id": "5801700001", "name": "USPS COLLECTION BOX - BLUE BOX", "address": {"city": "COGSWELL", "state": "ND", "street": "299 4TH AVE", "postcode": "58017"}}},
{"geometry": {"type": "Point", "coordinates": [-97.7820002513, 46.1066858088]}, "type": "Feature", "properties": {"collection_times": [{"days": "Mon-Fri", "time": "10:50am"}, {"days": "Sat-Sun", "time": "Closed"}], "id": "5801700002", "name": "USPS COLLECTION BOX - PO LOBBY", "address": {"city": "COGSWELL", "state": "ND", "street": "299 4TH AVE", "postcode": "58017"}}},
{"geometry": {"type": "Point", "coordinates": [-96.8748881031, 46.4708266082]}, "type": "Feature", "properties": {"collection_times": [{"days": "Mon-Fri", "time": "4:50pm"}, {"days": "Sat", "time": "5:05pm"}, {"days": "Sun", "time": "Closed"}], "id": "5801800001", "name": "USPS COLLECTION BOX - BLUE BOX", "address": {"city": "COLFAX", "state": "ND", "street": "206 MAIN AVE", "postcode": "58018"}}},
{"geometry": {"type": "Point", "coordinates": [-96.8750144176, 46.4708270664]}, "type": "Feature", "properties": {"collection_times": [{"days": "Mon-Fri", "time": "12:00pm"}, {"days": "Sat-Sun", "time": "Closed"}], "id": "5801800002", "name": "USPS COLLECTION BOX - PO LOBBY", "address": {"city": "COLFAX", "state": "ND", "street": "206 MAIN AVE", "postcode": "58018"}}},
{"geometry": {"type": "Point", "coordinates": [-97.0702231324, 46.7118782815]}, "type": "Feature", "properties": {"collection_times": [{"days": "Mon-Fri", "time": "3:55pm"}, {"days": "Sat", "time": "6:15pm"}, {"days": "Sun", "time": "Closed"}], "id": "5802100001", "name": "USPS COLLECTION BOX - BLUE BOX", "address": {"city": "DAVENPORT", "state": "ND", "street": "50 1ST AVE", "postcode": "58021"}}},
{"geometry": {"type": "Point", "coordinates": [-97.0702231324, 46.7118782815]}, "type": "Feature", "properties": {"collection_times": [{"days": "Mon-Fri", "time": "11:00am"}, {"days": "Sat-Sun", "time": "Closed"}], "id": "5802100002", "name": "USPS COLLECTION BOX - PO LOBBY", "address": {"city": "DAVENPORT", "state": "ND", "street": "50 1ST AVE", "postcode": "58021"}}},
{"geometry": {"type": "Point", "coordinates": [-97.6053696718, 46.6266857469]}, "type": "Feature", "properties": {"collection_times": [{"days": "Mon-Fri", "time": "5:00pm"}, {"days": "Sat", "time": "4:45pm"}, {"days": "Sun", "time": "Closed"}], "id": "5802700001", "name": "USPS COLLECTION BOX - BLUE BOX", "address": {"city": "ENDERLIN", "state": "ND", "street": "309 RAILWAY ST", "postcode": "58027"}}},
{"geometry": {"type": "Point", "coordinates": [-97.6053696718, 46.6266857469]}, "type": "Feature", "properties": {"collection_times": [{"days": "Mon-Fri", "time": "2:00pm"}, {"days": "Sat-Sun", "time": "Closed"}], "id": "5802700002", "name": "USPS COLLECTION BOX - PO LOBBY", "address": {"city": "ENDERLIN", "state": "ND", "street": "309 RAILWAY ST", "postcode": "58027"}}},
{"geometry": {"type": "Point", "coordinates": [-97.3879837417, 47.1152649891]}, "type": "Feature", "properties": {"collection_times": [{"days": "Mon-Fri", "time": "4:45pm"}, {"days": "Sat", "time": "4:30pm"}, {"days": "Sun", "time": "Closed"}], "id": "5802900001", "name": "USPS COLLECTION BOX - BLUE BOX", "address": {"city": "ERIE", "state": "ND", "street": "406 MAIN AVE", "postcode": "58029"}}},
{"geometry": {"type": "Point", "coordinates": [-97.3879837417, 47.1152649891]}, "type": "Feature", "properties": {"collection_times": [{"days": "Mon-Fri", "time": "2:50pm"}, {"days": "Sat-Sun", "time": "Closed"}], "id": "5802900004", "name": "USPS COLLECTION BOX - PO LOBBY", "address": {"city": "ERIE", "state": "ND", "street": "406 MAIN AVE", "postcode": "58029"}}},
{"geometry": {"type": "Point", "coordinates": [-96.6037040461, 46.0550654653]}, "type": "Feature", "properties": {"collection_times": [{"days": "Mon-Sat", "time": "4:40pm"}, {"days": "Sun", "time": "Closed"}], "id": "5803000001", "name": "USPS COLLECTION BOX - BLUE BOX", "address": {"city": "FAIRMOUNT", "state": "ND", "street": "202 MAIN AVE", "postcode": "58030"}}},
{"geometry": {"type": "Point", "coordinates": [-96.6037040461, 46.0550654653]}, "type": "Feature", "properties": {"collection_times": [{"days": "Mon-Fri", "time": "12:00pm"}, {"days": "Sat-Sun", "time": "Closed"}], "id": "5803000002", "name": "USPS COLLECTION BOX - PO LOBBY", "address": {"city": "FAIRMOUNT", "state": "ND", "street": "202 MAIN AVE", "postcode": "58030"}}},
{"geometry": {"type": "Point", "coordinates": [-97.7899680769, 46.7596797826]}, "type": "Feature", "properties": {"collection_times": [{"days": "Mon-Fri", "time": "4:00pm"}, {"days": "Sat", "time": "5:05pm"}, {"days": "Sun", "time": "Closed"}], "id": "5803100001", "name": "USPS COLLECTION BOX - BLUE BOX", "address": {"city": "FINGAL", "state": "ND", "street": "406 3RD ST", "postcode": "58031"}}},
{"geometry": {"type": "Point", "coordinates": [-97.7899680769, 46.7596797826]}, "type": "Feature", "properties": {"collection_times": [{"days": "Mon-Fri", "time": "12:00pm"}, {"days": "Sat-Sun", "time": "Closed"}], "id": "5803100003", "name": "USPS COLLECTION BOX - PO LOBBY", "address": {"city": "FINGAL", "state": "ND", "street": "406 3RD ST", "postcode": "58031"}}},
{"geometry": {"type": "Point", "coordinates": [-97.6364647847, 46.103079311]}, "type": "Feature", "properties": {"collection_times": [{"days": "Mon-Sat", "time": "3:45pm"}, {"days": "Sun", "time": "Closed"}], "id": "5803200001", "name": "USPS COLLECTION BOX - BLUE BOX", "address": {"city": "FORMAN", "state": "ND", "street": "333 MAIN ST S", "postcode": "58032"}}},
{"geometry": {"type": "Point", "coordinates": [-97.6364647847, 46.103079311]}, "type": "Feature", "properties": {"collection_times": [{"days": "Mon-Fri", "time": "2:30pm"}, {"days": "Sat-Sun", "time": "Closed"}], "id": "5803200002", "name": "USPS COLLECTION BOX - PO LOBBY", "address": {"city": "FORMAN", "state": "ND", "street": "333 MAIN ST S", "postcode": "58032"}}},
{"geometry": {"type": "Point", "coordinates": [-97.9271770342, 46.5202883042]}, "type": "Feature", "properties": {"collection_times": [{"days": "Mon-Sat", "time": "4:05pm"}, {"days": "Sun", "time": "Closed"}], "id": "5803300001", "name": "USPS COLLECTION BOX - BLUE BOX", "address": {"city": "FORT RANSOM", "state": "ND", "street": "102 E MAIN ST", "postcode": "58033"}}},
{"geometry": {"type": "Point", "coordinates": [-97.9271770342, 46.5202883042]}, "type": "Feature", "properties": {"collection_times": [{"days": "Mon-Fri", "time": "12:20pm"}, {"days": "Sat-Sun", "time": "Closed"}], "id": "5803300002", "name": "USPS COLLECTION BOX - PO LOBBY", "address": {"city": "FORT RANSOM", "state": "ND", "street": "102 E MAIN ST", "postcode": "58033"}}},
{"geometry": {"type": "Point", "coordinates": [-97.4149299503, 47.2699150969]}, "type": "Feature", "properties": {"collection_times": [{"days": "Mon-Fri", "time": "4:15pm"}, {"days": "Sat", "time": "4:40pm"}, {"days": "Sun", "time": "Closed"}], "id": "5803500001", "name": "USPS COLLECTION BOX - BLUE BOX", "address": {"city": "GALESBURG", "state": "ND", "street": "102 DAKOTA AVE E", "postcode": "58035"}}},
{"geometry": {"type": "Point", "coordinates": [-97.4149299503, 47.2699150969]}, "type": "Feature", "properties": {"collection_times": [{"days": "Mon-Fri", "time": "12:00pm"}, {"days": "Sat-Sun", "time": "Closed"}], "id": "5803500002", "name": "USPS COLLECTION BOX - PO LOBBY", "address": {"city": "GALESBURG", "state": "ND", "street": "102 DAKOTA AVE E", "postcode": "58035"}}},
{"geometry": {"type": "Point", "coordinates": [-97.003320242, 47.236678013]}, "type": "Feature", "properties": {"collection_times": [{"days": "Mon-Fri", "time": "4:45pm"}, {"days": "Sat", "time": "4:55pm"}, {"days": "Sun", "time": "Closed"}], "id": "5803800001", "name": "USPS COLLECTION BOX - BLUE BOX", "address": {"city": "GRANDIN", "state": "ND", "street": "301 3RD ST", "postcode": "58038"}}},
{"geometry": {"type": "Point", "coordinates": [-97.003320242, 47.236678013]}, "type": "Feature", "properties": {"collection_times": [{"days": "Mon-Fri", "time": "12:00pm"}, {"days": "Sat-Sun", "time": "Closed"}], "id": "5803800002", "name": "USPS COLLECTION BOX - PO LOBBY", "address": {"city": "GRANDIN", "state": "ND", "street": "301 3RD ST", "postcode": "58038"}}},
{"geometry": {"type": "Point", "coordinates": [-97.6624113821, 46.2254281557]}, "type": "Feature", "properties": {"collection_times": [{"days": "Mon-Fri", "time": "4:10pm"}, {"days": "Sat", "time": "4:15pm"}, {"days": "Sun", "time": "Closed"}], "id": "5804000001", "name": "USPS COLLECTION BOX - BLUE BOX", "address": {"city": "GWINNER", "state": "ND", "street": "21 S MAIN ST", "postcode": "58040"}}},
{"geometry": {"type": "Point", "coordinates": [-97.656193173, 46.2257212434]}, "type": "Feature", "properties": {"collection_times": [{"days": "Mon-Sat", "time": "4:25pm"}, {"days": "Sun", "time": "Closed"}], "id": "5804000002", "name": "USPS COLLECTION BOX - BLUE BOX", "address": {"city": "GWINNER", "state": "ND", "street": "415 HIGHWAY 13 E", "postcode": "58040"}}},
{"geometry": {"type": "Point", "coordinates": [-97.6624113821, 46.2254281557]}, "type": "Feature", "properties": {"collection_times": [{"days": "Mon-Fri", "time": "4:15pm"}, {"days": "Sat-Sun", "time": "Closed"}], "id": "5804000003", "name": "USPS COLLECTION BOX - PO LOBBY", "address": {"city": "GWINNER", "state": "ND", "street": "21 S MAIN ST", "postcode": "58040"}}},
{"geometry": {"type": "Point", "coordinates": [-96.902131762, 46.0692421956]}, "type": "Feature", "properties": {"collection_times": [{"days": "Mon-Sat", "time": "4:15pm"}, {"days": "Sun", "time": "Closed"}], "id": "5804100001", "name": "USPS COLLECTION BOX - BLUE BOX", "address": {"city": "HANKINSON", "state": "ND", "street": "345 MAIN AVE S", "postcode": "58041"}}},
{"geometry": {"type": "Point", "coordinates": [-96.902131762, 46.0692421956]}, "type": "Feature", "properties": {"collection_times": [{"days": "Mon-Fri", "time": "4:15pm"}, {"days": "Sat-Sun", "time": "Closed"}], "id": "5804100002", "name": "USPS COLLECTION BOX - PO LOBBY", "address": {"city": "HANKINSON", "state": "ND", "street": "345 MAIN AVE S", "postcode": "58041"}}},
{"geometry": {"type": "Point", "coordinates": [-96.8892150323, 46.977168659]}, "type": "Feature", "properties": {"collection_times": [{"days": "Mon-Fri", "time": "4:15pm"}, {"days": "Sat", "time": "6:35pm"}, {"days": "Sun", "time": "Closed"}], "id": "5804200001", "name": "USPS COLLECTION BOX - BLUE BOX", "address": {"city": "HARWOOD", "state": "ND", "street": "521 DAKOTA AVE", "postcode": "58042"}}},
{"geometry": {"type": "Point", "coordinates": [-96.8892150323, 46.977168659]}, "type": "Feature", "properties": {"collection_times": [{"days": "Mon-Fri", "time": "2:00pm"}, {"days": "Sat-Sun", "time": "Closed"}], "id": "5804200003", "name": "USPS COLLECTION BOX - PO LOBBY", "address": {"city": "HARWOOD", "state": "ND", "street": "521 DAKOTA AVE", "postcode": "58042"}}},
{"geometry": {"type": "Point", "coordinates": [-96.9183860436, 46.9641687765]}, "type": "Feature", "properties": {"collection_times": [{"days": "Mon-Sat", "time": "1:15pm"}, {"days": "Sun", "time": "Closed"}], "id": "5804200005", "name": "USPS COLLECTION BOX - BLUE BOX", "address": {"city": "HARWOOD", "state": "ND", "street": "310 DAKOTA AVE", "postcode": "58042"}}},
{"geometry": {"type": "Point", "coordinates": [-97.6223242861, 45.9499254034]}, "type": "Feature", "properties": {"collection_times": [{"days": "Mon-Sat", "time": "3:00pm"}, {"days": "Sun", "time": "Closed"}], "id": "5804300001", "name": "USPS COLLECTION BOX - BLUE BOX", "address": {"city": "HAVANA", "state": "ND", "street": "112 SARGENT AVE W", "postcode": "58043"}}},
{"geometry": {"type": "Point", "coordinates": [-97.6223242861, 45.9499254034]}, "type": "Feature", "properties": {"collection_times": [{"days": "Mon-Fri", "time": "11:50am"}, {"days": "Sat-Sun", "time": "Closed"}], "id": "5804300002", "name": "USPS COLLECTION BOX - PO LOBBY", "address": {"city": "HAVANA", "state": "ND", "street": "112 SARGENT AVE W", "postcode": "58043"}}},
{"geometry": {"type": "Point", "coordinates": [-97.0627658699, 47.403390096]}, "type": "Feature", "properties": {"collection_times": [{"days": "Mon-Sat", "time": "5:35pm"}, {"days": "Sun", "time": "Closed"}], "id": "5804500001", "name": "USPS COLLECTION BOX - BLUE BOX", "address": {"city": "HILLSBORO", "state": "ND", "street": "16 1ST ST NW", "postcode": "58045"}}},
{"geometry": {"type": "Point", "coordinates": [-97.0627658699, 47.403390096]}, "type": "Feature", "properties": {"collection_times": [{"days": "Mon-Fri", "time": "4:00pm"}, {"days": "Sat-Sun", "time": "Closed"}], "id": "5804500002", "name": "USPS COLLECTION BOX - PO LOBBY", "address": {"city": "HILLSBORO", "state": "ND", "street": "16 1ST ST NW", "postcode": "58045"}}},
{"geometry": {"type": "Point", "coordinates": [-97.0627658699, 47.403390096]}, "type": "Feature", "properties": {"collection_times": [{"days": "Mon-Sat", "time": "5:35pm"}, {"days": "Sun", "time": "Closed"}], "id": "5804500004", "name": "USPS COLLECTION BOX - BLUE BOX", "address": {"city": "HILLSBORO", "state": "ND", "street": "16 1ST ST NW", "postcode": "58045"}}},
{"geometry": {"type": "Point", "coordinates": [-97.7228322193, 47.3223331187]}, "type": "Feature", "properties": {"collection_times": [{"days": "Mon-Fri", "time": "4:05pm"}, {"days": "Sat", "time": "4:10pm"}, {"days": "Sun", "time": "Closed"}], "id": "5804600001", "name": "USPS COLLECTION BOX - BLUE BOX", "address": {"city": "HOPE", "state": "ND", "street": "206 STEELE AVE", "postcode": "58046"}}},
{"geometry": {"type": "Point", "coordinates": [-97.7228322193, 47.3223331187]}, "type": "Feature", "properties": {"collection_times": [{"days": "Mon-Fri", "time": "2:30pm"}, {"days": "Sat-Sun", "time": "Closed"}], "id": "5804600002", "name": "USPS COLLECTION BOX - PO LOBBY", "address": {"city": "HOPE", "state": "ND", "street": "206 STEELE AVE", "postcode": "58046"}}},
{"geometry": {"type": "Point", "coordinates": [-96.9040824606, 46.7621717819]}, "type": "Feature", "properties": {"collection_times": [{"days": "Mon-Sat", "time": "6:30pm"}, {"days": "Sun", "time": "Closed"}], "id": "5804700001", "name": "USPS COLLECTION BOX - BLUE BOX", "address": {"city": "HORACE", "state": "ND", "street": "91 MAIN ST N", "postcode": "58047"}}},
{"geometry": {"type": "Point", "coordinates": [-96.9040824606, 46.7621717819]}, "type": "Feature", "properties": {"collection_times": [{"days": "Mon-Fri", "time": "3:55pm"}, {"days": "Sat-Sun", "time": "Closed"}], "id": "5804700003", "name": "USPS COLLECTION BOX - PO LOBBY", "address": {"city": "HORACE", "state": "ND", "street": "91 MAIN ST N", "postcode": "58047"}}},
{"geometry": {"type": "Point", "coordinates": [-97.2173330728, 47.1887031434]}, "type": "Feature", "properties": {"collection_times": [{"days": "Mon-Fri", "time": "4:20pm"}, {"days": "Sat", "time": "5:20pm"}, {"days": "Sun", "time": "Closed"}], "id": "5804800001", "name": "USPS COLLECTION BOX - BLUE BOX", "address": {"city": "HUNTER", "state": "ND", "street": "107 MAIN ST", "postcode": "58048"}}},
{"geometry": {"type": "Point", "coordinates": [-97.2173330728, 47.1887031434]}, "type": "Feature", "properties": {"collection_times": [{"days": "Mon-Fri", "time": "12:00pm"}, {"days": "Sat-Sun", "time": "Closed"}], "id": "5804800002", "name": "USPS COLLECTION BOX - PO LOBBY", "address": {"city": "HUNTER", "state": "ND", "street": "107 MAIN ST", "postcode": "58048"}}},
{"geometry": {"type": "Point", "coordinates": [-97.9701156022, 46.6804429091]}, "type": "Feature", "properties": {"collection_times": [{"days": "Mon-Sat", "time": "4:30pm"}, {"days": "Sun", "time": "Closed"}], "id": "5804900001", "name": "USPS COLLECTION BOX - BLUE BOX", "address": {"city": "KATHRYN", "state": "ND", "street": "307 1ST AVE", "postcode": "58049"}}},
{"geometry": {"type": "Point", "coordinates": [-97.9701156022, 46.6804429091]}, "type": "Feature", "properties": {"collection_times": [{"days": "Mon-Fri", "time": "11:30am"}, {"days": "Sat-Sun", "time": "Closed"}], "id": "5804900002", "name": "USPS COLLECTION BOX - PO LOBBY", "address": {"city": "KATHRYN", "state": "ND", "street": "307 1ST AVE", "postcode": "58049"}}},
{"geometry": {"type": "Point", "coordinates": [-97.0183184419, 46.6486503078]}, "type": "Feature", "properties": {"collection_times": [{"days": "Mon-Sat", "time": "5:55pm"}, {"days": "Sun", "time": "Closed"}], "id": "5805100001", "name": "USPS COLLECTION BOX - BLUE BOX", "address": {"city": "KINDRED", "state": "ND", "street": "472 ELM ST", "postcode": "58051"}}},
{"geometry": {"type": "Point", "coordinates": [-97.0183184419, 46.6486503078]}, "type": "Feature", "properties": {"collection_times": [{"days": "Mon-Fri", "time": "2:00pm"}, {"days": "Sat-Sun", "time": "Closed"}], "id": "5805100002", "name": "USPS COLLECTION BOX - PO LOBBY", "address": {"city": "KINDRED", "state": "ND", "street": "472 ELM ST", "postcode": "58051"}}},
{"geometry": {"type": "Point", "coordinates": [-97.245294331, 46.6513512446]}, "type": "Feature", "properties": {"collection_times": [{"days": "Mon-Fri", "time": "3:45pm"}, {"days": "Sat", "time": "5:45pm"}, {"days": "Sun", "time": "Closed"}], "id": "5805200001", "name": "USPS COLLECTION BOX - BLUE BOX", "address": {"city": "LEONARD", "state": "ND", "street": "406 RAILROAD AVE S", "postcode": "58052"}}},
{"geometry": {"type": "Point", "coordinates": [-97.245294331, 46.6513512446]}, "type": "Feature", "properties": {"collection_times": [{"days": "Mon-Fri", "time": "11:00am"}, {"days": "Sat-Sun", "time": "Closed"}], "id": "5805200002", "name": "USPS COLLECTION BOX - PO LOBBY", "address": {"city": "LEONARD", "state": "ND", "street": "406 RAILROAD AVE S", "postcode": "58052"}}},
{"geometry": {"type": "Point", "coordinates": [-97.1520475838, 46.0750522507]}, "type": "Feature", "properties": {"collection_times": [{"days": "Mon-Sat", "time": "3:55pm"}, {"days": "Sun", "time": "Closed"}], "id": "5805300001", "name": "USPS COLLECTION BOX - BLUE BOX", "address": {"city": "LIDGERWOOD", "state": "ND", "street": "34 WILEY AVE S", "postcode": "58053"}}},
{"geometry": {"type": "Point", "coordinates": [-97.1520475838, 46.0750522507]}, "type": "Feature", "properties": {"collection_times": [{"days": "Mon-Fri", "time": "3:00pm"}, {"days": "Sat-Sun", "time": "Closed"}], "id": "5805300002", "name": "USPS COLLECTION BOX - PO LOBBY", "address": {"city": "LIDGERWOOD", "state": "ND", "street": "34 WILEY AVE S", "postcode": "58053"}}},
{"geometry": {"type": "Point", "coordinates": [-97.681734875, 46.442463813]}, "type": "Feature", "properties": {"collection_times": [{"days": "Mon-Fri", "time": "4:00pm"}, {"days": "Sat", "time": "4:25pm"}, {"days": "Sun", "time": "Closed"}], "id": "5805400001", "name": "USPS COLLECTION BOX - BLUE BOX", "address": {"city": "LISBON", "state": "ND", "street": "17 4TH AVE W", "postcode": "58054"}}},
{"geometry": {"type": "Point", "coordinates": [-97.681734875, 46.442463813]}, "type": "Feature", "properties": {"collection_times": [{"days": "Mon-Fri", "time": "4:00pm"}, {"days": "Sat-Sun", "time": "Closed"}], "id": "5805400003", "name": "USPS COLLECTION BOX - PO LOBBY", "address": {"city": "LISBON", "state": "ND", "street": "17 4TH AVE W", "postcode": "58054"}}},
{"geometry": {"type": "Point", "coordinates": [-96.9771541513, 46.1643227723]}, "type": "Feature", "properties": {"collection_times": [{"days": "Mon-Sat", "time": "12:00pm"}, {"days": "Sun", "time": "Closed"}], "id": "5805800001", "name": "USPS COLLECTION BOX - BLUE BOX", "address": {"city": "MANTADOR", "state": "ND", "street": "102 MAIN ST", "postcode": "58058"}}},
{"geometry": {"type": "Point", "coordinates": [-96.9771541513, 46.1643227723]}, "type": "Feature", "properties": {"collection_times": [{"days": "Mon-Fri", "time": "12:20pm"}, {"days": "Sat", "time": "12:00pm"}, {"days": "Sun", "time": "Closed"}], "id": "5805800002", "name": "USPS COLLECTION BOX - PO LOBBY", "address": {"city": "MANTADOR", "state": "ND", "street": "102 MAIN ST", "postcode": "58058"}}},
{"geometry": {"type": "Point", "coordinates": [-97.0521132137, 46.8893043818]}, "type": "Feature", "properties": {"collection_times": [{"days": "Mon-Fri", "time": "6:00pm"}, {"days": "Sat", "time": "6:10pm"}, {"days": "Sun", "time": "Closed"}], "id": "5805900001", "name": "USPS COLLECTION BOX - BLUE BOX", "address": {"city": "MAPLETON", "state": "ND", "street": "651 2ND ST", "postcode": "58059"}}},
{"geometry": {"type": "Point", "coordinates": [-97.0521132137, 46.8893043818]}, "type": "Feature", "properties": {"collection_times": [{"days": "Mon-Fri", "time": "11:25am"}, {"days": "Sat-Sun", "time": "Closed"}], "id": "5805900002", "name": "USPS COLLECTION BOX - PO LOBBY", "address": {"city": "MAPLETON", "state": "ND", "street": "651 2ND ST", "postcode": "58059"}}},
{"geometry": {"type": "Point", "coordinates": [-97.4548262454, 46.2584791654]}, "type": "Feature", "properties": {"collection_times": [{"days": "Mon-Fri", "time": "4:15pm"}, {"days": "Sat", "time": "4:35pm"}, {"days": "Sun", "time": "Closed"}], "id": "5806000001", "name": "USPS COLLECTION BOX - BLUE BOX", "address": {"city": "MILNOR", "state": "ND", "street": "420 MAIN ST", "postcode": "58060"}}},
{"geometry": {"type": "Point", "coordinates": [-97.4548262454, 46.2584791654]}, "type": "Feature", "properties": {"collection_times": [{"days": "Mon-Fri", "time": "4:00pm"}, {"days": "Sat-Sun", "time": "Closed"}], "id": "5806000002", "name": "USPS COLLECTION BOX - PO LOBBY", "address": {"city": "MILNOR", "state": "ND", "street": "420 MAIN ST", "postcode": "58060"}}},
{"geometry": {"type": "Point", "coordinates": [-96.8761003025, 46.2688460765]}, "type": "Feature", "properties": {"collection_times": [{"days": "Mon-Fri", "time": "4:30pm"}, {"days": "Sat", "time": "5:20pm"}, {"days": "Sun", "time": "Closed"}], "id": "5806100001", "name": "USPS COLLECTION BOX - BLUE BOX", "address": {"city": "MOORETON", "state": "ND", "street": "105 MOORETON AVE S", "postcode": "58061"}}},
{"geometry": {"type": "Point", "coordinates": [-96.8761003025, 46.2688460765]}, "type": "Feature", "properties": {"collection_times": [{"days": "Mon-Fri", "time": "12:00pm"}, {"days": "Sat-Sun", "time": "Closed"}], "id": "5806100002", "name": "USPS COLLECTION BOX - PO LOBBY", "address": {"city": "MOORETON", "state": "ND", "street": "105 MOORETON AVE S", "postcode": "58061"}}},
{"geometry": {"type": "Point", "coordinates": [-97.8107041945, 46.6777242463]}, "type": "Feature", "properties": {"collection_times": [{"days": "Mon-Sat", "time": "4:50pm"}, {"days": "Sun", "time": "Closed"}], "id": "5806200001", "name": "USPS COLLECTION BOX - BLUE BOX", "address": {"city": "NOME", "state": "ND", "street": "408 MAIN ST", "postcode": "58062"}}},
{"geometry": {"type": "Point", "coordinates": [-97.8107041945, 46.6777242463]}, "type": "Feature", "properties": {"collection_times": [{"days": "Mon-Fri", "time": "10:50am"}, {"days": "Sat-Sun", "time": "Closed"}], "id": "5806200002", "name": "USPS COLLECTION BOX - PO LOBBY", "address": {"city": "NOME", "state": "ND", "street": "408 MAIN ST", "postcode": "58062"}}},
{"geometry": {"type": "Point", "coordinates": [-97.7907907407, 46.9335205695]}, "type": "Feature", "properties": {"collection_times": [{"days": "Mon-Sat", "time": "5:00pm"}, {"days": "Sun", "time": "Closed"}], "id": "5806300001", "name": "USPS COLLECTION BOX - BLUE BOX", "address": {"city": "ORISKA", "state": "ND", "street": "311 5TH ST", "postcode": "58063"}}},
{"geometry": {"type": "Point", "coordinates": [-97.7907907407, 46.9335205695]}, "type": "Feature", "properties": {"collection_times": [{"days": "Mon-Fri", "time": "2:55pm"}, {"days": "Sat-Sun", "time": "Closed"}], "id": "5806300002", "name": "USPS COLLECTION BOX - PO LOBBY", "address": {"city": "ORISKA", "state": "ND", "street": "311 5TH ST", "postcode": "58063"}}},
{"geometry": {"type": "Point", "coordinates": [-97.5714319362, 47.159505167]}, "type": "Feature", "properties": {"collection_times": [{"days": "Mon-Fri", "time": "4:15pm"}, {"days": "Sat", "time": "4:35pm"}, {"days": "Sun", "time": "Closed"}], "id": "5806400001", "name": "USPS COLLECTION BOX - BLUE BOX", "address": {"city": "PAGE", "state": "ND", "street": "137 MORTON AVE", "postcode": "58064"}}},
{"geometry": {"type": "Point", "coordinates": [-97.5713574293, 47.1594482659]}, "type": "Feature", "properties": {"collection_times": [{"days": "Mon-Fri", "time": "12:00pm"}, {"days": "Sat-Sun", "time": "Closed"}], "id": "5806400002", "name": "USPS COLLECTION BOX - PO LOBBY", "address": {"city": "PAGE", "state": "ND", "street": "137 MORTON AVE", "postcode": "58064"}}},
{"geometry": {"type": "Point", "coordinates": [-97.5714713113, 47.1575775404]}, "type": "Feature", "properties": {"collection_times": [{"days": "Mon-Fri", "time": "2:00pm"}, {"days": "Sat", "time": "1:00pm"}, {"days": "Sun", "time": "Closed"}], "id": "5806400003", "name": "USPS COLLECTION BOX - BLUE BOX", "address": {"city": "PAGE", "state": "ND", "street": "116 MORTON AVE", "postcode": "58064"}}},
{"geometry": {"type": "Point", "coordinates": [-97.5089854231, 46.0540788011]}, "type": "Feature", "properties": {"collection_times": [{"days": "Mon-Sat", "time": "3:20pm"}, {"days": "Sun", "time": "Closed"}], "id": "5806700001", "name": "USPS COLLECTION BOX - BLUE BOX", "address": {"city": "RUTLAND", "state": "ND", "street": "113 1ST ST", "postcode": "58067"}}},
{"geometry": {"type": "Point", "coordinates": [-97.5089854231, 46.0540788011]}, "type": "Feature", "properties": {"collection_times": [{"days": "Mon-Fri", "time": "12:30pm"}, {"days": "Sat-Sun", "time": "Closed"}], "id": "5806700002", "name": "USPS COLLECTION BOX - PO LOBBY", "address": {"city": "RUTLAND", "state": "ND", "street": "113 1ST ST", "postcode": "58067"}}},
{"geometry": {"type": "Point", "coordinates": [-97.4915555392, 46.5890532107]}, "type": "Feature", "properties": {"collection_times": [{"days": "Mon-Fri", "time": "3:45pm"}, {"days": "Sat", "time": "5:20pm"}, {"days": "Sun", "time": "Closed"}], "id": "5806800001", "name": "USPS COLLECTION BOX - BLUE BOX", "address": {"city": "SHELDON", "state": "ND", "street": "216 FRONT ST", "postcode": "58068"}}},
{"geometry": {"type": "Point", "coordinates": [-97.4915555392, 46.5890532107]}, "type": "Feature", "properties": {"collection_times": [{"days": "Mon-Fri", "time": "1:45pm"}, {"days": "Sat-Sun", "time": "Closed"}], "id": "5806800002", "name": "USPS COLLECTION BOX - PO LOBBY", "address": {"city": "SHELDON", "state": "ND", "street": "216 FRONT ST", "postcode": "58068"}}},
{"geometry": {"type": "Point", "coordinates": [-97.6752900703, 46.9281738602]}, "type": "Feature", "properties": {"collection_times": [{"days": "Mon-Fri", "time": "5:50pm"}, {"days": "Sat", "time": "5:00pm"}, {"days": "Sun", "time": "Closed"}], "id": "5807100001", "name": "USPS COLLECTION BOX - BLUE BOX", "address": {"city": "TOWER CITY", "state": "ND", "street": "505 BROADWAY ST", "postcode": "58071"}}},
{"geometry": {"type": "Point", "coordinates": [-97.6752900703, 46.9281738602]}, "type": "Feature", "properties": {"collection_times": [{"days": "Mon-Fri", "time": "12:00pm"}, {"days": "Sat-Sun", "time": "Closed"}], "id": "5807100002", "name": "USPS COLLECTION BOX - PO LOBBY", "address": {"city": "TOWER CITY", "state": "ND", "street": "505 BROADWAY ST", "postcode": "58071"}}},
{"geometry": {"type": "Point", "coordinates": [-98.0050859996, 46.926328414]}, "type": "Feature", "properties": {"collection_times": [{"days": "Mon-Fri", "time": "4:30pm"}, {"days": "Sat-Sun", "time": "Closed"}], "id": "5807200004", "name": "USPS COLLECTION BOX - BLUE BOX", "address": {"city": "VALLEY CITY", "state": "ND", "street": "230 4TH ST NW", "postcode": "58072"}}},
{"geometry": {"type": "Point", "coordinates": [-98.0030011882, 46.922865593]}, "type": "Feature", "properties": {"collection_times": [{"days": "Mon-Sat", "time": "2:30pm"}, {"days": "Sun", "time": "Closed"}], "id": "5807200008", "name": "USPS COLLECTION BOX - BLUE BOX", "address": {"city": "VALLEY CITY", "state": "ND", "street": "148 CENTRAL AVE S", "postcode": "58072"}}},
{"geometry": {"type": "Point", "coordinates": [-98.0023086078, 46.9253436672]}, "type": "Feature", "properties": {"collection_times": [{"days": "Mon-Fri", "time": "5:00pm"}, {"days": "Sat", "time": "4:00pm"}, {"days": "Sun", "time": "Closed"}], "id": "5807200009", "name": "USPS COLLECTION BOX - BLUE BOX", "address": {"city": "VALLEY CITY", "state": "ND", "street": "149 3RD ST NE", "postcode": "58072"}}},
{"geometry": {"type": "Point", "coordinates": [-98.0023086078, 46.9253436672]}, "type": "Feature", "properties": {"collection_times": [{"days": "Mon-Fri", "time": "5:00pm"}, {"days": "Sat", "time": "4:00pm"}, {"days": "Sun", "time": "Closed"}], "id": "5807200011", "name": "USPS COLLECTION BOX - PO LOBBY", "address": {"city": "VALLEY CITY", "state": "ND", "street": "149 3RD ST NE", "postcode": "58072"}}},
{"geometry": {"type": "Point", "coordinates": [-98.0023086078, 46.9253436672]}, "type": "Feature", "properties": {"collection_times": [{"days": "Mon-Fri", "time": "5:00pm"}, {"days": "Sat", "time": "4:00pm"}, {"days": "Sun", "time": "Closed"}], "id": "5807200014", "name": "USPS COLLECTION BOX - BLUE BOX", "address": {"city": "VALLEY CITY", "state": "ND", "street": "149 3RD ST NE", "postcode": "58072"}}},
{"geometry": {"type": "Point", "coordinates": [-96.605755457, 46.2650849635]}, "type": "Feature", "properties": {"collection_times": [{"days": "Mon-Fri", "time": "2:30pm"}, {"days": "Sat-Sun", "time": "Closed"}], "id": "5807500004", "name": "USPS COLLECTION BOX - BLUE BOX", "address": {"city": "WAHPETON", "state": "ND", "street": "418 2ND AVE N", "postcode": "58075"}}},
{"geometry": {"type": "Point", "coordinates": [-96.613128896, 46.2650978716]}, "type": "Feature", "properties": {"collection_times": [{"days": "Mon-Sat", "time": "5:45pm"}, {"days": "Sun", "time": "Closed"}], "id": "5807500017", "name": "USPS COLLECTION BOX - PO LOBBY", "address": {"city": "WAHPETON", "state": "ND", "street": "926 2ND AVE N", "postcode": "58075"}}},
{"geometry": {"type": "Point", "coordinates": [-96.613128896, 46.2650978716]}, "type": "Feature", "properties": {"collection_times": [{"days": "Mon-Sat", "time": "5:45pm"}, {"days": "Sun", "time": "Closed"}], "id": "5807500018", "name": "USPS COLLECTION BOX - PO LOBBY", "address": {"city": "WAHPETON", "state": "ND", "street": "926 2ND AVE N", "postcode": "58075"}}},
{"geometry": {"type": "Point", "coordinates": [-96.613128896, 46.2650978716]}, "type": "Feature", "properties": {"collection_times": [{"days": "Mon-Sat", "time": "5:30pm"}, {"days": "Sun", "time": "Closed"}], "id": "5807500021", "name": "USPS COLLECTION BOX - BLUE BOX", "address": {"city": "WAHPETON", "state": "ND", "street": "926 2ND AVE N", "postcode": "58075"}}},
{"geometry": {"type": "Point", "coordinates": [-96.613128896, 46.2650978716]}, "type": "Feature", "properties": {"collection_times": [{"days": "Mon-Sat", "time": "5:30pm"}, {"days": "Sun", "time": "Closed"}], "id": "5807500023", "name": "USPS COLLECTION BOX - BLUE BOX", "address": {"city": "WAHPETON", "state": "ND", "street": "926 2ND AVE N", "postcode": "58075"}}},
{"geometry": {"type": "Point", "coordinates": [-96.9377417502, 46.548544512]}, "type": "Feature", "properties": {"collection_times": [{"days": "Mon-Fri", "time": "3:30pm"}, {"days": "Sat", "time": "4:45pm"}, {"days": "Sun", "time": "Closed"}], "id": "5807700001", "name": "USPS COLLECTION BOX - BLUE BOX", "address": {"city": "WALCOTT", "state": "ND", "street": "472 MAIN AVE", "postcode": "58077"}}},
{"geometry": {"type": "Point", "coordinates": [-96.9377417502, 46.548544512]}, "type": "Feature", "properties": {"collection_times": [{"days": "Mon-Fri", "time": "12:00pm"}, {"days": "Sat-Sun", "time": "Closed"}], "id": "5807700002", "name": "USPS COLLECTION BOX - PO LOBBY", "address": {"city": "WALCOTT", "state": "ND", "street": "472 MAIN AVE", "postcode": "58077"}}},
{"geometry": {"type": "Point", "coordinates": [-96.893136379, 46.8764894324]}, "type": "Feature", "properties": {"collection_times": [{"days": "Mon-Sat", "time": "5:50pm"}, {"days": "Sun", "time": "Closed"}], "id": "5807800001", "name": "USPS COLLECTION BOX - BLUE BOX", "address": {"city": "WEST FARGO", "state": "ND", "street": "415 MAIN AVE E", "postcode": "58078"}}},
{"geometry": {"type": "Point", "coordinates": [-96.893136379, 46.8764894324]}, "type": "Feature", "properties": {"collection_times": [{"days": "Mon-Fri", "time": "5:50pm"}, {"days": "Sat", "time": "1:00pm"}, {"days": "Sun", "time": "Closed"}], "id": "5807800015", "name": "USPS COLLECTION BOX - PO LOBBY", "address": {"city": "WEST FARGO", "state": "ND", "street": "415 MAIN AVE E", "postcode": "58078"}}},
{"geometry": {"type": "Point", "coordinates": [-96.893136379, 46.8764894324]}, "type": "Feature", "properties": {"collection_times": [{"days": "Mon-Fri", "time": "5:50pm"}, {"days": "Sat", "time": "1:00pm"}, {"days": "Sun", "time": "Closed"}], "id": "5807800016", "name": "USPS COLLECTION BOX - PO LOBBY", "address": {"city": "WEST FARGO", "state": "ND", "street": "415 MAIN AVE E", "postcode": "58078"}}},
{"geometry": {"type": "Point", "coordinates": [-96.8815045058, 46.8621412781]}, "type": "Feature", "properties": {"collection_times": [{"days": "Mon-Sat", "time": "2:30pm"}, {"days": "Sun", "time": "Closed"}], "id": "5807800017", "name": "USPS COLLECTION BOX - BLUE BOX", "address": {"city": "WEST FARGO", "state": "ND", "street": "1100 13TH AVE E", "postcode": "58078"}}},
{"geometry": {"type": "Point", "coordinates": [-96.8815045058, 46.8621412781]}, "type": "Feature", "properties": {"collection_times": [{"days": "Mon-Sat", "time": "2:30pm"}, {"days": "Sun", "time": "Closed"}], "id": "5807800021", "name": "USPS COLLECTION BOX - BLUE BOX", "address": {"city": "WEST FARGO", "state": "ND", "street": "1100 13TH AVE E", "postcode": "58078"}}},
{"geometry": {"type": "Point", "coordinates": [-97.1307748088, 46.2632158151]}, "type": "Feature", "properties": {"collection_times": [{"days": "Mon-Fri", "time": "3:45pm"}, {"days": "Sat", "time": "5:00pm"}, {"days": "Sun", "time": "Closed"}], "id": "5808100001", "name": "USPS COLLECTION BOX - BLUE BOX", "address": {"city": "WYNDMERE", "state": "ND", "street": "455 4TH ST", "postcode": "58081"}}},
{"geometry": {"type": "Point", "coordinates": [-97.1307748088, 46.2632158151]}, "type": "Feature", "properties": {"collection_times": [{"days": "Mon-Fri", "time": "12:00pm"}, {"days": "Sat-Sun", "time": "Closed"}], "id": "5808100003", "name": "USPS COLLECTION BOX - PO LOBBY", "address": {"city": "WYNDMERE", "state": "ND", "street": "455 4TH ST", "postcode": "58081"}}}
]}
