{"type": "FeatureCollection", "features": [
{"geometry": {"type": "Point", "coordinates": [-96.7979598712, 46.8980464828]}, "type": "Feature", "properties": {"collection_times": [{"days": "Mon-Fri", "time": "5:15pm"}, {"days": "Sat-Sun", "time": "Closed"}], "id": "5810200008", "name": "USPS COLLECTION BOX - BLUE BOX", "address": {"city": "FARGO", "state": "ND", "street": "72 BROADWAY N", "postcode": "58102"}}},
{"geometry": {"type": "Point", "coordinates": [-96.7979598712, 46.8980464828]}, "type": "Feature", "properties": {"collection_times": [{"days": "Mon-Fri", "time": "5:30pm"}, {"days": "Sat-Sun", "time": "Closed"}], "id": "5810200011", "name": "USPS COLLECTION BOX - BLUE BOX", "address": {"city": "FARGO", "state": "ND", "street": "630 1ST AVE N", "postcode": "58102"}}},
{"geometry": {"type": "Point", "coordinates": [-96.798215914, 46.8787299117]}, "type": "Feature", "properties": {"collection_times": [{"days": "Mon-Fri", "time": "4:30pm"}, {"days": "Sat-Sun", "time": "Closed"}], "id": "5810200015", "name": "USPS COLLECTION BOX - BLUE BOX", "address": {"city": "FARGO", "state": "ND", "street": "112 UNIVERSITY DR N", "postcode": "58102"}}},
{"geometry": {"type": "Point", "coordinates": [-96.794060306, 46.879070359]}, "type": "Feature", "properties": {"collection_times": [{"days": "Mon-Fri", "time": "5:30pm"}, {"days": "Sat", "time": "4:45pm"}, {"days": "Sun", "time": "Closed"}], "id": "5810200016", "name": "USPS COLLECTION BOX - BLUE BOX", "address": {"city": "FARGO", "state": "ND", "street": "220 10TH ST N", "postcode": "58102"}}},
{"geometry": {"type": "Point", "coordinates": [-96.786596891, 46.877970452]}, "type": "Feature", "properties": {"collection_times": [{"days": "Mon-Fri", "time": "4:00pm"}, {"days": "Sat-Sun", "time": "Closed"}], "id": "5810200022", "name": "USPS COLLECTION BOX - BLUE BOX", "address": {"city": "FARGO", "state": "ND", "street": "500 2ND AVE N", "postcode": "58102"}}},
{"geometry": {"type": "Point", "coordinates": [-96.7877361058, 46.8753223869]}, "type": "Feature", "properties": {"collection_times": [{"days": "Mon-Fri", "time": "5:15pm"}, {"days": "Sat-Sun", "time": "Closed"}], "id": "5810200026", "name": "USPS COLLECTION BOX - BLUE BOX", "address": {"city": "FARGO", "state": "ND", "street": "23 BROADWAY N", "postcode": "58102"}}},
{"geometry": {"type": "Point", "coordinates": [-96.7939384521, 46.8773919436]}, "type": "Feature", "properties": {"collection_times": [{"days": "Mon-Fri", "time": "4:30pm"}, {"days": "Sat-Sun", "time": "Closed"}], "id": "5810200037", "name": "USPS COLLECTION BOX - BLUE BOX", "address": {"city": "FARGO", "state": "ND", "street": "101 10TH ST N", "postcode": "58102"}}},
{"geometry": {"type": "Point", "coordinates": [-96.7873848102, 46.9100653831]}, "type": "Feature", "properties": {"collection_times": [{"days": "Mon-Fri", "time": "5:15pm"}, {"days": "Sat", "time": "4:30pm"}, {"days": "Sun", "time": "Closed"}], "id": "5810200040", "name": "USPS COLLECTION BOX - BLUE BOX", "address": {"city": "FARGO", "state": "ND", "street": "2510 BROADWAY N", "postcode": "58102"}}},
{"geometry": {"type": "Point", "coordinates": [-96.7768779632, 46.9047775682]}, "type": "Feature", "properties": {"collection_times": [{"days": "Mon-Fri", "time": "4:10pm"}, {"days": "Sat-Sun", "time": "Closed"}], "id": "5810200045", "name": "USPS COLLECTION BOX - BLUE BOX", "address": {"city": "FARGO", "state": "ND", "street": "1321 19TH AVE N", "postcode": "58102"}}},
{"geometry": {"type": "Point", "coordinates": [-96.7980701275, 46.8923372464]}, "type": "Feature", "properties": {"collection_times": [{"days": "Mon-Sat", "time": "10:00am"}, {"days": "Sun", "time": "Closed"}], "id": "5810200048", "name": "USPS COLLECTION BOX - BLUE BOX", "address": {"city": "FARGO", "state": "ND", "street": "1241 UNIVERSITY DR N", "postcode": "58102"}}},
{"geometry": {"type": "Point", "coordinates": [-96.8417854756, 46.8912397027]}, "type": "Feature", "properties": {"collection_times": [{"days": "Mon-Fri", "time": "4:30pm"}, {"days": "Sat-Sun", "time": "Closed"}], "id": "5810200050", "name": "USPS COLLECTION BOX - BLUE BOX", "address": {"city": "FARGO", "state": "ND", "street": "1226 38TH ST N", "postcode": "58102"}}},
{"geometry": {"type": "Point", "coordinates": [-96.798213548, 46.8834913215]}, "type": "Feature", "properties": {"collection_times": [{"days": "Mon-Fri", "time": "5:00pm"}, {"days": "Sat", "time": "4:45pm"}, {"days": "Sun", "time": "Closed"}], "id": "5810200056", "name": "USPS COLLECTION BOX - BLUE BOX", "address": {"city": "FARGO", "state": "ND", "street": "724 UNIVERSITY DR N", "postcode": "58102"}}},
{"geometry": {"type": "Point", "coordinates": [-96.7876532229, 46.8837890079]}, "type": "Feature", "properties": {"collection_times": [{"days": "Mon-Fri", "time": "3:30pm"}, {"days": "Sat-Sun", "time": "Closed"}], "id": "5810200059", "name": "USPS COLLECTION BOX - BLUE BOX", "address": {"city": "FARGO", "state": "ND", "street": "737 BROADWAY N", "postcode": "58102"}}},
{"geometry": {"type": "Point", "coordinates": [-96.8161850606, 46.8443590389]}, "type": "Feature", "properties": {"collection_times": [{"days": "Mon-Fri", "time": "4:20pm"}, {"days": "Sat-Sun", "time": "Closed"}], "id": "5810200061", "name": "USPS COLLECTION BOX - BLUE BOX", "address": {"city": "FARGO", "state": "ND", "street": "1801 23RD AVE N", "postcode": "58102"}}},
{"geometry": {"type": "Point", "coordinates": [-96.7902565046, 46.8780961958]}, "type": "Feature", "properties": {"collection_times": [{"days": "Mon-Sat", "time": "6:00pm"}, {"days": "Sun", "time": "Closed"}], "id": "5810200068", "name": "USPS COLLECTION BOX - BLUE BOX", "address": {"city": "FARGO", "state": "ND", "street": "657 2ND AVE N", "postcode": "58102"}}},
{"geometry": {"type": "Point", "coordinates": [-96.787507256, 46.8966203888]}, "type": "Feature", "properties": {"collection_times": [{"days": "Mon-Fri", "time": "3:30pm"}, {"days": "Sat", "time": "4:45pm"}, {"days": "Sun", "time": "Closed"}], "id": "5810200077", "name": "USPS COLLECTION BOX - BLUE BOX", "address": {"city": "FARGO", "state": "ND", "street": "1461 BROADWAY N", "postcode": "58102"}}},
{"geometry": {"type": "Point", "coordinates": [-96.787239931, 46.9175999899]}, "type": "Feature", "properties": {"collection_times": [{"days": "Mon-Fri", "time": "5:15pm"}, {"days": "Sat-Sun", "time": "Closed"}], "id": "5810200079", "name": "USPS COLLECTION BOX - BLUE BOX", "address": {"city": "FARGO", "state": "ND", "street": "3105 BROADWAY N", "postcode": "58102"}}},
{"geometry": {"type": "Point", "coordinates": [-96.7902770763, 46.8781124071]}, "type": "Feature", "properties": {"collection_times": [{"days": "Mon-Sat", "time": "8:00pm"}, {"days": "Sun", "time": "Closed"}], "id": "5810200083", "name": "USPS COLLECTION BOX - PO LOBBY", "address": {"city": "FARGO", "state": "ND", "street": "657 2ND AVE N", "postcode": "58102"}}},
{"geometry": {"type": "Point", "coordinates": [-96.7811824878, 46.8728198487]}, "type": "Feature", "properties": {"collection_times": [{"days": "Mon-Fri", "time": "3:45pm"}, {"days": "Sat-Sun", "time": "Closed"}], "id": "5810200090", "name": "USPS COLLECTION BOX - BLUE BOX", "address": {"city": "FARGO", "state": "ND", "street": "1 2ND ST N", "postcode": "58102"}}},
{"geometry": {"type": "Point", "coordinates": [-96.7979598712, 46.8980464828]}, "type": "Feature", "properties": {"collection_times": [{"days": "Mon-Sat", "time": "8:00pm"}, {"days": "Sun", "time": "Closed"}], "id": "5810200099", "name": "USPS COLLECTION BOX - PO LOBBY", "address": {"city": "FARGO", "state": "ND", "street": "657 2ND AVE N", "postcode": "58102"}}},
{"geometry": {"type": "Point", "coordinates": [-96.8030104466, 46.8326217201]}, "type": "Feature", "properties": {"collection_times": [{"days": "Mon-Fri", "time": "5:00pm"}, {"days": "Sat", "time": "4:15pm"}, {"days": "Sun", "time": "Closed"}], "id": "5810300002", "name": "USPS COLLECTION BOX - BLUE BOX", "address": {"city": "FARGO", "state": "ND", "street": "1532 32ND AVE S", "postcode": "58103"}}},
{"geometry": {"type": "Point", "coordinates": [-96.8301735504, 46.8580553382]}, "type": "Feature", "properties": {"collection_times": [{"days": "Mon-Fri", "time": "5:45pm"}, {"days": "Sat", "time": "5:30pm"}, {"days": "Sun", "time": "Closed"}], "id": "5810300003", "name": "USPS COLLECTION BOX - BLUE BOX", "address": {"city": "FARGO", "state": "ND", "street": "1455 32ND ST S", "postcode": "58103"}}},
{"geometry": {"type": "Point", "coordinates": [-96.8301735504, 46.8580553382]}, "type": "Feature", "properties": {"collection_times": [{"days": "Mon-Fri", "time": "5:45pm"}, {"days": "Sat", "time": "5:30pm"}, {"days": "Sun", "time": "Closed"}], "id": "5810300004", "name": "USPS COLLECTION BOX - BLUE BOX", "address": {"city": "FARGO", "state": "ND", "street": "1455 32ND ST S", "postcode": "58103"}}},
{"geometry": {"type": "Point", "coordinates": [-96.7987293181, 46.8445116406]}, "type": "Feature", "properties": {"collection_times": [{"days": "Mon-Fri", "time": "5:15pm"}, {"days": "Sat-Sun", "time": "Closed"}], "id": "5810300010", "name": "USPS COLLECTION BOX - BLUE BOX", "address": {"city": "FARGO", "state": "ND", "street": "2301 UNIVERSITY DR S", "postcode": "58103"}}},
{"geometry": {"type": "Point", "coordinates": [-96.7860633765, 46.8742488631]}, "type": "Feature", "properties": {"collection_times": [{"days": "Mon-Fri", "time": "4:00pm"}, {"days": "Sat-Sun", "time": "Closed"}], "id": "5810300015", "name": "USPS COLLECTION BOX - BLUE BOX", "address": {"city": "FARGO", "state": "ND", "street": "406 MAIN AVE", "postcode": "58103"}}},
{"geometry": {"type": "Point", "coordinates": [-96.7850767887, 46.8728375931]}, "type": "Feature", "properties": {"collection_times": [{"days": "Mon-Fri", "time": "4:15pm"}, {"days": "Sat-Sun", "time": "Closed"}], "id": "5810300016", "name": "USPS COLLECTION BOX - BLUE BOX", "address": {"city": "FARGO", "state": "ND", "street": "100 4TH ST S", "postcode": "58103"}}},
{"geometry": {"type": "Point", "coordinates": [-96.7982821597, 46.8723939834]}, "type": "Feature", "properties": {"collection_times": [{"days": "Mon-Fri", "time": "4:30pm"}, {"days": "Sat-Sun", "time": "Closed"}], "id": "5810300017", "name": "USPS COLLECTION BOX - BLUE BOX", "address": {"city": "FARGO", "state": "ND", "street": "201 UNIVERSITY DR S", "postcode": "58103"}}},
{"geometry": {"type": "Point", "coordinates": [-96.7991149628, 46.8389718438]}, "type": "Feature", "properties": {"collection_times": [{"days": "Mon-Fri", "time": "5:15pm"}, {"days": "Sat", "time": "4:00pm"}, {"days": "Sun", "time": "Closed"}], "id": "5810300021", "name": "USPS COLLECTION BOX - BLUE BOX", "address": {"city": "FARGO", "state": "ND", "street": "2701 UNIVERSITY DR S", "postcode": "58103"}}},
{"geometry": {"type": "Point", "coordinates": [-96.8199338576, 46.8341418223]}, "type": "Feature", "properties": {"collection_times": [{"days": "Mon-Fri", "time": "4:45pm"}, {"days": "Sat-Sun", "time": "Closed"}], "id": "5810300024", "name": "USPS COLLECTION BOX - BLUE BOX", "address": {"city": "FARGO", "state": "ND", "street": "3040 25TH ST SW", "postcode": "58103"}}},
{"geometry": {"type": "Point", "coordinates": [-96.7985341299, 46.8527261077]}, "type": "Feature", "properties": {"collection_times": [{"days": "Mon-Fri", "time": "5:15pm"}, {"days": "Sat-Sun", "time": "Closed"}], "id": "5810300025", "name": "USPS COLLECTION BOX - BLUE BOX", "address": {"city": "FARGO", "state": "ND", "street": "1720 UNIVERSITY DR S", "postcode": "58103"}}},
{"geometry": {"type": "Point", "coordinates": [-96.791625757, 46.871387042]}, "type": "Feature", "properties": {"collection_times": [{"days": "Mon-Fri", "time": "4:30pm"}, {"days": "Sat-Sun", "time": "Closed"}], "id": "5810300031", "name": "USPS COLLECTION BOX - BLUE BOX", "address": {"city": "FARGO", "state": "ND", "street": "808 3RD AVE S", "postcode": "58103"}}},
{"geometry": {"type": "Point", "coordinates": [-96.8453352547, 46.8607685815]}, "type": "Feature", "properties": {"collection_times": [{"days": "Mon-Fri", "time": "5:30pm"}, {"days": "Sat-Sun", "time": "Closed"}], "id": "5810300037", "name": "USPS COLLECTION BOX - BLUE BOX", "address": {"city": "FARGO", "state": "ND", "street": "3902 13TH AVE S", "postcode": "58103"}}},
{"geometry": {"type": "Point", "coordinates": [-96.8325075284, 46.8594689738]}, "type": "Feature", "properties": {"collection_times": [{"days": "Mon-Fri", "time": "5:30pm"}, {"days": "Sat", "time": "5:15pm"}, {"days": "Sun", "time": "Closed"}], "id": "5810300038", "name": "USPS COLLECTION BOX - BLUE BOX", "address": {"city": "FARGO", "state": "ND", "street": "1401 33RD ST SW", "postcode": "58103"}}},
{"geometry": {"type": "Point", "coordinates": [-96.818910366, 46.861607366]}, "type": "Feature", "properties": {"collection_times": [{"days": "Mon-Fri", "time": "4:45pm"}, {"days": "Sat", "time": "5:30pm"}, {"days": "Sun", "time": "Closed"}], "id": "5810300040", "name": "USPS COLLECTION BOX - BLUE BOX", "address": {"city": "FARGO", "state": "ND", "street": "2425 13TH AVE S", "postcode": "58103"}}},
{"geometry": {"type": "Point", "coordinates": [-96.8277458692, 46.8761030817]}, "type": "Feature", "properties": {"collection_times": [{"days": "Mon-Fri", "time": "4:45pm"}, {"days": "Sat-Sun", "time": "Closed"}], "id": "5810300044", "name": "USPS COLLECTION BOX - BLUE BOX", "address": {"city": "FARGO", "state": "ND", "street": "3007 MAIN AVE", "postcode": "58103"}}},
{"geometry": {"type": "Point", "coordinates": [-96.822971039, 46.865732144]}, "type": "Feature", "properties": {"collection_times": [{"days": "Mon-Fri", "time": "5:45pm"}, {"days": "Sat-Sun", "time": "Closed"}], "id": "5810300046", "name": "USPS COLLECTION BOX - BLUE BOX", "address": {"city": "FARGO", "state": "ND", "street": "2624 9TH AVE S", "postcode": "58103"}}},
{"geometry": {"type": "Point", "coordinates": [-96.8495326739, 46.8618289769]}, "type": "Feature", "properties": {"collection_times": [{"days": "Mon-Fri", "time": "5:05pm"}, {"days": "Sat", "time": "4:45pm"}, {"days": "Sun", "time": "Closed"}], "id": "5810300048", "name": "USPS COLLECTION BOX - BLUE BOX", "address": {"city": "FARGO", "state": "ND", "street": "4101 13TH AVE S", "postcode": "58103"}}},
{"geometry": {"type": "Point", "coordinates": [-96.8507345602, 46.8737283612]}, "type": "Feature", "properties": {"collection_times": [{"days": "Mon-Fri", "time": "3:45pm"}, {"days": "Sat-Sun", "time": "Closed"}], "id": "5810300052", "name": "USPS COLLECTION BOX - BLUE BOX", "address": {"city": "FARGO", "state": "ND", "street": "204 42ND ST SW", "postcode": "58103"}}},
{"geometry": {"type": "Point", "coordinates": [-96.8304113251, 46.8637619319]}, "type": "Feature", "properties": {"collection_times": [{"days": "Mon-Fri", "time": "5:45pm"}, {"days": "Sat-Sun", "time": "Closed"}], "id": "5810300056", "name": "USPS COLLECTION BOX - BLUE BOX", "address": {"city": "FARGO", "state": "ND", "street": "1121 WESTRAC DR S", "postcode": "58103"}}},
{"geometry": {"type": "Point", "coordinates": [-96.7881618468, 46.8743175508]}, "type": "Feature", "properties": {"collection_times": [{"days": "Mon-Fri", "time": "9:00am"}, {"days": "Sat-Sun", "time": "Closed"}], "id": "5810300061", "name": "USPS COLLECTION BOX - BLUE BOX", "address": {"city": "FARGO", "state": "ND", "street": "520 MAIN AVE", "postcode": "58103"}}},
{"geometry": {"type": "Point", "coordinates": [-96.8646390598, 46.8510013535]}, "type": "Feature", "properties": {"collection_times": [{"days": "Mon-Fri", "time": "4:15pm"}, {"days": "Sat-Sun", "time": "Closed"}], "id": "5810300067", "name": "USPS COLLECTION BOX - BLUE BOX", "address": {"city": "FARGO", "state": "ND", "street": "4510 19TH AVE SW", "postcode": "58103"}}},
{"geometry": {"type": "Point", "coordinates": [-96.8199539679, 46.8331930893]}, "type": "Feature", "properties": {"collection_times": [{"days": "Mon-Fri", "time": "4:45pm"}, {"days": "Sat", "time": "4:30pm"}, {"days": "Sun", "time": "Closed"}], "id": "5810300068", "name": "USPS COLLECTION BOX - BLUE BOX", "address": {"city": "FARGO", "state": "ND", "street": "3175 25TH ST SW", "postcode": "58103"}}},
{"geometry": {"type": "Point", "coordinates": [-96.7985108546, 46.8589464729]}, "type": "Feature", "properties": {"collection_times": [{"days": "Mon-Fri", "time": "5:15pm"}, {"days": "Sat", "time": "4:00pm"}, {"days": "Sun", "time": "Closed"}], "id": "5810300069", "name": "USPS COLLECTION BOX - BLUE BOX", "address": {"city": "FARGO", "state": "ND", "street": "1433 UNIVERSITY DR S", "postcode": "58103"}}},
{"geometry": {"type": "Point", "coordinates": [-96.8195493959, 46.8604697571]}, "type": "Feature", "properties": {"collection_times": [{"days": "Mon-Fri", "time": "4:45pm"}, {"days": "Sat-Sun", "time": "Closed"}], "id": "5810300073", "name": "USPS COLLECTION BOX - BLUE BOX", "address": {"city": "FARGO", "state": "ND", "street": "1326 25TH ST S", "postcode": "58103"}}},
{"geometry": {"type": "Point", "coordinates": [-96.8649407144, 46.8619378091]}, "type": "Feature", "properties": {"collection_times": [{"days": "Mon-Fri", "time": "4:00pm"}, {"days": "Sat-Sun", "time": "Closed"}], "id": "5810300094", "name": "USPS COLLECTION BOX - BLUE BOX", "address": {"city": "FARGO", "state": "ND", "street": "4731 13TH AVE S", "postcode": "58103"}}},
{"geometry": {"type": "Point", "coordinates": [-96.851026751, 46.8559295606]}, "type": "Feature", "properties": {"collection_times": [{"days": "Mon-Fri", "time": "4:45pm"}, {"days": "Sat-Sun", "time": "Closed"}], "id": "5810300095", "name": "USPS COLLECTION BOX - BLUE BOX", "address": {"city": "FARGO", "state": "ND", "street": "1635 42ND ST SW", "postcode": "58103"}}},
{"geometry": {"type": "Point", "coordinates": [-96.8280986404, 46.8324998753]}, "type": "Feature", "properties": {"collection_times": [{"days": "Mon-Fri", "time": "5:00pm"}, {"days": "Sat-Sun", "time": "Closed"}], "id": "5810300096", "name": "USPS COLLECTION BOX - BLUE BOX", "address": {"city": "FARGO", "state": "ND", "street": "3000 32ND AVE SW", "postcode": "58103"}}},
{"geometry": {"type": "Point", "coordinates": [-96.8322934129, 46.8326453793]}, "type": "Feature", "properties": {"collection_times": [{"days": "Mon-Fri", "time": "4:45pm"}, {"days": "Sat-Sun", "time": "Closed"}], "id": "5810300099", "name": "USPS COLLECTION BOX - BLUE BOX", "address": {"city": "FARGO", "state": "ND", "street": "3223 32ND AVE S", "postcode": "58103"}}},
{"geometry": {"type": "Point", "coordinates": [-96.8176968822, 46.8324632036]}, "type": "Feature", "properties": {"collection_times": [{"days": "Mon-Fri", "time": "5:05pm"}, {"days": "Sat-Sun", "time": "Closed"}], "id": "5810300100", "name": "USPS COLLECTION BOX - BLUE BOX", "address": {"city": "FARGO", "state": "ND", "street": "2400 32ND AVE S", "postcode": "58103"}}},
{"geometry": {"type": "Point", "coordinates": [-96.8453352547, 46.8607685815]}, "type": "Feature", "properties": {"collection_times": [{"days": "Mon-Fri", "time": "5:30pm"}, {"days": "Sat-Sun", "time": "Closed"}], "id": "5810300102", "name": "USPS COLLECTION BOX - BLUE BOX", "address": {"city": "FARGO", "state": "ND", "street": "3902 13TH AVE S", "postcode": "58103"}}},
{"geometry": {"type": "Point", "coordinates": [-96.8301735504, 46.8580553382]}, "type": "Feature", "properties": {"collection_times": [{"days": "Mon-Fri", "time": "5:45pm"}, {"days": "Sat", "time": "5:15pm"}, {"days": "Sun", "time": "Closed"}], "id": "5810300104", "name": "USPS COLLECTION BOX - PO LOBBY", "address": {"city": "FARGO", "state": "ND", "street": "1455 32ND ST S", "postcode": "58103"}}},
{"geometry": {"type": "Point", "coordinates": [-96.8224265971, 46.8565560253]}, "type": "Feature", "properties": {"collection_times": [{"days": "Mon-Fri", "time": "5:45pm"}, {"days": "Sat", "time": "5:15pm"}, {"days": "Sun", "time": "Closed"}], "id": "5810300109", "name": "USPS COLLECTION BOX - PO LOBBY", "address": {"city": "FARGO", "state": "ND", "street": "1455 32ND ST S", "postcode": "58103"}}},
{"geometry": {"type": "Point", "coordinates": [-96.8461636067, 46.8617781097]}, "type": "Feature", "properties": {"collection_times": [{"days": "Mon-Fri", "time": "5:15pm"}, {"days": "Sat-Sun", "time": "Closed"}], "id": "5810300111", "name": "USPS COLLECTION BOX - BLUE BOX", "address": {"city": "FARGO", "state": "ND", "street": "3803 13TH AVE S", "postcode": "58103"}}},
{"geometry": {"type": "Point", "coordinates": [-96.8301735504, 46.8580553382]}, "type": "Feature", "properties": {"collection_times": [{"days": "Mon-Fri", "time": "5:45pm"}, {"days": "Sat", "time": "5:30pm"}, {"days": "Sun", "time": "Closed"}], "id": "5810300112", "name": "USPS COLLECTION BOX - BLUE BOX", "address": {"city": "FARGO", "state": "ND", "street": "1455 32ND ST S", "postcode": "58103"}}},
{"geometry": {"type": "Point", "coordinates": [-96.8640603647, 46.8419441811]}, "type": "Feature", "properties": {"collection_times": [{"days": "Mon-Fri", "time": "4:15pm"}, {"days": "Sat-Sun", "time": "Closed"}], "id": "5810400001", "name": "USPS COLLECTION BOX - BLUE BOX", "address": {"city": "FARGO", "state": "ND", "street": "4614 AMBER VALLEY PKWY S", "postcode": "58104"}}},
{"geometry": {"type": "Point", "coordinates": [-96.8640603647, 46.8419441811]}, "type": "Feature", "properties": {"collection_times": [{"days": "Mon-Fri", "time": "4:15pm"}, {"days": "Sat-Sun", "time": "Closed"}], "id": "5810400002", "name": "USPS COLLECTION BOX - BLUE BOX", "address": {"city": "FARGO", "state": "ND", "street": "4614 AMBER VALLEY PKWY S", "postcode": "58104"}}},
{"geometry": {"type": "Point", "coordinates": [-96.8196144587, 46.8248603263]}, "type": "Feature", "properties": {"collection_times": [{"days": "Mon-Fri", "time": "5:05pm"}, {"days": "Sat-Sun", "time": "Closed"}], "id": "5810400003", "name": "USPS COLLECTION BOX - BLUE BOX", "address": {"city": "FARGO", "state": "ND", "street": "3545 25TH ST S", "postcode": "58104"}}},
{"geometry": {"type": "Point", "coordinates": [-96.8367173202, 46.8167383949]}, "type": "Feature", "properties": {"collection_times": [{"days": "Mon-Fri", "time": "4:55pm"}, {"days": "Sat", "time": "4:45pm"}, {"days": "Sun", "time": "Closed"}], "id": "5810400004", "name": "USPS COLLECTION BOX - BLUE BOX", "address": {"city": "FARGO", "state": "ND", "street": "3150 39TH ST S", "postcode": "58104"}}},
{"geometry": {"type": "Point", "coordinates": [-96.8614202285, 46.8176572892]}, "type": "Feature", "properties": {"collection_times": [{"days": "Mon-Fri", "time": "4:15pm"}, {"days": "Sat", "time": "4:30pm"}, {"days": "Sun", "time": "Closed"}], "id": "5810400006", "name": "USPS COLLECTION BOX - BLUE BOX", "address": {"city": "FARGO", "state": "ND", "street": "4151 45TH ST S", "postcode": "58104"}}}
]}
