{"type": "FeatureCollection", "features": [
{"geometry": {"type": "Point", "coordinates": [-97.0467037201, 47.8963982284]}, "type": "Feature", "properties": {"collection_times": [{"days": "Mon-Fri", "time": "5:00pm"}, {"days": "Sat-Sun", "time": "Closed"}], "id": "5820100004", "name": "USPS COLLECTION BOX - BLUE BOX", "address": {"city": "GRAND FORKS", "state": "ND", "street": "1407 24TH AVE S", "postcode": "58201"}}},
{"geometry": {"type": "Point", "coordinates": [-97.0446509718, 47.8965647661]}, "type": "Feature", "properties": {"collection_times": [{"days": "Mon-Fri", "time": "5:00pm"}, {"days": "Sat-Sun", "time": "Closed"}], "id": "5820100005", "name": "USPS COLLECTION BOX - BLUE BOX", "address": {"city": "GRAND FORKS", "state": "ND", "street": "2401 S WASHINGTON ST", "postcode": "58201"}}},
{"geometry": {"type": "Point", "coordinates": [-97.0445274088, 47.9027810515]}, "type": "Feature", "properties": {"collection_times": [{"days": "Mon-Fri", "time": "5:00pm"}, {"days": "Sat", "time": "4:30pm"}, {"days": "Sun", "time": "Closed"}], "id": "5820100006", "name": "USPS COLLECTION BOX - BLUE BOX", "address": {"city": "GRAND FORKS", "state": "ND", "street": "1823 S WASHINGTON ST", "postcode": "58201"}}},
{"geometry": {"type": "Point", "coordinates": [-97.0455780651, 47.9032986767]}, "type": "Feature", "properties": {"collection_times": [{"days": "Mon-Fri", "time": "5:15pm"}, {"days": "Sat", "time": "4:45pm"}, {"days": "Sun", "time": "Closed"}], "id": "5820100007", "name": "USPS COLLECTION BOX - BLUE BOX", "address": {"city": "GRAND FORKS", "state": "ND", "street": "1726 S WASHINGTON ST", "postcode": "58201"}}},
{"geometry": {"type": "Point", "coordinates": [-97.0450262287, 47.9150653935]}, "type": "Feature", "properties": {"collection_times": [{"days": "Mon-Fri", "time": "5:15pm"}, {"days": "Sat-Sun", "time": "Closed"}], "id": "5820100008", "name": "USPS COLLECTION BOX - BLUE BOX", "address": {"city": "GRAND FORKS", "state": "ND", "street": "720 S WASHINGTON ST", "postcode": "58201"}}},
{"geometry": {"type": "Point", "coordinates": [-97.0681572736, 47.8894188544]}, "type": "Feature", "properties": {"collection_times": [{"days": "Mon-Fri", "time": "5:30pm"}, {"days": "Sat", "time": "5:00pm"}, {"days": "Sun", "time": "Closed"}], "id": "5820100011", "name": "USPS COLLECTION BOX - BLUE BOX", "address": {"city": "GRAND FORKS", "state": "ND", "street": "2771 32ND AVE S", "postcode": "58201"}}},
{"geometry": {"type": "Point", "coordinates": [-97.0800777095, 47.911233071]}, "type": "Feature", "properties": {"collection_times": [{"days": "Mon-Sat", "time": "5:00pm"}, {"days": "Sun", "time": "Closed"}], "id": "5820100012", "name": "USPS COLLECTION BOX - BLUE BOX", "address": {"city": "GRAND FORKS", "state": "ND", "street": "1149 36TH AVE S", "postcode": "58201"}}},
{"geometry": {"type": "Point", "coordinates": [-97.0667191656, 47.8920862385]}, "type": "Feature", "properties": {"collection_times": [{"days": "Mon-Fri", "time": "5:30pm"}, {"days": "Sat-Sun", "time": "Closed"}], "id": "5820100014", "name": "USPS COLLECTION BOX - BLUE BOX", "address": {"city": "GRAND FORKS", "state": "ND", "street": "2800 S COLUMBIA RD", "postcode": "58201"}}},
{"geometry": {"type": "Point", "coordinates": [-97.0665905544, 47.8994135932]}, "type": "Feature", "properties": {"collection_times": [{"days": "Mon-Fri", "time": "5:30pm"}, {"days": "Sat-Sun", "time": "Closed"}], "id": "5820100017", "name": "USPS COLLECTION BOX - BLUE BOX", "address": {"city": "GRAND FORKS", "state": "ND", "street": "2100 S COLUMBIA RD", "postcode": "58201"}}},
{"geometry": {"type": "Point", "coordinates": [-97.0664778847, 47.9091138574]}, "type": "Feature", "properties": {"collection_times": [{"days": "Mon-Fri", "time": "4:30pm"}, {"days": "Sat-Sun", "time": "Closed"}], "id": "5820100021", "name": "USPS COLLECTION BOX - BLUE BOX", "address": {"city": "GRAND FORKS", "state": "ND", "street": "1300 S COLUMBIA RD", "postcode": "58201"}}},
{"geometry": {"type": "Point", "coordinates": [-97.0628626446, 47.8921215267]}, "type": "Feature", "properties": {"collection_times": [{"days": "Mon-Sat", "time": "7:00pm"}, {"days": "Sun", "time": "Closed"}], "id": "5820100027", "name": "USPS COLLECTION BOX - BLUE BOX", "address": {"city": "GRAND FORKS", "state": "ND", "street": "2501 28TH AVE S", "postcode": "58201"}}},
{"geometry": {"type": "Point", "coordinates": [-97.0336347773, 47.9229167344]}, "type": "Feature", "properties": {"collection_times": [{"days": "Mon-Fri", "time": "5:00pm"}, {"days": "Sat", "time": "4:15pm"}, {"days": "Sun", "time": "Closed"}], "id": "5820100046", "name": "USPS COLLECTION BOX - BLUE BOX", "address": {"city": "GRAND FORKS", "state": "ND", "street": "600 DEMERS AVE", "postcode": "58201"}}},
{"geometry": {"type": "Point", "coordinates": [-97.0297364718, 47.9234015161]}, "type": "Feature", "properties": {"collection_times": [{"days": "Mon-Fri", "time": "5:15pm"}, {"days": "Sat-Sun", "time": "Closed"}], "id": "5820100048", "name": "USPS COLLECTION BOX - BLUE BOX", "address": {"city": "GRAND FORKS", "state": "ND", "street": "124 S 4TH ST", "postcode": "58201"}}},
{"geometry": {"type": "Point", "coordinates": [-97.062862645, 47.892121527]}, "type": "Feature", "properties": {"collection_times": [{"days": "Mon-Sat", "time": "7:00pm"}, {"days": "Sun", "time": "Closed"}], "id": "5820100061", "name": "USPS COLLECTION BOX - BLUE BOX", "address": {"city": "GRAND FORKS", "state": "ND", "street": "2501 28TH AVE S", "postcode": "58201"}}},
{"geometry": {"type": "Point", "coordinates": [-97.0628626446, 47.8921215267]}, "type": "Feature", "properties": {"collection_times": [{"days": "Mon-Sat", "time": "7:00pm"}, {"days": "Sun", "time": "Closed"}], "id": "5820100062", "name": "USPS COLLECTION BOX - BLUE BOX", "address": {"city": "GRAND FORKS", "state": "ND", "street": "2501 28TH AVE S", "postcode": "58201"}}},
{"geometry": {"type": "Point", "coordinates": [-97.0528613128, 47.889558123]}, "type": "Feature", "properties": {"collection_times": [{"days": "Mon-Fri", "time": "10:30am"}, {"days": "Sat", "time": "10:00am"}, {"days": "Sun", "time": "Closed"}], "id": "5820100072", "name": "USPS COLLECTION BOX - BLUE BOX", "address": {"city": "GRAND FORKS", "state": "ND", "street": "1750 32ND AVE S", "postcode": "58201"}}},
{"geometry": {"type": "Point", "coordinates": [-97.0663185139, 47.9088498056]}, "type": "Feature", "properties": {"collection_times": [{"days": "Mon-Fri", "time": "10:30am"}, {"days": "Sat", "time": "10:00am"}, {"days": "Sun", "time": "Closed"}], "id": "5820100076", "name": "USPS COLLECTION BOX - BLUE BOX", "address": {"city": "GRAND FORKS", "state": "ND", "street": "1315 S COLUMBIA RD", "postcode": "58201"}}},
{"geometry": {"type": "Point", "coordinates": [-97.0297364718, 47.9234015161]}, "type": "Feature", "properties": {"collection_times": [{"days": "Mon-Fri", "time": "5:15pm"}, {"days": "Sat-Sun", "time": "Closed"}], "id": "5820100080", "name": "USPS COLLECTION BOX - BLUE BOX", "address": {"city": "GRAND FORKS", "state": "ND", "street": "124 S 4TH ST", "postcode": "58201"}}},
{"geometry": {"type": "Point", "coordinates": [-97.0445128015, 47.9047516979]}, "type": "Feature", "properties": {"collection_times": [{"days": "Mon-Fri", "time": "5:00pm"}, {"days": "Sat", "time": "4:30pm"}, {"days": "Sun", "time": "Closed"}], "id": "5820100093", "name": "USPS COLLECTION BOX - BLUE BOX", "address": {"city": "GRAND FORKS", "state": "ND", "street": "1631 S WASHINGTON ST", "postcode": "58201"}}},
{"geometry": {"type": "Point", "coordinates": [-97.0628216031, 47.8920961703]}, "type": "Feature", "properties": {"collection_times": [{"days": "Mon-Sat", "time": "7:00pm"}, {"days": "Sun", "time": "Closed"}], "id": "5820100098", "name": "USPS COLLECTION BOX - PO LOBBY", "address": {"city": "GRAND FORKS", "state": "ND", "street": "2501 28TH AVE S", "postcode": "58201"}}},
{"geometry": {"type": "Point", "coordinates": [-97.0628216031, 47.8920961703]}, "type": "Feature", "properties": {"collection_times": [{"days": "Mon-Sat", "time": "7:00pm"}, {"days": "Sun", "time": "Closed"}], "id": "5820100099", "name": "USPS COLLECTION BOX - PO LOBBY", "address": {"city": "GRAND FORKS", "state": "ND", "street": "2501 28TH AVE S", "postcode": "58201"}}},
{"geometry": {"type": "Point", "coordinates": [-97.0628216031, 47.8920961703]}, "type": "Feature", "properties": {"collection_times": [{"days": "Mon-Sat", "time": "7:00pm"}, {"days": "Sun", "time": "Closed"}], "id": "5820100100", "name": "USPS COLLECTION BOX - PO LOBBY", "address": {"city": "GRAND FORKS", "state": "ND", "street": "2501 28TH AVE S", "postcode": "58201"}}},
{"geometry": {"type": "Point", "coordinates": [-97.0628216031, 47.8920961703]}, "type": "Feature", "properties": {"collection_times": [{"days": "Mon-Sat", "time": "7:00pm"}, {"days": "Sun", "time": "Closed"}], "id": "5820100101", "name": "USPS COLLECTION BOX - PO LOBBY", "address": {"city": "GRAND FORKS", "state": "ND", "street": "2501 28TH AVE S", "postcode": "58201"}}},
{"geometry": {"type": "Point", "coordinates": [-97.0628216031, 47.8920961703]}, "type": "Feature", "properties": {"collection_times": [{"days": "Mon-Sat", "time": "7:00pm"}, {"days": "Sun", "time": "Closed"}], "id": "5820100102", "name": "USPS COLLECTION BOX - APC", "address": {"city": "GRAND FORKS", "state": "ND", "street": "2501 28TH AVE S", "postcode": "58201"}}},
{"geometry": {"type": "Point", "coordinates": [-97.0302366941, 47.9237747642]}, "type": "Feature", "properties": {"collection_times": [{"days": "Mon-Fri", "time": "5:15pm"}, {"days": "Sat-Sun", "time": "Closed"}], "id": "5820100104", "name": "USPS COLLECTION BOX - BLUE BOX", "address": {"city": "GRAND FORKS", "state": "ND", "street": "23 S 4TH ST", "postcode": "58201"}}},
{"geometry": {"type": "Point", "coordinates": [-97.0539202643, 47.932115012]}, "type": "Feature", "properties": {"collection_times": [{"days": "Mon-Fri", "time": "10:30am"}, {"days": "Sat", "time": "10:00am"}, {"days": "Sun", "time": "Closed"}], "id": "5820300001", "name": "USPS COLLECTION BOX - BLUE BOX", "address": {"city": "GRAND FORKS", "state": "ND", "street": "1925 13TH AVE N", "postcode": "58203"}}},
{"geometry": {"type": "Point", "coordinates": [-97.032708233, 47.9252428169]}, "type": "Feature", "properties": {"collection_times": [{"days": "Mon-Fri", "time": "5:00pm"}, {"days": "Sat-Sun", "time": "Closed"}], "id": "5820300005", "name": "USPS COLLECTION BOX - BLUE BOX", "address": {"city": "GRAND FORKS", "state": "ND", "street": "102 N 4TH ST", "postcode": "58203"}}},
{"geometry": {"type": "Point", "coordinates": [-97.0455689178, 47.9310507758]}, "type": "Feature", "properties": {"collection_times": [{"days": "Mon-Sat", "time": "2:00pm"}, {"days": "Sun", "time": "Closed"}], "id": "5820300008", "name": "USPS COLLECTION BOX - BLUE BOX", "address": {"city": "GRAND FORKS", "state": "ND", "street": "1013 N 5TH ST", "postcode": "58203"}}},
{"geometry": {"type": "Point", "coordinates": [-97.0667044016, 47.9243319787]}, "type": "Feature", "properties": {"collection_times": [{"days": "Mon-Fri", "time": "5:00pm"}, {"days": "Sat-Sun", "time": "Closed"}], "id": "5820300010", "name": "USPS COLLECTION BOX - BLUE BOX", "address": {"city": "GRAND FORKS", "state": "ND", "street": "501 N COLUMBIA RD", "postcode": "58203"}}},
{"geometry": {"type": "Point", "coordinates": [-97.0451260432, 47.9331603444]}, "type": "Feature", "properties": {"collection_times": [{"days": "Mon-Sat", "time": "1:00pm"}, {"days": "Sun", "time": "Closed"}], "id": "5820300011", "name": "USPS COLLECTION BOX - BLUE BOX", "address": {"city": "GRAND FORKS", "state": "ND", "street": "310 GATEWAY DR", "postcode": "58203"}}},
{"geometry": {"type": "Point", "coordinates": [-97.0968176233, 47.9330240984]}, "type": "Feature", "properties": {"collection_times": [{"days": "Mon-Sat", "time": "9:30am"}, {"days": "Sun", "time": "Closed"}], "id": "5820300012", "name": "USPS COLLECTION BOX - BLUE BOX", "address": {"city": "GRAND FORKS", "state": "ND", "street": "4720 GATEWAY DR", "postcode": "58203"}}},
{"geometry": {"type": "Point", "coordinates": [-97.050100658, 47.922297347]}, "type": "Feature", "properties": {"collection_times": [{"days": "Mon-Fri", "time": "5:00pm"}, {"days": "Sat", "time": "4:15pm"}, {"days": "Sun", "time": "Closed"}], "id": "5820300015", "name": "USPS COLLECTION BOX - BLUE BOX", "address": {"city": "GRAND FORKS", "state": "ND", "street": "1600 UNIVERSITY AVE", "postcode": "58203"}}},
{"geometry": {"type": "Point", "coordinates": [-97.045201976, 47.920430184]}, "type": "Feature", "properties": {"collection_times": [{"days": "Mon-Fri", "time": "5:00pm"}, {"days": "Sat-Sun", "time": "Closed"}], "id": "5820300018", "name": "USPS COLLECTION BOX - BLUE BOX", "address": {"city": "GRAND FORKS", "state": "ND", "street": "117 N WASHINGTON ST", "postcode": "58203"}}},
{"geometry": {"type": "Point", "coordinates": [-97.0450546823, 47.9263802693]}, "type": "Feature", "properties": {"collection_times": [{"days": "Mon-Fri", "time": "5:00pm"}, {"days": "Sat-Sun", "time": "Closed"}], "id": "5820300019", "name": "USPS COLLECTION BOX - BLUE BOX", "address": {"city": "GRAND FORKS", "state": "ND", "street": "711 N WASHINGTON ST", "postcode": "58203"}}},
{"geometry": {"type": "Point", "coordinates": [-97.375711506, 47.9510808971]}, "type": "Feature", "properties": {"collection_times": [{"days": "Mon-Fri", "time": "2:00pm"}, {"days": "Sat", "time": "11:30am"}, {"days": "Sun", "time": "Closed"}], "id": "5820400009", "name": "USPS COLLECTION BOX - BLUE BOX", "address": {"city": "GRAND FORKS", "state": "ND", "street": "590 HOLZAPPLE ST", "postcode": "58204"}}},
{"geometry": {"type": "Point", "coordinates": [-97.375711506, 47.9510808971]}, "type": "Feature", "properties": {"collection_times": [{"days": "Mon-Fri", "time": "2:00pm"}, {"days": "Sat-Sun", "time": "Closed"}], "id": "5820400013", "name": "USPS COLLECTION BOX - PO LOBBY", "address": {"city": "GRAND FORKS", "state": "ND", "street": "590 HOLZAPPLE ST", "postcode": "58204"}}},
{"geometry": {"type": "Point", "coordinates": [-98.0750509684, 48.4241397467]}, "type": "Feature", "properties": {"collection_times": [{"days": "Mon-Fri", "time": "4:20pm"}, {"days": "Sat", "time": "4:00pm"}, {"days": "Sun", "time": "Closed"}], "id": "5821000001", "name": "USPS COLLECTION BOX - BLUE BOX", "address": {"city": "ADAMS", "state": "ND", "street": "500 MAIN ST", "postcode": "58210"}}},
{"geometry": {"type": "Point", "coordinates": [-98.0750509684, 48.4241397467]}, "type": "Feature", "properties": {"collection_times": [{"days": "Mon-Fri", "time": "12:00pm"}, {"days": "Sat", "time": "9:40am"}, {"days": "Sun", "time": "Closed"}], "id": "5821000002", "name": "USPS COLLECTION BOX - PO LOBBY", "address": {"city": "ADAMS", "state": "ND", "street": "500 MAIN ST", "postcode": "58210"}}},
{"geometry": {"type": "Point", "coordinates": [-97.9868103755, 47.6793973386]}, "type": "Feature", "properties": {"collection_times": [{"days": "Mon-Fri", "time": "4:15pm"}, {"days": "Sat", "time": "4:30pm"}, {"days": "Sun", "time": "Closed"}], "id": "5821200001", "name": "USPS COLLECTION BOX - BLUE BOX", "address": {"city": "ANETA", "state": "ND", "street": "207 MAIN AVE", "postcode": "58212"}}},
{"geometry": {"type": "Point", "coordinates": [-97.9868103755, 47.6793973386]}, "type": "Feature", "properties": {"collection_times": [{"days": "Mon-Fri", "time": "4:00pm"}, {"days": "Sat", "time": "12:45pm"}, {"days": "Sun", "time": "Closed"}], "id": "5821200002", "name": "USPS COLLECTION BOX - PO LOBBY", "address": {"city": "ANETA", "state": "ND", "street": "207 MAIN AVE", "postcode": "58212"}}},
{"geometry": {"type": "Point", "coordinates": [-97.4975317796, 47.9203469704]}, "type": "Feature", "properties": {"collection_times": [{"days": "Mon-Fri", "time": "4:15pm"}, {"days": "Sat", "time": "5:00pm"}, {"days": "Sun", "time": "Closed"}], "id": "5821400001", "name": "USPS COLLECTION BOX - BLUE BOX", "address": {"city": "ARVILLA", "state": "ND", "street": "303 HUGHES AVE", "postcode": "58214"}}},
{"geometry": {"type": "Point", "coordinates": [-97.4975317796, 47.9203469704]}, "type": "Feature", "properties": {"collection_times": [{"days": "Mon-Fri", "time": "2:55pm"}, {"days": "Sat", "time": "9:15am"}, {"days": "Sun", "time": "Closed"}], "id": "5821400002", "name": "USPS COLLECTION BOX - PO LOBBY", "address": {"city": "ARVILLA", "state": "ND", "street": "303 HUGHES AVE", "postcode": "58214"}}},
{"geometry": {"type": "Point", "coordinates": [-97.0975394229, 47.6021228046]}, "type": "Feature", "properties": {"collection_times": [{"days": "Mon-Fri", "time": "4:15pm"}, {"days": "Sat", "time": "6:00pm"}, {"days": "Sun", "time": "Closed"}], "id": "5821800001", "name": "USPS COLLECTION BOX - BLUE BOX", "address": {"city": "BUXTON", "state": "ND", "street": "309 BROADWAY", "postcode": "58218"}}},
{"geometry": {"type": "Point", "coordinates": [-97.0975394229, 47.6021228046]}, "type": "Feature", "properties": {"collection_times": [{"days": "Mon-Fri", "time": "12:00pm"}, {"days": "Sat", "time": "10:00am"}, {"days": "Sun", "time": "Closed"}], "id": "5821800004", "name": "USPS COLLECTION BOX - PO LOBBY", "address": {"city": "BUXTON", "state": "ND", "street": "309 BROADWAY", "postcode": "58218"}}},
{"geometry": {"type": "Point", "coordinates": [-97.6263910443, 48.793936426]}, "type": "Feature", "properties": {"collection_times": [{"days": "Mon-Fri", "time": "4:15pm"}, {"days": "Sat", "time": "3:30pm"}, {"days": "Sun", "time": "Closed"}], "id": "5822000001", "name": "USPS COLLECTION BOX - BLUE BOX", "address": {"city": "CAVALIER", "state": "ND", "street": "306 MAIN ST W", "postcode": "58220"}}},
{"geometry": {"type": "Point", "coordinates": [-97.6263910443, 48.793936426]}, "type": "Feature", "properties": {"collection_times": [{"days": "Mon-Fri", "time": "4:15pm"}, {"days": "Sat", "time": "10:15am"}, {"days": "Sun", "time": "Closed"}], "id": "5822000002", "name": "USPS COLLECTION BOX - PO LOBBY", "address": {"city": "CAVALIER", "state": "ND", "street": "306 MAIN ST W", "postcode": "58220"}}},
{"geometry": {"type": "Point", "coordinates": [-97.6710301594, 48.5963436475]}, "type": "Feature", "properties": {"collection_times": [{"days": "Mon-Fri", "time": "4:30pm"}, {"days": "Sat", "time": "3:30pm"}, {"days": "Sun", "time": "Closed"}], "id": "5822200001", "name": "USPS COLLECTION BOX - BLUE BOX", "address": {"city": "CRYSTAL", "state": "ND", "street": "332 3RD ST", "postcode": "58222"}}},
{"geometry": {"type": "Point", "coordinates": [-97.6710301594, 48.5963436475]}, "type": "Feature", "properties": {"collection_times": [{"days": "Mon-Fri", "time": "2:45pm"}, {"days": "Sat", "time": "12:15pm"}, {"days": "Sun", "time": "Closed"}], "id": "5822200002", "name": "USPS COLLECTION BOX - PO LOBBY", "address": {"city": "CRYSTAL", "state": "ND", "street": "332 3RD ST", "postcode": "58222"}}},
{"geometry": {"type": "Point", "coordinates": [-97.1777484453, 48.5604751004]}, "type": "Feature", "properties": {"collection_times": [{"days": "Mon-Fri", "time": "4:45pm"}, {"days": "Sat", "time": "5:00pm"}, {"days": "Sun", "time": "Closed"}], "id": "5822500001", "name": "USPS COLLECTION BOX - BLUE BOX", "address": {"city": "DRAYTON", "state": "ND", "street": "202 S MAIN ST", "postcode": "58225"}}},
{"geometry": {"type": "Point", "coordinates": [-97.1777484453, 48.5604751004]}, "type": "Feature", "properties": {"collection_times": [{"days": "Mon-Fri", "time": "4:30pm"}, {"days": "Sat", "time": "10:30am"}, {"days": "Sun", "time": "Closed"}], "id": "5822500002", "name": "USPS COLLECTION BOX - PO LOBBY", "address": {"city": "DRAYTON", "state": "ND", "street": "202 S MAIN ST", "postcode": "58225"}}},
{"geometry": {"type": "Point", "coordinates": [-97.8646736941, 48.4958718135]}, "type": "Feature", "properties": {"collection_times": [{"days": "Mon-Fri", "time": "4:30pm"}, {"days": "Sat", "time": "5:45pm"}, {"days": "Sun", "time": "Closed"}], "id": "5822700001", "name": "USPS COLLECTION BOX - BLUE BOX", "address": {"city": "EDINBURG", "state": "ND", "street": "250 MAIN AVE", "postcode": "58227"}}},
{"geometry": {"type": "Point", "coordinates": [-97.864673694, 48.495871814]}, "type": "Feature", "properties": {"collection_times": [{"days": "Mon-Fri", "time": "12:00pm"}, {"days": "Sat-Sun", "time": "Closed"}], "id": "5822700002", "name": "USPS COLLECTION BOX - PO LOBBY", "address": {"city": "EDINBURG", "state": "ND", "street": "250 MAIN AVE", "postcode": "58227"}}},
{"geometry": {"type": "Point", "coordinates": [-97.3660606365, 48.0142482841]}, "type": "Feature", "properties": {"collection_times": [{"days": "Mon-Sat", "time": "4:30pm"}, {"days": "Sun", "time": "Closed"}], "id": "5822800001", "name": "USPS COLLECTION BOX - BLUE BOX", "address": {"city": "EMERADO", "state": "ND", "street": "202 MAIN ST", "postcode": "58228"}}},
{"geometry": {"type": "Point", "coordinates": [-97.3660606365, 48.0142482841]}, "type": "Feature", "properties": {"collection_times": [{"days": "Mon-Fri", "time": "12:00pm"}, {"days": "Sat", "time": "10:30am"}, {"days": "Sun", "time": "Closed"}], "id": "5822800002", "name": "USPS COLLECTION BOX - PO LOBBY", "address": {"city": "EMERADO", "state": "ND", "street": "202 MAIN ST", "postcode": "58228"}}},
{"geometry": {"type": "Point", "coordinates": [-97.357032972, 47.932725554]}, "type": "Feature", "properties": {"collection_times": [{"days": "Mon-Sat", "time": "4:30pm"}, {"days": "Sun", "time": "Closed"}], "id": "5822800005", "name": "USPS COLLECTION BOX - BLUE BOX", "address": {"city": "EMERADO", "state": "ND", "street": "100 A AVE", "postcode": "58228"}}},
{"geometry": {"type": "Point", "coordinates": [-98.2312791182, 48.4889110464]}, "type": "Feature", "properties": {"collection_times": [{"days": "Mon-Sat", "time": "4:00pm"}, {"days": "Sun", "time": "Closed"}], "id": "5822900001", "name": "USPS COLLECTION BOX - BLUE BOX", "address": {"city": "FAIRDALE", "state": "ND", "street": "209 MAIN ST", "postcode": "58229"}}},
{"geometry": {"type": "Point", "coordinates": [-98.2312791182, 48.4889110464]}, "type": "Feature", "properties": {"collection_times": [{"days": "Mon-Fri", "time": "9:55am"}, {"days": "Sat-Sun", "time": "Closed"}], "id": "5822900002", "name": "USPS COLLECTION BOX - PO LOBBY", "address": {"city": "FAIRDALE", "state": "ND", "street": "209 MAIN ST", "postcode": "58229"}}},
{"geometry": {"type": "Point", "coordinates": [-97.8380317232, 47.511598507]}, "type": "Feature", "properties": {"collection_times": [{"days": "Mon-Fri", "time": "4:15pm"}, {"days": "Sat", "time": "4:30pm"}, {"days": "Sun", "time": "Closed"}], "id": "5823000001", "name": "USPS COLLECTION BOX - BLUE BOX", "address": {"city": "FINLEY", "state": "ND", "street": "207 4TH ST W", "postcode": "58230"}}},
{"geometry": {"type": "Point", "coordinates": [-97.8380317232, 47.511598507]}, "type": "Feature", "properties": {"collection_times": [{"days": "Mon-Fri", "time": "2:30pm"}, {"days": "Sat", "time": "10:00am"}, {"days": "Sun", "time": "Closed"}], "id": "5823000002", "name": "USPS COLLECTION BOX - PO LOBBY", "address": {"city": "FINLEY", "state": "ND", "street": "207 4TH ST W", "postcode": "58230"}}},
{"geometry": {"type": "Point", "coordinates": [-97.7906934775, 48.2157353302]}, "type": "Feature", "properties": {"collection_times": [{"days": "Mon-Fri", "time": "4:15pm"}, {"days": "Sat", "time": "4:30pm"}, {"days": "Sun", "time": "Closed"}], "id": "5823100001", "name": "USPS COLLECTION BOX - BLUE BOX", "address": {"city": "FORDVILLE", "state": "ND", "street": "104 MAIN ST N", "postcode": "58231"}}},
{"geometry": {"type": "Point", "coordinates": [-97.7906934775, 48.2157353302]}, "type": "Feature", "properties": {"collection_times": [{"days": "Mon-Fri", "time": "12:00pm"}, {"days": "Sat", "time": "10:15am"}, {"days": "Sun", "time": "Closed"}], "id": "5823100002", "name": "USPS COLLECTION BOX - PO LOBBY", "address": {"city": "FORDVILLE", "state": "ND", "street": "104 MAIN ST N", "postcode": "58231"}}},
{"geometry": {"type": "Point", "coordinates": [-97.6765363886, 48.2382132939]}, "type": "Feature", "properties": {"collection_times": [{"days": "Mon-Fri", "time": "4:20pm"}, {"days": "Sat", "time": "6:00pm"}, {"days": "Sun", "time": "Closed"}], "id": "5823300001", "name": "USPS COLLECTION BOX - BLUE BOX", "address": {"city": "FOREST RIVER", "state": "ND", "street": "106 FRONT ST", "postcode": "58233"}}},
{"geometry": {"type": "Point", "coordinates": [-97.6765363886, 48.2382132939]}, "type": "Feature", "properties": {"collection_times": [{"days": "Mon-Fri", "time": "12:45pm"}, {"days": "Sat", "time": "11:15am"}, {"days": "Sun", "time": "Closed"}], "id": "5823300002", "name": "USPS COLLECTION BOX - PO LOBBY", "address": {"city": "FOREST RIVER", "state": "ND", "street": "106 FRONT ST", "postcode": "58233"}}},
{"geometry": {"type": "Point", "coordinates": [-97.4702135409, 48.0820946497]}, "type": "Feature", "properties": {"collection_times": [{"days": "Mon-Fri", "time": "4:15pm"}, {"days": "Sat", "time": "4:00pm"}, {"days": "Sun", "time": "Closed"}], "id": "5823500001", "name": "USPS COLLECTION BOX - BLUE BOX", "address": {"city": "GILBY", "state": "ND", "street": "209 MAIN AVE", "postcode": "58235"}}},
{"geometry": {"type": "Point", "coordinates": [-97.4702135409, 48.0820946497]}, "type": "Feature", "properties": {"collection_times": [{"days": "Mon-Fri", "time": "12:00pm"}, {"days": "Sat", "time": "9:00am"}, {"days": "Sun", "time": "Closed"}], "id": "5823500002", "name": "USPS COLLECTION BOX - PO LOBBY", "address": {"city": "GILBY", "state": "ND", "street": "209 MAIN AVE", "postcode": "58235"}}},
{"geometry": {"type": "Point", "coordinates": [-97.469533964, 48.146046898]}, "type": "Feature", "properties": {"collection_times": [{"days": "Mon-Fri", "time": "5:00pm"}, {"days": "Sat", "time": "4:00pm"}, {"days": "Sun", "time": "Closed"}], "id": "5823500003", "name": "USPS COLLECTION BOX - BLUE BOX", "address": {"city": "GILBY", "state": "ND", "street": "3252 JOHNSTOWN ST", "postcode": "58235"}}},
{"geometry": {"type": "Point", "coordinates": [-97.4125450842, 48.4194979682]}, "type": "Feature", "properties": {"collection_times": [{"days": "Mon-Fri", "time": "5:00pm"}, {"days": "Sat", "time": "4:30pm"}, {"days": "Sun", "time": "Closed"}], "id": "5823700023", "name": "USPS COLLECTION BOX - BLUE BOX", "address": {"city": "GRAFTON", "state": "ND", "street": "506 GRIGGS AVE", "postcode": "58237"}}},
{"geometry": {"type": "Point", "coordinates": [-97.4125450842, 48.4194979682]}, "type": "Feature", "properties": {"collection_times": [{"days": "Mon-Fri", "time": "5:00pm"}, {"days": "Sat", "time": "4:30pm"}, {"days": "Sun", "time": "Closed"}], "id": "5823700025", "name": "USPS COLLECTION BOX - BLUE BOX", "address": {"city": "GRAFTON", "state": "ND", "street": "506 GRIGGS AVE", "postcode": "58237"}}},
{"geometry": {"type": "Point", "coordinates": [-97.4125450842, 48.4194979682]}, "type": "Feature", "properties": {"collection_times": [{"days": "Mon-Fri", "time": "4:45pm"}, {"days": "Sat", "time": "10:00am"}, {"days": "Sun", "time": "Closed"}], "id": "5823700030", "name": "USPS COLLECTION BOX - PO LOBBY", "address": {"city": "GRAFTON", "state": "ND", "street": "506 GRIGGS AVE", "postcode": "58237"}}},
{"geometry": {"type": "Point", "coordinates": [-97.4495155614, 48.8086248827]}, "type": "Feature", "properties": {"collection_times": [{"days": "Mon-Sat", "time": "3:45pm"}, {"days": "Sun", "time": "Closed"}], "id": "5823800001", "name": "USPS COLLECTION BOX - BLUE BOX", "address": {"city": "HAMILTON", "state": "ND", "street": "402 PAGE AVE STE A", "postcode": "58238"}}},
{"geometry": {"type": "Point", "coordinates": [-97.4495155614, 48.8086248827]}, "type": "Feature", "properties": {"collection_times": [{"days": "Mon-Fri", "time": "11:15am"}, {"days": "Sat", "time": "10:15am"}, {"days": "Sun", "time": "Closed"}], "id": "5823800002", "name": "USPS COLLECTION BOX - PO LOBBY", "address": {"city": "HAMILTON", "state": "ND", "street": "402 PAGE AVE STE A", "postcode": "58238"}}},
{"geometry": {"type": "Point", "coordinates": [-98.6916205961, 48.973602488]}, "type": "Feature", "properties": {"collection_times": [{"days": "Mon-Sat", "time": "11:30am"}, {"days": "Sun", "time": "Closed"}], "id": "5823900001", "name": "USPS COLLECTION BOX - BLUE BOX", "address": {"city": "HANNAH", "state": "ND", "street": "210 3RD ST", "postcode": "58239"}}},
{"geometry": {"type": "Point", "coordinates": [-97.4598018027, 47.6384593366]}, "type": "Feature", "properties": {"collection_times": [{"days": "Mon-Sat", "time": "4:30pm"}, {"days": "Sun", "time": "Closed"}], "id": "5824000001", "name": "USPS COLLECTION BOX - BLUE BOX", "address": {"city": "HATTON", "state": "ND", "street": "611 RAILROAD AVE E", "postcode": "58240"}}},
{"geometry": {"type": "Point", "coordinates": [-97.4598018027, 47.6384593366]}, "type": "Feature", "properties": {"collection_times": [{"days": "Mon-Fri", "time": "3:00pm"}, {"days": "Sat", "time": "10:00am"}, {"days": "Sun", "time": "Closed"}], "id": "5824000002", "name": "USPS COLLECTION BOX - PO LOBBY", "address": {"city": "HATTON", "state": "ND", "street": "611 RAILROAD AVE E", "postcode": "58240"}}},
{"geometry": {"type": "Point", "coordinates": [-97.6277424636, 48.6811929732]}, "type": "Feature", "properties": {"collection_times": [{"days": "Mon-Fri", "time": "4:15pm"}, {"days": "Sat", "time": "3:15pm"}, {"days": "Sun", "time": "Closed"}], "id": "5824100001", "name": "USPS COLLECTION BOX - BLUE BOX", "address": {"city": "HENSEL", "state": "ND", "street": "109 E MAIN ST", "postcode": "58241"}}},
{"geometry": {"type": "Point", "coordinates": [-97.6277424636, 48.6811929732]}, "type": "Feature", "properties": {"collection_times": [{"days": "Mon-Fri", "time": "3:15pm"}, {"days": "Sat", "time": "1:20pm"}, {"days": "Sun", "time": "Closed"}], "id": "5824100002", "name": "USPS COLLECTION BOX - PO LOBBY", "address": {"city": "HENSEL", "state": "ND", "street": "109 E MAIN ST", "postcode": "58241"}}},
{"geometry": {"type": "Point", "coordinates": [-97.63694, 48.53478]}, "type": "Feature", "properties": {"collection_times": [{"days": "Mon-Fri", "time": "4:15pm"}, {"days": "Sat", "time": "3:30pm"}, {"days": "Sun", "time": "Closed"}], "id": "5824300001", "name": "USPS COLLECTION BOX - BLUE BOX", "address": {"city": "HOOPLE", "state": "ND", "street": "236 2ND ST", "postcode": "58243"}}},
{"geometry": {"type": "Point", "coordinates": [-97.63694, 48.53478]}, "type": "Feature", "properties": {"collection_times": [{"days": "Mon-Fri", "time": "12:00pm"}, {"days": "Sat", "time": "9:45am"}, {"days": "Sun", "time": "Closed"}], "id": "5824300002", "name": "USPS COLLECTION BOX - PO LOBBY", "address": {"city": "HOOPLE", "state": "ND", "street": "236 2ND ST", "postcode": "58243"}}},
{"geometry": {"type": "Point", "coordinates": [-98.3686183033, 48.7601029211]}, "type": "Feature", "properties": {"collection_times": [{"days": "Mon-Sat", "time": "4:30pm"}, {"days": "Sun", "time": "Closed"}], "id": "5824900001", "name": "USPS COLLECTION BOX - BLUE BOX", "address": {"city": "LANGDON", "state": "ND", "street": "323 8TH AVE", "postcode": "58249"}}},
{"geometry": {"type": "Point", "coordinates": [-98.3686183033, 48.7601029211]}, "type": "Feature", "properties": {"collection_times": [{"days": "Mon-Fri", "time": "4:30pm"}, {"days": "Sat", "time": "12:00pm"}, {"days": "Sun", "time": "Closed"}], "id": "5824900003", "name": "USPS COLLECTION BOX - PO LOBBY", "address": {"city": "LANGDON", "state": "ND", "street": "323 8TH AVE", "postcode": "58249"}}},
{"geometry": {"type": "Point", "coordinates": [-97.9234191703, 48.3132165088]}, "type": "Feature", "properties": {"collection_times": [{"days": "Mon-Fri", "time": "4:20pm"}, {"days": "Sat", "time": "4:30pm"}, {"days": "Sun", "time": "Closed"}], "id": "5825000001", "name": "USPS COLLECTION BOX - BLUE BOX", "address": {"city": "LANKIN", "state": "ND", "street": "301 MAIN ST", "postcode": "58250"}}},
{"geometry": {"type": "Point", "coordinates": [-97.9234191703, 48.3132165088]}, "type": "Feature", "properties": {"collection_times": [{"days": "Mon-Fri", "time": "2:50pm"}, {"days": "Sat", "time": "9:30am"}, {"days": "Sun", "time": "Closed"}], "id": "5825000002", "name": "USPS COLLECTION BOX - PO LOBBY", "address": {"city": "LANKIN", "state": "ND", "street": "301 MAIN ST", "postcode": "58250"}}},
{"geometry": {"type": "Point", "coordinates": [-97.6225802788, 47.9047764782]}, "type": "Feature", "properties": {"collection_times": [{"days": "Mon-Fri", "time": "4:45pm"}, {"days": "Sat", "time": "4:15pm"}, {"days": "Sun", "time": "Closed"}], "id": "5825100001", "name": "USPS COLLECTION BOX - BLUE BOX", "address": {"city": "LARIMORE", "state": "ND", "street": "208 E FRONT ST", "postcode": "58251"}}},
{"geometry": {"type": "Point", "coordinates": [-97.6225802788, 47.9047764782]}, "type": "Feature", "properties": {"collection_times": [{"days": "Mon-Fri", "time": "4:45pm"}, {"days": "Sat", "time": "10:45am"}, {"days": "Sun", "time": "Closed"}], "id": "5825100002", "name": "USPS COLLECTION BOX - PO LOBBY", "address": {"city": "LARIMORE", "state": "ND", "street": "208 E FRONT ST", "postcode": "58251"}}},
{"geometry": {"type": "Point", "coordinates": [-98.1773917459, 47.7657306874]}, "type": "Feature", "properties": {"collection_times": [{"days": "Mon-Sat", "time": "4:15pm"}, {"days": "Sun", "time": "Closed"}], "id": "5825400001", "name": "USPS COLLECTION BOX - BLUE BOX", "address": {"city": "MCVILLE", "state": "ND", "street": "109 N MAIN ST", "postcode": "58254"}}},
{"geometry": {"type": "Point", "coordinates": [-98.1773917459, 47.7657306874]}, "type": "Feature", "properties": {"collection_times": [{"days": "Mon-Fri", "time": "2:30pm"}, {"days": "Sat", "time": "10:00am"}, {"days": "Sun", "time": "Closed"}], "id": "5825400002", "name": "USPS COLLECTION BOX - PO LOBBY", "address": {"city": "MCVILLE", "state": "ND", "street": "109 N MAIN ST", "postcode": "58254"}}},
{"geometry": {"type": "Point", "coordinates": [-98.177249776, 47.764969579]}, "type": "Feature", "properties": {"collection_times": [{"days": "Mon-Sat", "time": "4:15pm"}, {"days": "Sun", "time": "Closed"}], "id": "5825400003", "name": "USPS COLLECTION BOX - BLUE BOX", "address": {"city": "MCVILLE", "state": "ND", "street": "109 N MAIN ST", "postcode": "58254"}}},
{"geometry": {"type": "Point", "coordinates": [-97.1768129828, 48.0757516574]}, "type": "Feature", "properties": {"collection_times": [{"days": "Mon-Fri", "time": "4:30pm"}, {"days": "Sat", "time": "5:00pm"}, {"days": "Sun", "time": "Closed"}], "id": "5825600001", "name": "USPS COLLECTION BOX - BLUE BOX", "address": {"city": "MANVEL", "state": "ND", "street": "502 OLDHAM AVE", "postcode": "58256"}}},
{"geometry": {"type": "Point", "coordinates": [-97.1768129828, 48.0757516574]}, "type": "Feature", "properties": {"collection_times": [{"days": "Mon-Fri", "time": "11:30am"}, {"days": "Sat-Sun", "time": "Closed"}], "id": "5825600002", "name": "USPS COLLECTION BOX - PO LOBBY", "address": {"city": "MANVEL", "state": "ND", "street": "502 OLDHAM AVE", "postcode": "58256"}}},
{"geometry": {"type": "Point", "coordinates": [-97.3252136466, 47.5008483756]}, "type": "Feature", "properties": {"collection_times": [{"days": "Mon-Fri", "time": "4:15pm"}, {"days": "Sat", "time": "5:00pm"}, {"days": "Sun", "time": "Closed"}], "id": "5825700001", "name": "USPS COLLECTION BOX - BLUE BOX", "address": {"city": "MAYVILLE", "state": "ND", "street": "37 1ST AVE NE", "postcode": "58257"}}},
{"geometry": {"type": "Point", "coordinates": [-97.3252136466, 47.5008483756]}, "type": "Feature", "properties": {"collection_times": [{"days": "Mon-Fri", "time": "4:15pm"}, {"days": "Sat-Sun", "time": "Closed"}], "id": "5825700002", "name": "USPS COLLECTION BOX - PO LOBBY", "address": {"city": "MAYVILLE", "state": "ND", "street": "37 1ST AVE NE", "postcode": "58257"}}},
{"geometry": {"type": "Point", "coordinates": [-97.3660593305, 48.0139853853]}, "type": "Feature", "properties": {"collection_times": [{"days": "Mon-Fri", "time": "3:00pm"}, {"days": "Sat", "time": "6:30pm"}, {"days": "Sun", "time": "Closed"}], "id": "5825800001", "name": "USPS COLLECTION BOX - BLUE BOX", "address": {"city": "MEKINOCK", "state": "ND", "street": "150 MAIN ST", "postcode": "58258"}}},
{"geometry": {"type": "Point", "coordinates": [-97.3660593305, 48.0139853853]}, "type": "Feature", "properties": {"collection_times": [{"days": "Mon-Fri", "time": "3:00pm"}, {"days": "Sat", "time": "1:00pm"}, {"days": "Sun", "time": "Closed"}], "id": "5825800002", "name": "USPS COLLECTION BOX - PO LOBBY", "address": {"city": "MEKINOCK", "state": "ND", "street": "150 MAIN ST", "postcode": "58258"}}},
{"geometry": {"type": "Point", "coordinates": [-98.1194181718, 48.0231862961]}, "type": "Feature", "properties": {"collection_times": [{"days": "Mon-Fri", "time": "4:30pm"}, {"days": "Sat", "time": "4:00pm"}, {"days": "Sun", "time": "Closed"}], "id": "5825900001", "name": "USPS COLLECTION BOX - BLUE BOX", "address": {"city": "MICHIGAN", "state": "ND", "street": "105 1ST ST E STE 4", "postcode": "58259"}}},
{"geometry": {"type": "Point", "coordinates": [-98.1194181718, 48.0231862961]}, "type": "Feature", "properties": {"collection_times": [{"days": "Mon-Fri", "time": "12:00pm"}, {"days": "Sat-Sun", "time": "Closed"}], "id": "5825900002", "name": "USPS COLLECTION BOX - PO LOBBY", "address": {"city": "MICHIGAN", "state": "ND", "street": "105 1ST ST E STE 1", "postcode": "58259"}}},
{"geometry": {"type": "Point", "coordinates": [-97.3717820687, 48.2916527219]}, "type": "Feature", "properties": {"collection_times": [{"days": "Mon-Fri", "time": "4:30pm"}, {"days": "Sat", "time": "5:00pm"}, {"days": "Sun", "time": "Closed"}], "id": "5826100001", "name": "USPS COLLECTION BOX - BLUE BOX", "address": {"city": "MINTO", "state": "ND", "street": "221 HARVEY AVE", "postcode": "58261"}}},
{"geometry": {"type": "Point", "coordinates": [-97.3717820687, 48.2916527219]}, "type": "Feature", "properties": {"collection_times": [{"days": "Mon-Fri", "time": "2:30pm"}, {"days": "Sat", "time": "10:00am"}, {"days": "Sun", "time": "Closed"}], "id": "5826100002", "name": "USPS COLLECTION BOX - PO LOBBY", "address": {"city": "MINTO", "state": "ND", "street": "221 HARVEY AVE", "postcode": "58261"}}},
{"geometry": {"type": "Point", "coordinates": [-97.8652552814, 48.68536286]}, "type": "Feature", "properties": {"collection_times": [{"days": "Mon-Sat", "time": "10:30am"}, {"days": "Sun", "time": "Closed"}], "id": "5826200001", "name": "USPS COLLECTION BOX - BLUE BOX", "address": {"city": "MOUNTAIN", "state": "ND", "street": "324 MAIN AVE", "postcode": "58262"}}},
{"geometry": {"type": "Point", "coordinates": [-97.8652552814, 48.68536286]}, "type": "Feature", "properties": {"collection_times": [{"days": "Mon-Sat", "time": "10:30am"}, {"days": "Sun", "time": "Closed"}], "id": "5826200002", "name": "USPS COLLECTION BOX - PO LOBBY", "address": {"city": "MOUNTAIN", "state": "ND", "street": "324 MAIN AVE", "postcode": "58262"}}},
{"geometry": {"type": "Point", "coordinates": [-97.5517728115, 48.9832838404]}, "type": "Feature", "properties": {"collection_times": [{"days": "Mon-Sat", "time": "4:00pm"}, {"days": "Sun", "time": "Closed"}], "id": "5826500001", "name": "USPS COLLECTION BOX - BLUE BOX", "address": {"city": "NECHE", "state": "ND", "street": "434 MAIN AVE", "postcode": "58265"}}},
{"geometry": {"type": "Point", "coordinates": [-97.5517728115, 48.9832838404]}, "type": "Feature", "properties": {"collection_times": [{"days": "Mon-Fri", "time": "4:30pm"}, {"days": "Sat", "time": "10:30am"}, {"days": "Sun", "time": "Closed"}], "id": "5826500002", "name": "USPS COLLECTION BOX - PO LOBBY", "address": {"city": "NECHE", "state": "ND", "street": "434 MAIN AVE", "postcode": "58265"}}},
{"geometry": {"type": "Point", "coordinates": [-97.870366871, 47.995447405]}, "type": "Feature", "properties": {"collection_times": [{"days": "Mon-Sat", "time": "4:15pm"}, {"days": "Sun", "time": "Closed"}], "id": "5826600001", "name": "USPS COLLECTION BOX - BLUE BOX", "address": {"city": "NIAGARA", "state": "ND", "street": "107 N 2ND ST", "postcode": "58266"}}},
{"geometry": {"type": "Point", "coordinates": [-97.870366871, 47.995447405]}, "type": "Feature", "properties": {"collection_times": [{"days": "Mon-Sat", "time": "11:30am"}, {"days": "Sun", "time": "Closed"}], "id": "5826600002", "name": "USPS COLLECTION BOX - PO LOBBY", "address": {"city": "NIAGARA", "state": "ND", "street": "107 N 2ND ST", "postcode": "58266"}}},
{"geometry": {"type": "Point", "coordinates": [-97.5681386475, 47.7342815483]}, "type": "Feature", "properties": {"collection_times": [{"days": "Mon-Sat", "time": "4:15pm"}, {"days": "Sun", "time": "Closed"}], "id": "5826700001", "name": "USPS COLLECTION BOX - BLUE BOX", "address": {"city": "NORTHWOOD", "state": "ND", "street": "4 N RAYMOND ST", "postcode": "58267"}}},
{"geometry": {"type": "Point", "coordinates": [-97.5681386475, 47.7342815483]}, "type": "Feature", "properties": {"collection_times": [{"days": "Mon-Fri", "time": "4:25pm"}, {"days": "Sat-Sun", "time": "Closed"}], "id": "5826700002", "name": "USPS COLLECTION BOX - PO LOBBY", "address": {"city": "NORTHWOOD", "state": "ND", "street": "4 N RAYMOND ST", "postcode": "58267"}}},
{"geometry": {"type": "Point", "coordinates": [-98.149258351, 48.6698707473]}, "type": "Feature", "properties": {"collection_times": [{"days": "Mon-Fri", "time": "4:15pm"}, {"days": "Sat", "time": "5:05pm"}, {"days": "Sun", "time": "Closed"}], "id": "5826900001", "name": "USPS COLLECTION BOX - BLUE BOX", "address": {"city": "OSNABROCK", "state": "ND", "street": "326 BROADWAY", "postcode": "58269"}}},
{"geometry": {"type": "Point", "coordinates": [-98.149258351, 48.6698707473]}, "type": "Feature", "properties": {"collection_times": [{"days": "Mon-Fri", "time": "12:00pm"}, {"days": "Sat", "time": "9:15am"}, {"days": "Sun", "time": "Closed"}], "id": "5826900002", "name": "USPS COLLECTION BOX - PO LOBBY", "address": {"city": "OSNABROCK", "state": "ND", "street": "326 BROADWAY", "postcode": "58269"}}},
{"geometry": {"type": "Point", "coordinates": [-97.7433583073, 48.3973218415]}, "type": "Feature", "properties": {"collection_times": [{"days": "Mon-Fri", "time": "4:50pm"}, {"days": "Sat", "time": "6:00pm"}, {"days": "Sun", "time": "Closed"}], "id": "5827000001", "name": "USPS COLLECTION BOX - BLUE BOX", "address": {"city": "PARK RIVER", "state": "ND", "street": "309 BRIGGS AVE S", "postcode": "58270"}}},
{"geometry": {"type": "Point", "coordinates": [-97.7433583073, 48.3973218415]}, "type": "Feature", "properties": {"collection_times": [{"days": "Mon-Fri", "time": "4:50pm"}, {"days": "Sat", "time": "11:00am"}, {"days": "Sun", "time": "Closed"}], "id": "5827000002", "name": "USPS COLLECTION BOX - PO LOBBY", "address": {"city": "PARK RIVER", "state": "ND", "street": "309 BRIGGS AVE S", "postcode": "58270"}}},
{"geometry": {"type": "Point", "coordinates": [-97.250677582, 48.9706654032]}, "type": "Feature", "properties": {"collection_times": [{"days": "Mon-Sat", "time": "4:00pm"}, {"days": "Sun", "time": "Closed"}], "id": "5827100001", "name": "USPS COLLECTION BOX - BLUE BOX", "address": {"city": "PEMBINA", "state": "ND", "street": "554 W ROLETTE ST", "postcode": "58271"}}},
{"geometry": {"type": "Point", "coordinates": [-97.250677582, 48.9706654032]}, "type": "Feature", "properties": {"collection_times": [{"days": "Mon-Fri", "time": "4:00pm"}, {"days": "Sat", "time": "10:00am"}, {"days": "Sun", "time": "Closed"}], "id": "5827100004", "name": "USPS COLLECTION BOX - PO LOBBY", "address": {"city": "PEMBINA", "state": "ND", "street": "554 W ROLETTE ST", "postcode": "58271"}}},
{"geometry": {"type": "Point", "coordinates": [-97.2456765716, 48.9672765666]}, "type": "Feature", "properties": {"collection_times": [{"days": "Mon-Fri", "time": "2:30pm"}, {"days": "Sat", "time": "2:00pm"}, {"days": "Sun", "time": "Closed"}], "id": "5827100006", "name": "USPS COLLECTION BOX - BLUE BOX", "address": {"city": "PEMBINA", "state": "ND", "street": "203 W STUTSMAN ST", "postcode": "58271"}}},
{"geometry": {"type": "Point", "coordinates": [-98.000822481, 48.0118478617]}, "type": "Feature", "properties": {"collection_times": [{"days": "Mon-Fri", "time": "4:20pm"}, {"days": "Sat", "time": "4:15pm"}, {"days": "Sun", "time": "Closed"}], "id": "5827200001", "name": "USPS COLLECTION BOX - BLUE BOX", "address": {"city": "PETERSBURG", "state": "ND", "street": "214 5TH ST", "postcode": "58272"}}},
{"geometry": {"type": "Point", "coordinates": [-98.000822481, 48.0118478617]}, "type": "Feature", "properties": {"collection_times": [{"days": "Mon-Fri", "time": "12:00pm"}, {"days": "Sat-Sun", "time": "Closed"}], "id": "5827200002", "name": "USPS COLLECTION BOX - PO LOBBY", "address": {"city": "PETERSBURG", "state": "ND", "street": "214 5TH ST", "postcode": "58272"}}},
{"geometry": {"type": "Point", "coordinates": [-97.7081045279, 48.3101912113]}, "type": "Feature", "properties": {"collection_times": [{"days": "Mon-Fri", "time": "3:30pm"}, {"days": "Sat", "time": "4:15pm"}, {"days": "Sun", "time": "Closed"}], "id": "5827300001", "name": "USPS COLLECTION BOX - BLUE BOX", "address": {"city": "PISEK", "state": "ND", "street": "68 LOVICK AVE", "postcode": "58273"}}},
{"geometry": {"type": "Point", "coordinates": [-97.7081045279, 48.3101912113]}, "type": "Feature", "properties": {"collection_times": [{"days": "Mon-Fri", "time": "3:15pm"}, {"days": "Sat-Sun", "time": "Closed"}], "id": "5827300002", "name": "USPS COLLECTION BOX - PO LOBBY", "address": {"city": "PISEK", "state": "ND", "street": "68 LOVICK AVE", "postcode": "58273"}}},
{"geometry": {"type": "Point", "coordinates": [-97.3663543725, 47.4984194841]}, "type": "Feature", "properties": {"collection_times": [{"days": "Mon-Sat", "time": "4:30pm"}, {"days": "Sun", "time": "Closed"}], "id": "5827400001", "name": "USPS COLLECTION BOX - BLUE BOX", "address": {"city": "PORTLAND", "state": "ND", "street": "629 PARKE AVE", "postcode": "58274"}}},
{"geometry": {"type": "Point", "coordinates": [-97.3663543725, 47.4984194841]}, "type": "Feature", "properties": {"collection_times": [{"days": "Mon-Fri", "time": "2:30pm"}, {"days": "Sat-Sun", "time": "Closed"}], "id": "5827400002", "name": "USPS COLLECTION BOX - PO LOBBY", "address": {"city": "PORTLAND", "state": "ND", "street": "629 PARKE AVE", "postcode": "58274"}}},
{"geometry": {"type": "Point", "coordinates": [-97.1089115696, 47.6721219328]}, "type": "Feature", "properties": {"collection_times": [{"days": "Mon-Fri", "time": "4:30pm"}, {"days": "Sat", "time": "6:00pm"}, {"days": "Sun", "time": "Closed"}], "id": "5827500001", "name": "USPS COLLECTION BOX - BLUE BOX", "address": {"city": "REYNOLDS", "state": "ND", "street": "321 4TH AVE", "postcode": "58275"}}},
{"geometry": {"type": "Point", "coordinates": [-97.1089115696, 47.6721219328]}, "type": "Feature", "properties": {"collection_times": [{"days": "Mon-Fri", "time": "12:00pm"}, {"days": "Sat", "time": "9:30am"}, {"days": "Sun", "time": "Closed"}], "id": "5827500002", "name": "USPS COLLECTION BOX - PO LOBBY", "address": {"city": "REYNOLDS", "state": "ND", "street": "321 4TH AVE", "postcode": "58275"}}},
{"geometry": {"type": "Point", "coordinates": [-97.4489855339, 48.6198062735]}, "type": "Feature", "properties": {"collection_times": [{"days": "Mon-Fri", "time": "4:30pm"}, {"days": "Sat", "time": "4:00pm"}, {"days": "Sun", "time": "Closed"}], "id": "5827600001", "name": "USPS COLLECTION BOX - BLUE BOX", "address": {"city": "SAINT THOMAS", "state": "ND", "street": "340 MAIN ST", "postcode": "58276"}}},
{"geometry": {"type": "Point", "coordinates": [-97.4489855339, 48.6198062735]}, "type": "Feature", "properties": {"collection_times": [{"days": "Mon-Fri", "time": "11:50am"}, {"days": "Sat", "time": "10:30am"}, {"days": "Sun", "time": "Closed"}], "id": "5827600002", "name": "USPS COLLECTION BOX - PO LOBBY", "address": {"city": "SAINT THOMAS", "state": "ND", "street": "340 MAIN ST", "postcode": "58276"}}},
{"geometry": {"type": "Point", "coordinates": [-97.8941016185, 47.5985504416]}, "type": "Feature", "properties": {"collection_times": [{"days": "Mon-Sat", "time": "4:00pm"}, {"days": "Sun", "time": "Closed"}], "id": "5827700001", "name": "USPS COLLECTION BOX - BLUE BOX", "address": {"city": "SHARON", "state": "ND", "street": "307 MAIN ST", "postcode": "58277"}}},
{"geometry": {"type": "Point", "coordinates": [-97.8941016185, 47.5985504416]}, "type": "Feature", "properties": {"collection_times": [{"days": "Mon-Fri", "time": "10:45am"}, {"days": "Sat-Sun", "time": "Closed"}], "id": "5827700002", "name": "USPS COLLECTION BOX - PO LOBBY", "address": {"city": "SHARON", "state": "ND", "street": "307 MAIN ST", "postcode": "58277"}}},
{"geometry": {"type": "Point", "coordinates": [-97.1095251937, 47.7755810611]}, "type": "Feature", "properties": {"collection_times": [{"days": "Mon-Sat", "time": "5:00pm"}, {"days": "Sun", "time": "Closed"}], "id": "5827800001", "name": "USPS COLLECTION BOX - BLUE BOX", "address": {"city": "THOMPSON", "state": "ND", "street": "205 3RD ST", "postcode": "58278"}}},
{"geometry": {"type": "Point", "coordinates": [-97.1095251937, 47.7755810611]}, "type": "Feature", "properties": {"collection_times": [{"days": "Mon-Fri", "time": "2:00pm"}, {"days": "Sat-Sun", "time": "Closed"}], "id": "5827800002", "name": "USPS COLLECTION BOX - PO LOBBY", "address": {"city": "THOMPSON", "state": "ND", "street": "205 3RD ST", "postcode": "58278"}}},
{"geometry": {"type": "Point", "coordinates": [-97.9155629965, 48.9225095552]}, "type": "Feature", "properties": {"collection_times": [{"days": "Mon-Sat", "time": "4:00pm"}, {"days": "Sun", "time": "Closed"}], "id": "5828200001", "name": "USPS COLLECTION BOX - BLUE BOX", "address": {"city": "WALHALLA", "state": "ND", "street": "408 10TH ST", "postcode": "58282"}}},
{"geometry": {"type": "Point", "coordinates": [-97.9155629965, 48.9225095552]}, "type": "Feature", "properties": {"collection_times": [{"days": "Mon-Fri", "time": "4:15pm"}, {"days": "Sat", "time": "11:00am"}, {"days": "Sun", "time": "Closed"}], "id": "5828200004", "name": "USPS COLLECTION BOX - PO LOBBY", "address": {"city": "WALHALLA", "state": "ND", "street": "408 10TH ST", "postcode": "58282"}}}
]}
