{"type": "FeatureCollection", "features": [
{"geometry": {"type": "Point", "coordinates": [-98.860294369, 48.113104044]}, "type": "Feature", "properties": {"collection_times": [{"days": "Mon-Fri", "time": "5:00pm"}, {"days": "Sat-Sun", "time": "Closed"}], "id": "5830100001", "name": "USPS COLLECTION BOX - BLUE BOX", "address": {"city": "DEVILS LAKE", "state": "ND", "street": "524 4TH AVE NE", "postcode": "58301"}}},
{"geometry": {"type": "Point", "coordinates": [-98.860156198, 48.112788059]}, "type": "Feature", "properties": {"collection_times": [{"days": "Mon-Fri", "time": "5:00pm"}, {"days": "Sat-Sun", "time": "Closed"}], "id": "5830100002", "name": "USPS COLLECTION BOX - BLUE BOX", "address": {"city": "DEVILS LAKE", "state": "ND", "street": "424 5TH ST NE", "postcode": "58301"}}},
{"geometry": {"type": "Point", "coordinates": [-98.861902465, 48.111761271]}, "type": "Feature", "properties": {"collection_times": [{"days": "Mon-Fri", "time": "5:00pm"}, {"days": "Sat-Sun", "time": "Closed"}], "id": "5830100003", "name": "USPS COLLECTION BOX - BLUE BOX", "address": {"city": "DEVILS LAKE", "state": "ND", "street": "300 4TH ST NE", "postcode": "58301"}}},
{"geometry": {"type": "Point", "coordinates": [-98.860434971, 48.107626185]}, "type": "Feature", "properties": {"collection_times": [{"days": "Mon-Fri", "time": "5:15pm"}, {"days": "Sat-Sun", "time": "Closed"}], "id": "5830100007", "name": "USPS COLLECTION BOX - BLUE BOX", "address": {"city": "DEVILS LAKE", "state": "ND", "street": "224 4TH ST NW", "postcode": "58301"}}},
{"geometry": {"type": "Point", "coordinates": [-98.8680502093, 48.10773164]}, "type": "Feature", "properties": {"collection_times": [{"days": "Mon-Fri", "time": "5:15pm"}, {"days": "Sat-Sun", "time": "Closed"}], "id": "5830100009", "name": "USPS COLLECTION BOX - BLUE BOX", "address": {"city": "DEVILS LAKE", "state": "ND", "street": "300 WALNUT ST W", "postcode": "58301"}}},
{"geometry": {"type": "Point", "coordinates": [-98.864831947, 48.10546934]}, "type": "Feature", "properties": {"collection_times": [{"days": "Mon-Fri", "time": "5:15pm"}, {"days": "Sat-Sun", "time": "Closed"}], "id": "5830100010", "name": "USPS COLLECTION BOX - BLUE BOX", "address": {"city": "DEVILS LAKE", "state": "ND", "street": "425 COLLEGE DR S", "postcode": "58301"}}},
{"geometry": {"type": "Point", "coordinates": [-98.85060597, 48.100937483]}, "type": "Feature", "properties": {"collection_times": [{"days": "Mon-Fri", "time": "5:30pm"}, {"days": "Sat-Sun", "time": "Closed"}], "id": "5830100012", "name": "USPS COLLECTION BOX - BLUE BOX", "address": {"city": "DEVILS LAKE", "state": "ND", "street": "1117 HIGHWAY 2 E", "postcode": "58301"}}},
{"geometry": {"type": "Point", "coordinates": [-98.855217553, 48.110658775]}, "type": "Feature", "properties": {"collection_times": [{"days": "Mon-Fri", "time": "6:00pm"}, {"days": "Sat", "time": "5:30pm"}, {"days": "Sun", "time": "Closed"}], "id": "5830100024", "name": "USPS COLLECTION BOX - BLUE BOX", "address": {"city": "DEVILS LAKE", "state": "ND", "street": "502 3RD ST NE", "postcode": "58301"}}},
{"geometry": {"type": "Point", "coordinates": [-98.855217553, 48.110658775]}, "type": "Feature", "properties": {"collection_times": [{"days": "Mon-Fri", "time": "6:00pm"}, {"days": "Sat", "time": "5:30pm"}, {"days": "Sun", "time": "Closed"}], "id": "5830100025", "name": "USPS COLLECTION BOX - BLUE BOX", "address": {"city": "DEVILS LAKE", "state": "ND", "street": "502 3RD ST NE", "postcode": "58301"}}},
{"geometry": {"type": "Point", "coordinates": [-98.855217553, 48.110658775]}, "type": "Feature", "properties": {"collection_times": [{"days": "Mon-Fri", "time": "6:00pm"}, {"days": "Sat", "time": "5:30pm"}, {"days": "Sun", "time": "Closed"}], "id": "5830100026", "name": "USPS COLLECTION BOX - BLUE BOX", "address": {"city": "DEVILS LAKE", "state": "ND", "street": "502 3RD ST NE", "postcode": "58301"}}},
{"geometry": {"type": "Point", "coordinates": [-98.855217553, 48.110658775]}, "type": "Feature", "properties": {"collection_times": [{"days": "Mon-Fri", "time": "6:00pm"}, {"days": "Sat", "time": "5:30pm"}, {"days": "Sun", "time": "Closed"}], "id": "5830100027", "name": "USPS COLLECTION BOX - BLUE BOX", "address": {"city": "DEVILS LAKE", "state": "ND", "street": "502 3RD ST NE", "postcode": "58301"}}},
{"geometry": {"type": "Point", "coordinates": [-98.855217553, 48.110658775]}, "type": "Feature", "properties": {"collection_times": [{"days": "Mon-Fri", "time": "6:00pm"}, {"days": "Sat", "time": "5:30pm"}, {"days": "Sun", "time": "Closed"}], "id": "5830100028", "name": "USPS COLLECTION BOX - PO LOBBY", "address": {"city": "DEVILS LAKE", "state": "ND", "street": "502 3RD ST NE", "postcode": "58301"}}},
{"geometry": {"type": "Point", "coordinates": [-98.867891922, 48.103900003]}, "type": "Feature", "properties": {"collection_times": [{"days": "Mon-Fri", "time": "5:15pm"}, {"days": "Sat", "time": "3:00pm"}, {"days": "Sun", "time": "Closed"}], "id": "5830100039", "name": "USPS COLLECTION BOX - BLUE BOX", "address": {"city": "DEVILS LAKE", "state": "ND", "street": "210 HIGHWAY 2 W", "postcode": "58301"}}},
{"geometry": {"type": "Point", "coordinates": [-99.7886555919, 48.8054420433]}, "type": "Feature", "properties": {"collection_times": [{"days": "Mon-Sat", "time": "3:45pm"}, {"days": "Sun", "time": "Closed"}], "id": "5831600001", "name": "USPS COLLECTION BOX - BLUE BOX", "address": {"city": "BELCOURT", "state": "ND", "street": "1 EXPRESS LN", "postcode": "58316"}}},
{"geometry": {"type": "Point", "coordinates": [-99.7886555919, 48.8054420433]}, "type": "Feature", "properties": {"collection_times": [{"days": "Mon-Fri", "time": "3:45pm"}, {"days": "Sat", "time": "12:00pm"}, {"days": "Sun", "time": "Closed"}], "id": "5831600002", "name": "USPS COLLECTION BOX - PO LOBBY", "address": {"city": "BELCOURT", "state": "ND", "street": "1 EXPRESS LN", "postcode": "58316"}}},
{"geometry": {"type": "Point", "coordinates": [-99.3798445213, 48.6274020085]}, "type": "Feature", "properties": {"collection_times": [{"days": "Mon-Sat", "time": "4:20pm"}, {"days": "Sun", "time": "Closed"}], "id": "5831700001", "name": "USPS COLLECTION BOX - BLUE BOX", "address": {"city": "BISBEE", "state": "ND", "street": "206 MAIN ST", "postcode": "58317"}}},
{"geometry": {"type": "Point", "coordinates": [-99.3798445213, 48.6274020085]}, "type": "Feature", "properties": {"collection_times": [{"days": "Mon-Fri", "time": "12:00pm"}, {"days": "Sat", "time": "10:00am"}, {"days": "Sun", "time": "Closed"}], "id": "5831700003", "name": "USPS COLLECTION BOX - PO LOBBY", "address": {"city": "BISBEE", "state": "ND", "street": "206 MAIN ST", "postcode": "58317"}}},
{"geometry": {"type": "Point", "coordinates": [-100.4442147222, 48.8270612336]}, "type": "Feature", "properties": {"collection_times": [{"days": "Mon-Sat", "time": "3:20pm"}, {"days": "Sun", "time": "Closed"}], "id": "5831800001", "name": "USPS COLLECTION BOX - BLUE BOX", "address": {"city": "BOTTINEAU", "state": "ND", "street": "522 THOMPSON ST", "postcode": "58318"}}},
{"geometry": {"type": "Point", "coordinates": [-100.4442147222, 48.8270612336]}, "type": "Feature", "properties": {"collection_times": [{"days": "Mon-Fri", "time": "3:20pm"}, {"days": "Sat", "time": "12:30pm"}, {"days": "Sun", "time": "Closed"}], "id": "5831800004", "name": "USPS COLLECTION BOX - PO LOBBY", "address": {"city": "BOTTINEAU", "state": "ND", "street": "522 THOMPSON ST", "postcode": "58318"}}},
{"geometry": {"type": "Point", "coordinates": [-98.3544116402, 48.2131985868]}, "type": "Feature", "properties": {"collection_times": [{"days": "Mon-Fri", "time": "4:55pm"}, {"days": "Sat", "time": "3:55pm"}, {"days": "Sun", "time": "Closed"}], "id": "5832100001", "name": "USPS COLLECTION BOX - BLUE BOX", "address": {"city": "BROCKET", "state": "ND", "street": "211 MAIN ST E", "postcode": "58321"}}},
{"geometry": {"type": "Point", "coordinates": [-98.3544116402, 48.2131985868]}, "type": "Feature", "properties": {"collection_times": [{"days": "Mon-Fri", "time": "9:45am"}, {"days": "Sat", "time": "10:15am"}, {"days": "Sun", "time": "Closed"}], "id": "5832100002", "name": "USPS COLLECTION BOX - PO LOBBY", "address": {"city": "BROCKET", "state": "ND", "street": "211 MAIN ST E", "postcode": "58321"}}},
{"geometry": {"type": "Point", "coordinates": [-99.2035165625, 48.4908281185]}, "type": "Feature", "properties": {"collection_times": [{"days": "Mon-Sat", "time": "4:00pm"}, {"days": "Sun", "time": "Closed"}], "id": "5832400001", "name": "USPS COLLECTION BOX - BLUE BOX", "address": {"city": "CANDO", "state": "ND", "street": "403 5TH AVE", "postcode": "58324"}}},
{"geometry": {"type": "Point", "coordinates": [-99.2035165625, 48.4908281185]}, "type": "Feature", "properties": {"collection_times": [{"days": "Mon-Fri", "time": "4:00pm"}, {"days": "Sat-Sun", "time": "Closed"}], "id": "5832400002", "name": "USPS COLLECTION BOX - PO LOBBY", "address": {"city": "CANDO", "state": "ND", "street": "403 5TH AVE", "postcode": "58324"}}},
{"geometry": {"type": "Point", "coordinates": [-100.0595053825, 48.8130839021]}, "type": "Feature", "properties": {"collection_times": [{"days": "Mon-Sat", "time": "3:25pm"}, {"days": "Sun", "time": "Closed"}], "id": "5832900001", "name": "USPS COLLECTION BOX - BLUE BOX", "address": {"city": "DUNSEITH", "state": "ND", "street": "100 PEACE GARDEN AVE E", "postcode": "58329"}}},
{"geometry": {"type": "Point", "coordinates": [-100.0595053825, 48.8130839021]}, "type": "Feature", "properties": {"collection_times": [{"days": "Mon-Fri", "time": "3:25pm"}, {"days": "Sat", "time": "11:30am"}, {"days": "Sun", "time": "Closed"}], "id": "5832900002", "name": "USPS COLLECTION BOX - PO LOBBY", "address": {"city": "DUNSEITH", "state": "ND", "street": "100 PEACE GARDEN AVE E", "postcode": "58329"}}},
{"geometry": {"type": "Point", "coordinates": [-98.4543899664, 48.4103600866]}, "type": "Feature", "properties": {"collection_times": [{"days": "Mon-Fri", "time": "4:00pm"}, {"days": "Sat", "time": "3:20pm"}, {"days": "Sun", "time": "Closed"}], "id": "5833000001", "name": "USPS COLLECTION BOX - BLUE BOX", "address": {"city": "EDMORE", "state": "ND", "street": "315 S MAIN ST", "postcode": "58330"}}},
{"geometry": {"type": "Point", "coordinates": [-98.4543899664, 48.4103600866]}, "type": "Feature", "properties": {"collection_times": [{"days": "Mon-Fri", "time": "2:30pm"}, {"days": "Sat-Sun", "time": "Closed"}], "id": "5833000002", "name": "USPS COLLECTION BOX - PO LOBBY", "address": {"city": "EDMORE", "state": "ND", "street": "315 S MAIN ST", "postcode": "58330"}}},
{"geometry": {"type": "Point", "coordinates": [-99.0989424213, 48.6292707706]}, "type": "Feature", "properties": {"collection_times": [{"days": "Mon-Sat", "time": "4:35pm"}, {"days": "Sun", "time": "Closed"}], "id": "5833100001", "name": "USPS COLLECTION BOX - BLUE BOX", "address": {"city": "EGELAND", "state": "ND", "street": "123 MAIN ST", "postcode": "58331"}}},
{"geometry": {"type": "Point", "coordinates": [-99.0989424213, 48.6292707706]}, "type": "Feature", "properties": {"collection_times": [{"days": "Mon-Fri", "time": "11:15am"}, {"days": "Sat-Sun", "time": "Closed"}], "id": "5833100002", "name": "USPS COLLECTION BOX - PO LOBBY", "address": {"city": "EGELAND", "state": "ND", "street": "123 MAIN ST", "postcode": "58331"}}},
{"geometry": {"type": "Point", "coordinates": [-99.7632057327, 48.0344913942]}, "type": "Feature", "properties": {"collection_times": [{"days": "Mon-Sat", "time": "4:15pm"}, {"days": "Sun", "time": "Closed"}], "id": "5833200001", "name": "USPS COLLECTION BOX - BLUE BOX", "address": {"city": "ESMOND", "state": "ND", "street": "117 1ST AVE N", "postcode": "58332"}}},
{"geometry": {"type": "Point", "coordinates": [-99.7632057327, 48.0344913942]}, "type": "Feature", "properties": {"collection_times": [{"days": "Mon-Fri", "time": "1:00pm"}, {"days": "Sat", "time": "11:30am"}, {"days": "Sun", "time": "Closed"}], "id": "5833200002", "name": "USPS COLLECTION BOX - PO LOBBY", "address": {"city": "ESMOND", "state": "ND", "street": "117 1ST AVE N", "postcode": "58332"}}},
{"geometry": {"type": "Point", "coordinates": [-98.9949368862, 47.978148767]}, "type": "Feature", "properties": {"collection_times": [{"days": "Mon-Fri", "time": "4:15pm"}, {"days": "Sat", "time": "4:50pm"}, {"days": "Sun", "time": "Closed"}], "id": "5833500001", "name": "USPS COLLECTION BOX - BLUE BOX", "address": {"city": "FORT TOTTEN", "state": "ND", "street": "816 3RD AVE N", "postcode": "58335"}}},
{"geometry": {"type": "Point", "coordinates": [-98.9949368862, 47.978148767]}, "type": "Feature", "properties": {"collection_times": [{"days": "Mon-Fri", "time": "2:00pm"}, {"days": "Sat", "time": "10:30am"}, {"days": "Sun", "time": "Closed"}], "id": "5833500002", "name": "USPS COLLECTION BOX - PO LOBBY", "address": {"city": "FORT TOTTEN", "state": "ND", "street": "816 3RD AVE N", "postcode": "58335"}}},
{"geometry": {"type": "Point", "coordinates": [-98.6544450193, 48.54021765]}, "type": "Feature", "properties": {"collection_times": [{"days": "Mon-Sat", "time": "5:10pm"}, {"days": "Sun", "time": "Closed"}], "id": "5833800001", "name": "USPS COLLECTION BOX - BLUE BOX", "address": {"city": "HAMPDEN", "state": "ND", "street": "213 MAIN ST W", "postcode": "58338"}}},
{"geometry": {"type": "Point", "coordinates": [-98.6544450193, 48.54021765]}, "type": "Feature", "properties": {"collection_times": [{"days": "Mon-Fri", "time": "3:15pm"}, {"days": "Sat-Sun", "time": "Closed"}], "id": "5833800002", "name": "USPS COLLECTION BOX - PO LOBBY", "address": {"city": "HAMPDEN", "state": "ND", "street": "213 MAIN ST W", "postcode": "58338"}}},
{"geometry": {"type": "Point", "coordinates": [-99.9325533843, 47.7709858834]}, "type": "Feature", "properties": {"collection_times": [{"days": "Mon-Sat", "time": "3:35pm"}, {"days": "Sun", "time": "Closed"}], "id": "5834100003", "name": "USPS COLLECTION BOX - BLUE BOX", "address": {"city": "HARVEY", "state": "ND", "street": "708 ADAMS AVE", "postcode": "58341"}}},
{"geometry": {"type": "Point", "coordinates": [-99.9325533843, 47.7709858834]}, "type": "Feature", "properties": {"collection_times": [{"days": "Mon-Fri", "time": "3:35pm"}, {"days": "Sat", "time": "11:00am"}, {"days": "Sun", "time": "Closed"}], "id": "5834100004", "name": "USPS COLLECTION BOX - PO LOBBY", "address": {"city": "HARVEY", "state": "ND", "street": "708 ADAMS AVE", "postcode": "58341"}}},
{"geometry": {"type": "Point", "coordinates": [-98.344043848, 48.041532175]}, "type": "Feature", "properties": {"collection_times": [{"days": "Mon-Fri", "time": "5:15pm"}, {"days": "Sat", "time": "4:15pm"}, {"days": "Sun", "time": "Closed"}], "id": "5834400001", "name": "USPS COLLECTION BOX - BLUE BOX", "address": {"city": "LAKOTA", "state": "ND", "street": "209 MAIN ST N", "postcode": "58344"}}},
{"geometry": {"type": "Point", "coordinates": [-98.344043848, 48.041532175]}, "type": "Feature", "properties": {"collection_times": [{"days": "Mon-Fri", "time": "2:30pm"}, {"days": "Sat", "time": "10:00am"}, {"days": "Sun", "time": "Closed"}], "id": "5834400002", "name": "USPS COLLECTION BOX - PO LOBBY", "address": {"city": "LAKOTA", "state": "ND", "street": "209 MAIN ST N", "postcode": "58344"}}},
{"geometry": {"type": "Point", "coordinates": [-98.3681827483, 48.3025818002]}, "type": "Feature", "properties": {"collection_times": [{"days": "Mon-Fri", "time": "4:40pm"}, {"days": "Sat", "time": "3:40pm"}, {"days": "Sun", "time": "Closed"}], "id": "5834500001", "name": "USPS COLLECTION BOX - BLUE BOX", "address": {"city": "LAWTON", "state": "ND", "street": "123 MAIN ST", "postcode": "58345"}}},
{"geometry": {"type": "Point", "coordinates": [-98.3681827483, 48.3025818002]}, "type": "Feature", "properties": {"collection_times": [{"days": "Mon-Fri", "time": "3:30pm"}, {"days": "Sat-Sun", "time": "Closed"}], "id": "5834500002", "name": "USPS COLLECTION BOX - PO LOBBY", "address": {"city": "LAWTON", "state": "ND", "street": "123 MAIN ST", "postcode": "58345"}}},
{"geometry": {"type": "Point", "coordinates": [-99.4418479455, 48.289893649]}, "type": "Feature", "properties": {"collection_times": [{"days": "Mon-Fri", "time": "4:15pm"}, {"days": "Sat", "time": "4:10pm"}, {"days": "Sun", "time": "Closed"}], "id": "5834600001", "name": "USPS COLLECTION BOX - BLUE BOX", "address": {"city": "LEEDS", "state": "ND", "street": "150 MAIN ST W", "postcode": "58346"}}},
{"geometry": {"type": "Point", "coordinates": [-99.4418479455, 48.289893649]}, "type": "Feature", "properties": {"collection_times": [{"days": "Mon-Fri", "time": "2:30pm"}, {"days": "Sat", "time": "10:00am"}, {"days": "Sun", "time": "Closed"}], "id": "5834600002", "name": "USPS COLLECTION BOX - PO LOBBY", "address": {"city": "LEEDS", "state": "ND", "street": "150 MAIN ST W", "postcode": "58346"}}},
{"geometry": {"type": "Point", "coordinates": [-99.5301971354, 47.9615500995]}, "type": "Feature", "properties": {"collection_times": [{"days": "Mon-Fri", "time": "5:00pm"}, {"days": "Sat", "time": "4:50pm"}, {"days": "Sun", "time": "Closed"}], "id": "5834800001", "name": "USPS COLLECTION BOX - BLUE BOX", "address": {"city": "MADDOCK", "state": "ND", "street": "202 CENTRAL AVE", "postcode": "58348"}}},
{"geometry": {"type": "Point", "coordinates": [-99.5301971354, 47.9615500995]}, "type": "Feature", "properties": {"collection_times": [{"days": "Mon-Fri", "time": "2:30pm"}, {"days": "Sat", "time": "10:00am"}, {"days": "Sun", "time": "Closed"}], "id": "5834800002", "name": "USPS COLLECTION BOX - PO LOBBY", "address": {"city": "MADDOCK", "state": "ND", "street": "202 CENTRAL AVE", "postcode": "58348"}}},
{"geometry": {"type": "Point", "coordinates": [-99.2506409419, 48.0715823647]}, "type": "Feature", "properties": {"collection_times": [{"days": "Mon-Fri", "time": "4:30pm"}, {"days": "Sat", "time": "5:10pm"}, {"days": "Sun", "time": "Closed"}], "id": "5835100001", "name": "USPS COLLECTION BOX - BLUE BOX", "address": {"city": "MINNEWAUKAN", "state": "ND", "street": "151 MAIN ST E", "postcode": "58351"}}},
{"geometry": {"type": "Point", "coordinates": [-99.2506409419, 48.0715823647]}, "type": "Feature", "properties": {"collection_times": [{"days": "Mon-Fri", "time": "2:30pm"}, {"days": "Sat", "time": "10:00am"}, {"days": "Sun", "time": "Closed"}], "id": "5835100003", "name": "USPS COLLECTION BOX - PO LOBBY", "address": {"city": "MINNEWAUKAN", "state": "ND", "street": "151 MAIN ST E", "postcode": "58351"}}},
{"geometry": {"type": "Point", "coordinates": [-98.8350213473, 48.6712242561]}, "type": "Feature", "properties": {"collection_times": [{"days": "Mon-Sat", "time": "4:20pm"}, {"days": "Sun", "time": "Closed"}], "id": "5835200001", "name": "USPS COLLECTION BOX - BLUE BOX", "address": {"city": "MUNICH", "state": "ND", "street": "410 MAIN ST", "postcode": "58352"}}},
{"geometry": {"type": "Point", "coordinates": [-98.8350213473, 48.6712242561]}, "type": "Feature", "properties": {"collection_times": [{"days": "Mon-Fri", "time": "3:00pm"}, {"days": "Sat-Sun", "time": "Closed"}], "id": "5835200003", "name": "USPS COLLECTION BOX - PO LOBBY", "address": {"city": "MUNICH", "state": "ND", "street": "410 MAIN ST", "postcode": "58352"}}},
{"geometry": {"type": "Point", "coordinates": [-99.1379003176, 47.6811016796]}, "type": "Feature", "properties": {"collection_times": [{"days": "Mon-Fri", "time": "4:00pm"}, {"days": "Sat", "time": "3:00pm"}, {"days": "Sun", "time": "Closed"}], "id": "5835600001", "name": "USPS COLLECTION BOX - BLUE BOX", "address": {"city": "NEW ROCKFORD", "state": "ND", "street": "827 1ST AVE N", "postcode": "58356"}}},
{"geometry": {"type": "Point", "coordinates": [-99.1379003176, 47.6811016796]}, "type": "Feature", "properties": {"collection_times": [{"days": "Mon-Fri", "time": "4:00pm"}, {"days": "Sat", "time": "9:30am"}, {"days": "Sun", "time": "Closed"}], "id": "5835600002", "name": "USPS COLLECTION BOX - PO LOBBY", "address": {"city": "NEW ROCKFORD", "state": "ND", "street": "827 1ST AVE N", "postcode": "58356"}}},
{"geometry": {"type": "Point", "coordinates": [-99.2055999523, 47.9228301848]}, "type": "Feature", "properties": {"collection_times": [{"days": "Mon-Fri", "time": "5:00pm"}, {"days": "Sat", "time": "4:00pm"}, {"days": "Sun", "time": "Closed"}], "id": "5835700001", "name": "USPS COLLECTION BOX - BLUE BOX", "address": {"city": "OBERON", "state": "ND", "street": "110 MAIN AVE E", "postcode": "58357"}}},
{"geometry": {"type": "Point", "coordinates": [-99.2055999523, 47.9228301848]}, "type": "Feature", "properties": {"collection_times": [{"days": "Mon-Fri", "time": "4:45pm"}, {"days": "Sat", "time": "12:45pm"}, {"days": "Sun", "time": "Closed"}], "id": "5835700002", "name": "USPS COLLECTION BOX - PO LOBBY", "address": {"city": "OBERON", "state": "ND", "street": "110 MAIN AVE E", "postcode": "58357"}}},
{"geometry": {"type": "Point", "coordinates": [-98.3278349835, 47.7921773185]}, "type": "Feature", "properties": {"collection_times": [{"days": "Mon-Fri", "time": "1:45pm"}, {"days": "Sat", "time": "1:00pm"}, {"days": "Sun", "time": "Closed"}], "id": "5836100001", "name": "USPS COLLECTION BOX - BLUE BOX", "address": {"city": "PEKIN", "state": "ND", "street": "223 MAIN ST N", "postcode": "58361"}}},
{"geometry": {"type": "Point", "coordinates": [-98.3278349835, 47.7921773185]}, "type": "Feature", "properties": {"collection_times": [{"days": "Mon-Fri", "time": "1:45pm"}, {"days": "Sat", "time": "11:45am"}, {"days": "Sun", "time": "Closed"}], "id": "5836100002", "name": "USPS COLLECTION BOX - PO LOBBY", "address": {"city": "PEKIN", "state": "ND", "street": "223 MAIN ST N", "postcode": "58361"}}},
{"geometry": {"type": "Point", "coordinates": [-99.2495939508, 48.7911362575]}, "type": "Feature", "properties": {"collection_times": [{"days": "Mon-Sat", "time": "4:15pm"}, {"days": "Sun", "time": "Closed"}], "id": "5836500001", "name": "USPS COLLECTION BOX - BLUE BOX", "address": {"city": "ROCKLAKE", "state": "ND", "street": "44 MAIN ST", "postcode": "58365"}}},
{"geometry": {"type": "Point", "coordinates": [-99.2495939508, 48.7911362575]}, "type": "Feature", "properties": {"collection_times": [{"days": "Mon-Fri", "time": "12:00pm"}, {"days": "Sat", "time": "9:45am"}, {"days": "Sun", "time": "Closed"}], "id": "5836500003", "name": "USPS COLLECTION BOX - PO LOBBY", "address": {"city": "ROCKLAKE", "state": "ND", "street": "44 MAIN ST", "postcode": "58365"}}},
{"geometry": {"type": "Point", "coordinates": [-99.8449209073, 48.6619523206]}, "type": "Feature", "properties": {"collection_times": [{"days": "Mon-Sat", "time": "3:45pm"}, {"days": "Sun", "time": "Closed"}], "id": "5836600001", "name": "USPS COLLECTION BOX - BLUE BOX", "address": {"city": "ROLETTE", "state": "ND", "street": "201 MAIN ST", "postcode": "58366"}}},
{"geometry": {"type": "Point", "coordinates": [-99.8449209073, 48.6619523206]}, "type": "Feature", "properties": {"collection_times": [{"days": "Mon-Fri", "time": "2:30pm"}, {"days": "Sat", "time": "10:30am"}, {"days": "Sun", "time": "Closed"}], "id": "5836600002", "name": "USPS COLLECTION BOX - PO LOBBY", "address": {"city": "ROLETTE", "state": "ND", "street": "201 MAIN ST", "postcode": "58366"}}},
{"geometry": {"type": "Point", "coordinates": [-99.6141610274, 48.8582906105]}, "type": "Feature", "properties": {"collection_times": [{"days": "Mon-Sat", "time": "4:00pm"}, {"days": "Sun", "time": "Closed"}], "id": "5836700001", "name": "USPS COLLECTION BOX - BLUE BOX", "address": {"city": "ROLLA", "state": "ND", "street": "119 1ST AVE SE", "postcode": "58367"}}},
{"geometry": {"type": "Point", "coordinates": [-99.6141610274, 48.8582906105]}, "type": "Feature", "properties": {"collection_times": [{"days": "Mon-Fri", "time": "4:00pm"}, {"days": "Sat", "time": "11:00am"}, {"days": "Sun", "time": "Closed"}], "id": "5836700004", "name": "USPS COLLECTION BOX - PO LOBBY", "address": {"city": "ROLLA", "state": "ND", "street": "119 1ST AVE SE", "postcode": "58367"}}},
{"geometry": {"type": "Point", "coordinates": [-99.9943346885, 48.3686620715]}, "type": "Feature", "properties": {"collection_times": [{"days": "Mon-Sat", "time": "4:30pm"}, {"days": "Sun", "time": "Closed"}], "id": "5836800002", "name": "USPS COLLECTION BOX - BLUE BOX", "address": {"city": "RUGBY", "state": "ND", "street": "205 2ND ST SE", "postcode": "58368"}}},
{"geometry": {"type": "Point", "coordinates": [-99.9943777507, 48.368771717]}, "type": "Feature", "properties": {"collection_times": [{"days": "Mon-Sat", "time": "4:30pm"}, {"days": "Sun", "time": "Closed"}], "id": "5836800003", "name": "USPS COLLECTION BOX - BLUE BOX", "address": {"city": "RUGBY", "state": "ND", "street": "202 2ND ST SE", "postcode": "58368"}}},
{"geometry": {"type": "Point", "coordinates": [-99.9939828939, 48.3550879751]}, "type": "Feature", "properties": {"collection_times": [{"days": "Mon-Sat", "time": "2:00pm"}, {"days": "Sun", "time": "Closed"}], "id": "5836800004", "name": "USPS COLLECTION BOX - BLUE BOX", "address": {"city": "RUGBY", "state": "ND", "street": "209 HIGHWAY 2 SE", "postcode": "58368"}}},
{"geometry": {"type": "Point", "coordinates": [-99.9943346885, 48.3686620715]}, "type": "Feature", "properties": {"collection_times": [{"days": "Mon-Fri", "time": "4:30pm"}, {"days": "Sat", "time": "11:00am"}, {"days": "Sun", "time": "Closed"}], "id": "5836800005", "name": "USPS COLLECTION BOX - PO LOBBY", "address": {"city": "RUGBY", "state": "ND", "street": "205 2ND ST SE", "postcode": "58368"}}},
{"geometry": {"type": "Point", "coordinates": [-99.710009692, 48.9433660701]}, "type": "Feature", "properties": {"collection_times": [{"days": "Mon-Sat", "time": "3:30pm"}, {"days": "Sun", "time": "Closed"}], "id": "5836900001", "name": "USPS COLLECTION BOX - BLUE BOX", "address": {"city": "SAINT JOHN", "state": "ND", "street": "101 FOUSSARD AVE SE", "postcode": "58369"}}},
{"geometry": {"type": "Point", "coordinates": [-99.710009692, 48.9433660701]}, "type": "Feature", "properties": {"collection_times": [{"days": "Mon-Fri", "time": "3:20pm"}, {"days": "Sat", "time": "11:25am"}, {"days": "Sun", "time": "Closed"}], "id": "5836900002", "name": "USPS COLLECTION BOX - PO LOBBY", "address": {"city": "SAINT JOHN", "state": "ND", "street": "101 FOUSSARD AVE SE", "postcode": "58369"}}},
{"geometry": {"type": "Point", "coordinates": [-98.993557109, 48.9456728731]}, "type": "Feature", "properties": {"collection_times": [{"days": "Mon-Fri", "time": "4:00pm"}, {"days": "Sat", "time": "3:50pm"}, {"days": "Sun", "time": "Closed"}], "id": "5837200000", "name": "USPS COLLECTION BOX - BLUE BOX", "address": {"city": "SARLES", "state": "ND", "street": "301 MAIN ST", "postcode": "58372"}}},
{"geometry": {"type": "Point", "coordinates": [-98.993557109, 48.9456728731]}, "type": "Feature", "properties": {"collection_times": [{"days": "Mon-Fri", "time": "3:30pm"}, {"days": "Sat", "time": "11:00am"}, {"days": "Sun", "time": "Closed"}], "id": "5837200001", "name": "USPS COLLECTION BOX - PO LOBBY", "address": {"city": "SARLES", "state": "ND", "street": "301 MAIN ST", "postcode": "58372"}}},
{"geometry": {"type": "Point", "coordinates": [-99.1199532233, 47.8276140504]}, "type": "Feature", "properties": {"collection_times": [{"days": "Mon-Fri", "time": "4:30pm"}, {"days": "Sat", "time": "4:05pm"}, {"days": "Sun", "time": "Closed"}], "id": "5837400001", "name": "USPS COLLECTION BOX - BLUE BOX", "address": {"city": "SHEYENNE", "state": "ND", "street": "106 RICHTER AVE", "postcode": "58374"}}},
{"geometry": {"type": "Point", "coordinates": [-99.1199532233, 47.8276140504]}, "type": "Feature", "properties": {"collection_times": [{"days": "Mon-Fri", "time": "12:00pm"}, {"days": "Sat-Sun", "time": "Closed"}], "id": "5837400002", "name": "USPS COLLECTION BOX - PO LOBBY", "address": {"city": "SHEYENNE", "state": "ND", "street": "106 RICHTER AVE", "postcode": "58374"}}},
{"geometry": {"type": "Point", "coordinates": [-98.8786047523, 48.4516797753]}, "type": "Feature", "properties": {"collection_times": [{"days": "Mon-Fri", "time": "4:20pm"}, {"days": "Sat", "time": "5:35pm"}, {"days": "Sun", "time": "Closed"}], "id": "5837700001", "name": "USPS COLLECTION BOX - BLUE BOX", "address": {"city": "STARKWEATHER", "state": "ND", "street": "300 MAIN ST", "postcode": "58377"}}},
{"geometry": {"type": "Point", "coordinates": [-98.8786047523, 48.4516797753]}, "type": "Feature", "properties": {"collection_times": [{"days": "Mon-Fri", "time": "12:00pm"}, {"days": "Sat-Sun", "time": "Closed"}], "id": "5837700002", "name": "USPS COLLECTION BOX - PO LOBBY", "address": {"city": "STARKWEATHER", "state": "ND", "street": "300 MAIN ST", "postcode": "58377"}}},
{"geometry": {"type": "Point", "coordinates": [-98.8164337196, 47.9247556663]}, "type": "Feature", "properties": {"collection_times": [{"days": "Mon-Sat", "time": "4:50pm"}, {"days": "Sun", "time": "Closed"}], "id": "5837900001", "name": "USPS COLLECTION BOX - BLUE BOX", "address": {"city": "TOKIO", "state": "ND", "street": "413 3RD AVE", "postcode": "58379"}}},
{"geometry": {"type": "Point", "coordinates": [-98.8164337196, 47.9247556663]}, "type": "Feature", "properties": {"collection_times": [{"days": "Mon-Fri", "time": "9:50am"}, {"days": "Sat", "time": "10:10am"}, {"days": "Sun", "time": "Closed"}], "id": "5837900002", "name": "USPS COLLECTION BOX - PO LOBBY", "address": {"city": "TOKIO", "state": "ND", "street": "413 3RD AVE", "postcode": "58379"}}},
{"geometry": {"type": "Point", "coordinates": [-98.4400608552, 47.8251348017]}, "type": "Feature", "properties": {"collection_times": [{"days": "Mon-Fri", "time": "4:15pm"}, {"days": "Sat", "time": "4:00pm"}, {"days": "Sun", "time": "Closed"}], "id": "5838000001", "name": "USPS COLLECTION BOX - BLUE BOX", "address": {"city": "TOLNA", "state": "ND", "street": "105 MAIN ST N", "postcode": "58380"}}},
{"geometry": {"type": "Point", "coordinates": [-98.4400608552, 47.8251348017]}, "type": "Feature", "properties": {"collection_times": [{"days": "Mon-Fri", "time": "4:00pm"}, {"days": "Sat", "time": "9:30am"}, {"days": "Sun", "time": "Closed"}], "id": "5838000002", "name": "USPS COLLECTION BOX - PO LOBBY", "address": {"city": "TOLNA", "state": "ND", "street": "105 MAIN ST N", "postcode": "58380"}}},
{"geometry": {"type": "Point", "coordinates": [-98.5735208786, 47.8427769257]}, "type": "Feature", "properties": {"collection_times": [{"days": "Mon-Fri", "time": "4:40pm"}, {"days": "Sat", "time": "4:10pm"}, {"days": "Sun", "time": "Closed"}], "id": "5838000003", "name": "USPS COLLECTION BOX - BLUE BOX", "address": {"city": "TOLNA", "state": "ND", "street": "205 1ST ST", "postcode": "58380"}}},
{"geometry": {"type": "Point", "coordinates": [-100.2942978475, 48.6045596198]}, "type": "Feature", "properties": {"collection_times": [{"days": "Mon-Sat", "time": "3:50pm"}, {"days": "Sun", "time": "Closed"}], "id": "5838400001", "name": "USPS COLLECTION BOX - BLUE BOX", "address": {"city": "WILLOW CITY", "state": "ND", "street": "259 MAIN ST", "postcode": "58384"}}},
{"geometry": {"type": "Point", "coordinates": [-100.2942978475, 48.6045596198]}, "type": "Feature", "properties": {"collection_times": [{"days": "Mon-Fri", "time": "12:00pm"}, {"days": "Sat", "time": "9:45am"}, {"days": "Sun", "time": "Closed"}], "id": "5838400002", "name": "USPS COLLECTION BOX - PO LOBBY", "address": {"city": "WILLOW CITY", "state": "ND", "street": "259 MAIN ST", "postcode": "58384"}}},
{"geometry": {"type": "Point", "coordinates": [-99.7047152067, 48.4999820796]}, "type": "Feature", "properties": {"collection_times": [{"days": "Mon-Fri", "time": "3:30pm"}, {"days": "Sat", "time": "2:00pm"}, {"days": "Sun", "time": "Closed"}], "id": "5838500001", "name": "USPS COLLECTION BOX - BLUE BOX", "address": {"city": "WOLFORD", "state": "ND", "street": "201 3RD AVE N", "postcode": "58385"}}},
{"geometry": {"type": "Point", "coordinates": [-99.7047152067, 48.4999820796]}, "type": "Feature", "properties": {"collection_times": [{"days": "Mon-Fri", "time": "1:00pm"}, {"days": "Sat-Sun", "time": "Closed"}], "id": "5838500002", "name": "USPS COLLECTION BOX - PO LOBBY", "address": {"city": "WOLFORD", "state": "ND", "street": "201 3RD AVE N", "postcode": "58385"}}}
]}
