{"type": "FeatureCollection", "features": [
{"geometry": {"type": "Point", "coordinates": [-98.7066765693, 46.904023396]}, "type": "Feature", "properties": {"collection_times": [{"days": "Mon-Fri", "time": "4:30pm"}, {"days": "Sat", "time": "1:00pm"}, {"days": "Sun", "time": "Closed"}], "id": "5840100001", "name": "USPS COLLECTION BOX - BLUE BOX", "address": {"city": "JAMESTOWN", "state": "ND", "street": "511 2ND AVE SE", "postcode": "58401"}}},
{"geometry": {"type": "Point", "coordinates": [-98.7084103928, 46.9076025045]}, "type": "Feature", "properties": {"collection_times": [{"days": "Mon-Fri", "time": "4:45pm"}, {"days": "Sat", "time": "1:00pm"}, {"days": "Sun", "time": "Closed"}], "id": "5840100007", "name": "USPS COLLECTION BOX - BLUE BOX", "address": {"city": "JAMESTOWN", "state": "ND", "street": "100 2ND ST SE", "postcode": "58401"}}},
{"geometry": {"type": "Point", "coordinates": [-98.7034115492, 46.8989736962]}, "type": "Feature", "properties": {"collection_times": [{"days": "Mon-Fri", "time": "5:00pm"}, {"days": "Sat", "time": "1:00pm"}, {"days": "Sun", "time": "Closed"}], "id": "5840100009", "name": "USPS COLLECTION BOX - BLUE BOX", "address": {"city": "JAMESTOWN", "state": "ND", "street": "410 10TH ST SE", "postcode": "58401"}}},
{"geometry": {"type": "Point", "coordinates": [-98.707080761, 46.911490475]}, "type": "Feature", "properties": {"collection_times": [{"days": "Mon-Fri", "time": "4:45pm"}, {"days": "Sat", "time": "1:00pm"}, {"days": "Sun", "time": "Closed"}], "id": "5840100010", "name": "USPS COLLECTION BOX - BLUE BOX", "address": {"city": "JAMESTOWN", "state": "ND", "street": "300 2ND AVE NE", "postcode": "58401"}}},
{"geometry": {"type": "Point", "coordinates": [-98.6999136017, 46.9142546959]}, "type": "Feature", "properties": {"collection_times": [{"days": "Mon-Fri", "time": "4:45pm"}, {"days": "Sat-Sun", "time": "Closed"}], "id": "5840100011", "name": "USPS COLLECTION BOX - BLUE BOX", "address": {"city": "JAMESTOWN", "state": "ND", "street": "6801 COLLEGE LN", "postcode": "58401"}}},
{"geometry": {"type": "Point", "coordinates": [-98.694980923, 46.920897388]}, "type": "Feature", "properties": {"collection_times": [{"days": "Mon-Sat", "time": "10:00am"}, {"days": "Sun", "time": "Closed"}], "id": "5840100012", "name": "USPS COLLECTION BOX - BLUE BOX", "address": {"city": "JAMESTOWN", "state": "ND", "street": "1003 13TH ST NE", "postcode": "58401"}}},
{"geometry": {"type": "Point", "coordinates": [-98.7186408404, 46.8783284208]}, "type": "Feature", "properties": {"collection_times": [{"days": "Mon-Fri", "time": "4:15pm"}, {"days": "Sat", "time": "12:45pm"}, {"days": "Sun", "time": "Closed"}], "id": "5840100013", "name": "USPS COLLECTION BOX - BLUE BOX", "address": {"city": "JAMESTOWN", "state": "ND", "street": "2400 8TH AVE SW", "postcode": "58401"}}},
{"geometry": {"type": "Point", "coordinates": [-98.6913843217, 46.8966680531]}, "type": "Feature", "properties": {"collection_times": [{"days": "Mon-Sat", "time": "11:45am"}, {"days": "Sun", "time": "Closed"}], "id": "5840100018", "name": "USPS COLLECTION BOX - BLUE BOX", "address": {"city": "JAMESTOWN", "state": "ND", "street": "1219 BUSINESS LOOP E", "postcode": "58401"}}},
{"geometry": {"type": "Point", "coordinates": [-98.7101786595, 46.9076635229]}, "type": "Feature", "properties": {"collection_times": [{"days": "Mon-Fri", "time": "5:30pm"}, {"days": "Sat", "time": "1:15pm"}, {"days": "Sun", "time": "Closed"}], "id": "5840100028", "name": "USPS COLLECTION BOX - PO LOBBY", "address": {"city": "JAMESTOWN", "state": "ND", "street": "212 2ND ST SW", "postcode": "58401"}}},
{"geometry": {"type": "Point", "coordinates": [-98.7084824703, 46.9061810373]}, "type": "Feature", "properties": {"collection_times": [{"days": "Mon-Fri", "time": "5:00pm"}, {"days": "Sat", "time": "1:15pm"}, {"days": "Sun", "time": "Closed"}], "id": "5840100029", "name": "USPS COLLECTION BOX - BLUE BOX", "address": {"city": "JAMESTOWN", "state": "ND", "street": "310 1ST AVE S", "postcode": "58401"}}},
{"geometry": {"type": "Point", "coordinates": [-98.7101786595, 46.9076635229]}, "type": "Feature", "properties": {"collection_times": [{"days": "Mon-Fri", "time": "5:30pm"}, {"days": "Sat", "time": "1:15pm"}, {"days": "Sun", "time": "Closed"}], "id": "5840100031", "name": "USPS COLLECTION BOX - BLUE BOX", "address": {"city": "JAMESTOWN", "state": "ND", "street": "212 2ND ST SW", "postcode": "58401"}}},
{"geometry": {"type": "Point", "coordinates": [-98.7101786595, 46.9076635229]}, "type": "Feature", "properties": {"collection_times": [{"days": "Mon-Fri", "time": "5:30pm"}, {"days": "Sat", "time": "1:15pm"}, {"days": "Sun", "time": "Closed"}], "id": "5840100032", "name": "USPS COLLECTION BOX - BLUE BOX", "address": {"city": "JAMESTOWN", "state": "ND", "street": "212 2ND ST SW", "postcode": "58401"}}},
{"geometry": {"type": "Point", "coordinates": [-98.7101786595, 46.9076635229]}, "type": "Feature", "properties": {"collection_times": [{"days": "Mon-Fri", "time": "5:30pm"}, {"days": "Sat", "time": "1:15pm"}, {"days": "Sun", "time": "Closed"}], "id": "5840100033", "name": "USPS COLLECTION BOX - BLUE BOX", "address": {"city": "JAMESTOWN", "state": "ND", "street": "212 2ND ST SW", "postcode": "58401"}}},
{"geometry": {"type": "Point", "coordinates": [-98.7101786595, 46.9076635229]}, "type": "Feature", "properties": {"collection_times": [{"days": "Mon-Fri", "time": "5:30pm"}, {"days": "Sat", "time": "1:15pm"}, {"days": "Sun", "time": "Closed"}], "id": "5840100037", "name": "USPS COLLECTION BOX - BLUE BOX", "address": {"city": "JAMESTOWN", "state": "ND", "street": "212 2ND ST SW", "postcode": "58401"}}},
{"geometry": {"type": "Point", "coordinates": [-99.3700547298, 46.0344679105]}, "type": "Feature", "properties": {"collection_times": [{"days": "Mon-Sat", "time": "2:15pm"}, {"days": "Sun", "time": "Closed"}], "id": "5841300001", "name": "USPS COLLECTION BOX - BLUE BOX", "address": {"city": "ASHLEY", "state": "ND", "street": "110 E MAIN ST", "postcode": "58413"}}},
{"geometry": {"type": "Point", "coordinates": [-99.3700547298, 46.0344679105]}, "type": "Feature", "properties": {"collection_times": [{"days": "Mon-Fri", "time": "2:15pm"}, {"days": "Sat-Sun", "time": "Closed"}], "id": "5841300002", "name": "USPS COLLECTION BOX - PO LOBBY", "address": {"city": "ASHLEY", "state": "ND", "street": "110 E MAIN ST", "postcode": "58413"}}},
{"geometry": {"type": "Point", "coordinates": [-98.3478165403, 47.5585256058]}, "type": "Feature", "properties": {"collection_times": [{"days": "Mon-Fri", "time": "3:45pm"}, {"days": "Sat", "time": "3:15pm"}, {"days": "Sun", "time": "Closed"}], "id": "5841600001", "name": "USPS COLLECTION BOX - BLUE BOX", "address": {"city": "BINFORD", "state": "ND", "street": "215 WHINERY ST", "postcode": "58416"}}},
{"geometry": {"type": "Point", "coordinates": [-98.3478165403, 47.5585256058]}, "type": "Feature", "properties": {"collection_times": [{"days": "Mon-Fri", "time": "11:50am"}, {"days": "Sat-Sun", "time": "Closed"}], "id": "5841600002", "name": "USPS COLLECTION BOX - PO LOBBY", "address": {"city": "BINFORD", "state": "ND", "street": "215 WHINERY ST", "postcode": "58416"}}},
{"geometry": {"type": "Point", "coordinates": [-99.7075840573, 47.4699709672]}, "type": "Feature", "properties": {"collection_times": [{"days": "Mon-Sat", "time": "3:15pm"}, {"days": "Sun", "time": "Closed"}], "id": "5841800001", "name": "USPS COLLECTION BOX - BLUE BOX", "address": {"city": "BOWDON", "state": "ND", "street": "212 WARRINGTON AVE", "postcode": "58418"}}},
{"geometry": {"type": "Point", "coordinates": [-99.7075840573, 47.4699709672]}, "type": "Feature", "properties": {"collection_times": [{"days": "Mon-Fri", "time": "11:30am"}, {"days": "Sat-Sun", "time": "Closed"}], "id": "5841800002", "name": "USPS COLLECTION BOX - PO LOBBY", "address": {"city": "BOWDON", "state": "ND", "street": "212 WARRINGTON AVE", "postcode": "58418"}}},
{"geometry": {"type": "Point", "coordinates": [-98.8286961365, 47.0624023164]}, "type": "Feature", "properties": {"collection_times": [{"days": "Mon-Sat", "time": "4:00pm"}, {"days": "Sun", "time": "Closed"}], "id": "5842000001", "name": "USPS COLLECTION BOX - BLUE BOX", "address": {"city": "BUCHANAN", "state": "ND", "street": "301 MAIN ST", "postcode": "58420"}}},
{"geometry": {"type": "Point", "coordinates": [-98.8286961365, 47.0624023164]}, "type": "Feature", "properties": {"collection_times": [{"days": "Mon-Fri", "time": "10:20am"}, {"days": "Sat-Sun", "time": "Closed"}], "id": "5842000002", "name": "USPS COLLECTION BOX - PO LOBBY", "address": {"city": "BUCHANAN", "state": "ND", "street": "301 MAIN ST", "postcode": "58420"}}},
{"geometry": {"type": "Point", "coordinates": [-99.124916007, 47.4503986705]}, "type": "Feature", "properties": {"collection_times": [{"days": "Mon-Sat", "time": "4:15pm"}, {"days": "Sun", "time": "Closed"}], "id": "5842100011", "name": "USPS COLLECTION BOX - BLUE BOX", "address": {"city": "CARRINGTON", "state": "ND", "street": "87 9TH AVE N", "postcode": "58421"}}},
{"geometry": {"type": "Point", "coordinates": [-99.124916007, 47.4503986705]}, "type": "Feature", "properties": {"collection_times": [{"days": "Mon-Sat", "time": "4:15pm"}, {"days": "Sun", "time": "Closed"}], "id": "5842100012", "name": "USPS COLLECTION BOX - BLUE BOX", "address": {"city": "CARRINGTON", "state": "ND", "street": "87 9TH AVE N", "postcode": "58421"}}},
{"geometry": {"type": "Point", "coordinates": [-99.124916007, 47.4503986705]}, "type": "Feature", "properties": {"collection_times": [{"days": "Mon-Fri", "time": "4:15pm"}, {"days": "Sat-Sun", "time": "Closed"}], "id": "5842100013", "name": "USPS COLLECTION BOX - PO LOBBY", "address": {"city": "CARRINGTON", "state": "ND", "street": "87 9TH AVE N", "postcode": "58421"}}},
{"geometry": {"type": "Point", "coordinates": [-99.1210550518, 46.8905049709]}, "type": "Feature", "properties": {"collection_times": [{"days": "Mon-Sat", "time": "3:00pm"}, {"days": "Sun", "time": "Closed"}], "id": "5842400000", "name": "USPS COLLECTION BOX - BLUE BOX", "address": {"city": "CLEVELAND", "state": "ND", "street": "420 5TH AVE N", "postcode": "58424"}}},
{"geometry": {"type": "Point", "coordinates": [-99.1210550518, 46.8905049709]}, "type": "Feature", "properties": {"collection_times": [{"days": "Mon-Fri", "time": "11:20am"}, {"days": "Sat-Sun", "time": "Closed"}], "id": "5842400001", "name": "USPS COLLECTION BOX - PO LOBBY", "address": {"city": "CLEVELAND", "state": "ND", "street": "420 5TH AVE N", "postcode": "58424"}}},
{"geometry": {"type": "Point", "coordinates": [-98.1254362144, 47.4446783312]}, "type": "Feature", "properties": {"collection_times": [{"days": "Mon-Sat", "time": "4:15pm"}, {"days": "Sun", "time": "Closed"}], "id": "5842500003", "name": "USPS COLLECTION BOX - BLUE BOX", "address": {"city": "COOPERSTOWN", "state": "ND", "street": "608 8TH ST NW", "postcode": "58425"}}},
{"geometry": {"type": "Point", "coordinates": [-98.1254362144, 47.4446783312]}, "type": "Feature", "properties": {"collection_times": [{"days": "Mon-Fri", "time": "4:15pm"}, {"days": "Sat-Sun", "time": "Closed"}], "id": "5842500005", "name": "USPS COLLECTION BOX - PO LOBBY", "address": {"city": "COOPERSTOWN", "state": "ND", "street": "608 8TH ST NW", "postcode": "58425"}}},
{"geometry": {"type": "Point", "coordinates": [-99.7639211456, 46.8067342568]}, "type": "Feature", "properties": {"collection_times": [{"days": "Mon-Sat", "time": "2:30pm"}, {"days": "Sun", "time": "Closed"}], "id": "5842800001", "name": "USPS COLLECTION BOX - BLUE BOX", "address": {"city": "DAWSON", "state": "ND", "street": "118 HIGHWAY 3 S", "postcode": "58428"}}},
{"geometry": {"type": "Point", "coordinates": [-99.7639211456, 46.8067342568]}, "type": "Feature", "properties": {"collection_times": [{"days": "Mon-Fri", "time": "11:50am"}, {"days": "Sat-Sun", "time": "Closed"}], "id": "5842800002", "name": "USPS COLLECTION BOX - PO LOBBY", "address": {"city": "DAWSON", "state": "ND", "street": "118 HIGHWAY 3 S", "postcode": "58428"}}},
{"geometry": {"type": "Point", "coordinates": [-98.2044505207, 47.1906092158]}, "type": "Feature", "properties": {"collection_times": [{"days": "Mon-Fri", "time": "3:25pm"}, {"days": "Sat", "time": "3:30pm"}, {"days": "Sun", "time": "Closed"}], "id": "5842900001", "name": "USPS COLLECTION BOX - BLUE BOX", "address": {"city": "DAZEY", "state": "ND", "street": "411 4TH AVE", "postcode": "58429"}}},
{"geometry": {"type": "Point", "coordinates": [-98.2044505207, 47.1906092158]}, "type": "Feature", "properties": {"collection_times": [{"days": "Mon-Fri", "time": "3:25pm"}, {"days": "Sat-Sun", "time": "Closed"}], "id": "5842900002", "name": "USPS COLLECTION BOX - PO LOBBY", "address": {"city": "DAZEY", "state": "ND", "street": "411 4TH AVE", "postcode": "58429"}}},
{"geometry": {"type": "Point", "coordinates": [-98.7114003233, 46.3600345229]}, "type": "Feature", "properties": {"collection_times": [{"days": "Mon-Sat", "time": "4:10pm"}, {"days": "Sun", "time": "Closed"}], "id": "5843300002", "name": "USPS COLLECTION BOX - BLUE BOX", "address": {"city": "EDGELEY", "state": "ND", "street": "511 MAIN ST", "postcode": "58433"}}},
{"geometry": {"type": "Point", "coordinates": [-98.7114003233, 46.3600345229]}, "type": "Feature", "properties": {"collection_times": [{"days": "Mon-Fri", "time": "4:10pm"}, {"days": "Sat", "time": "10:00am"}, {"days": "Sun", "time": "Closed"}], "id": "5843300003", "name": "USPS COLLECTION BOX - PO LOBBY", "address": {"city": "EDGELEY", "state": "ND", "street": "511 MAIN ST", "postcode": "58433"}}},
{"geometry": {"type": "Point", "coordinates": [-98.5257200788, 46.002625434]}, "type": "Feature", "properties": {"collection_times": [{"days": "Mon-Sat", "time": "3:30pm"}, {"days": "Sun", "time": "Closed"}], "id": "5843600001", "name": "USPS COLLECTION BOX - BLUE BOX", "address": {"city": "ELLENDALE", "state": "ND", "street": "111 1ST ST N", "postcode": "58436"}}},
{"geometry": {"type": "Point", "coordinates": [-98.5257200788, 46.002625434]}, "type": "Feature", "properties": {"collection_times": [{"days": "Mon-Fri", "time": "3:30pm"}, {"days": "Sat-Sun", "time": "Closed"}], "id": "5843600002", "name": "USPS COLLECTION BOX - PO LOBBY", "address": {"city": "ELLENDALE", "state": "ND", "street": "111 1ST ST N", "postcode": "58436"}}},
{"geometry": {"type": "Point", "coordinates": [-99.6299026227, 47.6482929928]}, "type": "Feature", "properties": {"collection_times": [{"days": "Mon-Sat", "time": "2:50pm"}, {"days": "Sun", "time": "Closed"}], "id": "5843800001", "name": "USPS COLLECTION BOX - BLUE BOX", "address": {"city": "FESSENDEN", "state": "ND", "street": "82 MAIN AVE S", "postcode": "58438"}}},
{"geometry": {"type": "Point", "coordinates": [-99.6299026227, 47.6482929928]}, "type": "Feature", "properties": {"collection_times": [{"days": "Mon-Fri", "time": "2:50pm"}, {"days": "Sat-Sun", "time": "Closed"}], "id": "5843800002", "name": "USPS COLLECTION BOX - PO LOBBY", "address": {"city": "FESSENDEN", "state": "ND", "street": "82 MAIN AVE S", "postcode": "58438"}}},
{"geometry": {"type": "Point", "coordinates": [-98.7824817396, 45.938980889]}, "type": "Feature", "properties": {"collection_times": [{"days": "Mon-Fri", "time": "1:20pm"}, {"days": "Sat", "time": "2:00pm"}, {"days": "Sun", "time": "Closed"}], "id": "5843900001", "name": "USPS COLLECTION BOX - BLUE BOX", "address": {"city": "FORBES", "state": "ND", "street": "2 N MAIN ST", "postcode": "58439"}}},
{"geometry": {"type": "Point", "coordinates": [-98.7824817396, 45.938980889]}, "type": "Feature", "properties": {"collection_times": [{"days": "Mon-Fri", "time": "11:45am"}, {"days": "Sat-Sun", "time": "Closed"}], "id": "5843900002", "name": "USPS COLLECTION BOX - PO LOBBY", "address": {"city": "FORBES", "state": "ND", "street": "2 N MAIN ST", "postcode": "58439"}}},
{"geometry": {"type": "Point", "coordinates": [-98.4270199985, 46.1636879385]}, "type": "Feature", "properties": {"collection_times": [{"days": "Mon-Fri", "time": "1:50pm"}, {"days": "Sat", "time": "4:10pm"}, {"days": "Sun", "time": "Closed"}], "id": "5844100001", "name": "USPS COLLECTION BOX - BLUE BOX", "address": {"city": "FULLERTON", "state": "ND", "street": "109 N MONROE ST", "postcode": "58441"}}},
{"geometry": {"type": "Point", "coordinates": [-98.4270199985, 46.1636879385]}, "type": "Feature", "properties": {"collection_times": [{"days": "Mon-Fri", "time": "12:50pm"}, {"days": "Sat-Sun", "time": "Closed"}], "id": "5844100002", "name": "USPS COLLECTION BOX - PO LOBBY", "address": {"city": "FULLERTON", "state": "ND", "street": "109 N MONROE ST", "postcode": "58441"}}},
{"geometry": {"type": "Point", "coordinates": [-99.1425150868, 46.628564934]}, "type": "Feature", "properties": {"collection_times": [{"days": "Mon-Sat", "time": "4:05pm"}, {"days": "Sun", "time": "Closed"}], "id": "5844200001", "name": "USPS COLLECTION BOX - BLUE BOX", "address": {"city": "GACKLE", "state": "ND", "street": "202 MAIN ST", "postcode": "58442"}}},
{"geometry": {"type": "Point", "coordinates": [-99.1425150868, 46.628564934]}, "type": "Feature", "properties": {"collection_times": [{"days": "Mon-Fri", "time": "3:00pm"}, {"days": "Sat-Sun", "time": "Closed"}], "id": "5844200002", "name": "USPS COLLECTION BOX - PO LOBBY", "address": {"city": "GACKLE", "state": "ND", "street": "202 MAIN ST", "postcode": "58442"}}},
{"geometry": {"type": "Point", "coordinates": [-98.56607147, 47.45472027]}, "type": "Feature", "properties": {"collection_times": [{"days": "Mon-Sat", "time": "3:15pm"}, {"days": "Sun", "time": "Closed"}], "id": "5844300001", "name": "USPS COLLECTION BOX - BLUE BOX", "address": {"city": "GLENFIELD", "state": "ND", "street": "161 GLENFIELD ST", "postcode": "58443"}}},
{"geometry": {"type": "Point", "coordinates": [-98.56607147, 47.45472027]}, "type": "Feature", "properties": {"collection_times": [{"days": "Mon-Fri", "time": "11:30am"}, {"days": "Sat-Sun", "time": "Closed"}], "id": "5844300002", "name": "USPS COLLECTION BOX - PO LOBBY", "address": {"city": "GLENFIELD", "state": "ND", "street": "161 GLENFIELD ST", "postcode": "58443"}}},
{"geometry": {"type": "Point", "coordinates": [-100.1230075062, 47.4777262629]}, "type": "Feature", "properties": {"collection_times": [{"days": "Mon-Sat", "time": "2:35pm"}, {"days": "Sun", "time": "Closed"}], "id": "5844400001", "name": "USPS COLLECTION BOX - BLUE BOX", "address": {"city": "GOODRICH", "state": "ND", "street": "204 CLARK AVE", "postcode": "58444"}}},
{"geometry": {"type": "Point", "coordinates": [-100.1230075062, 47.4777262629]}, "type": "Feature", "properties": {"collection_times": [{"days": "Mon-Fri", "time": "12:00pm"}, {"days": "Sat-Sun", "time": "Closed"}], "id": "5844400002", "name": "USPS COLLECTION BOX - PO LOBBY", "address": {"city": "GOODRICH", "state": "ND", "street": "204 CLARK AVE", "postcode": "58444"}}},
{"geometry": {"type": "Point", "coordinates": [-98.8274078631, 47.5568291794]}, "type": "Feature", "properties": {"collection_times": [{"days": "Mon-Sat", "time": "1:50pm"}, {"days": "Sun", "time": "Closed"}], "id": "5844500001", "name": "USPS COLLECTION BOX - BLUE BOX", "address": {"city": "GRACE CITY", "state": "ND", "street": "128 CITY ST", "postcode": "58445"}}},
{"geometry": {"type": "Point", "coordinates": [-98.8274078631, 47.5568291794]}, "type": "Feature", "properties": {"collection_times": [{"days": "Mon-Fri", "time": "11:50am"}, {"days": "Sat-Sun", "time": "Closed"}], "id": "5844500002", "name": "USPS COLLECTION BOX - PO LOBBY", "address": {"city": "GRACE CITY", "state": "ND", "street": "128 CITY ST", "postcode": "58445"}}},
{"geometry": {"type": "Point", "coordinates": [-98.1919152053, 47.3133373373]}, "type": "Feature", "properties": {"collection_times": [{"days": "Mon-Fri", "time": "4:00pm"}, {"days": "Sat", "time": "3:40pm"}, {"days": "Sun", "time": "Closed"}], "id": "5844800001", "name": "USPS COLLECTION BOX - BLUE BOX", "address": {"city": "HANNAFORD", "state": "ND", "street": "286 BRIDGE AVE", "postcode": "58448"}}},
{"geometry": {"type": "Point", "coordinates": [-98.1919152053, 47.3133373373]}, "type": "Feature", "properties": {"collection_times": [{"days": "Mon-Fri", "time": "1:00pm"}, {"days": "Sat-Sun", "time": "Closed"}], "id": "5844800002", "name": "USPS COLLECTION BOX - PO LOBBY", "address": {"city": "HANNAFORD", "state": "ND", "street": "286 BRIDGE AVE", "postcode": "58448"}}},
{"geometry": {"type": "Point", "coordinates": [-99.9265138717, 47.4480673973]}, "type": "Feature", "properties": {"collection_times": [{"days": "Mon-Sat", "time": "2:55pm"}, {"days": "Sun", "time": "Closed"}], "id": "5845100001", "name": "USPS COLLECTION BOX - BLUE BOX", "address": {"city": "HURDSFIELD", "state": "ND", "street": "103 MAIN ST W", "postcode": "58451"}}},
{"geometry": {"type": "Point", "coordinates": [-99.9265138717, 47.4480673973]}, "type": "Feature", "properties": {"collection_times": [{"days": "Mon-Fri", "time": "2:55pm"}, {"days": "Sat-Sun", "time": "Closed"}], "id": "5845100002", "name": "USPS COLLECTION BOX - PO LOBBY", "address": {"city": "HURDSFIELD", "state": "ND", "street": "103 MAIN ST W", "postcode": "58451"}}},
{"geometry": {"type": "Point", "coordinates": [-98.896929187, 46.5250713322]}, "type": "Feature", "properties": {"collection_times": [{"days": "Mon-Sat", "time": "3:50pm"}, {"days": "Sun", "time": "Closed"}], "id": "5845400001", "name": "USPS COLLECTION BOX - BLUE BOX", "address": {"city": "JUD", "state": "ND", "street": "524 LOGIE ST", "postcode": "58454"}}},
{"geometry": {"type": "Point", "coordinates": [-98.896929187, 46.5250713322]}, "type": "Feature", "properties": {"collection_times": [{"days": "Mon-Fri", "time": "12:30pm"}, {"days": "Sat-Sun", "time": "Closed"}], "id": "5845400002", "name": "USPS COLLECTION BOX - PO LOBBY", "address": {"city": "JUD", "state": "ND", "street": "524 LOGIE ST", "postcode": "58454"}}},
{"geometry": {"type": "Point", "coordinates": [-98.7331535871, 47.3009129161]}, "type": "Feature", "properties": {"collection_times": [{"days": "Mon-Sat", "time": "2:20pm"}, {"days": "Sun", "time": "Closed"}], "id": "5845500001", "name": "USPS COLLECTION BOX - BLUE BOX", "address": {"city": "KENSAL", "state": "ND", "street": "402 MAIN", "postcode": "58455"}}},
{"geometry": {"type": "Point", "coordinates": [-98.7331535871, 47.3009129161]}, "type": "Feature", "properties": {"collection_times": [{"days": "Mon-Fri", "time": "3:45pm"}, {"days": "Sat-Sun", "time": "Closed"}], "id": "5845500002", "name": "USPS COLLECTION BOX - PO LOBBY", "address": {"city": "KENSAL", "state": "ND", "street": "402 MAIN", "postcode": "58455"}}},
{"geometry": {"type": "Point", "coordinates": [-98.9488579647, 46.3034259428]}, "type": "Feature", "properties": {"collection_times": [{"days": "Mon-Sat", "time": "3:45pm"}, {"days": "Sun", "time": "Closed"}], "id": "5845600001", "name": "USPS COLLECTION BOX - BLUE BOX", "address": {"city": "KULM", "state": "ND", "street": "11 MAIN AVE S", "postcode": "58456"}}},
{"geometry": {"type": "Point", "coordinates": [-98.9488579647, 46.3034259428]}, "type": "Feature", "properties": {"collection_times": [{"days": "Mon-Fri", "time": "3:00pm"}, {"days": "Sat-Sun", "time": "Closed"}], "id": "5845600002", "name": "USPS COLLECTION BOX - PO LOBBY", "address": {"city": "KULM", "state": "ND", "street": "11 MAIN AVE S", "postcode": "58456"}}},
{"geometry": {"type": "Point", "coordinates": [-98.9504585595, 46.3044827351]}, "type": "Feature", "properties": {"collection_times": [{"days": "Mon-Sat", "time": "3:25pm"}, {"days": "Sun", "time": "Closed"}], "id": "5845600003", "name": "USPS COLLECTION BOX - BLUE BOX", "address": {"city": "KULM", "state": "ND", "street": "106 RAILROAD ST E", "postcode": "58456"}}},
{"geometry": {"type": "Point", "coordinates": [-98.2941467093, 46.3581542366]}, "type": "Feature", "properties": {"collection_times": [{"days": "Mon-Fri", "time": "4:00pm"}, {"days": "Sat", "time": "3:00pm"}, {"days": "Sun", "time": "Closed"}], "id": "5845800001", "name": "USPS COLLECTION BOX - BLUE BOX", "address": {"city": "LAMOURE", "state": "ND", "street": "23 CENTER AVE E", "postcode": "58458"}}},
{"geometry": {"type": "Point", "coordinates": [-98.2941467093, 46.3581542366]}, "type": "Feature", "properties": {"collection_times": [{"days": "Mon-Fri", "time": "4:00pm"}, {"days": "Sat-Sun", "time": "Closed"}], "id": "5845800002", "name": "USPS COLLECTION BOX - PO LOBBY", "address": {"city": "LAMOURE", "state": "ND", "street": "23 CENTER AVE E", "postcode": "58458"}}},
{"geometry": {"type": "Point", "coordinates": [-98.2922072626, 46.3637368114]}, "type": "Feature", "properties": {"collection_times": [{"days": "Mon-Sat", "time": "10:30am"}, {"days": "Sun", "time": "Closed"}], "id": "5845800003", "name": "USPS COLLECTION BOX - BLUE BOX", "address": {"city": "LAMOURE", "state": "ND", "street": "304 N MAIN ST", "postcode": "58458"}}},
{"geometry": {"type": "Point", "coordinates": [-99.3531047136, 46.2807529091]}, "type": "Feature", "properties": {"collection_times": [{"days": "Mon-Sat", "time": "3:05pm"}, {"days": "Sun", "time": "Closed"}], "id": "5846000001", "name": "USPS COLLECTION BOX - BLUE BOX", "address": {"city": "LEHR", "state": "ND", "street": "200 MAIN ST S", "postcode": "58460"}}},
{"geometry": {"type": "Point", "coordinates": [-99.3531047136, 46.2807529091]}, "type": "Feature", "properties": {"collection_times": [{"days": "Mon-Fri", "time": "3:05pm"}, {"days": "Sat-Sun", "time": "Closed"}], "id": "5846000002", "name": "USPS COLLECTION BOX - PO LOBBY", "address": {"city": "LEHR", "state": "ND", "street": "200 MAIN ST S", "postcode": "58460"}}},
{"geometry": {"type": "Point", "coordinates": [-98.1938723208, 46.6537290579]}, "type": "Feature", "properties": {"collection_times": [{"days": "Mon-Fri", "time": "4:20pm"}, {"days": "Sat", "time": "3:40pm"}, {"days": "Sun", "time": "Closed"}], "id": "5846100000", "name": "USPS COLLECTION BOX - BLUE BOX", "address": {"city": "LITCHVILLE", "state": "ND", "street": "508 3RD AVE", "postcode": "58461"}}},
{"geometry": {"type": "Point", "coordinates": [-98.1938723208, 46.6537290579]}, "type": "Feature", "properties": {"collection_times": [{"days": "Mon-Fri", "time": "12:00pm"}, {"days": "Sat-Sun", "time": "Closed"}], "id": "5846100001", "name": "USPS COLLECTION BOX - PO LOBBY", "address": {"city": "LITCHVILLE", "state": "ND", "street": "508 3RD AVE", "postcode": "58461"}}},
{"geometry": {"type": "Point", "coordinates": [-100.4428081094, 47.484689978]}, "type": "Feature", "properties": {"collection_times": [{"days": "Mon-Sat", "time": "2:05pm"}, {"days": "Sun", "time": "Closed"}], "id": "5846300000", "name": "USPS COLLECTION BOX - BLUE BOX", "address": {"city": "MCCLUSKY", "state": "ND", "street": "220 MAIN ST S", "postcode": "58463"}}},
{"geometry": {"type": "Point", "coordinates": [-100.4428081094, 47.484689978]}, "type": "Feature", "properties": {"collection_times": [{"days": "Mon-Fri", "time": "2:05pm"}, {"days": "Sat-Sun", "time": "Closed"}], "id": "5846300001", "name": "USPS COLLECTION BOX - PO LOBBY", "address": {"city": "MCCLUSKY", "state": "ND", "street": "220 MAIN ST S", "postcode": "58463"}}},
{"geometry": {"type": "Point", "coordinates": [-98.5916694081, 47.576550184]}, "type": "Feature", "properties": {"collection_times": [{"days": "Mon-Sat", "time": "2:50pm"}, {"days": "Sun", "time": "Closed"}], "id": "5846400001", "name": "USPS COLLECTION BOX - BLUE BOX", "address": {"city": "MCHENRY", "state": "ND", "street": "322 JOHNSTON ST", "postcode": "58464"}}},
{"geometry": {"type": "Point", "coordinates": [-98.5916903513, 47.5729097475]}, "type": "Feature", "properties": {"collection_times": [{"days": "Mon-Fri", "time": "2:50pm"}, {"days": "Sat-Sun", "time": "Closed"}], "id": "5846400002", "name": "USPS COLLECTION BOX - PO LOBBY", "address": {"city": "MCHENRY", "state": "ND", "street": "322 JOHNSTON ST", "postcode": "58464"}}},
{"geometry": {"type": "Point", "coordinates": [-98.3328629676, 46.6062306744]}, "type": "Feature", "properties": {"collection_times": [{"days": "Mon-Fri", "time": "4:20pm"}, {"days": "Sat", "time": "4:00pm"}, {"days": "Sun", "time": "Closed"}], "id": "5846600001", "name": "USPS COLLECTION BOX - BLUE BOX", "address": {"city": "MARION", "state": "ND", "street": "308 MAIN AVE", "postcode": "58466"}}},
{"geometry": {"type": "Point", "coordinates": [-98.3328629676, 46.6062306744]}, "type": "Feature", "properties": {"collection_times": [{"days": "Mon-Fri", "time": "12:00pm"}, {"days": "Sat-Sun", "time": "Closed"}], "id": "5846600002", "name": "USPS COLLECTION BOX - PO LOBBY", "address": {"city": "MARION", "state": "ND", "street": "308 MAIN AVE", "postcode": "58466"}}},
{"geometry": {"type": "Point", "coordinates": [-99.3016169323, 46.8936788972]}, "type": "Feature", "properties": {"collection_times": [{"days": "Mon-Sat", "time": "3:15pm"}, {"days": "Sun", "time": "Closed"}], "id": "5846700001", "name": "USPS COLLECTION BOX - BLUE BOX", "address": {"city": "MEDINA", "state": "ND", "street": "102 2ND AVE SW", "postcode": "58467"}}},
{"geometry": {"type": "Point", "coordinates": [-99.3016169323, 46.8936788972]}, "type": "Feature", "properties": {"collection_times": [{"days": "Mon-Fri", "time": "3:00pm"}, {"days": "Sat-Sun", "time": "Closed"}], "id": "5846700002", "name": "USPS COLLECTION BOX - PO LOBBY", "address": {"city": "MEDINA", "state": "ND", "street": "102 2ND AVE SW", "postcode": "58467"}}},
{"geometry": {"type": "Point", "coordinates": [-98.5891467691, 46.7003472913]}, "type": "Feature", "properties": {"collection_times": [{"days": "Mon-Fri", "time": "2:30pm"}, {"days": "Sat", "time": "4:25pm"}, {"days": "Sun", "time": "Closed"}], "id": "5847200001", "name": "USPS COLLECTION BOX - BLUE BOX", "address": {"city": "MONTPELIER", "state": "ND", "street": "106 4TH AVE", "postcode": "58472"}}},
{"geometry": {"type": "Point", "coordinates": [-98.5891467691, 46.7003472913]}, "type": "Feature", "properties": {"collection_times": [{"days": "Mon-Fri", "time": "2:30pm"}, {"days": "Sat-Sun", "time": "Closed"}], "id": "5847200002", "name": "USPS COLLECTION BOX - PO LOBBY", "address": {"city": "MONTPELIER", "state": "ND", "street": "106 4TH AVE", "postcode": "58472"}}},
{"geometry": {"type": "Point", "coordinates": [-98.0899733311, 46.1389675291]}, "type": "Feature", "properties": {"collection_times": [{"days": "Mon-Fri", "time": "3:45pm"}, {"days": "Sat-Sun", "time": "Closed"}], "id": "5847400005", "name": "USPS COLLECTION BOX - PO LOBBY", "address": {"city": "OAKES", "state": "ND", "street": "611 MAIN AVE", "postcode": "58474"}}},
{"geometry": {"type": "Point", "coordinates": [-98.0899733311, 46.1389675291]}, "type": "Feature", "properties": {"collection_times": [{"days": "Mon-Sat", "time": "3:45pm"}, {"days": "Sun", "time": "Closed"}], "id": "5847400006", "name": "USPS COLLECTION BOX - BLUE BOX", "address": {"city": "OAKES", "state": "ND", "street": "611 MAIN AVE", "postcode": "58474"}}},
{"geometry": {"type": "Point", "coordinates": [-99.5197883423, 47.1116827983]}, "type": "Feature", "properties": {"collection_times": [{"days": "Mon-Sat", "time": "3:30pm"}, {"days": "Sun", "time": "Closed"}], "id": "5847500000", "name": "USPS COLLECTION BOX - BLUE BOX", "address": {"city": "PETTIBONE", "state": "ND", "street": "107 N MAIN ST", "postcode": "58475"}}},
{"geometry": {"type": "Point", "coordinates": [-99.5197883423, 47.1116827983]}, "type": "Feature", "properties": {"collection_times": [{"days": "Mon-Fri", "time": "3:30pm"}, {"days": "Sat-Sun", "time": "Closed"}], "id": "5847500001", "name": "USPS COLLECTION BOX - PO LOBBY", "address": {"city": "PETTIBONE", "state": "ND", "street": "107 N MAIN ST", "postcode": "58475"}}},
{"geometry": {"type": "Point", "coordinates": [-99.7194747281, 47.1775420956]}, "type": "Feature", "properties": {"collection_times": [{"days": "Mon-Sat", "time": "3:25pm"}, {"days": "Sun", "time": "Closed"}], "id": "5847800001", "name": "USPS COLLECTION BOX - BLUE BOX", "address": {"city": "ROBINSON", "state": "ND", "street": "116 1ST AVE E", "postcode": "58478"}}},
{"geometry": {"type": "Point", "coordinates": [-99.7194747281, 47.1775420956]}, "type": "Feature", "properties": {"collection_times": [{"days": "Mon-Fri", "time": "12:00pm"}, {"days": "Sat-Sun", "time": "Closed"}], "id": "5847800002", "name": "USPS COLLECTION BOX - PO LOBBY", "address": {"city": "ROBINSON", "state": "ND", "street": "116 1ST AVE E", "postcode": "58478"}}},
{"geometry": {"type": "Point", "coordinates": [-98.2274986573, 46.9431720263]}, "type": "Feature", "properties": {"collection_times": [{"days": "Mon-Sat", "time": "4:45pm"}, {"days": "Sun", "time": "Closed"}], "id": "5848000001", "name": "USPS COLLECTION BOX - BLUE BOX", "address": {"city": "SANBORN", "state": "ND", "street": "405 4TH ST", "postcode": "58480"}}},
{"geometry": {"type": "Point", "coordinates": [-98.2659832446, 46.9444864677]}, "type": "Feature", "properties": {"collection_times": [{"days": "Mon-Fri", "time": "5:05pm"}, {"days": "Sat", "time": "4:20pm"}, {"days": "Sun", "time": "Closed"}], "id": "5848000002", "name": "USPS COLLECTION BOX - BLUE BOX", "address": {"city": "SANBORN", "state": "ND", "street": "111 2ND ST", "postcode": "58480"}}},
{"geometry": {"type": "Point", "coordinates": [-98.2274986573, 46.9431720263]}, "type": "Feature", "properties": {"collection_times": [{"days": "Mon-Fri", "time": "11:30am"}, {"days": "Sat-Sun", "time": "Closed"}], "id": "5848000003", "name": "USPS COLLECTION BOX - PO LOBBY", "address": {"city": "SANBORN", "state": "ND", "street": "405 4TH ST", "postcode": "58480"}}},
{"geometry": {"type": "Point", "coordinates": [-98.4941499849, 46.9359837435]}, "type": "Feature", "properties": {"collection_times": [{"days": "Mon-Sat", "time": "4:00pm"}, {"days": "Sun", "time": "Closed"}], "id": "5848100000", "name": "USPS COLLECTION BOX - BLUE BOX", "address": {"city": "SPIRITWOOD", "state": "ND", "street": "313 MAIN ST", "postcode": "58481"}}},
{"geometry": {"type": "Point", "coordinates": [-98.4941499849, 46.9359837435]}, "type": "Feature", "properties": {"collection_times": [{"days": "Mon-Fri", "time": "12:00pm"}, {"days": "Sat-Sun", "time": "Closed"}], "id": "5848100001", "name": "USPS COLLECTION BOX - PO LOBBY", "address": {"city": "SPIRITWOOD", "state": "ND", "street": "313 MAIN ST", "postcode": "58481"}}},
{"geometry": {"type": "Point", "coordinates": [-99.9143252963, 46.8551514698]}, "type": "Feature", "properties": {"collection_times": [{"days": "Mon-Sat", "time": "2:15pm"}, {"days": "Sun", "time": "Closed"}], "id": "5848200001", "name": "USPS COLLECTION BOX - BLUE BOX", "address": {"city": "STEELE", "state": "ND", "street": "101 1ST AVE SE", "postcode": "58482"}}},
{"geometry": {"type": "Point", "coordinates": [-99.9143252963, 46.8551514698]}, "type": "Feature", "properties": {"collection_times": [{"days": "Mon-Fri", "time": "2:15pm"}, {"days": "Sat-Sun", "time": "Closed"}], "id": "5848200002", "name": "USPS COLLECTION BOX - PO LOBBY", "address": {"city": "STEELE", "state": "ND", "street": "101 1ST AVE SE", "postcode": "58482"}}},
{"geometry": {"type": "Point", "coordinates": [-99.3598127645, 46.6570029075]}, "type": "Feature", "properties": {"collection_times": [{"days": "Mon-Sat", "time": "3:45pm"}, {"days": "Sun", "time": "Closed"}], "id": "5848300001", "name": "USPS COLLECTION BOX - BLUE BOX", "address": {"city": "STREETER", "state": "ND", "street": "107 FLORENCE ST N", "postcode": "58483"}}},
{"geometry": {"type": "Point", "coordinates": [-99.3598127645, 46.6570029075]}, "type": "Feature", "properties": {"collection_times": [{"days": "Mon-Fri", "time": "12:00pm"}, {"days": "Sat-Sun", "time": "Closed"}], "id": "5848300002", "name": "USPS COLLECTION BOX - PO LOBBY", "address": {"city": "STREETER", "state": "ND", "street": "107 FLORENCE ST N", "postcode": "58483"}}},
{"geometry": {"type": "Point", "coordinates": [-99.3996126932, 47.4651906208]}, "type": "Feature", "properties": {"collection_times": [{"days": "Mon-Sat", "time": "3:30pm"}, {"days": "Sun", "time": "Closed"}], "id": "5848600001", "name": "USPS COLLECTION BOX - BLUE BOX", "address": {"city": "SYKESTON", "state": "ND", "street": "34 MAIN AVE N", "postcode": "58486"}}},
{"geometry": {"type": "Point", "coordinates": [-99.3996126932, 47.4651906208]}, "type": "Feature", "properties": {"collection_times": [{"days": "Mon-Fri", "time": "12:00pm"}, {"days": "Sat-Sun", "time": "Closed"}], "id": "5848600002", "name": "USPS COLLECTION BOX - PO LOBBY", "address": {"city": "SYKESTON", "state": "ND", "street": "34 MAIN AVE N", "postcode": "58486"}}},
{"geometry": {"type": "Point", "coordinates": [-99.6356782505, 46.8729151338]}, "type": "Feature", "properties": {"collection_times": [{"days": "Mon-Sat", "time": "2:45pm"}, {"days": "Sun", "time": "Closed"}], "id": "5848700001", "name": "USPS COLLECTION BOX - BLUE BOX", "address": {"city": "TAPPEN", "state": "ND", "street": "112 N MAIN", "postcode": "58487"}}},
{"geometry": {"type": "Point", "coordinates": [-99.6356782505, 46.8729151338]}, "type": "Feature", "properties": {"collection_times": [{"days": "Mon-Fri", "time": "12:00pm"}, {"days": "Sat-Sun", "time": "Closed"}], "id": "5848700002", "name": "USPS COLLECTION BOX - PO LOBBY", "address": {"city": "TAPPEN", "state": "ND", "street": "112 N MAIN", "postcode": "58487"}}},
{"geometry": {"type": "Point", "coordinates": [-99.9948782741, 47.1833928883]}, "type": "Feature", "properties": {"collection_times": [{"days": "Mon-Sat", "time": "3:05pm"}, {"days": "Sun", "time": "Closed"}], "id": "5848800001", "name": "USPS COLLECTION BOX - BLUE BOX", "address": {"city": "TUTTLE", "state": "ND", "street": "208 N MAIN ST", "postcode": "58488"}}},
{"geometry": {"type": "Point", "coordinates": [-99.9948782741, 47.1833928883]}, "type": "Feature", "properties": {"collection_times": [{"days": "Mon-Fri", "time": "2:20pm"}, {"days": "Sat-Sun", "time": "Closed"}], "id": "5848800002", "name": "USPS COLLECTION BOX - PO LOBBY", "address": {"city": "TUTTLE", "state": "ND", "street": "208 N MAIN ST", "postcode": "58488"}}},
{"geometry": {"type": "Point", "coordinates": [-98.0721186969, 46.364046713]}, "type": "Feature", "properties": {"collection_times": [{"days": "Mon-Fri", "time": "2:50pm"}, {"days": "Sat", "time": "3:00pm"}, {"days": "Sun", "time": "Closed"}], "id": "5849000001", "name": "USPS COLLECTION BOX - BLUE BOX", "address": {"city": "VERONA", "state": "ND", "street": "212 4TH ST", "postcode": "58490"}}},
{"geometry": {"type": "Point", "coordinates": [-98.0721186969, 46.364046713]}, "type": "Feature", "properties": {"collection_times": [{"days": "Mon-Fri", "time": "2:50pm"}, {"days": "Sat-Sun", "time": "Closed"}], "id": "5849000002", "name": "USPS COLLECTION BOX - PO LOBBY", "address": {"city": "VERONA", "state": "ND", "street": "212 4TH ST", "postcode": "58490"}}},
{"geometry": {"type": "Point", "coordinates": [-98.4606190167, 47.1694440883]}, "type": "Feature", "properties": {"collection_times": [{"days": "Mon-Sat", "time": "3:45pm"}, {"days": "Sun", "time": "Closed"}], "id": "5849200001", "name": "USPS COLLECTION BOX - BLUE BOX", "address": {"city": "WIMBLEDON", "state": "ND", "street": "118 3RD AVE", "postcode": "58492"}}},
{"geometry": {"type": "Point", "coordinates": [-98.4606190167, 47.1694440883]}, "type": "Feature", "properties": {"collection_times": [{"days": "Mon-Fri", "time": "2:00pm"}, {"days": "Sat-Sun", "time": "Closed"}], "id": "5849200002", "name": "USPS COLLECTION BOX - PO LOBBY", "address": {"city": "WIMBLEDON", "state": "ND", "street": "118 3RD AVE", "postcode": "58492"}}},
{"geometry": {"type": "Point", "coordinates": [-98.462092916, 47.1712952061]}, "type": "Feature", "properties": {"collection_times": [{"days": "Mon-Sat", "time": "4:05pm"}, {"days": "Sun", "time": "Closed"}], "id": "5849200003", "name": "USPS COLLECTION BOX - BLUE BOX", "address": {"city": "WIMBLEDON", "state": "ND", "street": "112 1ST AVE N", "postcode": "58492"}}},
{"geometry": {"type": "Point", "coordinates": [-100.2797458231, 47.1405344964]}, "type": "Feature", "properties": {"collection_times": [{"days": "Mon-Sat", "time": "2:45pm"}, {"days": "Sun", "time": "Closed"}], "id": "5849400001", "name": "USPS COLLECTION BOX - BLUE BOX", "address": {"city": "WING", "state": "ND", "street": "208 MAIN ST", "postcode": "58494"}}},
{"geometry": {"type": "Point", "coordinates": [-100.2797458231, 47.1405344964]}, "type": "Feature", "properties": {"collection_times": [{"days": "Mon-Fri", "time": "2:20pm"}, {"days": "Sat-Sun", "time": "Closed"}], "id": "5849400002", "name": "USPS COLLECTION BOX - PO LOBBY", "address": {"city": "WING", "state": "ND", "street": "208 MAIN ST", "postcode": "58494"}}},
{"geometry": {"type": "Point", "coordinates": [-99.5592381794, 46.259241706]}, "type": "Feature", "properties": {"collection_times": [{"days": "Mon-Sat", "time": "2:50pm"}, {"days": "Sun", "time": "Closed"}], "id": "5849500001", "name": "USPS COLLECTION BOX - BLUE BOX", "address": {"city": "WISHEK", "state": "ND", "street": "14 N 5TH ST", "postcode": "58495"}}},
{"geometry": {"type": "Point", "coordinates": [-99.5592381794, 46.259241706]}, "type": "Feature", "properties": {"collection_times": [{"days": "Mon-Fri", "time": "2:50pm"}, {"days": "Sat-Sun", "time": "Closed"}], "id": "5849500002", "name": "USPS COLLECTION BOX - PO LOBBY", "address": {"city": "WISHEK", "state": "ND", "street": "14 N 5TH ST", "postcode": "58495"}}},
{"geometry": {"type": "Point", "coordinates": [-99.3050213127, 47.1418785823]}, "type": "Feature", "properties": {"collection_times": [{"days": "Mon-Sat", "time": "4:00pm"}, {"days": "Sun", "time": "Closed"}], "id": "5849600001", "name": "USPS COLLECTION BOX - BLUE BOX", "address": {"city": "WOODWORTH", "state": "ND", "street": "120 MAIN ST N", "postcode": "58496"}}},
{"geometry": {"type": "Point", "coordinates": [-99.3050213127, 47.1418785823]}, "type": "Feature", "properties": {"collection_times": [{"days": "Mon-Fri", "time": "12:00pm"}, {"days": "Sat-Sun", "time": "Closed"}], "id": "5849600002", "name": "USPS COLLECTION BOX - PO LOBBY", "address": {"city": "WOODWORTH", "state": "ND", "street": "120 MAIN ST N", "postcode": "58496"}}},
{"geometry": {"type": "Point", "coordinates": [-98.5645468946, 46.7830890217]}, "type": "Feature", "properties": {"collection_times": [{"days": "Mon-Sat", "time": "4:45pm"}, {"days": "Sun", "time": "Closed"}], "id": "5849700001", "name": "USPS COLLECTION BOX - BLUE BOX", "address": {"city": "YPSILANTI", "state": "ND", "street": "218 1ST ST", "postcode": "58497"}}},
{"geometry": {"type": "Point", "coordinates": [-98.5645468946, 46.7830890217]}, "type": "Feature", "properties": {"collection_times": [{"days": "Mon-Fri", "time": "11:30am"}, {"days": "Sat-Sun", "time": "Closed"}], "id": "5849700002", "name": "USPS COLLECTION BOX - PO LOBBY", "address": {"city": "YPSILANTI", "state": "ND", "street": "218 1ST ST", "postcode": "58497"}}}
]}
