{"type": "FeatureCollection", "features": [
{"geometry": {"type": "Point", "coordinates": [-100.7846004543, 46.8060283617]}, "type": "Feature", "properties": {"collection_times": [{"days": "Mon-Sat", "time": "4:00pm"}, {"days": "Sun", "time": "Closed"}], "id": "5850100011", "name": "USPS COLLECTION BOX - BLUE BOX", "address": {"city": "BISMARCK", "state": "ND", "street": "117 N 5TH ST", "postcode": "58501"}}},
{"geometry": {"type": "Point", "coordinates": [-100.7877600034, 46.8056759109]}, "type": "Feature", "properties": {"collection_times": [{"days": "Mon-Fri", "time": "4:30pm"}, {"days": "Sat-Sun", "time": "Closed"}], "id": "5850100014", "name": "USPS COLLECTION BOX - BLUE BOX", "address": {"city": "BISMARCK", "state": "ND", "street": "120 N 3RD ST", "postcode": "58501"}}},
{"geometry": {"type": "Point", "coordinates": [-100.7859349825, 46.8075737934]}, "type": "Feature", "properties": {"collection_times": [{"days": "Mon-Fri", "time": "4:15pm"}, {"days": "Sat-Sun", "time": "Closed"}], "id": "5850100015", "name": "USPS COLLECTION BOX - BLUE BOX", "address": {"city": "BISMARCK", "state": "ND", "street": "410 E THAYER AVE", "postcode": "58501"}}},
{"geometry": {"type": "Point", "coordinates": [-100.7861570943, 46.8088068881]}, "type": "Feature", "properties": {"collection_times": [{"days": "Mon-Fri", "time": "4:15pm"}, {"days": "Sat-Sun", "time": "Closed"}], "id": "5850100022", "name": "USPS COLLECTION BOX - BLUE BOX", "address": {"city": "BISMARCK", "state": "ND", "street": "420 N 4TH ST", "postcode": "58501"}}},
{"geometry": {"type": "Point", "coordinates": [-100.7749610971, 46.8165366916]}, "type": "Feature", "properties": {"collection_times": [{"days": "Mon-Sat", "time": "3:00pm"}, {"days": "Sun", "time": "Closed"}], "id": "5850100029", "name": "USPS COLLECTION BOX - BLUE BOX", "address": {"city": "BISMARCK", "state": "ND", "street": "1100 E BOULEVARD AVE", "postcode": "58501"}}},
{"geometry": {"type": "Point", "coordinates": [-100.7519371195, 46.808206467]}, "type": "Feature", "properties": {"collection_times": [{"days": "Mon-Sat", "time": "3:30pm"}, {"days": "Sun", "time": "Closed"}], "id": "5850100032", "name": "USPS COLLECTION BOX - BLUE BOX", "address": {"city": "BISMARCK", "state": "ND", "street": "2600 E ROSSER AVE", "postcode": "58501"}}},
{"geometry": {"type": "Point", "coordinates": [-100.7480876532, 46.8061149082]}, "type": "Feature", "properties": {"collection_times": [{"days": "Mon-Fri", "time": "3:30pm"}, {"days": "Sat-Sun", "time": "Closed"}], "id": "5850100036", "name": "USPS COLLECTION BOX - BLUE BOX", "address": {"city": "BISMARCK", "state": "ND", "street": "2900 E BROADWAY AVE", "postcode": "58501"}}},
{"geometry": {"type": "Point", "coordinates": [-100.7722586345, 46.8263194486]}, "type": "Feature", "properties": {"collection_times": [{"days": "Mon-Fri", "time": "3:00pm"}, {"days": "Sat-Sun", "time": "Closed"}], "id": "5850100042", "name": "USPS COLLECTION BOX - BLUE BOX", "address": {"city": "BISMARCK", "state": "ND", "street": "1911 N 13TH ST", "postcode": "58501"}}},
{"geometry": {"type": "Point", "coordinates": [-100.7887950876, 46.8086399658]}, "type": "Feature", "properties": {"collection_times": [{"days": "Mon-Sat", "time": "5:00pm"}, {"days": "Sun", "time": "Closed"}], "id": "5850100047", "name": "USPS COLLECTION BOX - BLUE BOX", "address": {"city": "BISMARCK", "state": "ND", "street": "220 E ROSSER AVE", "postcode": "58501"}}},
{"geometry": {"type": "Point", "coordinates": [-100.8111693352, 46.8266919641]}, "type": "Feature", "properties": {"collection_times": [{"days": "Mon-Sat", "time": "4:00pm"}, {"days": "Sun", "time": "Closed"}], "id": "5850100056", "name": "USPS COLLECTION BOX - BLUE BOX", "address": {"city": "BISMARCK", "state": "ND", "street": "1190 W TURNPIKE AVE", "postcode": "58501"}}},
{"geometry": {"type": "Point", "coordinates": [-100.7874823839, 46.8171246126]}, "type": "Feature", "properties": {"collection_times": [{"days": "Mon-Sat", "time": "4:00pm"}, {"days": "Sun", "time": "Closed"}], "id": "5850100058", "name": "USPS COLLECTION BOX - BLUE BOX", "address": {"city": "BISMARCK", "state": "ND", "street": "1116 N 3RD ST", "postcode": "58501"}}},
{"geometry": {"type": "Point", "coordinates": [-100.7846816715, 46.8076978673]}, "type": "Feature", "properties": {"collection_times": [{"days": "Mon-Fri", "time": "4:15pm"}, {"days": "Sat-Sun", "time": "Closed"}], "id": "5850100059", "name": "USPS COLLECTION BOX - BLUE BOX", "address": {"city": "BISMARCK", "state": "ND", "street": "316 N 5TH ST", "postcode": "58501"}}},
{"geometry": {"type": "Point", "coordinates": [-100.7736324273, 46.8213542618]}, "type": "Feature", "properties": {"collection_times": [{"days": "Mon-Fri", "time": "3:00pm"}, {"days": "Sat-Sun", "time": "Closed"}], "id": "5850100072", "name": "USPS COLLECTION BOX - BLUE BOX", "address": {"city": "BISMARCK", "state": "ND", "street": "1505 N 12TH ST", "postcode": "58501"}}},
{"geometry": {"type": "Point", "coordinates": [-100.7862265761, 46.8056834392]}, "type": "Feature", "properties": {"collection_times": [{"days": "Mon-Fri", "time": "4:15pm"}, {"days": "Sat-Sun", "time": "Closed"}], "id": "5850100073", "name": "USPS COLLECTION BOX - BLUE BOX", "address": {"city": "BISMARCK", "state": "ND", "street": "124 N 4TH ST", "postcode": "58501"}}},
{"geometry": {"type": "Point", "coordinates": [-100.7336510369, 46.8277181792]}, "type": "Feature", "properties": {"collection_times": [{"days": "Mon-Fri", "time": "4:30pm"}, {"days": "Sat-Sun", "time": "Closed"}], "id": "5850100075", "name": "USPS COLLECTION BOX - BLUE BOX", "address": {"city": "BISMARCK", "state": "ND", "street": "3936 E DIVIDE AVE", "postcode": "58501"}}},
{"geometry": {"type": "Point", "coordinates": [-100.7754688656, 46.8251648231]}, "type": "Feature", "properties": {"collection_times": [{"days": "Mon-Fri", "time": "3:15pm"}, {"days": "Sat-Sun", "time": "Closed"}], "id": "5850100079", "name": "USPS COLLECTION BOX - BLUE BOX", "address": {"city": "BISMARCK", "state": "ND", "street": "1830 N 11TH ST", "postcode": "58501"}}},
{"geometry": {"type": "Point", "coordinates": [-100.7887950876, 46.8086399658]}, "type": "Feature", "properties": {"collection_times": [{"days": "Mon-Fri", "time": "4:30pm"}, {"days": "Sat", "time": "12:00pm"}, {"days": "Sun", "time": "Closed"}], "id": "5850100085", "name": "USPS COLLECTION BOX - PO LOBBY", "address": {"city": "BISMARCK", "state": "ND", "street": "220 E ROSSER AVE", "postcode": "58501"}}},
{"geometry": {"type": "Point", "coordinates": [-100.7862265761, 46.8056834392]}, "type": "Feature", "properties": {"collection_times": [{"days": "Mon-Fri", "time": "4:15pm"}, {"days": "Sat-Sun", "time": "Closed"}], "id": "5850100086", "name": "USPS COLLECTION BOX - BLUE BOX", "address": {"city": "BISMARCK", "state": "ND", "street": "124 N 4TH ST", "postcode": "58501"}}},
{"geometry": {"type": "Point", "coordinates": [-100.7887950876, 46.8086399658]}, "type": "Feature", "properties": {"collection_times": [{"days": "Mon-Fri", "time": "4:30pm"}, {"days": "Sat", "time": "12:00pm"}, {"days": "Sun", "time": "Closed"}], "id": "5850100088", "name": "USPS COLLECTION BOX - PO LOBBY", "address": {"city": "BISMARCK", "state": "ND", "street": "220 E ROSSER AVE", "postcode": "58501"}}},
{"geometry": {"type": "Point", "coordinates": [-100.7877600034, 46.8056759109]}, "type": "Feature", "properties": {"collection_times": [{"days": "Mon-Fri", "time": "4:30pm"}, {"days": "Sat-Sun", "time": "Closed"}], "id": "5850100089", "name": "USPS COLLECTION BOX - BLUE BOX", "address": {"city": "BISMARCK", "state": "ND", "street": "120 N 3RD ST", "postcode": "58501"}}},
{"geometry": {"type": "Point", "coordinates": [-100.7756386062, 46.8625477878]}, "type": "Feature", "properties": {"collection_times": [{"days": "Mon-Fri", "time": "4:30pm"}, {"days": "Sat-Sun", "time": "Closed"}], "id": "5850300001", "name": "USPS COLLECTION BOX - BLUE BOX", "address": {"city": "BISMARCK", "state": "ND", "street": "2620 CENTENNIAL RD", "postcode": "58503"}}},
{"geometry": {"type": "Point", "coordinates": [-100.773995393, 46.8471556812]}, "type": "Feature", "properties": {"collection_times": [{"days": "Mon-Fri", "time": "4:00pm"}, {"days": "Sat-Sun", "time": "Closed"}], "id": "5850300002", "name": "USPS COLLECTION BOX - BLUE BOX", "address": {"city": "BISMARCK", "state": "ND", "street": "3801 LOCKPORT ST", "postcode": "58503"}}},
{"geometry": {"type": "Point", "coordinates": [-100.7727468722, 46.8347317647]}, "type": "Feature", "properties": {"collection_times": [{"days": "Mon-Sat", "time": "4:00pm"}, {"days": "Sun", "time": "Closed"}], "id": "5850300003", "name": "USPS COLLECTION BOX - BLUE BOX", "address": {"city": "BISMARCK", "state": "ND", "street": "2635 STATE ST", "postcode": "58503"}}},
{"geometry": {"type": "Point", "coordinates": [-100.7731224441, 46.8352124668]}, "type": "Feature", "properties": {"collection_times": [{"days": "Mon-Sat", "time": "4:00pm"}, {"days": "Sun", "time": "Closed"}], "id": "5850300004", "name": "USPS COLLECTION BOX - BLUE BOX", "address": {"city": "BISMARCK", "state": "ND", "street": "2700 STATE ST", "postcode": "58503"}}},
{"geometry": {"type": "Point", "coordinates": [-100.8177993933, 46.8313352606]}, "type": "Feature", "properties": {"collection_times": [{"days": "Mon-Sat", "time": "4:00pm"}, {"days": "Sun", "time": "Closed"}], "id": "5850300005", "name": "USPS COLLECTION BOX - BLUE BOX", "address": {"city": "BISMARCK", "state": "ND", "street": "2205 TYLER PKWY", "postcode": "58503"}}},
{"geometry": {"type": "Point", "coordinates": [-100.7938343283, 46.8370265507]}, "type": "Feature", "properties": {"collection_times": [{"days": "Mon-Fri", "time": "4:00pm"}, {"days": "Sat-Sun", "time": "Closed"}], "id": "5850300006", "name": "USPS COLLECTION BOX - BLUE BOX", "address": {"city": "BISMARCK", "state": "ND", "street": "2835 N WASHINGTON ST", "postcode": "58503"}}},
{"geometry": {"type": "Point", "coordinates": [-100.775379224, 46.8396332336]}, "type": "Feature", "properties": {"collection_times": [{"days": "Mon-Sat", "time": "4:00pm"}, {"days": "Sun", "time": "Closed"}], "id": "5850300007", "name": "USPS COLLECTION BOX - BLUE BOX", "address": {"city": "BISMARCK", "state": "ND", "street": "3101 N 11TH ST", "postcode": "58503"}}},
{"geometry": {"type": "Point", "coordinates": [-100.7620765823, 46.8381206369]}, "type": "Feature", "properties": {"collection_times": [{"days": "Mon-Fri", "time": "4:15pm"}, {"days": "Sat-Sun", "time": "Closed"}], "id": "5850300009", "name": "USPS COLLECTION BOX - BLUE BOX", "address": {"city": "BISMARCK", "state": "ND", "street": "2901 N 19TH ST", "postcode": "58503"}}},
{"geometry": {"type": "Point", "coordinates": [-100.7750772884, 46.8334439945]}, "type": "Feature", "properties": {"collection_times": [{"days": "Mon-Sat", "time": "4:00pm"}, {"days": "Sun", "time": "Closed"}], "id": "5850300010", "name": "USPS COLLECTION BOX - BLUE BOX", "address": {"city": "BISMARCK", "state": "ND", "street": "1051 E INTERSTATE AVE", "postcode": "58503"}}},
{"geometry": {"type": "Point", "coordinates": [-100.7750772884, 46.8334439945]}, "type": "Feature", "properties": {"collection_times": [{"days": "Mon-Sat", "time": "4:00pm"}, {"days": "Sun", "time": "Closed"}], "id": "5850300011", "name": "USPS COLLECTION BOX - BLUE BOX", "address": {"city": "BISMARCK", "state": "ND", "street": "1051 E INTERSTATE AVE", "postcode": "58503"}}},
{"geometry": {"type": "Point", "coordinates": [-100.7599795281, 46.8782310002]}, "type": "Feature", "properties": {"collection_times": [{"days": "Mon-Sat", "time": "11:00am"}, {"days": "Sun", "time": "Closed"}], "id": "5850300012", "name": "USPS COLLECTION BOX - BLUE BOX", "address": {"city": "BISMARCK", "state": "ND", "street": "1400 SKYLINE BLVD", "postcode": "58503"}}},
{"geometry": {"type": "Point", "coordinates": [-100.7264016528, 46.8399166259]}, "type": "Feature", "properties": {"collection_times": [{"days": "Mon-Sat", "time": "5:00pm"}, {"days": "Sun", "time": "Closed"}], "id": "5850300014", "name": "USPS COLLECTION BOX - BLUE BOX", "address": {"city": "BISMARCK", "state": "ND", "street": "3103 YORKTOWN DR", "postcode": "58503"}}},
{"geometry": {"type": "Point", "coordinates": [-100.781737448, 46.796451242]}, "type": "Feature", "properties": {"collection_times": [{"days": "Mon-Fri", "time": "4:45pm"}, {"days": "Sat-Sun", "time": "Closed"}], "id": "5850400002", "name": "USPS COLLECTION BOX - BLUE BOX", "address": {"city": "BISMARCK", "state": "ND", "street": "919 S 7TH ST", "postcode": "58504"}}},
{"geometry": {"type": "Point", "coordinates": [-100.7944327286, 46.7962131686]}, "type": "Feature", "properties": {"collection_times": [{"days": "Mon-Sat", "time": "4:15pm"}, {"days": "Sun", "time": "Closed"}], "id": "5850400003", "name": "USPS COLLECTION BOX - BLUE BOX", "address": {"city": "BISMARCK", "state": "ND", "street": "835 S WASHINGTON ST", "postcode": "58504"}}},
{"geometry": {"type": "Point", "coordinates": [-100.7571395258, 46.7947375718]}, "type": "Feature", "properties": {"collection_times": [{"days": "Mon-Sat", "time": "7:00pm"}, {"days": "Sun", "time": "Closed"}], "id": "5850400010", "name": "USPS COLLECTION BOX - BLUE BOX", "address": {"city": "BISMARCK", "state": "ND", "street": "2220 E BISMARCK EXPY", "postcode": "58504"}}},
{"geometry": {"type": "Point", "coordinates": [-100.7624832411, 46.7932518166]}, "type": "Feature", "properties": {"collection_times": [{"days": "Mon-Fri", "time": "4:30pm"}, {"days": "Sat-Sun", "time": "Closed"}], "id": "5850400013", "name": "USPS COLLECTION BOX - BLUE BOX", "address": {"city": "BISMARCK", "state": "ND", "street": "1101 AIRPORT RD", "postcode": "58504"}}},
{"geometry": {"type": "Point", "coordinates": [-100.7733801663, 46.7936385476]}, "type": "Feature", "properties": {"collection_times": [{"days": "Mon-Fri", "time": "4:45pm"}, {"days": "Sat-Sun", "time": "Closed"}], "id": "5850400014", "name": "USPS COLLECTION BOX - BLUE BOX", "address": {"city": "BISMARCK", "state": "ND", "street": "1101 S 12TH ST", "postcode": "58504"}}},
{"geometry": {"type": "Point", "coordinates": [-100.7626703909, 46.8000971147]}, "type": "Feature", "properties": {"collection_times": [{"days": "Mon-Fri", "time": "4:30pm"}, {"days": "Sat-Sun", "time": "Closed"}], "id": "5850400016", "name": "USPS COLLECTION BOX - BLUE BOX", "address": {"city": "BISMARCK", "state": "ND", "street": "539 AIRPORT RD", "postcode": "58504"}}},
{"geometry": {"type": "Point", "coordinates": [-100.7745833477, 46.7950041392]}, "type": "Feature", "properties": {"collection_times": [{"days": "Mon-Sat", "time": "4:45pm"}, {"days": "Sun", "time": "Closed"}], "id": "5850400017", "name": "USPS COLLECTION BOX - BLUE BOX", "address": {"city": "BISMARCK", "state": "ND", "street": "1144 E BISMARCK EXPY", "postcode": "58504"}}},
{"geometry": {"type": "Point", "coordinates": [-100.784664639, 46.8003801089]}, "type": "Feature", "properties": {"collection_times": [{"days": "Mon-Fri", "time": "12:00pm"}, {"days": "Sat", "time": "11:00am"}, {"days": "Sun", "time": "Closed"}], "id": "5850400022", "name": "USPS COLLECTION BOX - BLUE BOX", "address": {"city": "BISMARCK", "state": "ND", "street": "601 KIRKWOOD MALL", "postcode": "58504"}}},
{"geometry": {"type": "Point", "coordinates": [-100.8013648436, 46.8055550694]}, "type": "Feature", "properties": {"collection_times": [{"days": "Mon-Fri", "time": "4:15pm"}, {"days": "Sat-Sun", "time": "Closed"}], "id": "5850400024", "name": "USPS COLLECTION BOX - BLUE BOX", "address": {"city": "BISMARCK", "state": "ND", "street": "723 MEMORIAL HWY", "postcode": "58504"}}},
{"geometry": {"type": "Point", "coordinates": [-100.79462816, 46.7936179449]}, "type": "Feature", "properties": {"collection_times": [{"days": "Mon-Fri", "time": "4:30pm"}, {"days": "Sat-Sun", "time": "Closed"}], "id": "5850400030", "name": "USPS COLLECTION BOX - BLUE BOX", "address": {"city": "BISMARCK", "state": "ND", "street": "1020 S WASHINGTON ST", "postcode": "58504"}}},
{"geometry": {"type": "Point", "coordinates": [-100.789398032, 46.8000903517]}, "type": "Feature", "properties": {"collection_times": [{"days": "Mon-Fri", "time": "4:15pm"}, {"days": "Sat-Sun", "time": "Closed"}], "id": "5850400034", "name": "USPS COLLECTION BOX - BLUE BOX", "address": {"city": "BISMARCK", "state": "ND", "street": "600 S 2ND ST", "postcode": "58504"}}},
{"geometry": {"type": "Point", "coordinates": [-100.7673465792, 46.7824161496]}, "type": "Feature", "properties": {"collection_times": [{"days": "Mon-Sat", "time": "11:00am"}, {"days": "Sun", "time": "Closed"}], "id": "5850400035", "name": "USPS COLLECTION BOX - BLUE BOX", "address": {"city": "BISMARCK", "state": "ND", "street": "2301 UNIVERSITY DR", "postcode": "58504"}}},
{"geometry": {"type": "Point", "coordinates": [-100.7571395258, 46.7947375718]}, "type": "Feature", "properties": {"collection_times": [{"days": "Mon-Sat", "time": "7:00pm"}, {"days": "Sun", "time": "Closed"}], "id": "5850400036", "name": "USPS COLLECTION BOX - PO LOBBY", "address": {"city": "BISMARCK", "state": "ND", "street": "2220 E BISMARCK EXPY", "postcode": "58504"}}},
{"geometry": {"type": "Point", "coordinates": [-100.7630989203, 46.7764080538]}, "type": "Feature", "properties": {"collection_times": [{"days": "Mon-Sat", "time": "12:00pm"}, {"days": "Sun", "time": "Closed"}], "id": "5850400037", "name": "USPS COLLECTION BOX - BLUE BOX", "address": {"city": "BISMARCK", "state": "ND", "street": "99 MCDOUGALL DR", "postcode": "58504"}}},
{"geometry": {"type": "Point", "coordinates": [-101.5041505332, 46.7264235783]}, "type": "Feature", "properties": {"collection_times": [{"days": "Mon-Sat", "time": "12:00pm"}, {"days": "Sun", "time": "Closed"}], "id": "5852000000", "name": "USPS COLLECTION BOX - BLUE BOX", "address": {"city": "ALMONT", "state": "ND", "street": "206 MAIN ST", "postcode": "58520"}}},
{"geometry": {"type": "Point", "coordinates": [-101.5041505332, 46.7264235783]}, "type": "Feature", "properties": {"collection_times": [{"days": "Mon-Sat", "time": "12:00pm"}, {"days": "Sun", "time": "Closed"}], "id": "5852000001", "name": "USPS COLLECTION BOX - PO LOBBY", "address": {"city": "ALMONT", "state": "ND", "street": "206 MAIN ST", "postcode": "58520"}}},
{"geometry": {"type": "Point", "coordinates": [-100.7493797209, 47.0265037102]}, "type": "Feature", "properties": {"collection_times": [{"days": "Mon-Fri", "time": "5:15pm"}, {"days": "Sat", "time": "11:15am"}, {"days": "Sun", "time": "Closed"}], "id": "5852100002", "name": "USPS COLLECTION BOX - PO LOBBY", "address": {"city": "BALDWIN", "state": "ND", "street": "20101 26TH ST NE", "postcode": "58521"}}},
{"geometry": {"type": "Point", "coordinates": [-101.777810105, 47.2634358345]}, "type": "Feature", "properties": {"collection_times": [{"days": "Mon-Sat", "time": "2:45pm"}, {"days": "Sun", "time": "Closed"}], "id": "5852300001", "name": "USPS COLLECTION BOX - BLUE BOX", "address": {"city": "BEULAH", "state": "ND", "street": "111 E MAIN ST", "postcode": "58523"}}},
{"geometry": {"type": "Point", "coordinates": [-101.777810105, 47.2634358345]}, "type": "Feature", "properties": {"collection_times": [{"days": "Mon-Fri", "time": "2:45pm"}, {"days": "Sat", "time": "11:00am"}, {"days": "Sun", "time": "Closed"}], "id": "5852300002", "name": "USPS COLLECTION BOX - PO LOBBY", "address": {"city": "BEULAH", "state": "ND", "street": "111 E MAIN ST", "postcode": "58523"}}},
{"geometry": {"type": "Point", "coordinates": [-101.5647738061, 46.4208145944]}, "type": "Feature", "properties": {"collection_times": [{"days": "Mon-Sat", "time": "4:35pm"}, {"days": "Sun", "time": "Closed"}], "id": "5852900001", "name": "USPS COLLECTION BOX - BLUE BOX", "address": {"city": "CARSON", "state": "ND", "street": "217 N MAIN ST", "postcode": "58529"}}},
{"geometry": {"type": "Point", "coordinates": [-101.5647738061, 46.4208145944]}, "type": "Feature", "properties": {"collection_times": [{"days": "Mon-Fri", "time": "3:00pm"}, {"days": "Sat", "time": "9:45am"}, {"days": "Sun", "time": "Closed"}], "id": "5852900002", "name": "USPS COLLECTION BOX - PO LOBBY", "address": {"city": "CARSON", "state": "ND", "street": "217 N MAIN ST", "postcode": "58529"}}},
{"geometry": {"type": "Point", "coordinates": [-101.2997620758, 47.1171380312]}, "type": "Feature", "properties": {"collection_times": [{"days": "Mon-Sat", "time": "5:00pm"}, {"days": "Sun", "time": "Closed"}], "id": "5853000002", "name": "USPS COLLECTION BOX - BLUE BOX", "address": {"city": "CENTER", "state": "ND", "street": "115 S CENTER AVE", "postcode": "58530"}}},
{"geometry": {"type": "Point", "coordinates": [-101.2997620758, 47.1171380312]}, "type": "Feature", "properties": {"collection_times": [{"days": "Mon-Fri", "time": "3:00pm"}, {"days": "Sat", "time": "10:00am"}, {"days": "Sun", "time": "Closed"}], "id": "5853000003", "name": "USPS COLLECTION BOX - PO LOBBY", "address": {"city": "CENTER", "state": "ND", "street": "115 S CENTER AVE", "postcode": "58530"}}},
{"geometry": {"type": "Point", "coordinates": [-101.1972999965, 47.5853386515]}, "type": "Feature", "properties": {"collection_times": [{"days": "Mon-Sat", "time": "4:15pm"}, {"days": "Sun", "time": "Closed"}], "id": "5853100001", "name": "USPS COLLECTION BOX - BLUE BOX", "address": {"city": "COLEHARBOR", "state": "ND", "street": "123 MAIN ST", "postcode": "58531"}}},
{"geometry": {"type": "Point", "coordinates": [-101.2224388567, 47.5422530712]}, "type": "Feature", "properties": {"collection_times": [{"days": "Mon-Fri", "time": "3:00pm"}, {"days": "Sat", "time": "1:30pm"}, {"days": "Sun", "time": "Closed"}], "id": "5853100002", "name": "USPS COLLECTION BOX - PO LOBBY", "address": {"city": "COLEHARBOR", "state": "ND", "street": "123 MAIN ST", "postcode": "58531"}}},
{"geometry": {"type": "Point", "coordinates": [-101.8453955378, 46.403252557]}, "type": "Feature", "properties": {"collection_times": [{"days": "Mon-Fri", "time": "3:45pm"}, {"days": "Sat", "time": "4:10pm"}, {"days": "Sun", "time": "Closed"}], "id": "5853300001", "name": "USPS COLLECTION BOX - BLUE BOX", "address": {"city": "ELGIN", "state": "ND", "street": "213 N MAIN ST", "postcode": "58533"}}},
{"geometry": {"type": "Point", "coordinates": [-101.8453955378, 46.403252557]}, "type": "Feature", "properties": {"collection_times": [{"days": "Mon-Fri", "time": "3:58pm"}, {"days": "Sat", "time": "9:58am"}, {"days": "Sun", "time": "Closed"}], "id": "5853300002", "name": "USPS COLLECTION BOX - PO LOBBY", "address": {"city": "ELGIN", "state": "ND", "street": "213 N MAIN ST", "postcode": "58533"}}},
{"geometry": {"type": "Point", "coordinates": [-101.2319730522, 46.4538219658]}, "type": "Feature", "properties": {"collection_times": [{"days": "Mon-Sat", "time": "6:00pm"}, {"days": "Sun", "time": "Closed"}], "id": "5853500001", "name": "USPS COLLECTION BOX - BLUE BOX", "address": {"city": "FLASHER", "state": "ND", "street": "107 N MAIN ST", "postcode": "58535"}}},
{"geometry": {"type": "Point", "coordinates": [-101.2319730522, 46.4538219658]}, "type": "Feature", "properties": {"collection_times": [{"days": "Mon-Fri", "time": "3:25pm"}, {"days": "Sat", "time": "8:40am"}, {"days": "Sun", "time": "Closed"}], "id": "5853500002", "name": "USPS COLLECTION BOX - PO LOBBY", "address": {"city": "FLASHER", "state": "ND", "street": "107 N MAIN ST", "postcode": "58535"}}},
{"geometry": {"type": "Point", "coordinates": [-100.7392882902, 46.0345896098]}, "type": "Feature", "properties": {"collection_times": [{"days": "Mon-Sat", "time": "3:20pm"}, {"days": "Sun", "time": "Closed"}], "id": "5853800001", "name": "USPS COLLECTION BOX - BLUE BOX", "address": {"city": "FT YATES", "state": "ND", "street": "110 S RIVER RD", "postcode": "58538"}}},
{"geometry": {"type": "Point", "coordinates": [-100.7392882902, 46.0345896098]}, "type": "Feature", "properties": {"collection_times": [{"days": "Mon-Fri", "time": "3:20pm"}, {"days": "Sat", "time": "10:30am"}, {"days": "Sun", "time": "Closed"}], "id": "5853800002", "name": "USPS COLLECTION BOX - PO LOBBY", "address": {"city": "FT YATES", "state": "ND", "street": "110 S RIVER RD", "postcode": "58538"}}},
{"geometry": {"type": "Point", "coordinates": [-101.4174067788, 47.6523838922]}, "type": "Feature", "properties": {"collection_times": [{"days": "Mon-Sat", "time": "3:45pm"}, {"days": "Sun", "time": "Closed"}], "id": "5854000001", "name": "USPS COLLECTION BOX - BLUE BOX", "address": {"city": "GARRISON", "state": "ND", "street": "33 1ST AVE NW", "postcode": "58540"}}},
{"geometry": {"type": "Point", "coordinates": [-101.4174067788, 47.6523838922]}, "type": "Feature", "properties": {"collection_times": [{"days": "Mon-Fri", "time": "3:45pm"}, {"days": "Sat", "time": "12:00pm"}, {"days": "Sun", "time": "Closed"}], "id": "5854000003", "name": "USPS COLLECTION BOX - PO LOBBY", "address": {"city": "GARRISON", "state": "ND", "street": "33 1ST AVE NW", "postcode": "58540"}}},
{"geometry": {"type": "Point", "coordinates": [-102.064767731, 47.289668401]}, "type": "Feature", "properties": {"collection_times": [{"days": "Mon-Sat", "time": "2:00pm"}, {"days": "Sun", "time": "Closed"}], "id": "5854100001", "name": "USPS COLLECTION BOX - BLUE BOX", "address": {"city": "GOLDEN VALLEY", "state": "ND", "street": "13 MAIN ST W", "postcode": "58541"}}},
{"geometry": {"type": "Point", "coordinates": [-102.064767731, 47.289668401]}, "type": "Feature", "properties": {"collection_times": [{"days": "Mon-Fri", "time": "2:00pm"}, {"days": "Sat", "time": "12:00pm"}, {"days": "Sun", "time": "Closed"}], "id": "5854100002", "name": "USPS COLLECTION BOX - PO LOBBY", "address": {"city": "GOLDEN VALLEY", "state": "ND", "street": "13 MAIN ST W", "postcode": "58541"}}},
{"geometry": {"type": "Point", "coordinates": [-99.9965335895, 46.0289616366]}, "type": "Feature", "properties": {"collection_times": [{"days": "Mon-Sat", "time": "3:05pm"}, {"days": "Sun", "time": "Closed"}], "id": "5854200001", "name": "USPS COLLECTION BOX - BLUE BOX", "address": {"city": "HAGUE", "state": "ND", "street": "215 MAIN AVE W", "postcode": "58542"}}},
{"geometry": {"type": "Point", "coordinates": [-99.9965335895, 46.0289616366]}, "type": "Feature", "properties": {"collection_times": [{"days": "Mon-Fri", "time": "3:05pm"}, {"days": "Sat-Sun", "time": "Closed"}], "id": "5854200002", "name": "USPS COLLECTION BOX - PO LOBBY", "address": {"city": "HAGUE", "state": "ND", "street": "215 MAIN AVE W", "postcode": "58542"}}},
{"geometry": {"type": "Point", "coordinates": [-100.2774294491, 46.48484456]}, "type": "Feature", "properties": {"collection_times": [{"days": "Mon-Sat", "time": "4:10pm"}, {"days": "Sun", "time": "Closed"}], "id": "5854400001", "name": "USPS COLLECTION BOX - BLUE BOX", "address": {"city": "HAZELTON", "state": "ND", "street": "345 MAIN ST", "postcode": "58544"}}},
{"geometry": {"type": "Point", "coordinates": [-100.2774294491, 46.48484456]}, "type": "Feature", "properties": {"collection_times": [{"days": "Mon-Fri", "time": "4:10pm"}, {"days": "Sat", "time": "9:55am"}, {"days": "Sun", "time": "Closed"}], "id": "5854400002", "name": "USPS COLLECTION BOX - PO LOBBY", "address": {"city": "HAZELTON", "state": "ND", "street": "345 MAIN ST", "postcode": "58544"}}},
{"geometry": {"type": "Point", "coordinates": [-101.6248283325, 47.2943276448]}, "type": "Feature", "properties": {"collection_times": [{"days": "Mon-Sat", "time": "3:05pm"}, {"days": "Sun", "time": "Closed"}], "id": "5854500001", "name": "USPS COLLECTION BOX - BLUE BOX", "address": {"city": "HAZEN", "state": "ND", "street": "13 1ST AVE SW", "postcode": "58545"}}},
{"geometry": {"type": "Point", "coordinates": [-101.6248283325, 47.2943276448]}, "type": "Feature", "properties": {"collection_times": [{"days": "Mon-Fri", "time": "3:05pm"}, {"days": "Sat", "time": "10:15am"}, {"days": "Sun", "time": "Closed"}], "id": "5854500003", "name": "USPS COLLECTION BOX - PO LOBBY", "address": {"city": "HAZEN", "state": "ND", "street": "13 1ST AVE SW", "postcode": "58545"}}},
{"geometry": {"type": "Point", "coordinates": [-100.234449418, 46.2680697306]}, "type": "Feature", "properties": {"collection_times": [{"days": "Mon-Sat", "time": "3:55pm"}, {"days": "Sun", "time": "Closed"}], "id": "5855200001", "name": "USPS COLLECTION BOX - BLUE BOX", "address": {"city": "LINTON", "state": "ND", "street": "115 NW 1ST ST", "postcode": "58552"}}},
{"geometry": {"type": "Point", "coordinates": [-100.234449418, 46.2680697306]}, "type": "Feature", "properties": {"collection_times": [{"days": "Mon-Fri", "time": "3:55pm"}, {"days": "Sat", "time": "9:55am"}, {"days": "Sun", "time": "Closed"}], "id": "5855200002", "name": "USPS COLLECTION BOX - PO LOBBY", "address": {"city": "LINTON", "state": "ND", "street": "115 NW 1ST ST", "postcode": "58552"}}},
{"geometry": {"type": "Point", "coordinates": [-100.8985335679, 46.8263865064]}, "type": "Feature", "properties": {"collection_times": [{"days": "Mon-Sat", "time": "3:00pm"}, {"days": "Sun", "time": "Closed"}], "id": "5855400005", "name": "USPS COLLECTION BOX - BLUE BOX", "address": {"city": "MANDAN", "state": "ND", "street": "606 1ST ST NW", "postcode": "58554"}}},
{"geometry": {"type": "Point", "coordinates": [-100.8746460977, 46.8285759037]}, "type": "Feature", "properties": {"collection_times": [{"days": "Mon-Sat", "time": "3:00pm"}, {"days": "Sun", "time": "Closed"}], "id": "5855400008", "name": "USPS COLLECTION BOX - BLUE BOX", "address": {"city": "MANDAN", "state": "ND", "street": "1210 E MAIN ST", "postcode": "58554"}}},
{"geometry": {"type": "Point", "coordinates": [-100.8902382638, 46.8285793235]}, "type": "Feature", "properties": {"collection_times": [{"days": "Mon-Fri", "time": "6:45pm"}, {"days": "Sat", "time": "4:00pm"}, {"days": "Sun", "time": "Closed"}], "id": "5855400010", "name": "USPS COLLECTION BOX - BLUE BOX", "address": {"city": "MANDAN", "state": "ND", "street": "300 COLLINS AVE", "postcode": "58554"}}},
{"geometry": {"type": "Point", "coordinates": [-100.8902382638, 46.8285793235]}, "type": "Feature", "properties": {"collection_times": [{"days": "Mon-Fri", "time": "6:45pm"}, {"days": "Sat", "time": "4:00pm"}, {"days": "Sun", "time": "Closed"}], "id": "5855400013", "name": "USPS COLLECTION BOX - BLUE BOX", "address": {"city": "MANDAN", "state": "ND", "street": "300 COLLINS AVE", "postcode": "58554"}}},
{"geometry": {"type": "Point", "coordinates": [-100.8928823241, 46.8261894954]}, "type": "Feature", "properties": {"collection_times": [{"days": "Mon-Sat", "time": "3:00pm"}, {"days": "Sun", "time": "Closed"}], "id": "5855400017", "name": "USPS COLLECTION BOX - BLUE BOX", "address": {"city": "MANDAN", "state": "ND", "street": "111 2ND AVE NW", "postcode": "58554"}}},
{"geometry": {"type": "Point", "coordinates": [-100.8902382638, 46.8285793235]}, "type": "Feature", "properties": {"collection_times": [{"days": "Mon-Fri", "time": "5:00pm"}, {"days": "Sat", "time": "4:00pm"}, {"days": "Sun", "time": "Closed"}], "id": "5855400021", "name": "USPS COLLECTION BOX - PO LOBBY", "address": {"city": "MANDAN", "state": "ND", "street": "300 COLLINS AVE", "postcode": "58554"}}},
{"geometry": {"type": "Point", "coordinates": [-100.8897961462, 46.8265104904]}, "type": "Feature", "properties": {"collection_times": [{"days": "Mon-Sat", "time": "3:00pm"}, {"days": "Sun", "time": "Closed"}], "id": "5855400028", "name": "USPS COLLECTION BOX - BLUE BOX", "address": {"city": "MANDAN", "state": "ND", "street": "100 W MAIN ST", "postcode": "58554"}}},
{"geometry": {"type": "Point", "coordinates": [-100.8828476332, 46.824296139]}, "type": "Feature", "properties": {"collection_times": [{"days": "Mon-Fri", "time": "6:00pm"}, {"days": "Sat", "time": "4:00pm"}, {"days": "Sun", "time": "Closed"}], "id": "5855400029", "name": "USPS COLLECTION BOX - BLUE BOX", "address": {"city": "MANDAN", "state": "ND", "street": "500 BURLINGTON ST SE", "postcode": "58554"}}},
{"geometry": {"type": "Point", "coordinates": [-100.5315471181, 46.8190047195]}, "type": "Feature", "properties": {"collection_times": [{"days": "Mon-Fri", "time": "1:00pm"}, {"days": "Sat", "time": "5:30pm"}, {"days": "Sun", "time": "Closed"}], "id": "5855800001", "name": "USPS COLLECTION BOX - BLUE BOX", "address": {"city": "MENOKEN", "state": "ND", "street": "12 FRONT AVE E", "postcode": "58558"}}},
{"geometry": {"type": "Point", "coordinates": [-100.5315471181, 46.8190047195]}, "type": "Feature", "properties": {"collection_times": [{"days": "Mon-Fri", "time": "12:50pm"}, {"days": "Sat-Sun", "time": "Closed"}], "id": "5855800002", "name": "USPS COLLECTION BOX - PO LOBBY", "address": {"city": "MENOKEN", "state": "ND", "street": "12 FRONT AVE E", "postcode": "58558"}}},
{"geometry": {"type": "Point", "coordinates": [-100.7117408298, 47.4899845161]}, "type": "Feature", "properties": {"collection_times": [{"days": "Mon-Sat", "time": "4:00pm"}, {"days": "Sun", "time": "Closed"}], "id": "5855900001", "name": "USPS COLLECTION BOX - BLUE BOX", "address": {"city": "MERCER", "state": "ND", "street": "101 MAIN ST", "postcode": "58559"}}},
{"geometry": {"type": "Point", "coordinates": [-100.7117408298, 47.4899845161]}, "type": "Feature", "properties": {"collection_times": [{"days": "Mon-Sat", "time": "12:00pm"}, {"days": "Sun", "time": "Closed"}], "id": "5855900002", "name": "USPS COLLECTION BOX - PO LOBBY", "address": {"city": "MERCER", "state": "ND", "street": "101 MAIN ST", "postcode": "58559"}}},
{"geometry": {"type": "Point", "coordinates": [-100.3158648657, 46.6521045407]}, "type": "Feature", "properties": {"collection_times": [{"days": "Mon-Sat", "time": "4:35pm"}, {"days": "Sun", "time": "Closed"}], "id": "5856000000", "name": "USPS COLLECTION BOX - BLUE BOX", "address": {"city": "MOFFIT", "state": "ND", "street": "206 MAIN ST N", "postcode": "58560"}}},
{"geometry": {"type": "Point", "coordinates": [-100.3158648657, 46.6521045407]}, "type": "Feature", "properties": {"collection_times": [{"days": "Mon-Fri", "time": "11:45am"}, {"days": "Sat", "time": "12:15pm"}, {"days": "Sun", "time": "Closed"}], "id": "5856000001", "name": "USPS COLLECTION BOX - PO LOBBY", "address": {"city": "MOFFIT", "state": "ND", "street": "206 MAIN ST N", "postcode": "58560"}}},
{"geometry": {"type": "Point", "coordinates": [-99.7689815914, 46.501101004]}, "type": "Feature", "properties": {"collection_times": [{"days": "Mon-Sat", "time": "2:45pm"}, {"days": "Sun", "time": "Closed"}], "id": "5856100001", "name": "USPS COLLECTION BOX - BLUE BOX", "address": {"city": "NAPOLEON", "state": "ND", "street": "104 BROADWAY", "postcode": "58561"}}},
{"geometry": {"type": "Point", "coordinates": [-99.7691153142, 46.5011698307]}, "type": "Feature", "properties": {"collection_times": [{"days": "Mon-Fri", "time": "2:45pm"}, {"days": "Sat", "time": "10:55am"}, {"days": "Sun", "time": "Closed"}], "id": "5856100002", "name": "USPS COLLECTION BOX - PO LOBBY", "address": {"city": "NAPOLEON", "state": "ND", "street": "104 BROADWAY", "postcode": "58561"}}},
{"geometry": {"type": "Point", "coordinates": [-99.7719622237, 46.5025918847]}, "type": "Feature", "properties": {"collection_times": [{"days": "Mon-Sat", "time": "3:00pm"}, {"days": "Sun", "time": "Closed"}], "id": "5856100003", "name": "USPS COLLECTION BOX - BLUE BOX", "address": {"city": "NAPOLEON", "state": "ND", "street": "350 MAIN AVE", "postcode": "58561"}}},
{"geometry": {"type": "Point", "coordinates": [-101.948255198, 46.3744557145]}, "type": "Feature", "properties": {"collection_times": [{"days": "Mon-Sat", "time": "4:00pm"}, {"days": "Sun", "time": "Closed"}], "id": "5856200001", "name": "USPS COLLECTION BOX - BLUE BOX", "address": {"city": "NEW LEIPZIG", "state": "ND", "street": "115 MAIN AVE", "postcode": "58562"}}},
{"geometry": {"type": "Point", "coordinates": [-101.948255198, 46.3744557145]}, "type": "Feature", "properties": {"collection_times": [{"days": "Mon-Fri", "time": "12:00pm"}, {"days": "Sat", "time": "9:28am"}, {"days": "Sun", "time": "Closed"}], "id": "5856200002", "name": "USPS COLLECTION BOX - PO LOBBY", "address": {"city": "NEW LEIPZIG", "state": "ND", "street": "115 MAIN AVE", "postcode": "58562"}}},
{"geometry": {"type": "Point", "coordinates": [-101.4114803037, 46.8461231375]}, "type": "Feature", "properties": {"collection_times": [{"days": "Mon-Sat", "time": "5:40pm"}, {"days": "Sun", "time": "Closed"}], "id": "5856300001", "name": "USPS COLLECTION BOX - BLUE BOX", "address": {"city": "NEW SALEM", "state": "ND", "street": "110 N 4TH ST", "postcode": "58563"}}},
{"geometry": {"type": "Point", "coordinates": [-101.4114803037, 46.8461231375]}, "type": "Feature", "properties": {"collection_times": [{"days": "Mon-Fri", "time": "2:30pm"}, {"days": "Sat", "time": "10:00am"}, {"days": "Sun", "time": "Closed"}], "id": "5856300003", "name": "USPS COLLECTION BOX - PO LOBBY", "address": {"city": "NEW SALEM", "state": "ND", "street": "110 N 4TH ST", "postcode": "58563"}}},
{"geometry": {"type": "Point", "coordinates": [-101.3728106471, 47.4984289819]}, "type": "Feature", "properties": {"collection_times": [{"days": "Mon-Sat", "time": "4:35pm"}, {"days": "Sun", "time": "Closed"}], "id": "5856500002", "name": "USPS COLLECTION BOX - BLUE BOX", "address": {"city": "RIVERDALE", "state": "ND", "street": "302 2ND ST", "postcode": "58565"}}},
{"geometry": {"type": "Point", "coordinates": [-101.3728106471, 47.4984289819]}, "type": "Feature", "properties": {"collection_times": [{"days": "Mon-Fri", "time": "4:35pm"}, {"days": "Sat", "time": "10:50am"}, {"days": "Sun", "time": "Closed"}], "id": "5856500003", "name": "USPS COLLECTION BOX - PO LOBBY", "address": {"city": "RIVERDALE", "state": "ND", "street": "302 2ND ST", "postcode": "58565"}}},
{"geometry": {"type": "Point", "coordinates": [-101.0989830944, 46.0813723596]}, "type": "Feature", "properties": {"collection_times": [{"days": "Mon-Fri", "time": "3:30pm"}, {"days": "Sat", "time": "12:30pm"}, {"days": "Sun", "time": "Closed"}], "id": "5856800001", "name": "USPS COLLECTION BOX - BLUE BOX", "address": {"city": "SELFRIDGE", "state": "ND", "street": "70 S MAIN ST", "postcode": "58568"}}},
{"geometry": {"type": "Point", "coordinates": [-101.0989830944, 46.0813723596]}, "type": "Feature", "properties": {"collection_times": [{"days": "Mon-Fri", "time": "3:30pm"}, {"days": "Sat", "time": "9:30am"}, {"days": "Sun", "time": "Closed"}], "id": "5856800002", "name": "USPS COLLECTION BOX - PO LOBBY", "address": {"city": "SELFRIDGE", "state": "ND", "street": "70 S MAIN ST", "postcode": "58568"}}},
{"geometry": {"type": "Point", "coordinates": [-100.7966160877, 46.3872520892]}, "type": "Feature", "properties": {"collection_times": [{"days": "Mon-Sat", "time": "4:05pm"}, {"days": "Sun", "time": "Closed"}], "id": "5857000001", "name": "USPS COLLECTION BOX - BLUE BOX", "address": {"city": "SOLEN", "state": "ND", "street": "202 N MAIN ST", "postcode": "58570"}}},
{"geometry": {"type": "Point", "coordinates": [-100.7966160877, 46.3872520892]}, "type": "Feature", "properties": {"collection_times": [{"days": "Mon-Fri", "time": "12:30pm"}, {"days": "Sat", "time": "9:30am"}, {"days": "Sun", "time": "Closed"}], "id": "5857000002", "name": "USPS COLLECTION BOX - PO LOBBY", "address": {"city": "SOLEN", "state": "ND", "street": "202 N MAIN ST", "postcode": "58570"}}},
{"geometry": {"type": "Point", "coordinates": [-101.3843776784, 47.3210179976]}, "type": "Feature", "properties": {"collection_times": [{"days": "Mon-Sat", "time": "4:00pm"}, {"days": "Sun", "time": "Closed"}], "id": "5857100001", "name": "USPS COLLECTION BOX - BLUE BOX", "address": {"city": "STANTON", "state": "ND", "street": "119 HARMON AVE", "postcode": "58571"}}},
{"geometry": {"type": "Point", "coordinates": [-101.3843776784, 47.3210179976]}, "type": "Feature", "properties": {"collection_times": [{"days": "Mon-Fri", "time": "4:00pm"}, {"days": "Sat", "time": "9:45am"}, {"days": "Sun", "time": "Closed"}], "id": "5857100002", "name": "USPS COLLECTION BOX - PO LOBBY", "address": {"city": "STANTON", "state": "ND", "street": "119 HARMON AVE", "postcode": "58571"}}},
{"geometry": {"type": "Point", "coordinates": [-100.3304580327, 46.8455588163]}, "type": "Feature", "properties": {"collection_times": [{"days": "Mon-Fri", "time": "4:00pm"}, {"days": "Sat", "time": "4:55pm"}, {"days": "Sun", "time": "Closed"}], "id": "5857200001", "name": "USPS COLLECTION BOX - BLUE BOX", "address": {"city": "STERLING", "state": "ND", "street": "108 MAIN AVE", "postcode": "58572"}}},
{"geometry": {"type": "Point", "coordinates": [-100.3304580327, 46.8455588163]}, "type": "Feature", "properties": {"collection_times": [{"days": "Mon-Fri", "time": "1:30pm"}, {"days": "Sat", "time": "1:45pm"}, {"days": "Sun", "time": "Closed"}], "id": "5857200003", "name": "USPS COLLECTION BOX - BLUE BOX", "address": {"city": "STERLING", "state": "ND", "street": "20 MAIN ST S", "postcode": "58572"}}},
{"geometry": {"type": "Point", "coordinates": [-100.3304580327, 46.8455588163]}, "type": "Feature", "properties": {"collection_times": [{"days": "Mon-Fri", "time": "4:15pm"}, {"days": "Sat-Sun", "time": "Closed"}], "id": "5857200004", "name": "USPS COLLECTION BOX - PO LOBBY", "address": {"city": "STERLING", "state": "ND", "street": "108 MAIN AVE", "postcode": "58572"}}},
{"geometry": {"type": "Point", "coordinates": [-100.3304580327, 46.8455588163]}, "type": "Feature", "properties": {"collection_times": [{"days": "Mon-Sat", "time": "4:55pm"}, {"days": "Sun", "time": "Closed"}], "id": "5857200007", "name": "USPS COLLECTION BOX - BLUE BOX", "address": {"city": "STERLING", "state": "ND", "street": "104 E MAIN AVE", "postcode": "58572"}}},
{"geometry": {"type": "Point", "coordinates": [-100.1613734737, 46.1337501715]}, "type": "Feature", "properties": {"collection_times": [{"days": "Mon-Sat", "time": "3:30pm"}, {"days": "Sun", "time": "Closed"}], "id": "5857300001", "name": "USPS COLLECTION BOX - BLUE BOX", "address": {"city": "STRASBURG", "state": "ND", "street": "604 MAIN ST", "postcode": "58573"}}},
{"geometry": {"type": "Point", "coordinates": [-100.1613734737, 46.1337501715]}, "type": "Feature", "properties": {"collection_times": [{"days": "Mon-Fri", "time": "3:30pm"}, {"days": "Sat", "time": "10:00am"}, {"days": "Sun", "time": "Closed"}], "id": "5857300002", "name": "USPS COLLECTION BOX - PO LOBBY", "address": {"city": "STRASBURG", "state": "ND", "street": "604 MAIN ST", "postcode": "58573"}}},
{"geometry": {"type": "Point", "coordinates": [-100.8899155972, 47.52174607]}, "type": "Feature", "properties": {"collection_times": [{"days": "Mon-Sat", "time": "4:00pm"}, {"days": "Sun", "time": "Closed"}], "id": "5857500002", "name": "USPS COLLECTION BOX - BLUE BOX", "address": {"city": "TURTLE LAKE", "state": "ND", "street": "113 MAIN ST", "postcode": "58575"}}},
{"geometry": {"type": "Point", "coordinates": [-100.8899155972, 47.52174607]}, "type": "Feature", "properties": {"collection_times": [{"days": "Mon-Fri", "time": "4:00pm"}, {"days": "Sat", "time": "10:30am"}, {"days": "Sun", "time": "Closed"}], "id": "5857500004", "name": "USPS COLLECTION BOX - PO LOBBY", "address": {"city": "TURTLE LAKE", "state": "ND", "street": "113 MAIN ST", "postcode": "58575"}}},
{"geometry": {"type": "Point", "coordinates": [-101.1379762093, 47.4571089256]}, "type": "Feature", "properties": {"collection_times": [{"days": "Mon-Sat", "time": "5:00pm"}, {"days": "Sun", "time": "Closed"}], "id": "5857600001", "name": "USPS COLLECTION BOX - BLUE BOX", "address": {"city": "UNDERWOOD", "state": "ND", "street": "301 1ST ST", "postcode": "58576"}}},
{"geometry": {"type": "Point", "coordinates": [-101.1379762093, 47.4571089256]}, "type": "Feature", "properties": {"collection_times": [{"days": "Mon-Fri", "time": "4:20pm"}, {"days": "Sat", "time": "10:25am"}, {"days": "Sun", "time": "Closed"}], "id": "5857600002", "name": "USPS COLLECTION BOX - PO LOBBY", "address": {"city": "UNDERWOOD", "state": "ND", "street": "301 1ST ST", "postcode": "58576"}}},
{"geometry": {"type": "Point", "coordinates": [-101.028729782, 47.2888470658]}, "type": "Feature", "properties": {"collection_times": [{"days": "Mon-Sat", "time": "5:35pm"}, {"days": "Sun", "time": "Closed"}], "id": "5857700001", "name": "USPS COLLECTION BOX - BLUE BOX", "address": {"city": "WASHBURN", "state": "ND", "street": "721 MAIN AVE", "postcode": "58577"}}},
{"geometry": {"type": "Point", "coordinates": [-101.028729782, 47.2888470658]}, "type": "Feature", "properties": {"collection_times": [{"days": "Mon-Fri", "time": "4:00pm"}, {"days": "Sat", "time": "10:00am"}, {"days": "Sun", "time": "Closed"}], "id": "5857700002", "name": "USPS COLLECTION BOX - PO LOBBY", "address": {"city": "WASHBURN", "state": "ND", "street": "721 MAIN AVE", "postcode": "58577"}}},
{"geometry": {"type": "Point", "coordinates": [-100.7824011144, 47.1586749497]}, "type": "Feature", "properties": {"collection_times": [{"days": "Mon-Sat", "time": "5:50pm"}, {"days": "Sun", "time": "Closed"}], "id": "5857900001", "name": "USPS COLLECTION BOX - BLUE BOX", "address": {"city": "WILTON", "state": "ND", "street": "25 DAKOTA AVE", "postcode": "58579"}}},
{"geometry": {"type": "Point", "coordinates": [-100.7704593598, 47.1712995796]}, "type": "Feature", "properties": {"collection_times": [{"days": "Mon-Sat", "time": "1:30pm"}, {"days": "Sun", "time": "Closed"}], "id": "5857900002", "name": "USPS COLLECTION BOX - BLUE BOX", "address": {"city": "WILTON", "state": "ND", "street": "615 MINNIE AVE", "postcode": "58579"}}},
{"geometry": {"type": "Point", "coordinates": [-100.7824011144, 47.1586749497]}, "type": "Feature", "properties": {"collection_times": [{"days": "Mon-Fri", "time": "3:00pm"}, {"days": "Sat", "time": "9:30am"}, {"days": "Sun", "time": "Closed"}], "id": "5857900003", "name": "USPS COLLECTION BOX - PO LOBBY", "address": {"city": "WILTON", "state": "ND", "street": "25 DAKOTA AVE", "postcode": "58579"}}},
{"geometry": {"type": "Point", "coordinates": [-101.9243622481, 47.2875616135]}, "type": "Feature", "properties": {"collection_times": [{"days": "Mon-Sat", "time": "2:15pm"}, {"days": "Sun", "time": "Closed"}], "id": "5858000001", "name": "USPS COLLECTION BOX - BLUE BOX", "address": {"city": "ZAP", "state": "ND", "street": "113 MAIN ST", "postcode": "58580"}}},
{"geometry": {"type": "Point", "coordinates": [-101.9243622481, 47.2875616135]}, "type": "Feature", "properties": {"collection_times": [{"days": "Mon-Fri", "time": "12:00pm"}, {"days": "Sat", "time": "9:45am"}, {"days": "Sun", "time": "Closed"}], "id": "5858000002", "name": "USPS COLLECTION BOX - PO LOBBY", "address": {"city": "ZAP", "state": "ND", "street": "113 MAIN ST", "postcode": "58580"}}},
{"geometry": {"type": "Point", "coordinates": [-99.8305621028, 45.9727299042]}, "type": "Feature", "properties": {"collection_times": [{"days": "Mon-Sat", "time": "2:45pm"}, {"days": "Sun", "time": "Closed"}], "id": "5858100001", "name": "USPS COLLECTION BOX - BLUE BOX", "address": {"city": "ZEELAND", "state": "ND", "street": "108 S MAIN", "postcode": "58581"}}},
{"geometry": {"type": "Point", "coordinates": [-99.8305621028, 45.9727299042]}, "type": "Feature", "properties": {"collection_times": [{"days": "Mon-Fri", "time": "2:45pm"}, {"days": "Sat", "time": "10:00am"}, {"days": "Sun", "time": "Closed"}], "id": "5858100002", "name": "USPS COLLECTION BOX - PO LOBBY", "address": {"city": "ZEELAND", "state": "ND", "street": "108 S MAIN", "postcode": "58581"}}}
]}
