{"type": "FeatureCollection", "features": [
{"geometry": {"type": "Point", "coordinates": [-102.7898503327, 46.8937081832]}, "type": "Feature", "properties": {"collection_times": [{"days": "Mon-Sat", "time": "2:30pm"}, {"days": "Sun", "time": "Closed"}], "id": "5860100002", "name": "USPS COLLECTION BOX - BLUE BOX", "address": {"city": "DICKINSON", "state": "ND", "street": "1173 3RD AVE W", "postcode": "58601"}}},
{"geometry": {"type": "Point", "coordinates": [-102.7852187531, 46.8786275287]}, "type": "Feature", "properties": {"collection_times": [{"days": "Mon-Sat", "time": "3:30pm"}, {"days": "Sun", "time": "Closed"}], "id": "5860100005", "name": "USPS COLLECTION BOX - BLUE BOX", "address": {"city": "DICKINSON", "state": "ND", "street": "1283 ROUGHRIDER BLVD", "postcode": "58601"}}},
{"geometry": {"type": "Point", "coordinates": [-102.8003602725, 46.8819516375]}, "type": "Feature", "properties": {"collection_times": [{"days": "Mon-Sat", "time": "2:00pm"}, {"days": "Sun", "time": "Closed"}], "id": "5860100007", "name": "USPS COLLECTION BOX - BLUE BOX", "address": {"city": "DICKINSON", "state": "ND", "street": "291 CAMPUS DR", "postcode": "58601"}}},
{"geometry": {"type": "Point", "coordinates": [-102.789843431, 46.9011031624]}, "type": "Feature", "properties": {"collection_times": [{"days": "Mon-Sat", "time": "2:30pm"}, {"days": "Sun", "time": "Closed"}], "id": "5860100009", "name": "USPS COLLECTION BOX - BLUE BOX", "address": {"city": "DICKINSON", "state": "ND", "street": "1681 3RD AVE W", "postcode": "58601"}}},
{"geometry": {"type": "Point", "coordinates": [-102.785029343, 46.879747187]}, "type": "Feature", "properties": {"collection_times": [{"days": "Mon-Fri", "time": "5:00pm"}, {"days": "Sat", "time": "3:00pm"}, {"days": "Sun", "time": "Closed"}], "id": "5860100010", "name": "USPS COLLECTION BOX - PO LOBBY", "address": {"city": "DICKINSON", "state": "ND", "street": "15 1ST ST E", "postcode": "58601"}}},
{"geometry": {"type": "Point", "coordinates": [-102.785029343, 46.879747187]}, "type": "Feature", "properties": {"collection_times": [{"days": "Mon-Fri", "time": "5:00pm"}, {"days": "Sat", "time": "3:00pm"}, {"days": "Sun", "time": "Closed"}], "id": "5860100015", "name": "USPS COLLECTION BOX - APC", "address": {"city": "DICKINSON", "state": "ND", "street": "15 1ST ST E", "postcode": "58601"}}},
{"geometry": {"type": "Point", "coordinates": [-103.3198307262, 46.4833436241]}, "type": "Feature", "properties": {"collection_times": [{"days": "Mon-Sat", "time": "1:00pm"}, {"days": "Sun", "time": "Closed"}], "id": "5862000001", "name": "USPS COLLECTION BOX - BLUE BOX", "address": {"city": "AMIDON", "state": "ND", "street": "108 INMAN AVE", "postcode": "58620"}}},
{"geometry": {"type": "Point", "coordinates": [-103.3198307262, 46.4833436241]}, "type": "Feature", "properties": {"collection_times": [{"days": "Mon-Sat", "time": "12:00pm"}, {"days": "Sun", "time": "Closed"}], "id": "5862000002", "name": "USPS COLLECTION BOX - PO LOBBY", "address": {"city": "AMIDON", "state": "ND", "street": "108 INMAN AVE", "postcode": "58620"}}},
{"geometry": {"type": "Point", "coordinates": [-104.0062064195, 46.9156172743]}, "type": "Feature", "properties": {"collection_times": [{"days": "Mon-Sat", "time": "2:50pm"}, {"days": "Sun", "time": "Closed"}], "id": "5862100001", "name": "USPS COLLECTION BOX - BLUE BOX", "address": {"city": "BEACH", "state": "ND", "street": "177 S CENTRAL AVE", "postcode": "58621"}}},
{"geometry": {"type": "Point", "coordinates": [-104.0062064195, 46.9156172743]}, "type": "Feature", "properties": {"collection_times": [{"days": "Mon-Fri", "time": "2:50pm"}, {"days": "Sat", "time": "11:00am"}, {"days": "Sun", "time": "Closed"}], "id": "5862100002", "name": "USPS COLLECTION BOX - PO LOBBY", "address": {"city": "BEACH", "state": "ND", "street": "177 S CENTRAL AVE", "postcode": "58621"}}},
{"geometry": {"type": "Point", "coordinates": [-103.1996161273, 46.8852727761]}, "type": "Feature", "properties": {"collection_times": [{"days": "Mon-Sat", "time": "4:00pm"}, {"days": "Sun", "time": "Closed"}], "id": "5862200001", "name": "USPS COLLECTION BOX - BLUE BOX", "address": {"city": "BELFIELD", "state": "ND", "street": "105 1ST AVE NW", "postcode": "58622"}}},
{"geometry": {"type": "Point", "coordinates": [-103.1996161273, 46.8852727761]}, "type": "Feature", "properties": {"collection_times": [{"days": "Mon-Fri", "time": "3:45pm"}, {"days": "Sat", "time": "10:30am"}, {"days": "Sun", "time": "Closed"}], "id": "5862200004", "name": "USPS COLLECTION BOX - PO LOBBY", "address": {"city": "BELFIELD", "state": "ND", "street": "105 1ST AVE NW", "postcode": "58622"}}},
{"geometry": {"type": "Point", "coordinates": [-103.3934394684, 46.1820081659]}, "type": "Feature", "properties": {"collection_times": [{"days": "Mon-Fri", "time": "2:45pm"}, {"days": "Sat", "time": "1:30pm"}, {"days": "Sun", "time": "Closed"}], "id": "5862300001", "name": "USPS COLLECTION BOX - BLUE BOX", "address": {"city": "BOWMAN", "state": "ND", "street": "17 1ST AVE SE", "postcode": "58623"}}},
{"geometry": {"type": "Point", "coordinates": [-103.3934394684, 46.1820081659]}, "type": "Feature", "properties": {"collection_times": [{"days": "Mon-Fri", "time": "2:45pm"}, {"days": "Sat", "time": "1:30pm"}, {"days": "Sun", "time": "Closed"}], "id": "5862300003", "name": "USPS COLLECTION BOX - PO LOBBY", "address": {"city": "BOWMAN", "state": "ND", "street": "17 1ST AVE SE", "postcode": "58623"}}},
{"geometry": {"type": "Point", "coordinates": [-102.2016822579, 47.3052968879]}, "type": "Feature", "properties": {"collection_times": [{"days": "Mon-Sat", "time": "1:45pm"}, {"days": "Sun", "time": "Closed"}], "id": "5862500001", "name": "USPS COLLECTION BOX - BLUE BOX", "address": {"city": "DODGE", "state": "ND", "street": "105 CENTRAL AVE", "postcode": "58625"}}},
{"geometry": {"type": "Point", "coordinates": [-102.2016822579, 47.3052968879]}, "type": "Feature", "properties": {"collection_times": [{"days": "Mon-Sat", "time": "11:45am"}, {"days": "Sun", "time": "Closed"}], "id": "5862500002", "name": "USPS COLLECTION BOX - PO LOBBY", "address": {"city": "DODGE", "state": "ND", "street": "105 CENTRAL AVE", "postcode": "58625"}}},
{"geometry": {"type": "Point", "coordinates": [-102.5690005021, 46.8606329912]}, "type": "Feature", "properties": {"collection_times": [{"days": "Mon-Sat", "time": "3:10pm"}, {"days": "Sun", "time": "Closed"}], "id": "5863000001", "name": "USPS COLLECTION BOX - BLUE BOX", "address": {"city": "GLADSTONE", "state": "ND", "street": "114 5TH AVE", "postcode": "58630"}}},
{"geometry": {"type": "Point", "coordinates": [-102.5690005021, 46.8606329912]}, "type": "Feature", "properties": {"collection_times": [{"days": "Mon-Fri", "time": "11:30am"}, {"days": "Sat", "time": "9:30am"}, {"days": "Sun", "time": "Closed"}], "id": "5863000004", "name": "USPS COLLECTION BOX - PO LOBBY", "address": {"city": "GLADSTONE", "state": "ND", "street": "114 5TH AVE", "postcode": "58630"}}},
{"geometry": {"type": "Point", "coordinates": [-101.8303733869, 46.81608911]}, "type": "Feature", "properties": {"collection_times": [{"days": "Mon-Sat", "time": "5:45pm"}, {"days": "Sun", "time": "Closed"}], "id": "5863100001", "name": "USPS COLLECTION BOX - BLUE BOX", "address": {"city": "GLEN ULLIN", "state": "ND", "street": "115 S MAIN ST", "postcode": "58631"}}},
{"geometry": {"type": "Point", "coordinates": [-101.8303733869, 46.81608911]}, "type": "Feature", "properties": {"collection_times": [{"days": "Mon-Fri", "time": "4:15pm"}, {"days": "Sat", "time": "10:00am"}, {"days": "Sun", "time": "Closed"}], "id": "5863100002", "name": "USPS COLLECTION BOX - PO LOBBY", "address": {"city": "GLEN ULLIN", "state": "ND", "street": "115 S MAIN ST", "postcode": "58631"}}},
{"geometry": {"type": "Point", "coordinates": [-103.9838523363, 46.7355341827]}, "type": "Feature", "properties": {"collection_times": [{"days": "Mon-Sat", "time": "2:00pm"}, {"days": "Sun", "time": "Closed"}], "id": "5863200001", "name": "USPS COLLECTION BOX - BLUE BOX", "address": {"city": "GOLVA", "state": "ND", "street": "405 TERRELL AVE", "postcode": "58632"}}},
{"geometry": {"type": "Point", "coordinates": [-103.9838523363, 46.7355341827]}, "type": "Feature", "properties": {"collection_times": [{"days": "Mon-Fri", "time": "2:00pm"}, {"days": "Sat", "time": "11:45am"}, {"days": "Sun", "time": "Closed"}], "id": "5863200002", "name": "USPS COLLECTION BOX - PO LOBBY", "address": {"city": "GOLVA", "state": "ND", "street": "405 TERRELL AVE", "postcode": "58632"}}},
{"geometry": {"type": "Point", "coordinates": [-103.3480701406, 47.4482542096]}, "type": "Feature", "properties": {"collection_times": [{"days": "Mon-Sat", "time": "1:00pm"}, {"days": "Sun", "time": "Closed"}], "id": "5863400001", "name": "USPS COLLECTION BOX - BLUE BOX", "address": {"city": "GRASSY BUTTE", "state": "ND", "street": "409 MAIN ST", "postcode": "58634"}}},
{"geometry": {"type": "Point", "coordinates": [-103.3480701406, 47.4482542096]}, "type": "Feature", "properties": {"collection_times": [{"days": "Mon-Fri", "time": "1:00pm"}, {"days": "Sat", "time": "11:15am"}, {"days": "Sun", "time": "Closed"}], "id": "5863400002", "name": "USPS COLLECTION BOX - PO LOBBY", "address": {"city": "GRASSY BUTTE", "state": "ND", "street": "409 MAIN ST", "postcode": "58634"}}},
{"geometry": {"type": "Point", "coordinates": [-102.3358481376, 47.3545021215]}, "type": "Feature", "properties": {"collection_times": [{"days": "Mon-Sat", "time": "2:25pm"}, {"days": "Sun", "time": "Closed"}], "id": "5863600001", "name": "USPS COLLECTION BOX - BLUE BOX", "address": {"city": "HALLIDAY", "state": "ND", "street": "113 E MAIN ST", "postcode": "58636"}}},
{"geometry": {"type": "Point", "coordinates": [-102.3358481376, 47.3545021215]}, "type": "Feature", "properties": {"collection_times": [{"days": "Mon-Fri", "time": "2:25pm"}, {"days": "Sat-Sun", "time": "Closed"}], "id": "5863600002", "name": "USPS COLLECTION BOX - PO LOBBY", "address": {"city": "HALLIDAY", "state": "ND", "street": "113 E MAIN ST", "postcode": "58636"}}},
{"geometry": {"type": "Point", "coordinates": [-102.0452823579, 46.9006927341]}, "type": "Feature", "properties": {"collection_times": [{"days": "Mon-Fri", "time": "4:00pm"}, {"days": "Sat", "time": "4:30pm"}, {"days": "Sun", "time": "Closed"}], "id": "5863800001", "name": "USPS COLLECTION BOX - BLUE BOX", "address": {"city": "HEBRON", "state": "ND", "street": "111 S PARK ST", "postcode": "58638"}}},
{"geometry": {"type": "Point", "coordinates": [-102.0452823579, 46.9006927341]}, "type": "Feature", "properties": {"collection_times": [{"days": "Mon-Fri", "time": "4:00pm"}, {"days": "Sat", "time": "11:00am"}, {"days": "Sun", "time": "Closed"}], "id": "5863800002", "name": "USPS COLLECTION BOX - PO LOBBY", "address": {"city": "HEBRON", "state": "ND", "street": "111 S PARK ST", "postcode": "58638"}}},
{"geometry": {"type": "Point", "coordinates": [-102.5589255575, 46.0028285408]}, "type": "Feature", "properties": {"collection_times": [{"days": "Mon-Fri", "time": "2:25pm"}, {"days": "Sat", "time": "10:00am"}, {"days": "Sun", "time": "Closed"}], "id": "5863900001", "name": "USPS COLLECTION BOX - PO LOBBY", "address": {"city": "HETTINGER", "state": "ND", "street": "502 HIGHWAY 12 E", "postcode": "58639"}}},
{"geometry": {"type": "Point", "coordinates": [-102.5589255575, 46.0028285408]}, "type": "Feature", "properties": {"collection_times": [{"days": "Mon-Sat", "time": "2:25pm"}, {"days": "Sun", "time": "Closed"}], "id": "5863900002", "name": "USPS COLLECTION BOX - BLUE BOX", "address": {"city": "HETTINGER", "state": "ND", "street": "502 HIGHWAY 12 E", "postcode": "58639"}}},
{"geometry": {"type": "Point", "coordinates": [-102.754101542, 47.3719184694]}, "type": "Feature", "properties": {"collection_times": [{"days": "Mon-Sat", "time": "2:55pm"}, {"days": "Sun", "time": "Closed"}], "id": "5864000002", "name": "USPS COLLECTION BOX - BLUE BOX", "address": {"city": "KILLDEER", "state": "ND", "street": "48 CENTRAL AVE S", "postcode": "58640"}}},
{"geometry": {"type": "Point", "coordinates": [-102.754101542, 47.3719184694]}, "type": "Feature", "properties": {"collection_times": [{"days": "Mon-Fri", "time": "2:55pm"}, {"days": "Sat", "time": "10:45am"}, {"days": "Sun", "time": "Closed"}], "id": "5864000003", "name": "USPS COLLECTION BOX - PO LOBBY", "address": {"city": "KILLDEER", "state": "ND", "street": "48 CENTRAL AVE S", "postcode": "58640"}}},
{"geometry": {"type": "Point", "coordinates": [-103.923768197, 46.294883735]}, "type": "Feature", "properties": {"collection_times": [{"days": "Mon-Sat", "time": "1:20pm"}, {"days": "Sun", "time": "Closed"}], "id": "5864300001", "name": "USPS COLLECTION BOX - BLUE BOX", "address": {"city": "MARMARTH", "state": "ND", "street": "75 1ST ST W", "postcode": "58643"}}},
{"geometry": {"type": "Point", "coordinates": [-103.5252241131, 46.9146633999]}, "type": "Feature", "properties": {"collection_times": [{"days": "Mon-Fri", "time": "3:35pm"}, {"days": "Sat", "time": "3:30pm"}, {"days": "Sun", "time": "Closed"}], "id": "5864500001", "name": "USPS COLLECTION BOX - BLUE BOX", "address": {"city": "MEDORA", "state": "ND", "street": "355 3RD AVE", "postcode": "58645"}}},
{"geometry": {"type": "Point", "coordinates": [-103.5252241131, 46.9146633999]}, "type": "Feature", "properties": {"collection_times": [{"days": "Mon-Fri", "time": "3:35pm"}, {"days": "Sat", "time": "9:45am"}, {"days": "Sun", "time": "Closed"}], "id": "5864500002", "name": "USPS COLLECTION BOX - PO LOBBY", "address": {"city": "MEDORA", "state": "ND", "street": "355 3RD AVE", "postcode": "58645"}}},
{"geometry": {"type": "Point", "coordinates": [-102.327007357, 46.3714125525]}, "type": "Feature", "properties": {"collection_times": [{"days": "Mon-Fri", "time": "3:25pm"}, {"days": "Sat", "time": "2:30pm"}, {"days": "Sun", "time": "Closed"}], "id": "5864600001", "name": "USPS COLLECTION BOX - BLUE BOX", "address": {"city": "MOTT", "state": "ND", "street": "123 BROWN AVE", "postcode": "58646"}}},
{"geometry": {"type": "Point", "coordinates": [-102.327007357, 46.3714125525]}, "type": "Feature", "properties": {"collection_times": [{"days": "Mon-Fri", "time": "3:25pm"}, {"days": "Sat", "time": "10:00am"}, {"days": "Sun", "time": "Closed"}], "id": "5864600002", "name": "USPS COLLECTION BOX - PO LOBBY", "address": {"city": "MOTT", "state": "ND", "street": "123 BROWN AVE", "postcode": "58646"}}},
{"geometry": {"type": "Point", "coordinates": [-102.866606378, 46.5395711997]}, "type": "Feature", "properties": {"collection_times": [{"days": "Mon-Sat", "time": "4:15pm"}, {"days": "Sun", "time": "Closed"}], "id": "5864700001", "name": "USPS COLLECTION BOX - BLUE BOX", "address": {"city": "NEW ENGLAND", "state": "ND", "street": "826 MCKENZIE ST", "postcode": "58647"}}},
{"geometry": {"type": "Point", "coordinates": [-102.866606378, 46.5395711997]}, "type": "Feature", "properties": {"collection_times": [{"days": "Mon-Fri", "time": "3:00pm"}, {"days": "Sat", "time": "9:30am"}, {"days": "Sun", "time": "Closed"}], "id": "5864700002", "name": "USPS COLLECTION BOX - PO LOBBY", "address": {"city": "NEW ENGLAND", "state": "ND", "street": "826 MCKENZIE ST", "postcode": "58647"}}},
{"geometry": {"type": "Point", "coordinates": [-102.9450588992, 46.1074307357]}, "type": "Feature", "properties": {"collection_times": [{"days": "Mon-Sat", "time": "3:25pm"}, {"days": "Sun", "time": "Closed"}], "id": "5864900001", "name": "USPS COLLECTION BOX - BLUE BOX", "address": {"city": "REEDER", "state": "ND", "street": "204 MAIN ST", "postcode": "58649"}}},
{"geometry": {"type": "Point", "coordinates": [-102.9450588992, 46.1074307357]}, "type": "Feature", "properties": {"collection_times": [{"days": "Mon-Fri", "time": "12:30pm"}, {"days": "Sat", "time": "9:45am"}, {"days": "Sun", "time": "Closed"}], "id": "5864900002", "name": "USPS COLLECTION BOX - PO LOBBY", "address": {"city": "REEDER", "state": "ND", "street": "204 MAIN ST", "postcode": "58649"}}},
{"geometry": {"type": "Point", "coordinates": [-102.5573170557, 46.4212075928]}, "type": "Feature", "properties": {"collection_times": [{"days": "Mon-Sat", "time": "2:30pm"}, {"days": "Sun", "time": "Closed"}], "id": "5865000001", "name": "USPS COLLECTION BOX - BLUE BOX", "address": {"city": "REGENT", "state": "ND", "street": "210 MAIN ST", "postcode": "58650"}}},
{"geometry": {"type": "Point", "coordinates": [-102.5573170557, 46.4212075928]}, "type": "Feature", "properties": {"collection_times": [{"days": "Mon-Fri", "time": "12:00pm"}, {"days": "Sat", "time": "10:00am"}, {"days": "Sun", "time": "Closed"}], "id": "5865000002", "name": "USPS COLLECTION BOX - PO LOBBY", "address": {"city": "REGENT", "state": "ND", "street": "210 MAIN ST", "postcode": "58650"}}},
{"geometry": {"type": "Point", "coordinates": [-103.6536635537, 46.2340460811]}, "type": "Feature", "properties": {"collection_times": [{"days": "Mon-Fri", "time": "2:00pm"}, {"days": "Sat", "time": "1:30pm"}, {"days": "Sun", "time": "Closed"}], "id": "5865100000", "name": "USPS COLLECTION BOX - BLUE BOX", "address": {"city": "RHAME", "state": "ND", "street": "53 MAIN ST", "postcode": "58651"}}},
{"geometry": {"type": "Point", "coordinates": [-103.6536635537, 46.2340460811]}, "type": "Feature", "properties": {"collection_times": [{"days": "Mon-Fri", "time": "2:00pm"}, {"days": "Sat", "time": "10:15am"}, {"days": "Sun", "time": "Closed"}], "id": "5865100001", "name": "USPS COLLECTION BOX - PO LOBBY", "address": {"city": "RHAME", "state": "ND", "street": "53 MAIN ST", "postcode": "58651"}}},
{"geometry": {"type": "Point", "coordinates": [-102.31480906, 46.8838858341]}, "type": "Feature", "properties": {"collection_times": [{"days": "Mon-Fri", "time": "4:15pm"}, {"days": "Sat", "time": "4:45pm"}, {"days": "Sun", "time": "Closed"}], "id": "5865200001", "name": "USPS COLLECTION BOX - BLUE BOX", "address": {"city": "RICHARDTON", "state": "ND", "street": "111 B ST N", "postcode": "58652"}}},
{"geometry": {"type": "Point", "coordinates": [-102.31480906, 46.8838858341]}, "type": "Feature", "properties": {"collection_times": [{"days": "Mon-Fri", "time": "3:00pm"}, {"days": "Sat", "time": "8:45am"}, {"days": "Sun", "time": "Closed"}], "id": "5865200002", "name": "USPS COLLECTION BOX - PO LOBBY", "address": {"city": "RICHARDTON", "state": "ND", "street": "111 B ST N", "postcode": "58652"}}},
{"geometry": {"type": "Point", "coordinates": [-103.1449900162, 46.1479386815]}, "type": "Feature", "properties": {"collection_times": [{"days": "Mon-Sat", "time": "3:00pm"}, {"days": "Sun", "time": "Closed"}], "id": "5865300001", "name": "USPS COLLECTION BOX - BLUE BOX", "address": {"city": "SCRANTON", "state": "ND", "street": "205 2ND AVE N", "postcode": "58653"}}},
{"geometry": {"type": "Point", "coordinates": [-103.1449900162, 46.1479386815]}, "type": "Feature", "properties": {"collection_times": [{"days": "Mon-Fri", "time": "12:00pm"}, {"days": "Sat-Sun", "time": "Closed"}], "id": "5865300002", "name": "USPS COLLECTION BOX - PO LOBBY", "address": {"city": "SCRANTON", "state": "ND", "street": "205 2ND AVE N", "postcode": "58653"}}},
{"geometry": {"type": "Point", "coordinates": [-102.9917057979, 46.8654727577]}, "type": "Feature", "properties": {"collection_times": [{"days": "Mon-Sat", "time": "4:15pm"}, {"days": "Sun", "time": "Closed"}], "id": "5865500001", "name": "USPS COLLECTION BOX - BLUE BOX", "address": {"city": "SOUTHHEART", "state": "ND", "street": "401 RUDOLPH AVE NW", "postcode": "58655"}}},
{"geometry": {"type": "Point", "coordinates": [-102.9917057979, 46.8654727577]}, "type": "Feature", "properties": {"collection_times": [{"days": "Mon-Fri", "time": "4:15pm"}, {"days": "Sat", "time": "9:30am"}, {"days": "Sun", "time": "Closed"}], "id": "5865500002", "name": "USPS COLLECTION BOX - PO LOBBY", "address": {"city": "SOUTHHEART", "state": "ND", "street": "401 RUDOLPH AVE NW", "postcode": "58655"}}},
{"geometry": {"type": "Point", "coordinates": [-102.4252653969, 46.900616927]}, "type": "Feature", "properties": {"collection_times": [{"days": "Mon-Sat", "time": "3:40pm"}, {"days": "Sun", "time": "Closed"}], "id": "5865600001", "name": "USPS COLLECTION BOX - BLUE BOX", "address": {"city": "TAYLOR", "state": "ND", "street": "111 W MAIN ST", "postcode": "58656"}}},
{"geometry": {"type": "Point", "coordinates": [-102.4252653969, 46.900616927]}, "type": "Feature", "properties": {"collection_times": [{"days": "Mon-Fri", "time": "11:30am"}, {"days": "Sat", "time": "9:15am"}, {"days": "Sun", "time": "Closed"}], "id": "5865600002", "name": "USPS COLLECTION BOX - PO LOBBY", "address": {"city": "TAYLOR", "state": "ND", "street": "111 W MAIN ST", "postcode": "58656"}}}
]}
