{"type": "FeatureCollection", "features": [
{"geometry": {"type": "Point", "coordinates": [-101.2961806376, 48.1945766246]}, "type": "Feature", "properties": {"collection_times": [{"days": "Mon-Sat", "time": "9:00am"}, {"days": "Sun", "time": "Closed"}], "id": "5870100001", "name": "USPS COLLECTION BOX - BLUE BOX", "address": {"city": "MINOT", "state": "ND", "street": "3900 S BROADWAY", "postcode": "58701"}}},
{"geometry": {"type": "Point", "coordinates": [-101.3068263386, 48.2079915853]}, "type": "Feature", "properties": {"collection_times": [{"days": "Mon-Sat", "time": "5:15pm"}, {"days": "Sun", "time": "Closed"}], "id": "5870100003", "name": "USPS COLLECTION BOX - BLUE BOX", "address": {"city": "MINOT", "state": "ND", "street": "2400 10TH ST SW", "postcode": "58701"}}},
{"geometry": {"type": "Point", "coordinates": [-101.300341146, 48.216388796]}, "type": "Feature", "properties": {"collection_times": [{"days": "Mon-Sat", "time": "1:30pm"}, {"days": "Sun", "time": "Closed"}], "id": "5870100009", "name": "USPS COLLECTION BOX - BLUE BOX", "address": {"city": "MINOT", "state": "ND", "street": "517 17TH AVE SW", "postcode": "58701"}}},
{"geometry": {"type": "Point", "coordinates": [-101.2959262799, 48.2144306248]}, "type": "Feature", "properties": {"collection_times": [{"days": "Mon-Sat", "time": "5:30pm"}, {"days": "Sun", "time": "Closed"}], "id": "5870100011", "name": "USPS COLLECTION BOX - BLUE BOX", "address": {"city": "MINOT", "state": "ND", "street": "1809 S BROADWAY", "postcode": "58701"}}},
{"geometry": {"type": "Point", "coordinates": [-101.2957429152, 48.2262913581]}, "type": "Feature", "properties": {"collection_times": [{"days": "Mon-Sat", "time": "5:30pm"}, {"days": "Sun", "time": "Closed"}], "id": "5870100021", "name": "USPS COLLECTION BOX - BLUE BOX", "address": {"city": "MINOT", "state": "ND", "street": "1015 S BROADWAY", "postcode": "58701"}}},
{"geometry": {"type": "Point", "coordinates": [-101.2946475938, 48.2353679503]}, "type": "Feature", "properties": {"collection_times": [{"days": "Mon-Sat", "time": "4:30pm"}, {"days": "Sun", "time": "Closed"}], "id": "5870100026", "name": "USPS COLLECTION BOX - BLUE BOX", "address": {"city": "MINOT", "state": "ND", "street": "100 1ST ST SW", "postcode": "58701"}}},
{"geometry": {"type": "Point", "coordinates": [-101.2929703144, 48.2332782534]}, "type": "Feature", "properties": {"collection_times": [{"days": "Mon-Sat", "time": "4:30pm"}, {"days": "Sun", "time": "Closed"}], "id": "5870100027", "name": "USPS COLLECTION BOX - BLUE BOX", "address": {"city": "MINOT", "state": "ND", "street": "315 MAIN ST S", "postcode": "58701"}}},
{"geometry": {"type": "Point", "coordinates": [-101.2929452397, 48.2361627701]}, "type": "Feature", "properties": {"collection_times": [{"days": "Mon-Sat", "time": "4:30pm"}, {"days": "Sun", "time": "Closed"}], "id": "5870100029", "name": "USPS COLLECTION BOX - BLUE BOX", "address": {"city": "MINOT", "state": "ND", "street": "23 MAIN ST S", "postcode": "58701"}}},
{"geometry": {"type": "Point", "coordinates": [-101.2929327728, 48.2351540094]}, "type": "Feature", "properties": {"collection_times": [{"days": "Mon-Sat", "time": "4:30pm"}, {"days": "Sun", "time": "Closed"}], "id": "5870100030", "name": "USPS COLLECTION BOX - BLUE BOX", "address": {"city": "MINOT", "state": "ND", "street": "123 MAIN ST S", "postcode": "58701"}}},
{"geometry": {"type": "Point", "coordinates": [-101.2960598136, 48.2120145837]}, "type": "Feature", "properties": {"collection_times": [{"days": "Mon-Fri", "time": "5:00pm"}, {"days": "Sat", "time": "4:45pm"}, {"days": "Sun", "time": "Closed"}], "id": "5870100032", "name": "USPS COLLECTION BOX - BLUE BOX", "address": {"city": "MINOT", "state": "ND", "street": "1930 S BROADWAY", "postcode": "58701"}}},
{"geometry": {"type": "Point", "coordinates": [-101.2960814962, 48.2117053303]}, "type": "Feature", "properties": {"collection_times": [{"days": "Mon-Fri", "time": "5:00pm"}, {"days": "Sat", "time": "4:45pm"}, {"days": "Sun", "time": "Closed"}], "id": "5870100033", "name": "USPS COLLECTION BOX - BLUE BOX", "address": {"city": "MINOT", "state": "ND", "street": "1952 S BROADWAY", "postcode": "58701"}}},
{"geometry": {"type": "Point", "coordinates": [-101.2948592054, 48.2315619816]}, "type": "Feature", "properties": {"collection_times": [{"days": "Mon-Sat", "time": "5:30pm"}, {"days": "Sun", "time": "Closed"}], "id": "5870100039", "name": "USPS COLLECTION BOX - PO LOBBY", "address": {"city": "MINOT", "state": "ND", "street": "117 5TH AVE SW", "postcode": "58701"}}},
{"geometry": {"type": "Point", "coordinates": [-101.2948592054, 48.2315619816]}, "type": "Feature", "properties": {"collection_times": [{"days": "Mon-Sat", "time": "5:30pm"}, {"days": "Sun", "time": "Closed"}], "id": "5870100040", "name": "USPS COLLECTION BOX - BLUE BOX", "address": {"city": "MINOT", "state": "ND", "street": "117 5TH AVE SW", "postcode": "58701"}}},
{"geometry": {"type": "Point", "coordinates": [-101.2948592054, 48.2315619816]}, "type": "Feature", "properties": {"collection_times": [{"days": "Mon-Sat", "time": "5:30pm"}, {"days": "Sun", "time": "Closed"}], "id": "5870100041", "name": "USPS COLLECTION BOX - BLUE BOX", "address": {"city": "MINOT", "state": "ND", "street": "117 5TH AVE SW", "postcode": "58701"}}},
{"geometry": {"type": "Point", "coordinates": [-101.2948592054, 48.2315619816]}, "type": "Feature", "properties": {"collection_times": [{"days": "Mon-Sat", "time": "5:30pm"}, {"days": "Sun", "time": "Closed"}], "id": "5870100042", "name": "USPS COLLECTION BOX - BLUE BOX", "address": {"city": "MINOT", "state": "ND", "street": "117 5TH AVE SW", "postcode": "58701"}}},
{"geometry": {"type": "Point", "coordinates": [-101.2948592054, 48.2315619816]}, "type": "Feature", "properties": {"collection_times": [{"days": "Mon-Sat", "time": "5:30pm"}, {"days": "Sun", "time": "Closed"}], "id": "5870100043", "name": "USPS COLLECTION BOX - BLUE BOX", "address": {"city": "MINOT", "state": "ND", "street": "117 5TH AVE SW", "postcode": "58701"}}},
{"geometry": {"type": "Point", "coordinates": [-101.2803370651, 48.2115590254]}, "type": "Feature", "properties": {"collection_times": [{"days": "Mon-Sat", "time": "5:00pm"}, {"days": "Sun", "time": "Closed"}], "id": "5870100046", "name": "USPS COLLECTION BOX - BLUE BOX", "address": {"city": "MINOT", "state": "ND", "street": "1600 2ND AVE SW", "postcode": "58701"}}},
{"geometry": {"type": "Point", "coordinates": [-101.304690618, 48.2028329681]}, "type": "Feature", "properties": {"collection_times": [{"days": "Mon-Sat", "time": "5:15pm"}, {"days": "Sun", "time": "Closed"}], "id": "5870100050", "name": "USPS COLLECTION BOX - BLUE BOX", "address": {"city": "MINOT", "state": "ND", "street": "815 31ST AVE SW", "postcode": "58701"}}},
{"geometry": {"type": "Point", "coordinates": [-101.3159996095, 48.2078695708]}, "type": "Feature", "properties": {"collection_times": [{"days": "Mon-Sat", "time": "5:00pm"}, {"days": "Sun", "time": "Closed"}], "id": "5870100056", "name": "USPS COLLECTION BOX - BLUE BOX", "address": {"city": "MINOT", "state": "ND", "street": "1520 24TH AVE SW", "postcode": "58701"}}},
{"geometry": {"type": "Point", "coordinates": [-101.2960914834, 48.2178961561]}, "type": "Feature", "properties": {"collection_times": [{"days": "Mon-Sat", "time": "5:15pm"}, {"days": "Sun", "time": "Closed"}], "id": "5870100059", "name": "USPS COLLECTION BOX - BLUE BOX", "address": {"city": "MINOT", "state": "ND", "street": "1620 S BROADWAY", "postcode": "58701"}}},
{"geometry": {"type": "Point", "coordinates": [-101.2527097413, 48.2297329776]}, "type": "Feature", "properties": {"collection_times": [{"days": "Mon-Sat", "time": "3:00pm"}, {"days": "Sun", "time": "Closed"}], "id": "5870100060", "name": "USPS COLLECTION BOX - BLUE BOX", "address": {"city": "MINOT", "state": "ND", "street": "725 27TH ST SE", "postcode": "58701"}}},
{"geometry": {"type": "Point", "coordinates": [-101.3164593698, 48.2114998143]}, "type": "Feature", "properties": {"collection_times": [{"days": "Mon-Sat", "time": "5:00pm"}, {"days": "Sun", "time": "Closed"}], "id": "5870100063", "name": "USPS COLLECTION BOX - BLUE BOX", "address": {"city": "MINOT", "state": "ND", "street": "1400 20TH AVE SW", "postcode": "58701"}}},
{"geometry": {"type": "Point", "coordinates": [-101.2948592054, 48.2315619816]}, "type": "Feature", "properties": {"collection_times": [{"days": "Mon-Sat", "time": "5:30pm"}, {"days": "Sun", "time": "Closed"}], "id": "5870100064", "name": "USPS COLLECTION BOX - APC", "address": {"city": "MINOT", "state": "ND", "street": "117 5TH AVE SW", "postcode": "58701"}}},
{"geometry": {"type": "Point", "coordinates": [-101.2971907973, 48.2331527922]}, "type": "Feature", "properties": {"collection_times": [{"days": "Mon-Sat", "time": "3:00pm"}, {"days": "Sun", "time": "Closed"}], "id": "5870100065", "name": "USPS COLLECTION BOX - BLUE BOX", "address": {"city": "MINOT", "state": "ND", "street": "300 3RD AVE SW", "postcode": "58701"}}},
{"geometry": {"type": "Point", "coordinates": [-101.3140941695, 48.211266667]}, "type": "Feature", "properties": {"collection_times": [{"days": "Mon-Sat", "time": "5:00pm"}, {"days": "Sun", "time": "Closed"}], "id": "5870100067", "name": "USPS COLLECTION BOX - BLUE BOX", "address": {"city": "MINOT", "state": "ND", "street": "1400 20TH AVE SW", "postcode": "58701"}}},
{"geometry": {"type": "Point", "coordinates": [-101.2931189962, 48.2365702868]}, "type": "Feature", "properties": {"collection_times": [{"days": "Mon-Sat", "time": "4:30pm"}, {"days": "Sun", "time": "Closed"}], "id": "5870300008", "name": "USPS COLLECTION BOX - BLUE BOX", "address": {"city": "MINOT", "state": "ND", "street": "15 MAIN ST N", "postcode": "58703"}}},
{"geometry": {"type": "Point", "coordinates": [-101.3107086535, 48.2558172515]}, "type": "Feature", "properties": {"collection_times": [{"days": "Mon-Sat", "time": "3:30pm"}, {"days": "Sun", "time": "Closed"}], "id": "5870300009", "name": "USPS COLLECTION BOX - BLUE BOX", "address": {"city": "MINOT", "state": "ND", "street": "2211 16TH ST NW", "postcode": "58703"}}},
{"geometry": {"type": "Point", "coordinates": [-101.3313968774, 48.416266802]}, "type": "Feature", "properties": {"collection_times": [{"days": "Mon-Sat", "time": "3:45pm"}, {"days": "Sun", "time": "Closed"}], "id": "5870400002", "name": "USPS COLLECTION BOX - BLUE BOX", "address": {"city": "MINOT", "state": "ND", "street": "220 PEACEKEEPER PL", "postcode": "58704"}}},
{"geometry": {"type": "Point", "coordinates": [-101.3430939177, 48.4295848576]}, "type": "Feature", "properties": {"collection_times": [{"days": "Mon-Sat", "time": "1:00pm"}, {"days": "Sun", "time": "Closed"}], "id": "5870400007", "name": "USPS COLLECTION BOX - BLUE BOX", "address": {"city": "MINOT", "state": "ND", "street": "362 MISSILE AVE BLDG 248", "postcode": "58704"}}},
{"geometry": {"type": "Point", "coordinates": [-101.3215575883, 48.4185491149]}, "type": "Feature", "properties": {"collection_times": [{"days": "Mon-Sat", "time": "2:15pm"}, {"days": "Sun", "time": "Closed"}], "id": "5870400008", "name": "USPS COLLECTION BOX - BLUE BOX", "address": {"city": "MINOT", "state": "ND", "street": "10 MISSILE AVE", "postcode": "58704"}}},
{"geometry": {"type": "Point", "coordinates": [-101.3313968774, 48.416266802]}, "type": "Feature", "properties": {"collection_times": [{"days": "Mon-Fri", "time": "4:00pm"}, {"days": "Sat", "time": "11:00am"}, {"days": "Sun", "time": "Closed"}], "id": "5870400009", "name": "USPS COLLECTION BOX - BLUE BOX", "address": {"city": "MINOT", "state": "ND", "street": "220 PEACEKEEPER PL", "postcode": "58704"}}},
{"geometry": {"type": "Point", "coordinates": [-100.2410460575, 47.8816498331]}, "type": "Feature", "properties": {"collection_times": [{"days": "Mon-Fri", "time": "3:45pm"}, {"days": "Sat", "time": "3:30pm"}, {"days": "Sun", "time": "Closed"}], "id": "5871000001", "name": "USPS COLLECTION BOX - BLUE BOX", "address": {"city": "ANAMOOSE", "state": "ND", "street": "602 MAIN ST", "postcode": "58710"}}},
{"geometry": {"type": "Point", "coordinates": [-100.2410460575, 47.8816498331]}, "type": "Feature", "properties": {"collection_times": [{"days": "Mon-Fri", "time": "12:00pm"}, {"days": "Sat-Sun", "time": "Closed"}], "id": "5871000002", "name": "USPS COLLECTION BOX - PO LOBBY", "address": {"city": "ANAMOOSE", "state": "ND", "street": "602 MAIN ST", "postcode": "58710"}}},
{"geometry": {"type": "Point", "coordinates": [-100.1136331757, 47.8268871261]}, "type": "Feature", "properties": {"collection_times": [{"days": "Mon-Fri", "time": "3:45pm"}, {"days": "Sat", "time": "3:30pm"}, {"days": "Sun", "time": "Closed"}], "id": "5871000003", "name": "USPS COLLECTION BOX - BLUE BOX", "address": {"city": "ANAMOOSE", "state": "ND", "street": "103 BALLMAN AVE", "postcode": "58710"}}},
{"geometry": {"type": "Point", "coordinates": [-101.2825708919, 48.9693763796]}, "type": "Feature", "properties": {"collection_times": [{"days": "Mon-Fri", "time": "4:00pm"}, {"days": "Sat", "time": "3:20pm"}, {"days": "Sun", "time": "Closed"}], "id": "5871100001", "name": "USPS COLLECTION BOX - BLUE BOX", "address": {"city": "ANTLER", "state": "ND", "street": "115 MAIN ST", "postcode": "58711"}}},
{"geometry": {"type": "Point", "coordinates": [-101.2825708919, 48.9693763796]}, "type": "Feature", "properties": {"collection_times": [{"days": "Mon-Fri", "time": "4:00pm"}, {"days": "Sat", "time": "12:30pm"}, {"days": "Sun", "time": "Closed"}], "id": "5871100002", "name": "USPS COLLECTION BOX - PO LOBBY", "address": {"city": "ANTLER", "state": "ND", "street": "115 MAIN ST", "postcode": "58711"}}},
{"geometry": {"type": "Point", "coordinates": [-101.0836339389, 47.8310017072]}, "type": "Feature", "properties": {"collection_times": [{"days": "Mon-Sat", "time": "10:45am"}, {"days": "Sun", "time": "Closed"}], "id": "5871600001", "name": "USPS COLLECTION BOX - BLUE BOX", "address": {"city": "BENEDICT", "state": "ND", "street": "205 MAIN ST", "postcode": "58716"}}},
{"geometry": {"type": "Point", "coordinates": [-101.7366231746, 48.3144793411]}, "type": "Feature", "properties": {"collection_times": [{"days": "Mon-Fri", "time": "4:15pm"}, {"days": "Sat", "time": "4:45pm"}, {"days": "Sun", "time": "Closed"}], "id": "5871800001", "name": "USPS COLLECTION BOX - BLUE BOX", "address": {"city": "BERTHOLD", "state": "ND", "street": "204 MAIN ST N", "postcode": "58718"}}},
{"geometry": {"type": "Point", "coordinates": [-101.7366231746, 48.3144793411]}, "type": "Feature", "properties": {"collection_times": [{"days": "Mon-Fri", "time": "4:15pm"}, {"days": "Sat", "time": "9:15am"}, {"days": "Sun", "time": "Closed"}], "id": "5871800002", "name": "USPS COLLECTION BOX - PO LOBBY", "address": {"city": "BERTHOLD", "state": "ND", "street": "204 MAIN ST N", "postcode": "58718"}}},
{"geometry": {"type": "Point", "coordinates": [-102.2505325723, 48.8002341325]}, "type": "Feature", "properties": {"collection_times": [{"days": "Mon-Fri", "time": "4:30pm"}, {"days": "Sat", "time": "4:15pm"}, {"days": "Sun", "time": "Closed"}], "id": "5872100001", "name": "USPS COLLECTION BOX - BLUE BOX", "address": {"city": "BOWBELLS", "state": "ND", "street": "107 MAIN ST NE", "postcode": "58721"}}},
{"geometry": {"type": "Point", "coordinates": [-102.2505325723, 48.8002341325]}, "type": "Feature", "properties": {"collection_times": [{"days": "Mon-Fri", "time": "3:00pm"}, {"days": "Sat", "time": "10:00am"}, {"days": "Sun", "time": "Closed"}], "id": "5872100002", "name": "USPS COLLECTION BOX - PO LOBBY", "address": {"city": "BOWBELLS", "state": "ND", "street": "107 MAIN ST NE", "postcode": "58721"}}},
{"geometry": {"type": "Point", "coordinates": [-101.4282173638, 48.2754911101]}, "type": "Feature", "properties": {"collection_times": [{"days": "Mon-Fri", "time": "4:30pm"}, {"days": "Sat", "time": "5:30pm"}, {"days": "Sun", "time": "Closed"}], "id": "5872200001", "name": "USPS COLLECTION BOX - BLUE BOX", "address": {"city": "BURLINGTON", "state": "ND", "street": "129 COLTON AVE", "postcode": "58722"}}},
{"geometry": {"type": "Point", "coordinates": [-101.4282173638, 48.2754911101]}, "type": "Feature", "properties": {"collection_times": [{"days": "Mon-Fri", "time": "2:30pm"}, {"days": "Sat", "time": "9:30am"}, {"days": "Sun", "time": "Closed"}], "id": "5872200002", "name": "USPS COLLECTION BOX - PO LOBBY", "address": {"city": "BURLINGTON", "state": "ND", "street": "129 COLTON AVE", "postcode": "58722"}}},
{"geometry": {"type": "Point", "coordinates": [-100.665728176, 47.837989204]}, "type": "Feature", "properties": {"collection_times": [{"days": "Mon-Fri", "time": "3:30pm"}, {"days": "Sat", "time": "3:00pm"}, {"days": "Sun", "time": "Closed"}], "id": "5872300001", "name": "USPS COLLECTION BOX - BLUE BOX", "address": {"city": "BUTTE", "state": "ND", "street": "301 MAIN ST E", "postcode": "58723"}}},
{"geometry": {"type": "Point", "coordinates": [-100.5130216926, 47.857609107]}, "type": "Feature", "properties": {"collection_times": [{"days": "Mon-Fri", "time": "12:00pm"}, {"days": "Sat", "time": "9:45am"}, {"days": "Sun", "time": "Closed"}], "id": "5872300002", "name": "USPS COLLECTION BOX - PO LOBBY", "address": {"city": "BUTTE", "state": "ND", "street": "310 MAIN ST E", "postcode": "58723"}}},
{"geometry": {"type": "Point", "coordinates": [-101.7136090077, 48.4712975617]}, "type": "Feature", "properties": {"collection_times": [{"days": "Mon-Fri", "time": "3:45pm"}, {"days": "Sat", "time": "5:00pm"}, {"days": "Sun", "time": "Closed"}], "id": "5872500001", "name": "USPS COLLECTION BOX - BLUE BOX", "address": {"city": "CARPIO", "state": "ND", "street": "520 MAIN ST", "postcode": "58725"}}},
{"geometry": {"type": "Point", "coordinates": [-101.7136090077, 48.4712975617]}, "type": "Feature", "properties": {"collection_times": [{"days": "Mon-Fri", "time": "11:30am"}, {"days": "Sat", "time": "9:00am"}, {"days": "Sun", "time": "Closed"}], "id": "5872500002", "name": "USPS COLLECTION BOX - PO LOBBY", "address": {"city": "CARPIO", "state": "ND", "street": "520 MAIN ST", "postcode": "58725"}}},
{"geometry": {"type": "Point", "coordinates": [-102.7806388591, 48.903356986]}, "type": "Feature", "properties": {"collection_times": [{"days": "Mon-Fri", "time": "3:20pm"}, {"days": "Sat", "time": "3:00pm"}, {"days": "Sun", "time": "Closed"}], "id": "5872700001", "name": "USPS COLLECTION BOX - BLUE BOX", "address": {"city": "COLUMBUS", "state": "ND", "street": "206 MAIN ST", "postcode": "58727"}}},
{"geometry": {"type": "Point", "coordinates": [-102.7806388591, 48.903356986]}, "type": "Feature", "properties": {"collection_times": [{"days": "Mon-Fri", "time": "12:00pm"}, {"days": "Sat", "time": "9:45am"}, {"days": "Sun", "time": "Closed"}], "id": "5872700002", "name": "USPS COLLECTION BOX - PO LOBBY", "address": {"city": "COLUMBUS", "state": "ND", "street": "206 MAIN ST", "postcode": "58727"}}},
{"geometry": {"type": "Point", "coordinates": [-102.7806388591, 48.903356986]}, "type": "Feature", "properties": {"collection_times": [{"days": "Mon-Fri", "time": "12:00pm"}, {"days": "Sat", "time": "9:45am"}, {"days": "Sun", "time": "Closed"}], "id": "5872700003", "name": "USPS COLLECTION BOX - PO LOBBY", "address": {"city": "COLUMBUS", "state": "ND", "street": "206 MAIN ST", "postcode": "58727"}}},
{"geometry": {"type": "Point", "coordinates": [-103.293870277, 48.9149261102]}, "type": "Feature", "properties": {"collection_times": [{"days": "Mon-Fri", "time": "2:40pm"}, {"days": "Sat", "time": "2:30pm"}, {"days": "Sun", "time": "Closed"}], "id": "5873000001", "name": "USPS COLLECTION BOX - BLUE BOX", "address": {"city": "CROSBY", "state": "ND", "street": "202 N MAIN ST", "postcode": "58730"}}},
{"geometry": {"type": "Point", "coordinates": [-103.293870277, 48.9149261102]}, "type": "Feature", "properties": {"collection_times": [{"days": "Mon-Fri", "time": "2:40pm"}, {"days": "Sat", "time": "12:30pm"}, {"days": "Sun", "time": "Closed"}], "id": "5873000002", "name": "USPS COLLECTION BOX - PO LOBBY", "address": {"city": "CROSBY", "state": "ND", "street": "202 N MAIN ST", "postcode": "58730"}}},
{"geometry": {"type": "Point", "coordinates": [-101.5636915239, 48.258177045]}, "type": "Feature", "properties": {"collection_times": [{"days": "Mon-Fri", "time": "5:00pm"}, {"days": "Sat", "time": "5:30pm"}, {"days": "Sun", "time": "Closed"}], "id": "5873300001", "name": "USPS COLLECTION BOX - BLUE BOX", "address": {"city": "DES LACS", "state": "ND", "street": "130 S MAIN ST", "postcode": "58733"}}},
{"geometry": {"type": "Point", "coordinates": [-101.5636915239, 48.258177045]}, "type": "Feature", "properties": {"collection_times": [{"days": "Mon-Fri", "time": "5:00pm"}, {"days": "Sat-Sun", "time": "Closed"}], "id": "5873300002", "name": "USPS COLLECTION BOX - PO LOBBY", "address": {"city": "DES LACS", "state": "ND", "street": "130 S MAIN ST", "postcode": "58733"}}},
{"geometry": {"type": "Point", "coordinates": [-101.503075, 47.85782]}, "type": "Feature", "properties": {"collection_times": [{"days": "Mon-Sat", "time": "5:15pm"}, {"days": "Sun", "time": "Closed"}], "id": "5873500000", "name": "USPS COLLECTION BOX - BLUE BOX", "address": {"city": "DOUGLAS", "state": "ND", "street": "113 MAIN ST S", "postcode": "58735"}}},
{"geometry": {"type": "Point", "coordinates": [-100.3722269105, 47.9221704162]}, "type": "Feature", "properties": {"collection_times": [{"days": "Mon-Fri", "time": "3:55pm"}, {"days": "Sat", "time": "3:30pm"}, {"days": "Sun", "time": "Closed"}], "id": "5873600001", "name": "USPS COLLECTION BOX - BLUE BOX", "address": {"city": "DRAKE", "state": "ND", "street": "115 MAIN ST", "postcode": "58736"}}},
{"geometry": {"type": "Point", "coordinates": [-100.3722269105, 47.9221704162]}, "type": "Feature", "properties": {"collection_times": [{"days": "Mon-Fri", "time": "3:20pm"}, {"days": "Sat-Sun", "time": "Closed"}], "id": "5873600002", "name": "USPS COLLECTION BOX - PO LOBBY", "address": {"city": "DRAKE", "state": "ND", "street": "115 MAIN ST", "postcode": "58736"}}},
{"geometry": {"type": "Point", "coordinates": [-101.2219966521, 48.5129810533]}, "type": "Feature", "properties": {"collection_times": [{"days": "Mon-Fri", "time": "5:50pm"}, {"days": "Sat", "time": "4:15pm"}, {"days": "Sun", "time": "Closed"}], "id": "5874000001", "name": "USPS COLLECTION BOX - BLUE BOX", "address": {"city": "GLENBURN", "state": "ND", "street": "205 MAIN ST", "postcode": "58740"}}},
{"geometry": {"type": "Point", "coordinates": [-101.2219966521, 48.5129810533]}, "type": "Feature", "properties": {"collection_times": [{"days": "Mon-Fri", "time": "12:00pm"}, {"days": "Sat", "time": "9:15am"}, {"days": "Sun", "time": "Closed"}], "id": "5874000002", "name": "USPS COLLECTION BOX - PO LOBBY", "address": {"city": "GLENBURN", "state": "ND", "street": "205 MAIN ST", "postcode": "58740"}}},
{"geometry": {"type": "Point", "coordinates": [-100.8427604734, 48.2679182777]}, "type": "Feature", "properties": {"collection_times": [{"days": "Mon-Fri", "time": "4:15pm"}, {"days": "Sat", "time": "4:30pm"}, {"days": "Sun", "time": "Closed"}], "id": "5874100001", "name": "USPS COLLECTION BOX - BLUE BOX", "address": {"city": "GRANVILLE", "state": "ND", "street": "106 1ST ST SW", "postcode": "58741"}}},
{"geometry": {"type": "Point", "coordinates": [-100.8427604734, 48.2679182777]}, "type": "Feature", "properties": {"collection_times": [{"days": "Mon-Fri", "time": "12:00pm"}, {"days": "Sat-Sun", "time": "Closed"}], "id": "5874100002", "name": "USPS COLLECTION BOX - PO LOBBY", "address": {"city": "GRANVILLE", "state": "ND", "street": "106 1ST ST SW", "postcode": "58741"}}},
{"geometry": {"type": "Point", "coordinates": [-100.6204757387, 48.0903370335]}, "type": "Feature", "properties": {"collection_times": [{"days": "Mon-Fri", "time": "3:15pm"}, {"days": "Sat", "time": "3:00pm"}, {"days": "Sun", "time": "Closed"}], "id": "5874400001", "name": "USPS COLLECTION BOX - BLUE BOX", "address": {"city": "KARLSRUHE", "state": "ND", "street": "101 MAIN ST N", "postcode": "58744"}}},
{"geometry": {"type": "Point", "coordinates": [-100.6204757387, 48.0903370335]}, "type": "Feature", "properties": {"collection_times": [{"days": "Mon-Fri", "time": "3:15pm"}, {"days": "Sat", "time": "2:00pm"}, {"days": "Sun", "time": "Closed"}], "id": "5874400002", "name": "USPS COLLECTION BOX - PO LOBBY", "address": {"city": "KARLSRUHE", "state": "ND", "street": "101 MAIN ST N", "postcode": "58744"}}},
{"geometry": {"type": "Point", "coordinates": [-102.0829194191, 48.6726100763]}, "type": "Feature", "properties": {"collection_times": [{"days": "Mon-Fri", "time": "5:00pm"}, {"days": "Sat", "time": "4:30pm"}, {"days": "Sun", "time": "Closed"}], "id": "5874600001", "name": "USPS COLLECTION BOX - BLUE BOX", "address": {"city": "KENMARE", "state": "ND", "street": "22 2ND ST NW", "postcode": "58746"}}},
{"geometry": {"type": "Point", "coordinates": [-102.0829194191, 48.6726100763]}, "type": "Feature", "properties": {"collection_times": [{"days": "Mon-Fri", "time": "4:30pm"}, {"days": "Sat", "time": "11:15am"}, {"days": "Sun", "time": "Closed"}], "id": "5874600002", "name": "USPS COLLECTION BOX - PO LOBBY", "address": {"city": "KENMARE", "state": "ND", "street": "22 2ND ST NW", "postcode": "58746"}}},
{"geometry": {"type": "Point", "coordinates": [-100.4993852543, 48.6999795357]}, "type": "Feature", "properties": {"collection_times": [{"days": "Mon-Sat", "time": "11:50am"}, {"days": "Sun", "time": "Closed"}], "id": "5874800001", "name": "USPS COLLECTION BOX - BLUE BOX", "address": {"city": "KRAMER", "state": "ND", "street": "175 MAIN ST", "postcode": "58748"}}},
{"geometry": {"type": "Point", "coordinates": [-100.4993852543, 48.6999795357]}, "type": "Feature", "properties": {"collection_times": [{"days": "Mon-Fri", "time": "4:00pm"}, {"days": "Sat", "time": "2:00pm"}, {"days": "Sun", "time": "Closed"}], "id": "5874800002", "name": "USPS COLLECTION BOX - PO LOBBY", "address": {"city": "KRAMER", "state": "ND", "street": "175 MAIN ST", "postcode": "58748"}}},
{"geometry": {"type": "Point", "coordinates": [-101.3775429327, 48.6291427086]}, "type": "Feature", "properties": {"collection_times": [{"days": "Mon-Fri", "time": "5:25pm"}, {"days": "Sat", "time": "3:55pm"}, {"days": "Sun", "time": "Closed"}], "id": "5875000001", "name": "USPS COLLECTION BOX - BLUE BOX", "address": {"city": "LANSFORD", "state": "ND", "street": "706 MAIN ST", "postcode": "58750"}}},
{"geometry": {"type": "Point", "coordinates": [-101.3775429327, 48.6291427086]}, "type": "Feature", "properties": {"collection_times": [{"days": "Mon-Fri", "time": "12:00pm"}, {"days": "Sat", "time": "9:15am"}, {"days": "Sun", "time": "Closed"}], "id": "5875000002", "name": "USPS COLLECTION BOX - PO LOBBY", "address": {"city": "LANSFORD", "state": "ND", "street": "706 MAIN ST", "postcode": "58750"}}},
{"geometry": {"type": "Point", "coordinates": [-102.5633135875, 48.8773504061]}, "type": "Feature", "properties": {"collection_times": [{"days": "Mon-Fri", "time": "3:45pm"}, {"days": "Sat", "time": "3:15pm"}, {"days": "Sun", "time": "Closed"}], "id": "5875200001", "name": "USPS COLLECTION BOX - BLUE BOX", "address": {"city": "LIGNITE", "state": "ND", "street": "202 MAIN ST", "postcode": "58752"}}},
{"geometry": {"type": "Point", "coordinates": [-102.5633135875, 48.8773504061]}, "type": "Feature", "properties": {"collection_times": [{"days": "Mon-Fri", "time": "3:45pm"}, {"days": "Sat", "time": "9:30am"}, {"days": "Sun", "time": "Closed"}], "id": "5875200002", "name": "USPS COLLECTION BOX - PO LOBBY", "address": {"city": "LIGNITE", "state": "ND", "street": "202 MAIN ST", "postcode": "58752"}}},
{"geometry": {"type": "Point", "coordinates": [-102.9492358966, 48.5748955217]}, "type": "Feature", "properties": {"collection_times": [{"days": "Mon-Sat", "time": "2:15pm"}, {"days": "Sun", "time": "Closed"}], "id": "5875500001", "name": "USPS COLLECTION BOX - BLUE BOX", "address": {"city": "MCGREGOR", "state": "ND", "street": "18 N MADISON ST", "postcode": "58755"}}},
{"geometry": {"type": "Point", "coordinates": [-102.9492358966, 48.5748955217]}, "type": "Feature", "properties": {"collection_times": [{"days": "Mon-Fri", "time": "12:30pm"}, {"days": "Sat", "time": "10:30am"}, {"days": "Sun", "time": "Closed"}], "id": "5875500002", "name": "USPS COLLECTION BOX - PO LOBBY", "address": {"city": "MCGREGOR", "state": "ND", "street": "18 N MADISON ST", "postcode": "58755"}}},
{"geometry": {"type": "Point", "coordinates": [-101.8045983902, 47.9609605109]}, "type": "Feature", "properties": {"collection_times": [{"days": "Mon-Sat", "time": "4:45pm"}, {"days": "Sun", "time": "Closed"}], "id": "5875600001", "name": "USPS COLLECTION BOX - BLUE BOX", "address": {"city": "MAKOTI", "state": "ND", "street": "220 MAIN ST N", "postcode": "58756"}}},
{"geometry": {"type": "Point", "coordinates": [-101.8045983902, 47.9609605109]}, "type": "Feature", "properties": {"collection_times": [{"days": "Mon-Fri", "time": "4:45pm"}, {"days": "Sat", "time": "9:50am"}, {"days": "Sun", "time": "Closed"}], "id": "5875600002", "name": "USPS COLLECTION BOX - PO LOBBY", "address": {"city": "MAKOTI", "state": "ND", "street": "220 MAIN ST N", "postcode": "58756"}}},
{"geometry": {"type": "Point", "coordinates": [-102.7269356111, 47.836557595]}, "type": "Feature", "properties": {"collection_times": [{"days": "Mon-Fri", "time": "12:15pm"}, {"days": "Sat", "time": "11:45am"}, {"days": "Sun", "time": "Closed"}], "id": "5875700000", "name": "USPS COLLECTION BOX - BLUE BOX", "address": {"city": "MANDAREE", "state": "ND", "street": "201 MAIN ST", "postcode": "58757"}}},
{"geometry": {"type": "Point", "coordinates": [-102.7269356111, 47.836557595]}, "type": "Feature", "properties": {"collection_times": [{"days": "Mon-Fri", "time": "12:15pm"}, {"days": "Sat", "time": "11:45am"}, {"days": "Sun", "time": "Closed"}], "id": "5875700001", "name": "USPS COLLECTION BOX - PO LOBBY", "address": {"city": "MANDAREE", "state": "ND", "street": "201 MAIN ST", "postcode": "58757"}}},
{"geometry": {"type": "Point", "coordinates": [-101.2935087083, 47.8216916454]}, "type": "Feature", "properties": {"collection_times": [{"days": "Mon-Fri", "time": "4:10pm"}, {"days": "Sat", "time": "5:30pm"}, {"days": "Sun", "time": "Closed"}], "id": "5875900001", "name": "USPS COLLECTION BOX - BLUE BOX", "address": {"city": "MAX", "state": "ND", "street": "211 MAIN ST", "postcode": "58759"}}},
{"geometry": {"type": "Point", "coordinates": [-101.2935087083, 47.8216916454]}, "type": "Feature", "properties": {"collection_times": [{"days": "Mon-Fri", "time": "12:00pm"}, {"days": "Sat", "time": "9:25am"}, {"days": "Sun", "time": "Closed"}], "id": "5875900002", "name": "USPS COLLECTION BOX - PO LOBBY", "address": {"city": "MAX", "state": "ND", "street": "211 MAIN ST", "postcode": "58759"}}},
{"geometry": {"type": "Point", "coordinates": [-101.1413724148, 48.7208901972]}, "type": "Feature", "properties": {"collection_times": [{"days": "Mon-Fri", "time": "3:05pm"}, {"days": "Sat", "time": "3:00pm"}, {"days": "Sun", "time": "Closed"}], "id": "5876000001", "name": "USPS COLLECTION BOX - BLUE BOX", "address": {"city": "MAXBASS", "state": "ND", "street": "115 MAIN ST", "postcode": "58760"}}},
{"geometry": {"type": "Point", "coordinates": [-101.1413724148, 48.7208901972]}, "type": "Feature", "properties": {"collection_times": [{"days": "Mon-Fri", "time": "1:45pm"}, {"days": "Sat", "time": "12:00pm"}, {"days": "Sun", "time": "Closed"}], "id": "5876000002", "name": "USPS COLLECTION BOX - PO LOBBY", "address": {"city": "MAXBASS", "state": "ND", "street": "115 MAIN ST", "postcode": "58760"}}},
{"geometry": {"type": "Point", "coordinates": [-101.5100250782, 48.7635235193]}, "type": "Feature", "properties": {"collection_times": [{"days": "Mon-Fri", "time": "4:55pm"}, {"days": "Sat", "time": "3:45pm"}, {"days": "Sun", "time": "Closed"}], "id": "5876100001", "name": "USPS COLLECTION BOX - BLUE BOX", "address": {"city": "MOHALL", "state": "ND", "street": "107 MAIN ST E", "postcode": "58761"}}},
{"geometry": {"type": "Point", "coordinates": [-101.5100250782, 48.7635235193]}, "type": "Feature", "properties": {"collection_times": [{"days": "Mon-Fri", "time": "4:30pm"}, {"days": "Sat", "time": "11:45am"}, {"days": "Sun", "time": "Closed"}], "id": "5876100002", "name": "USPS COLLECTION BOX - PO LOBBY", "address": {"city": "MOHALL", "state": "ND", "street": "107 MAIN ST E", "postcode": "58761"}}},
{"geometry": {"type": "Point", "coordinates": [-100.9136038937, 48.7148855292]}, "type": "Feature", "properties": {"collection_times": [{"days": "Mon-Fri", "time": "3:20pm"}, {"days": "Sat", "time": "3:15pm"}, {"days": "Sun", "time": "Closed"}], "id": "5876200001", "name": "USPS COLLECTION BOX - BLUE BOX", "address": {"city": "NEWBURG", "state": "ND", "street": "380 MAIN ST", "postcode": "58762"}}},
{"geometry": {"type": "Point", "coordinates": [-100.9136038937, 48.7148855292]}, "type": "Feature", "properties": {"collection_times": [{"days": "Mon-Fri", "time": "3:20pm"}, {"days": "Sat", "time": "9:45am"}, {"days": "Sun", "time": "Closed"}], "id": "5876200003", "name": "USPS COLLECTION BOX - PO LOBBY", "address": {"city": "NEWBURG", "state": "ND", "street": "380 MAIN ST", "postcode": "58762"}}},
{"geometry": {"type": "Point", "coordinates": [-102.485478758, 47.979777573]}, "type": "Feature", "properties": {"collection_times": [{"days": "Mon-Sat", "time": "3:20pm"}, {"days": "Sun", "time": "Closed"}], "id": "5876300001", "name": "USPS COLLECTION BOX - BLUE BOX", "address": {"city": "NEWTOWN", "state": "ND", "street": "361 MAIN ST", "postcode": "58763"}}},
{"geometry": {"type": "Point", "coordinates": [-102.4866242935, 47.9796887567]}, "type": "Feature", "properties": {"collection_times": [{"days": "Mon-Fri", "time": "3:20pm"}, {"days": "Sat", "time": "11:30am"}, {"days": "Sun", "time": "Closed"}], "id": "5876300002", "name": "USPS COLLECTION BOX - PO LOBBY", "address": {"city": "NEWTOWN", "state": "ND", "street": "361 MAIN ST", "postcode": "58763"}}},
{"geometry": {"type": "Point", "coordinates": [-102.4739170177, 47.9805830933]}, "type": "Feature", "properties": {"collection_times": [{"days": "Mon-Sat", "time": "3:30pm"}, {"days": "Sun", "time": "Closed"}], "id": "5876300004", "name": "USPS COLLECTION BOX - BLUE BOX", "address": {"city": "NEWTOWN", "state": "ND", "street": "712 1ST ST N", "postcode": "58763"}}},
{"geometry": {"type": "Point", "coordinates": [-102.4057627867, 47.9778282073]}, "type": "Feature", "properties": {"collection_times": [{"days": "Mon-Sat", "time": "2:15pm"}, {"days": "Sun", "time": "Closed"}], "id": "5876300005", "name": "USPS COLLECTION BOX - BLUE BOX", "address": {"city": "NEWTOWN", "state": "ND", "street": "8258 39TH ST NW", "postcode": "58763"}}},
{"geometry": {"type": "Point", "coordinates": [-102.5756824298, 47.9804416633]}, "type": "Feature", "properties": {"collection_times": [{"days": "Mon-Sat", "time": "1:30pm"}, {"days": "Sun", "time": "Closed"}], "id": "5876300006", "name": "USPS COLLECTION BOX - BLUE BOX", "address": {"city": "NEWTOWN", "state": "ND", "street": "202 FRONTAGE RD", "postcode": "58763"}}},
{"geometry": {"type": "Point", "coordinates": [-103.0089322465, 48.8898799514]}, "type": "Feature", "properties": {"collection_times": [{"days": "Mon-Fri", "time": "3:00pm"}, {"days": "Sat", "time": "2:30pm"}, {"days": "Sun", "time": "Closed"}], "id": "5876500001", "name": "USPS COLLECTION BOX - BLUE BOX", "address": {"city": "NOONAN", "state": "ND", "street": "209 S MAIN ST", "postcode": "58765"}}},
{"geometry": {"type": "Point", "coordinates": [-103.0089322465, 48.8898799514]}, "type": "Feature", "properties": {"collection_times": [{"days": "Mon-Fri", "time": "3:00pm"}, {"days": "Sat", "time": "10:15am"}, {"days": "Sun", "time": "Closed"}], "id": "5876500002", "name": "USPS COLLECTION BOX - PO LOBBY", "address": {"city": "NOONAN", "state": "ND", "street": "209 S MAIN ST", "postcode": "58765"}}},
{"geometry": {"type": "Point", "coordinates": [-102.133358861, 47.9501300511]}, "type": "Feature", "properties": {"collection_times": [{"days": "Mon-Sat", "time": "3:50pm"}, {"days": "Sun", "time": "Closed"}], "id": "5877000001", "name": "USPS COLLECTION BOX - BLUE BOX", "address": {"city": "PARSHALL", "state": "ND", "street": "107 MAIN ST S", "postcode": "58770"}}},
{"geometry": {"type": "Point", "coordinates": [-102.133358861, 47.9501300511]}, "type": "Feature", "properties": {"collection_times": [{"days": "Mon-Fri", "time": "3:00pm"}, {"days": "Sat-Sun", "time": "Closed"}], "id": "5877000002", "name": "USPS COLLECTION BOX - PO LOBBY", "address": {"city": "PARSHALL", "state": "ND", "street": "107 MAIN ST S", "postcode": "58770"}}},
{"geometry": {"type": "Point", "coordinates": [-101.9589778306, 48.0252776328]}, "type": "Feature", "properties": {"collection_times": [{"days": "Mon-Sat", "time": "4:20pm"}, {"days": "Sun", "time": "Closed"}], "id": "5877100001", "name": "USPS COLLECTION BOX - BLUE BOX", "address": {"city": "PLAZA", "state": "ND", "street": "10 E PLAZA ST", "postcode": "58771"}}},
{"geometry": {"type": "Point", "coordinates": [-101.9589778306, 48.0252776328]}, "type": "Feature", "properties": {"collection_times": [{"days": "Mon-Fri", "time": "12:00pm"}, {"days": "Sat", "time": "9:30am"}, {"days": "Sun", "time": "Closed"}], "id": "5877100002", "name": "USPS COLLECTION BOX - PO LOBBY", "address": {"city": "PLAZA", "state": "ND", "street": "10 E PLAZA ST", "postcode": "58771"}}},
{"geometry": {"type": "Point", "coordinates": [-102.5429383741, 48.9928575676]}, "type": "Feature", "properties": {"collection_times": [{"days": "Mon-Fri", "time": "3:00pm"}, {"days": "Sat", "time": "1:00pm"}, {"days": "Sun", "time": "Closed"}], "id": "5877200001", "name": "USPS COLLECTION BOX - BLUE BOX", "address": {"city": "PORTAL", "state": "ND", "street": "15 W RAILWAY AVE", "postcode": "58772"}}},
{"geometry": {"type": "Point", "coordinates": [-102.5429383741, 48.9928575676]}, "type": "Feature", "properties": {"collection_times": [{"days": "Mon-Fri", "time": "3:00pm"}, {"days": "Sat", "time": "11:25am"}, {"days": "Sun", "time": "Closed"}], "id": "5877200002", "name": "USPS COLLECTION BOX - PO LOBBY", "address": {"city": "PORTAL", "state": "ND", "street": "15 W RAILWAY AVE", "postcode": "58772"}}},
{"geometry": {"type": "Point", "coordinates": [-102.6466715646, 48.5627335596]}, "type": "Feature", "properties": {"collection_times": [{"days": "Mon-Sat", "time": "3:30pm"}, {"days": "Sun", "time": "Closed"}], "id": "5877300001", "name": "USPS COLLECTION BOX - BLUE BOX", "address": {"city": "POWERS LAKE", "state": "ND", "street": "207 MAIN ST", "postcode": "58773"}}},
{"geometry": {"type": "Point", "coordinates": [-102.6466715646, 48.5627335596]}, "type": "Feature", "properties": {"collection_times": [{"days": "Mon-Fri", "time": "3:00pm"}, {"days": "Sat", "time": "10:00am"}, {"days": "Sun", "time": "Closed"}], "id": "5877300002", "name": "USPS COLLECTION BOX - PO LOBBY", "address": {"city": "POWERS LAKE", "state": "ND", "street": "207 MAIN ST", "postcode": "58773"}}},
{"geometry": {"type": "Point", "coordinates": [-102.0644803912, 47.6218357769]}, "type": "Feature", "properties": {"collection_times": [{"days": "Mon-Fri", "time": "2:00pm"}, {"days": "Sat", "time": "11:45am"}, {"days": "Sun", "time": "Closed"}], "id": "5877500001", "name": "USPS COLLECTION BOX - BLUE BOX", "address": {"city": "ROSEGLEN", "state": "ND", "street": "209 5TH ST", "postcode": "58775"}}},
{"geometry": {"type": "Point", "coordinates": [-102.0644803912, 47.6218357769]}, "type": "Feature", "properties": {"collection_times": [{"days": "Mon-Fri", "time": "2:00pm"}, {"days": "Sat", "time": "11:45am"}, {"days": "Sun", "time": "Closed"}], "id": "5877500002", "name": "USPS COLLECTION BOX - PO LOBBY", "address": {"city": "ROSEGLEN", "state": "ND", "street": "209 5TH ST", "postcode": "58775"}}},
{"geometry": {"type": "Point", "coordinates": [-102.5868675207, 48.3061156754]}, "type": "Feature", "properties": {"collection_times": [{"days": "Mon-Fri", "time": "3:15pm"}, {"days": "Sat", "time": "12:00pm"}, {"days": "Sun", "time": "Closed"}], "id": "5877600001", "name": "USPS COLLECTION BOX - BLUE BOX", "address": {"city": "ROSS", "state": "ND", "street": "203 MAIN ST", "postcode": "58776"}}},
{"geometry": {"type": "Point", "coordinates": [-102.544097887, 48.3128341582]}, "type": "Feature", "properties": {"collection_times": [{"days": "Mon-Fri", "time": "2:30pm"}, {"days": "Sat", "time": "12:00pm"}, {"days": "Sun", "time": "Closed"}], "id": "5877600002", "name": "USPS COLLECTION BOX - PO LOBBY", "address": {"city": "ROSS", "state": "ND", "street": "203 MAIN ST", "postcode": "58776"}}},
{"geometry": {"type": "Point", "coordinates": [-101.6738080361, 47.9167225041]}, "type": "Feature", "properties": {"collection_times": [{"days": "Mon-Fri", "time": "4:15pm"}, {"days": "Sat", "time": "5:00pm"}, {"days": "Sun", "time": "Closed"}], "id": "5877900001", "name": "USPS COLLECTION BOX - BLUE BOX", "address": {"city": "RYDER", "state": "ND", "street": "280 N MAIN ST", "postcode": "58779"}}},
{"geometry": {"type": "Point", "coordinates": [-101.6738080361, 47.9167225041]}, "type": "Feature", "properties": {"collection_times": [{"days": "Mon-Fri", "time": "12:00pm"}, {"days": "Sat", "time": "9:45am"}, {"days": "Sun", "time": "Closed"}], "id": "5877900002", "name": "USPS COLLECTION BOX - PO LOBBY", "address": {"city": "RYDER", "state": "ND", "street": "280 N MAIN ST", "postcode": "58779"}}},
{"geometry": {"type": "Point", "coordinates": [-101.056119519, 48.089276376]}, "type": "Feature", "properties": {"collection_times": [{"days": "Mon-Fri", "time": "4:15pm"}, {"days": "Sat", "time": "5:00pm"}, {"days": "Sun", "time": "Closed"}], "id": "5878100001", "name": "USPS COLLECTION BOX - BLUE BOX", "address": {"city": "SAWYER", "state": "ND", "street": "20 MAIN ST S", "postcode": "58781"}}},
{"geometry": {"type": "Point", "coordinates": [-101.056119519, 48.089276376]}, "type": "Feature", "properties": {"collection_times": [{"days": "Mon-Fri", "time": "12:00pm"}, {"days": "Sat", "time": "10:30am"}, {"days": "Sun", "time": "Closed"}], "id": "5878100002", "name": "USPS COLLECTION BOX - PO LOBBY", "address": {"city": "SAWYER", "state": "ND", "street": "20 MAIN ST S", "postcode": "58781"}}},
{"geometry": {"type": "Point", "coordinates": [-101.6326445013, 48.9593111754]}, "type": "Feature", "properties": {"collection_times": [{"days": "Mon-Fri", "time": "4:25pm"}, {"days": "Sat", "time": "3:30pm"}, {"days": "Sun", "time": "Closed"}], "id": "5878200001", "name": "USPS COLLECTION BOX - BLUE BOX", "address": {"city": "SHERWOOD", "state": "ND", "street": "144 MAIN ST", "postcode": "58782"}}},
{"geometry": {"type": "Point", "coordinates": [-101.6326445013, 48.9593111754]}, "type": "Feature", "properties": {"collection_times": [{"days": "Mon-Fri", "time": "12:00pm"}, {"days": "Sat", "time": "9:20am"}, {"days": "Sun", "time": "Closed"}], "id": "5878200002", "name": "USPS COLLECTION BOX - PO LOBBY", "address": {"city": "SHERWOOD", "state": "ND", "street": "144 MAIN ST", "postcode": "58782"}}},
{"geometry": {"type": "Point", "coordinates": [-100.6816077762, 48.9101797584]}, "type": "Feature", "properties": {"collection_times": [{"days": "Mon-Sat", "time": "2:55pm"}, {"days": "Sun", "time": "Closed"}], "id": "5878300001", "name": "USPS COLLECTION BOX - BLUE BOX", "address": {"city": "SOURIS", "state": "ND", "street": "145 MAIN ST", "postcode": "58783"}}},
{"geometry": {"type": "Point", "coordinates": [-100.6817167703, 48.910185382]}, "type": "Feature", "properties": {"collection_times": [{"days": "Mon-Fri", "time": "12:15pm"}, {"days": "Sat", "time": "9:55am"}, {"days": "Sun", "time": "Closed"}], "id": "5878300002", "name": "USPS COLLECTION BOX - PO LOBBY", "address": {"city": "SOURIS", "state": "ND", "street": "145 MAIN ST", "postcode": "58783"}}},
{"geometry": {"type": "Point", "coordinates": [-100.6816069191, 48.9114690426]}, "type": "Feature", "properties": {"collection_times": [{"days": "Mon-Sat", "time": "10:30am"}, {"days": "Sun", "time": "Closed"}], "id": "5878300003", "name": "USPS COLLECTION BOX - BLUE BOX", "address": {"city": "SOURIS", "state": "ND", "street": "375 MAIN AVE", "postcode": "58783"}}},
{"geometry": {"type": "Point", "coordinates": [-102.3899131434, 48.318272399]}, "type": "Feature", "properties": {"collection_times": [{"days": "Mon-Fri", "time": "4:30pm"}, {"days": "Sat", "time": "4:00pm"}, {"days": "Sun", "time": "Closed"}], "id": "5878400001", "name": "USPS COLLECTION BOX - BLUE BOX", "address": {"city": "STANLEY", "state": "ND", "street": "15 1ST AVE SE", "postcode": "58784"}}},
{"geometry": {"type": "Point", "coordinates": [-102.3899131434, 48.318272399]}, "type": "Feature", "properties": {"collection_times": [{"days": "Mon-Fri", "time": "4:30pm"}, {"days": "Sat", "time": "11:00am"}, {"days": "Sun", "time": "Closed"}], "id": "5878400002", "name": "USPS COLLECTION BOX - PO LOBBY", "address": {"city": "STANLEY", "state": "ND", "street": "15 1ST AVE SE", "postcode": "58784"}}},
{"geometry": {"type": "Point", "coordinates": [-101.1336813052, 48.2391105916]}, "type": "Feature", "properties": {"collection_times": [{"days": "Mon-Fri", "time": "4:05pm"}, {"days": "Sat", "time": "5:00pm"}, {"days": "Sun", "time": "Closed"}], "id": "5878500001", "name": "USPS COLLECTION BOX - BLUE BOX", "address": {"city": "SURREY", "state": "ND", "street": "116 PLEASANT AVE N", "postcode": "58785"}}},
{"geometry": {"type": "Point", "coordinates": [-101.1336813052, 48.2391105916]}, "type": "Feature", "properties": {"collection_times": [{"days": "Mon-Fri", "time": "4:10pm"}, {"days": "Sat-Sun", "time": "Closed"}], "id": "5878500002", "name": "USPS COLLECTION BOX - PO LOBBY", "address": {"city": "SURREY", "state": "ND", "street": "116 PLEASANT AVE N", "postcode": "58785"}}},
{"geometry": {"type": "Point", "coordinates": [-101.8427285288, 48.8069068727]}, "type": "Feature", "properties": {"collection_times": [{"days": "Mon-Sat", "time": "1:45pm"}, {"days": "Sun", "time": "Closed"}], "id": "5878700001", "name": "USPS COLLECTION BOX - BLUE BOX", "address": {"city": "TOLLEY", "state": "ND", "street": "209 MAIN ST", "postcode": "58787"}}},
{"geometry": {"type": "Point", "coordinates": [-101.8427285288, 48.8069068727]}, "type": "Feature", "properties": {"collection_times": [{"days": "Mon-Fri", "time": "1:45pm"}, {"days": "Sat", "time": "11:15am"}, {"days": "Sun", "time": "Closed"}], "id": "5878700002", "name": "USPS COLLECTION BOX - PO LOBBY", "address": {"city": "TOLLEY", "state": "ND", "street": "209 MAIN ST", "postcode": "58787"}}},
{"geometry": {"type": "Point", "coordinates": [-100.4052690611, 48.3456575772]}, "type": "Feature", "properties": {"collection_times": [{"days": "Mon-Sat", "time": "4:00pm"}, {"days": "Sun", "time": "Closed"}], "id": "5878800001", "name": "USPS COLLECTION BOX - BLUE BOX", "address": {"city": "TOWNER", "state": "ND", "street": "205 MAIN ST S", "postcode": "58788"}}},
{"geometry": {"type": "Point", "coordinates": [-100.4052690611, 48.3456575772]}, "type": "Feature", "properties": {"collection_times": [{"days": "Mon-Fri", "time": "2:45pm"}, {"days": "Sat", "time": "8:30am"}, {"days": "Sun", "time": "Closed"}], "id": "5878800002", "name": "USPS COLLECTION BOX - PO LOBBY", "address": {"city": "TOWNER", "state": "ND", "street": "205 MAIN ST S", "postcode": "58788"}}},
{"geometry": {"type": "Point", "coordinates": [-100.9294469917, 48.0574970606]}, "type": "Feature", "properties": {"collection_times": [{"days": "Mon-Fri", "time": "5:05pm"}, {"days": "Sat", "time": "5:00pm"}, {"days": "Sun", "time": "Closed"}], "id": "5879000001", "name": "USPS COLLECTION BOX - BLUE BOX", "address": {"city": "VELVA", "state": "ND", "street": "105 MAIN ST N", "postcode": "58790"}}},
{"geometry": {"type": "Point", "coordinates": [-100.9294469917, 48.0574970606]}, "type": "Feature", "properties": {"collection_times": [{"days": "Mon-Fri", "time": "4:30pm"}, {"days": "Sat", "time": "10:15am"}, {"days": "Sun", "time": "Closed"}], "id": "5879000002", "name": "USPS COLLECTION BOX - PO LOBBY", "address": {"city": "VELVA", "state": "ND", "street": "105 MAIN ST N", "postcode": "58790"}}},
{"geometry": {"type": "Point", "coordinates": [-100.8431505992, 48.0221830582]}, "type": "Feature", "properties": {"collection_times": [{"days": "Mon-Fri", "time": "4:30pm"}, {"days": "Sat", "time": "4:45pm"}, {"days": "Sun", "time": "Closed"}], "id": "5879200001", "name": "USPS COLLECTION BOX - BLUE BOX", "address": {"city": "VOLTAIRE", "state": "ND", "street": "9 MAIN ST", "postcode": "58792"}}},
{"geometry": {"type": "Point", "coordinates": [-100.8431505992, 48.0221830582]}, "type": "Feature", "properties": {"collection_times": [{"days": "Mon-Fri", "time": "4:30pm"}, {"days": "Sat", "time": "9:30am"}, {"days": "Sun", "time": "Closed"}], "id": "5879200002", "name": "USPS COLLECTION BOX - PO LOBBY", "address": {"city": "VOLTAIRE", "state": "ND", "street": "9 MAIN ST", "postcode": "58792"}}},
{"geometry": {"type": "Point", "coordinates": [-101.0210582662, 48.9101611886]}, "type": "Feature", "properties": {"collection_times": [{"days": "Mon-Fri", "time": "3:30pm"}, {"days": "Sat", "time": "3:00pm"}, {"days": "Sun", "time": "Closed"}], "id": "5879300001", "name": "USPS COLLECTION BOX - BLUE BOX", "address": {"city": "WESTHOPE", "state": "ND", "street": "180 MAIN ST", "postcode": "58793"}}},
{"geometry": {"type": "Point", "coordinates": [-101.0210582662, 48.9101611886]}, "type": "Feature", "properties": {"collection_times": [{"days": "Mon-Fri", "time": "3:30pm"}, {"days": "Sat", "time": "10:00am"}, {"days": "Sun", "time": "Closed"}], "id": "5879300002", "name": "USPS COLLECTION BOX - PO LOBBY", "address": {"city": "WESTHOPE", "state": "ND", "street": "180 MAIN ST", "postcode": "58793"}}},
{"geometry": {"type": "Point", "coordinates": [-103.1456310088, 48.6239651737]}, "type": "Feature", "properties": {"collection_times": [{"days": "Mon-Sat", "time": "1:55pm"}, {"days": "Sun", "time": "Closed"}], "id": "5879500001", "name": "USPS COLLECTION BOX - BLUE BOX", "address": {"city": "WILDROSE", "state": "ND", "street": "507 MAIN ST", "postcode": "58795"}}},
{"geometry": {"type": "Point", "coordinates": [-103.1456310088, 48.6239651737]}, "type": "Feature", "properties": {"collection_times": [{"days": "Mon-Fri", "time": "1:55pm"}, {"days": "Sat", "time": "1:00pm"}, {"days": "Sun", "time": "Closed"}], "id": "5879500002", "name": "USPS COLLECTION BOX - PO LOBBY", "address": {"city": "WILDROSE", "state": "ND", "street": "507 MAIN ST", "postcode": "58795"}}}
]}
