{"type": "FeatureCollection", "features": [
{"geometry": {"type": "Point", "coordinates": [-103.6256633214, 48.1667225879]}, "type": "Feature", "properties": {"collection_times": [{"days": "Mon-Fri", "time": "3:00pm"}, {"days": "Sat-Sun", "time": "Closed"}], "id": "5880100001", "name": "USPS COLLECTION BOX - BLUE BOX", "address": {"city": "WILLISTON", "state": "ND", "street": "2524 2ND AVE W", "postcode": "58801"}}},
{"geometry": {"type": "Point", "coordinates": [-103.643260637, 48.161527399]}, "type": "Feature", "properties": {"collection_times": [{"days": "Mon-Sat", "time": "3:00pm"}, {"days": "Sun", "time": "Closed"}], "id": "5880100002", "name": "USPS COLLECTION BOX - BLUE BOX", "address": {"city": "WILLISTON", "state": "ND", "street": "1300 BISON DR", "postcode": "58801"}}},
{"geometry": {"type": "Point", "coordinates": [-103.6429164257, 48.1656279723]}, "type": "Feature", "properties": {"collection_times": [{"days": "Mon-Fri", "time": "5:00pm"}, {"days": "Sat", "time": "4:00pm"}, {"days": "Sun", "time": "Closed"}], "id": "5880100003", "name": "USPS COLLECTION BOX - BLUE BOX", "address": {"city": "WILLISTON", "state": "ND", "street": "120 E BROADWAY", "postcode": "58801"}}},
{"geometry": {"type": "Point", "coordinates": [-103.6455052087, 48.1551024208]}, "type": "Feature", "properties": {"collection_times": [{"days": "Mon-Sat", "time": "3:00pm"}, {"days": "Sun", "time": "Closed"}], "id": "5880100004", "name": "USPS COLLECTION BOX - BLUE BOX", "address": {"city": "WILLISTON", "state": "ND", "street": "1301 15TH AVE W", "postcode": "58801"}}},
{"geometry": {"type": "Point", "coordinates": [-103.6429164257, 48.1656279723]}, "type": "Feature", "properties": {"collection_times": [{"days": "Mon-Fri", "time": "5:00pm"}, {"days": "Sat", "time": "4:00pm"}, {"days": "Sun", "time": "Closed"}], "id": "5880100013", "name": "USPS COLLECTION BOX - BLUE BOX", "address": {"city": "WILLISTON", "state": "ND", "street": "120 E BROADWAY", "postcode": "58801"}}},
{"geometry": {"type": "Point", "coordinates": [-103.6429164257, 48.1656279723]}, "type": "Feature", "properties": {"collection_times": [{"days": "Mon-Fri", "time": "5:00pm"}, {"days": "Sat", "time": "4:30pm"}, {"days": "Sun", "time": "Closed"}], "id": "5880100015", "name": "USPS COLLECTION BOX - PO LOBBY", "address": {"city": "WILLISTON", "state": "ND", "street": "120 E BROADWAY", "postcode": "58801"}}},
{"geometry": {"type": "Point", "coordinates": [-103.6258277556, 48.1667129556]}, "type": "Feature", "properties": {"collection_times": [{"days": "Mon-Fri", "time": "3:00pm"}, {"days": "Sat", "time": "9:45am"}, {"days": "Sun", "time": "Closed"}], "id": "5880100017", "name": "USPS COLLECTION BOX - BLUE BOX", "address": {"city": "WILLISTON", "state": "ND", "street": "2523 2ND AVE W", "postcode": "58801"}}},
{"geometry": {"type": "Point", "coordinates": [-103.6272946347, 48.1542369681]}, "type": "Feature", "properties": {"collection_times": [{"days": "Mon-Sat", "time": "3:00pm"}, {"days": "Sun", "time": "Closed"}], "id": "5880100018", "name": "USPS COLLECTION BOX - BLUE BOX", "address": {"city": "WILLISTON", "state": "ND", "street": "300 11TH ST W", "postcode": "58801"}}},
{"geometry": {"type": "Point", "coordinates": [-103.6429164257, 48.1656279723]}, "type": "Feature", "properties": {"collection_times": [{"days": "Mon-Fri", "time": "5:00pm"}, {"days": "Sat", "time": "4:30pm"}, {"days": "Sun", "time": "Closed"}], "id": "5880100021", "name": "USPS COLLECTION BOX - APC", "address": {"city": "WILLISTON", "state": "ND", "street": "120 E BROADWAY", "postcode": "58801"}}},
{"geometry": {"type": "Point", "coordinates": [-103.61988, 48.146645]}, "type": "Feature", "properties": {"collection_times": [{"days": "Mon-Fri", "time": "5:00pm"}, {"days": "Sat", "time": "4:30pm"}, {"days": "Sun", "time": "Closed"}], "id": "5880100022", "name": "USPS COLLECTION BOX - PO LOBBY", "address": {"city": "WILLISTON", "state": "ND", "street": "120 E BROADWAY", "postcode": "58801"}}},
{"geometry": {"type": "Point", "coordinates": [-103.6365865942, 48.1575711307]}, "type": "Feature", "properties": {"collection_times": [{"days": "Mon-Fri", "time": "4:30pm"}, {"days": "Sat", "time": "12:00pm"}, {"days": "Sun", "time": "Closed"}], "id": "5880100023", "name": "USPS COLLECTION BOX - BLUE BOX", "address": {"city": "WILLISTON", "state": "ND", "street": "4315 9TH AVE W", "postcode": "58801"}}},
{"geometry": {"type": "Point", "coordinates": [-103.6365865942, 48.1575711307]}, "type": "Feature", "properties": {"collection_times": [{"days": "Mon-Fri", "time": "4:30pm"}, {"days": "Sat", "time": "12:00pm"}, {"days": "Sun", "time": "Closed"}], "id": "5880100024", "name": "USPS COLLECTION BOX - BLUE BOX", "address": {"city": "WILLISTON", "state": "ND", "street": "4315 9TH AVE W", "postcode": "58801"}}},
{"geometry": {"type": "Point", "coordinates": [-103.6365865942, 48.1575711307]}, "type": "Feature", "properties": {"collection_times": [{"days": "Mon-Fri", "time": "4:30pm"}, {"days": "Sat", "time": "12:00pm"}, {"days": "Sun", "time": "Closed"}], "id": "5880100025", "name": "USPS COLLECTION BOX - PO LOBBY", "address": {"city": "WILLISTON", "state": "ND", "street": "4315 9TH AVE W", "postcode": "58801"}}},
{"geometry": {"type": "Point", "coordinates": [-103.6365865942, 48.1575711307]}, "type": "Feature", "properties": {"collection_times": [{"days": "Mon-Fri", "time": "4:30pm"}, {"days": "Sat", "time": "12:00pm"}, {"days": "Sun", "time": "Closed"}], "id": "5880100026", "name": "USPS COLLECTION BOX - PO LOBBY", "address": {"city": "WILLISTON", "state": "ND", "street": "4315 9TH AVE W", "postcode": "58801"}}},
{"geometry": {"type": "Point", "coordinates": [-103.469020633, 48.5809054673]}, "type": "Feature", "properties": {"collection_times": [{"days": "Mon-Fri", "time": "2:55pm"}, {"days": "Sat", "time": "2:50pm"}, {"days": "Sun", "time": "Closed"}], "id": "5883000001", "name": "USPS COLLECTION BOX - BLUE BOX", "address": {"city": "ALAMO", "state": "ND", "street": "24 MAIN ST", "postcode": "58830"}}},
{"geometry": {"type": "Point", "coordinates": [-103.469020633, 48.5809054673]}, "type": "Feature", "properties": {"collection_times": [{"days": "Mon-Fri", "time": "12:30pm"}, {"days": "Sat", "time": "10:30am"}, {"days": "Sun", "time": "Closed"}], "id": "5883000002", "name": "USPS COLLECTION BOX - PO LOBBY", "address": {"city": "ALAMO", "state": "ND", "street": "24 MAIN ST", "postcode": "58830"}}},
{"geometry": {"type": "Point", "coordinates": [-103.644387642, 47.8716112029]}, "type": "Feature", "properties": {"collection_times": [{"days": "Mon-Fri", "time": "3:30pm"}, {"days": "Sat", "time": "3:25pm"}, {"days": "Sun", "time": "Closed"}], "id": "5883100001", "name": "USPS COLLECTION BOX - BLUE BOX", "address": {"city": "ALEXANDER", "state": "ND", "street": "602 ELK ST", "postcode": "58831"}}},
{"geometry": {"type": "Point", "coordinates": [-103.64238, 47.83497]}, "type": "Feature", "properties": {"collection_times": [{"days": "Mon-Fri", "time": "11:00am"}, {"days": "Sat", "time": "10:15am"}, {"days": "Sun", "time": "Closed"}], "id": "5883100002", "name": "USPS COLLECTION BOX - PO LOBBY", "address": {"city": "ALEXANDER", "state": "ND", "street": "602 ELK ST", "postcode": "58831"}}},
{"geometry": {"type": "Point", "coordinates": [-103.5875548207, 48.6843641654]}, "type": "Feature", "properties": {"collection_times": [{"days": "Mon-Fri", "time": "1:55pm"}, {"days": "Sat", "time": "1:00pm"}, {"days": "Sun", "time": "Closed"}], "id": "5883300001", "name": "USPS COLLECTION BOX - BLUE BOX", "address": {"city": "AMBROSE", "state": "ND", "street": "203 MAIN ST", "postcode": "58833"}}},
{"geometry": {"type": "Point", "coordinates": [-103.4822110303, 48.9547809366]}, "type": "Feature", "properties": {"collection_times": [{"days": "Mon-Fri", "time": "1:55pm"}, {"days": "Sat", "time": "1:00pm"}, {"days": "Sun", "time": "Closed"}], "id": "5883300002", "name": "USPS COLLECTION BOX - PO LOBBY", "address": {"city": "AMBROSE", "state": "ND", "street": "203 MAIN ST", "postcode": "58833"}}},
{"geometry": {"type": "Point", "coordinates": [-103.4408501424, 47.8078437982]}, "type": "Feature", "properties": {"collection_times": [{"days": "Mon-Sat", "time": "3:05pm"}, {"days": "Sun", "time": "Closed"}], "id": "5883500001", "name": "USPS COLLECTION BOX - BLUE BOX", "address": {"city": "ARNEGARD", "state": "ND", "street": "206 MAIN ST", "postcode": "58835"}}},
{"geometry": {"type": "Point", "coordinates": [-103.4408501424, 47.8078437982]}, "type": "Feature", "properties": {"collection_times": [{"days": "Mon-Fri", "time": "3:05pm"}, {"days": "Sat", "time": "2:30pm"}, {"days": "Sun", "time": "Closed"}], "id": "5883500002", "name": "USPS COLLECTION BOX - PO LOBBY", "address": {"city": "ARNEGARD", "state": "ND", "street": "206 MAIN ST", "postcode": "58835"}}},
{"geometry": {"type": "Point", "coordinates": [-103.8408552143, 47.615702248]}, "type": "Feature", "properties": {"collection_times": [{"days": "Mon-Sat", "time": "12:30pm"}, {"days": "Sun", "time": "Closed"}], "id": "5883800001", "name": "USPS COLLECTION BOX - BLUE BOX", "address": {"city": "CARTWRIGHT", "state": "ND", "street": "204 MAIN ST", "postcode": "58838"}}},
{"geometry": {"type": "Point", "coordinates": [-103.4630056059, 48.2526386528]}, "type": "Feature", "properties": {"collection_times": [{"days": "Mon-Fri", "time": "3:35pm"}, {"days": "Sat", "time": "3:00pm"}, {"days": "Sun", "time": "Closed"}], "id": "5884300001", "name": "USPS COLLECTION BOX - BLUE BOX", "address": {"city": "EPPING", "state": "ND", "street": "109 MAIN AVE", "postcode": "58843"}}},
{"geometry": {"type": "Point", "coordinates": [-103.4630056059, 48.2526386528]}, "type": "Feature", "properties": {"collection_times": [{"days": "Mon-Fri", "time": "3:00pm"}, {"days": "Sat", "time": "12:30pm"}, {"days": "Sun", "time": "Closed"}], "id": "5884300002", "name": "USPS COLLECTION BOX - PO LOBBY", "address": {"city": "EPPING", "state": "ND", "street": "109 MAIN AVE", "postcode": "58843"}}},
{"geometry": {"type": "Point", "coordinates": [-103.7766892339, 48.9115256339]}, "type": "Feature", "properties": {"collection_times": [{"days": "Mon-Sat", "time": "1:00pm"}, {"days": "Sun", "time": "Closed"}], "id": "5884400001", "name": "USPS COLLECTION BOX - BLUE BOX", "address": {"city": "FORTUNA", "state": "ND", "street": "190 N MAIN ST", "postcode": "58844"}}},
{"geometry": {"type": "Point", "coordinates": [-103.7766892339, 48.9115256339]}, "type": "Feature", "properties": {"collection_times": [{"days": "Mon-Fri", "time": "1:00pm"}, {"days": "Sat", "time": "11:15am"}, {"days": "Sun", "time": "Closed"}], "id": "5884400002", "name": "USPS COLLECTION BOX - PO LOBBY", "address": {"city": "FORTUNA", "state": "ND", "street": "190 N MAIN ST", "postcode": "58844"}}},
{"geometry": {"type": "Point", "coordinates": [-103.9374645878, 48.6177228278]}, "type": "Feature", "properties": {"collection_times": [{"days": "Mon-Sat", "time": "2:10pm"}, {"days": "Sun", "time": "Closed"}], "id": "5884500001", "name": "USPS COLLECTION BOX - BLUE BOX", "address": {"city": "GRENORA", "state": "ND", "street": "101 MAIN ST", "postcode": "58845"}}},
{"geometry": {"type": "Point", "coordinates": [-103.9374645878, 48.6177228278]}, "type": "Feature", "properties": {"collection_times": [{"days": "Mon-Fri", "time": "2:10pm"}, {"days": "Sat", "time": "10:15am"}, {"days": "Sun", "time": "Closed"}], "id": "5884500002", "name": "USPS COLLECTION BOX - PO LOBBY", "address": {"city": "GRENORA", "state": "ND", "street": "101 MAIN ST", "postcode": "58845"}}},
{"geometry": {"type": "Point", "coordinates": [-102.941379071, 47.927700157]}, "type": "Feature", "properties": {"collection_times": [{"days": "Mon-Sat", "time": "1:00pm"}, {"days": "Sun", "time": "Closed"}], "id": "5884700003", "name": "USPS COLLECTION BOX - BLUE BOX", "address": {"city": "KEENE", "state": "ND", "street": "112 MAIN ST", "postcode": "58847"}}},
{"geometry": {"type": "Point", "coordinates": [-103.165523853, 48.3426164846]}, "type": "Feature", "properties": {"collection_times": [{"days": "Mon-Fri", "time": "4:00pm"}, {"days": "Sat", "time": "2:45pm"}, {"days": "Sun", "time": "Closed"}], "id": "5884900001", "name": "USPS COLLECTION BOX - BLUE BOX", "address": {"city": "RAY", "state": "ND", "street": "6 MAIN ST", "postcode": "58849"}}},
{"geometry": {"type": "Point", "coordinates": [-103.1701189972, 48.3438774779]}, "type": "Feature", "properties": {"collection_times": [{"days": "Mon-Fri", "time": "3:00pm"}, {"days": "Sat", "time": "11:00am"}, {"days": "Sun", "time": "Closed"}], "id": "5884900002", "name": "USPS COLLECTION BOX - PO LOBBY", "address": {"city": "RAY", "state": "ND", "street": "6 MAIN ST", "postcode": "58849"}}},
{"geometry": {"type": "Point", "coordinates": [-102.9385527321, 48.3962338511]}, "type": "Feature", "properties": {"collection_times": [{"days": "Mon-Fri", "time": "4:30pm"}, {"days": "Sat", "time": "2:30pm"}, {"days": "Sun", "time": "Closed"}], "id": "5885200001", "name": "USPS COLLECTION BOX - BLUE BOX", "address": {"city": "TIOGA", "state": "ND", "street": "10 1ST ST NE", "postcode": "58852"}}},
{"geometry": {"type": "Point", "coordinates": [-102.9385527321, 48.3962338511]}, "type": "Feature", "properties": {"collection_times": [{"days": "Mon-Fri", "time": "4:30pm"}, {"days": "Sat", "time": "12:00pm"}, {"days": "Sun", "time": "Closed"}], "id": "5885200002", "name": "USPS COLLECTION BOX - PO LOBBY", "address": {"city": "TIOGA", "state": "ND", "street": "10 1ST ST NE", "postcode": "58852"}}},
{"geometry": {"type": "Point", "coordinates": [-102.9301269632, 48.3910164891]}, "type": "Feature", "properties": {"collection_times": [{"days": "Mon-Sat", "time": "4:15pm"}, {"days": "Sun", "time": "Closed"}], "id": "5885200003", "name": "USPS COLLECTION BOX - BLUE BOX", "address": {"city": "TIOGA", "state": "ND", "street": "6714 HIGHWAY 40", "postcode": "58852"}}},
{"geometry": {"type": "Point", "coordinates": [-103.8275481419, 48.0929922404]}, "type": "Feature", "properties": {"collection_times": [{"days": "Mon-Sat", "time": "1:45pm"}, {"days": "Sun", "time": "Closed"}], "id": "5885300001", "name": "USPS COLLECTION BOX - BLUE BOX", "address": {"city": "TRENTON", "state": "ND", "street": "331 4TH AVE E RM 18", "postcode": "58853"}}},
{"geometry": {"type": "Point", "coordinates": [-103.8275481419, 48.0929922404]}, "type": "Feature", "properties": {"collection_times": [{"days": "Mon-Sat", "time": "1:45pm"}, {"days": "Sun", "time": "Closed"}], "id": "5885300002", "name": "USPS COLLECTION BOX - PO LOBBY", "address": {"city": "TRENTON", "state": "ND", "street": "331 4TH AVE E RM 18", "postcode": "58853"}}},
{"geometry": {"type": "Point", "coordinates": [-103.281560059, 47.802880707]}, "type": "Feature", "properties": {"collection_times": [{"days": "Mon-Sat", "time": "3:45pm"}, {"days": "Sun", "time": "Closed"}], "id": "5885400001", "name": "USPS COLLECTION BOX - BLUE BOX", "address": {"city": "WATFORD CITY", "state": "ND", "street": "212 2ND ST NE", "postcode": "58854"}}},
{"geometry": {"type": "Point", "coordinates": [-103.281560059, 47.802880707]}, "type": "Feature", "properties": {"collection_times": [{"days": "Mon-Sat", "time": "3:45pm"}, {"days": "Sun", "time": "Closed"}], "id": "5885400002", "name": "USPS COLLECTION BOX - BLUE BOX", "address": {"city": "WATFORD CITY", "state": "ND", "street": "212 2ND ST NE", "postcode": "58854"}}},
{"geometry": {"type": "Point", "coordinates": [-103.281560059, 47.802880707]}, "type": "Feature", "properties": {"collection_times": [{"days": "Mon-Fri", "time": "3:45pm"}, {"days": "Sat", "time": "1:00pm"}, {"days": "Sun", "time": "Closed"}], "id": "5885400003", "name": "USPS COLLECTION BOX - PO LOBBY", "address": {"city": "WATFORD CITY", "state": "ND", "street": "212 2ND ST NE", "postcode": "58854"}}},
{"geometry": {"type": "Point", "coordinates": [-103.281560059, 47.802880707]}, "type": "Feature", "properties": {"collection_times": [{"days": "Mon-Fri", "time": "3:45pm"}, {"days": "Sat", "time": "1:00pm"}, {"days": "Sun", "time": "Closed"}], "id": "5885400004", "name": "USPS COLLECTION BOX - PO LOBBY", "address": {"city": "WATFORD CITY", "state": "ND", "street": "212 2ND ST NE", "postcode": "58854"}}},
{"geometry": {"type": "Point", "coordinates": [-103.282800616, 47.796121827]}, "type": "Feature", "properties": {"collection_times": [{"days": "Mon-Sat", "time": "3:00pm"}, {"days": "Sun", "time": "Closed"}], "id": "5885400005", "name": "USPS COLLECTION BOX - BLUE BOX", "address": {"city": "WATFORD CITY", "state": "ND", "street": "113 6TH AVE SE STE 5100", "postcode": "58854"}}},
{"geometry": {"type": "Point", "coordinates": [-103.281560059, 47.802880707]}, "type": "Feature", "properties": {"collection_times": [{"days": "Mon-Fri", "time": "3:45pm"}, {"days": "Sat", "time": "1:00pm"}, {"days": "Sun", "time": "Closed"}], "id": "5885400006", "name": "USPS COLLECTION BOX - APC", "address": {"city": "WATFORD CITY", "state": "ND", "street": "212 2ND ST NE", "postcode": "58854"}}},
{"geometry": {"type": "Point", "coordinates": [-103.7327803607, 48.5394966631]}, "type": "Feature", "properties": {"collection_times": [{"days": "Mon-Fri", "time": "2:35pm"}, {"days": "Sat", "time": "2:30pm"}, {"days": "Sun", "time": "Closed"}], "id": "5885600001", "name": "USPS COLLECTION BOX - BLUE BOX", "address": {"city": "ZAHL", "state": "ND", "street": "207 MAIN ST", "postcode": "58856"}}},
{"geometry": {"type": "Point", "coordinates": [-103.6920806082, 48.5733733262]}, "type": "Feature", "properties": {"collection_times": [{"days": "Mon-Fri", "time": "2:15pm"}, {"days": "Sat", "time": "10:20am"}, {"days": "Sun", "time": "Closed"}], "id": "5885600002", "name": "USPS COLLECTION BOX - PO LOBBY", "address": {"city": "ZAHL", "state": "ND", "street": "207 MAIN ST", "postcode": "58856"}}}
]}
