{"type": "FeatureCollection", "features": [
{"geometry": {"type": "Point", "coordinates": [-89.5023984396, 34.5030815242]}, "type": "Feature", "properties": {"collection_times": [{"days": "Mon-Fri", "time": "2:30pm"}, {"days": "Sat", "time": "10:30am"}, {"days": "Sun", "time": "Closed"}], "id": "3860100002", "name": "USPS COLLECTION BOX - PO LOBBY", "address": {"city": "ABBEVILLE", "state": "MS", "street": "8 E LONG ST", "postcode": "38601"}}},
{"geometry": {"type": "Point", "coordinates": [-90.1184489668, 34.6991283192]}, "type": "Feature", "properties": {"collection_times": [{"days": "Mon-Fri", "time": "12:30pm"}, {"days": "Sat", "time": "12:00pm"}, {"days": "Sun", "time": "Closed"}], "id": "3860200001", "name": "USPS COLLECTION BOX - BLUE BOX", "address": {"city": "ARKABUTLA", "state": "MS", "street": "8294 ARKABUTLA RD", "postcode": "38602"}}},
{"geometry": {"type": "Point", "coordinates": [-90.1184489668, 34.6991283192]}, "type": "Feature", "properties": {"collection_times": [{"days": "Mon-Fri", "time": "12:30pm"}, {"days": "Sat", "time": "12:00pm"}, {"days": "Sun", "time": "Closed"}], "id": "3860200002", "name": "USPS COLLECTION BOX - PO LOBBY", "address": {"city": "ARKABUTLA", "state": "MS", "street": "8294 ARKABUTLA RD", "postcode": "38602"}}},
{"geometry": {"type": "Point", "coordinates": [-89.1892046545, 34.8285802393]}, "type": "Feature", "properties": {"collection_times": [{"days": "Mon-Fri", "time": "4:30pm"}, {"days": "Sat", "time": "11:00am"}, {"days": "Sun", "time": "Closed"}], "id": "3860300002", "name": "USPS COLLECTION BOX - BLUE BOX", "address": {"city": "ASHLAND", "state": "MS", "street": "16010 BOUNDARY DR", "postcode": "38603"}}},
{"geometry": {"type": "Point", "coordinates": [-89.1892046545, 34.8285802393]}, "type": "Feature", "properties": {"collection_times": [{"days": "Mon-Fri", "time": "4:30pm"}, {"days": "Sat", "time": "11:00am"}, {"days": "Sun", "time": "Closed"}], "id": "3860300003", "name": "USPS COLLECTION BOX - PO LOBBY", "address": {"city": "ASHLAND", "state": "MS", "street": "16010 BOUNDARY DR", "postcode": "38603"}}},
{"geometry": {"type": "Point", "coordinates": [-89.9195081804, 34.3148495052]}, "type": "Feature", "properties": {"collection_times": [{"days": "Mon-Fri", "time": "4:45pm"}, {"days": "Sat", "time": "3:00pm"}, {"days": "Sun", "time": "Closed"}], "id": "3860600001", "name": "USPS COLLECTION BOX - BLUE BOX", "address": {"city": "BATESVILLE", "state": "MS", "street": "375 LAKEWOOD DR", "postcode": "38606"}}},
{"geometry": {"type": "Point", "coordinates": [-89.9195081804, 34.3148495052]}, "type": "Feature", "properties": {"collection_times": [{"days": "Mon-Fri", "time": "4:45pm"}, {"days": "Sat", "time": "3:00pm"}, {"days": "Sun", "time": "Closed"}], "id": "3860600002", "name": "USPS COLLECTION BOX - BLUE BOX", "address": {"city": "BATESVILLE", "state": "MS", "street": "375 LAKEWOOD DR", "postcode": "38606"}}},
{"geometry": {"type": "Point", "coordinates": [-89.9195081804, 34.3148495052]}, "type": "Feature", "properties": {"collection_times": [{"days": "Mon-Fri", "time": "4:45pm"}, {"days": "Sat", "time": "3:00pm"}, {"days": "Sun", "time": "Closed"}], "id": "3860600008", "name": "USPS COLLECTION BOX - PO LOBBY", "address": {"city": "BATESVILLE", "state": "MS", "street": "375 LAKEWOOD DR", "postcode": "38606"}}},
{"geometry": {"type": "Point", "coordinates": [-89.9526459977, 34.3163685631]}, "type": "Feature", "properties": {"collection_times": [{"days": "Mon-Fri", "time": "3:30pm"}, {"days": "Sat", "time": "1:30pm"}, {"days": "Sun", "time": "Closed"}], "id": "3860600011", "name": "USPS COLLECTION BOX - BLUE BOX", "address": {"city": "BATESVILLE", "state": "MS", "street": "100 PUBLIC SQ", "postcode": "38606"}}},
{"geometry": {"type": "Point", "coordinates": [-89.9526459977, 34.3163685631]}, "type": "Feature", "properties": {"collection_times": [{"days": "Mon-Fri", "time": "3:30pm"}, {"days": "Sat", "time": "1:30pm"}, {"days": "Sun", "time": "Closed"}], "id": "3860600012", "name": "USPS COLLECTION BOX - BLUE BOX", "address": {"city": "BATESVILLE", "state": "MS", "street": "100 PUBLIC SQ", "postcode": "38606"}}},
{"geometry": {"type": "Point", "coordinates": [-89.0263545915, 34.6719001191]}, "type": "Feature", "properties": {"collection_times": [{"days": "Mon-Fri", "time": "4:15pm"}, {"days": "Sat", "time": "11:15am"}, {"days": "Sun", "time": "Closed"}], "id": "3861000001", "name": "USPS COLLECTION BOX - BLUE BOX", "address": {"city": "BLUE MOUNTAIN", "state": "MS", "street": "120 N GUYTON BLVD", "postcode": "38610"}}},
{"geometry": {"type": "Point", "coordinates": [-89.0263545915, 34.6719001191]}, "type": "Feature", "properties": {"collection_times": [{"days": "Mon-Fri", "time": "4:15pm"}, {"days": "Sat", "time": "11:15am"}, {"days": "Sun", "time": "Closed"}], "id": "3861000002", "name": "USPS COLLECTION BOX - PO LOBBY", "address": {"city": "BLUE MOUNTAIN", "state": "MS", "street": "120 N GUYTON BLVD", "postcode": "38610"}}},
{"geometry": {"type": "Point", "coordinates": [-89.6557490661, 34.8612906831]}, "type": "Feature", "properties": {"collection_times": [{"days": "Mon-Fri", "time": "4:15pm"}, {"days": "Sat", "time": "11:45am"}, {"days": "Sun", "time": "Closed"}], "id": "3861100001", "name": "USPS COLLECTION BOX - BLUE BOX", "address": {"city": "BYHALIA", "state": "MS", "street": "8140 HIGHWAY 178", "postcode": "38611"}}},
{"geometry": {"type": "Point", "coordinates": [-89.6557490661, 34.8612906831]}, "type": "Feature", "properties": {"collection_times": [{"days": "Mon-Fri", "time": "4:15pm"}, {"days": "Sat", "time": "11:45am"}, {"days": "Sun", "time": "Closed"}], "id": "3861100002", "name": "USPS COLLECTION BOX - PO LOBBY", "address": {"city": "BYHALIA", "state": "MS", "street": "8140 HIGHWAY 178", "postcode": "38611"}}},
{"geometry": {"type": "Point", "coordinates": [-90.5708586125, 34.2020792699]}, "type": "Feature", "properties": {"collection_times": [{"days": "Mon-Fri", "time": "5:00pm"}, {"days": "Sat", "time": "3:00pm"}, {"days": "Sun", "time": "Closed"}], "id": "3861400001", "name": "USPS COLLECTION BOX - BLUE BOX", "address": {"city": "CLARKSDALE", "state": "MS", "street": "236 SHARKEY AVE", "postcode": "38614"}}},
{"geometry": {"type": "Point", "coordinates": [-90.5755031355, 34.204870997]}, "type": "Feature", "properties": {"collection_times": [{"days": "Mon-Fri", "time": "3:00pm"}, {"days": "Sat-Sun", "time": "Closed"}], "id": "3861400004", "name": "USPS COLLECTION BOX - BLUE BOX", "address": {"city": "CLARKSDALE", "state": "MS", "street": "102 COURT ST", "postcode": "38614"}}},
{"geometry": {"type": "Point", "coordinates": [-90.5802787257, 34.1909214778]}, "type": "Feature", "properties": {"collection_times": [{"days": "Mon-Fri", "time": "5:00pm"}, {"days": "Sat", "time": "3:00pm"}, {"days": "Sun", "time": "Closed"}], "id": "3861400014", "name": "USPS COLLECTION BOX - EXPRESS", "address": {"city": "CLARKSDALE", "state": "MS", "street": "236 SHARKEY AVE", "postcode": "38614"}}},
{"geometry": {"type": "Point", "coordinates": [-90.5708586125, 34.2020792699]}, "type": "Feature", "properties": {"collection_times": [{"days": "Mon-Fri", "time": "5:00pm"}, {"days": "Sat", "time": "3:00pm"}, {"days": "Sun", "time": "Closed"}], "id": "3861400016", "name": "USPS COLLECTION BOX - BLUE BOX", "address": {"city": "CLARKSDALE", "state": "MS", "street": "236 SHARKEY AVE", "postcode": "38614"}}},
{"geometry": {"type": "Point", "coordinates": [-90.5777570815, 34.1896634557]}, "type": "Feature", "properties": {"collection_times": [{"days": "Mon-Fri", "time": "3:00pm"}, {"days": "Sat-Sun", "time": "Closed"}], "id": "3861400018", "name": "USPS COLLECTION BOX - BLUE BOX", "address": {"city": "CLARKSDALE", "state": "MS", "street": "620 S STATE ST", "postcode": "38614"}}},
{"geometry": {"type": "Point", "coordinates": [-90.5762054284, 34.2034939125]}, "type": "Feature", "properties": {"collection_times": [{"days": "Mon-Fri", "time": "3:00pm"}, {"days": "Sat-Sun", "time": "Closed"}], "id": "3861400021", "name": "USPS COLLECTION BOX - BLUE BOX", "address": {"city": "CLARKSDALE", "state": "MS", "street": "121 SUNFLOWER AVE", "postcode": "38614"}}},
{"geometry": {"type": "Point", "coordinates": [-90.6067418777, 34.200640632]}, "type": "Feature", "properties": {"collection_times": [{"days": "Mon-Fri", "time": "3:00pm"}, {"days": "Sat-Sun", "time": "Closed"}], "id": "3861400022", "name": "USPS COLLECTION BOX - BLUE BOX", "address": {"city": "CLARKSDALE", "state": "MS", "street": "1015 LEE DR", "postcode": "38614"}}},
{"geometry": {"type": "Point", "coordinates": [-90.5501983301, 34.2036354721]}, "type": "Feature", "properties": {"collection_times": [{"days": "Mon-Fri", "time": "11:00am"}, {"days": "Sat-Sun", "time": "Closed"}], "id": "3861400029", "name": "USPS COLLECTION BOX - BLUE BOX", "address": {"city": "CLARKSDALE", "state": "MS", "street": "785 OHIO AVE", "postcode": "38614"}}},
{"geometry": {"type": "Point", "coordinates": [-90.5708586125, 34.2020792699]}, "type": "Feature", "properties": {"collection_times": [{"days": "Mon-Fri", "time": "5:00pm"}, {"days": "Sat", "time": "3:00pm"}, {"days": "Sun", "time": "Closed"}], "id": "3861400041", "name": "USPS COLLECTION BOX - PO LOBBY", "address": {"city": "CLARKSDALE", "state": "MS", "street": "236 SHARKEY AVE", "postcode": "38614"}}},
{"geometry": {"type": "Point", "coordinates": [-90.5217903792, 34.3690349742]}, "type": "Feature", "properties": {"collection_times": [{"days": "Mon-Fri", "time": "12:20pm"}, {"days": "Sat", "time": "9:45am"}, {"days": "Sun", "time": "Closed"}], "id": "3861700003", "name": "USPS COLLECTION BOX - PO LOBBY", "address": {"city": "COAHOMA", "state": "MS", "street": "100 W WALNUT ST", "postcode": "38617"}}},
{"geometry": {"type": "Point", "coordinates": [-90.5217903792, 34.3690349742]}, "type": "Feature", "properties": {"collection_times": [{"days": "Mon-Fri", "time": "3:45pm"}, {"days": "Sat", "time": "9:45am"}, {"days": "Sun", "time": "Closed"}], "id": "3861700004", "name": "USPS COLLECTION BOX - BLUE BOX", "address": {"city": "COAHOMA", "state": "MS", "street": "100 W WALNUT ST", "postcode": "38617"}}},
{"geometry": {"type": "Point", "coordinates": [-89.976394177, 34.6882449185]}, "type": "Feature", "properties": {"collection_times": [{"days": "Mon-Fri", "time": "4:45pm"}, {"days": "Sat", "time": "11:15am"}, {"days": "Sun", "time": "Closed"}], "id": "3861800001", "name": "USPS COLLECTION BOX - BLUE BOX", "address": {"city": "COLDWATER", "state": "MS", "street": "686 2ND ST", "postcode": "38618"}}},
{"geometry": {"type": "Point", "coordinates": [-89.976394177, 34.6882449185]}, "type": "Feature", "properties": {"collection_times": [{"days": "Mon-Fri", "time": "4:45pm"}, {"days": "Sat", "time": "11:15am"}, {"days": "Sun", "time": "Closed"}], "id": "3861800002", "name": "USPS COLLECTION BOX - PO LOBBY", "address": {"city": "COLDWATER", "state": "MS", "street": "686 2ND ST", "postcode": "38618"}}},
{"geometry": {"type": "Point", "coordinates": [-89.9394625485, 34.5059526325]}, "type": "Feature", "properties": {"collection_times": [{"days": "Mon-Fri", "time": "4:30pm"}, {"days": "Sat", "time": "10:00am"}, {"days": "Sun", "time": "Closed"}], "id": "3861900001", "name": "USPS COLLECTION BOX - BLUE BOX", "address": {"city": "COMO", "state": "MS", "street": "209 N MAIN ST", "postcode": "38619"}}},
{"geometry": {"type": "Point", "coordinates": [-89.9394625485, 34.5059526325]}, "type": "Feature", "properties": {"collection_times": [{"days": "Mon-Fri", "time": "4:30pm"}, {"days": "Sat", "time": "10:00am"}, {"days": "Sun", "time": "Closed"}], "id": "3861900002", "name": "USPS COLLECTION BOX - PO LOBBY", "address": {"city": "COMO", "state": "MS", "street": "209 N MAIN ST", "postcode": "38619"}}},
{"geometry": {"type": "Point", "coordinates": [-89.9370288288, 34.245729232]}, "type": "Feature", "properties": {"collection_times": [{"days": "Mon-Fri", "time": "4:30pm"}, {"days": "Sat", "time": "11:00am"}, {"days": "Sun", "time": "Closed"}], "id": "3862000001", "name": "USPS COLLECTION BOX - BLUE BOX", "address": {"city": "COURTLAND", "state": "MS", "street": "252 OLD HIGHWAY 51", "postcode": "38620"}}},
{"geometry": {"type": "Point", "coordinates": [-89.9370288288, 34.245729232]}, "type": "Feature", "properties": {"collection_times": [{"days": "Mon-Fri", "time": "3:00pm"}, {"days": "Sat", "time": "11:00am"}, {"days": "Sun", "time": "Closed"}], "id": "3862000002", "name": "USPS COLLECTION BOX - PO LOBBY", "address": {"city": "COURTLAND", "state": "MS", "street": "252 OLD HIGHWAY 51", "postcode": "38620"}}},
{"geometry": {"type": "Point", "coordinates": [-90.1951737805, 34.5064019008]}, "type": "Feature", "properties": {"collection_times": [{"days": "Mon-Fri", "time": "2:00pm"}, {"days": "Sat", "time": "11:00am"}, {"days": "Sun", "time": "Closed"}], "id": "3862100002", "name": "USPS COLLECTION BOX - PO LOBBY", "address": {"city": "CRENSHAW", "state": "MS", "street": "609 BROAD ST", "postcode": "38621"}}},
{"geometry": {"type": "Point", "coordinates": [-90.1363814565, 34.1735583376]}, "type": "Feature", "properties": {"collection_times": [{"days": "Mon-Fri", "time": "4:15pm"}, {"days": "Sat", "time": "11:00am"}, {"days": "Sun", "time": "Closed"}], "id": "3862200001", "name": "USPS COLLECTION BOX - BLUE BOX", "address": {"city": "CROWDER", "state": "MS", "street": "131A 3RD ST", "postcode": "38622"}}},
{"geometry": {"type": "Point", "coordinates": [-90.1363814565, 34.1735583376]}, "type": "Feature", "properties": {"collection_times": [{"days": "Mon-Fri", "time": "11:50am"}, {"days": "Sat", "time": "11:00am"}, {"days": "Sun", "time": "Closed"}], "id": "3862200002", "name": "USPS COLLECTION BOX - PO LOBBY", "address": {"city": "CROWDER", "state": "MS", "street": "131A 3RD ST", "postcode": "38622"}}},
{"geometry": {"type": "Point", "coordinates": [-90.275445553, 34.357622956]}, "type": "Feature", "properties": {"collection_times": [{"days": "Mon-Fri", "time": "3:30pm"}, {"days": "Sat", "time": "9:30am"}, {"days": "Sun", "time": "Closed"}], "id": "3862300001", "name": "USPS COLLECTION BOX - BLUE BOX", "address": {"city": "DARLING", "state": "MS", "street": "580 DARLING RD", "postcode": "38623"}}},
{"geometry": {"type": "Point", "coordinates": [-90.275445553, 34.357622956]}, "type": "Feature", "properties": {"collection_times": [{"days": "Mon-Fri", "time": "10:00am"}, {"days": "Sat", "time": "9:30am"}, {"days": "Sun", "time": "Closed"}], "id": "3862300002", "name": "USPS COLLECTION BOX - PO LOBBY", "address": {"city": "DARLING", "state": "MS", "street": "580 DARLING RD", "postcode": "38623"}}},
{"geometry": {"type": "Point", "coordinates": [-88.8463517357, 34.6534348816]}, "type": "Feature", "properties": {"collection_times": [{"days": "Mon-Fri", "time": "3:30pm"}, {"days": "Sat", "time": "9:45am"}, {"days": "Sun", "time": "Closed"}], "id": "3862500001", "name": "USPS COLLECTION BOX - BLUE BOX", "address": {"city": "DUMAS", "state": "MS", "street": "3481A HIGHWAY 370", "postcode": "38625"}}},
{"geometry": {"type": "Point", "coordinates": [-90.4243249385, 34.5246541326]}, "type": "Feature", "properties": {"collection_times": [{"days": "Mon-Fri", "time": "3:30pm"}, {"days": "Sat", "time": "9:15am"}, {"days": "Sun", "time": "Closed"}], "id": "3862600001", "name": "USPS COLLECTION BOX - BLUE BOX", "address": {"city": "DUNDEE", "state": "MS", "street": "1028 RYALS RD", "postcode": "38626"}}},
{"geometry": {"type": "Point", "coordinates": [-90.4243249385, 34.5246541326]}, "type": "Feature", "properties": {"collection_times": [{"days": "Mon-Fri", "time": "11:30am"}, {"days": "Sat", "time": "9:15am"}, {"days": "Sun", "time": "Closed"}], "id": "3862600002", "name": "USPS COLLECTION BOX - PO LOBBY", "address": {"city": "DUNDEE", "state": "MS", "street": "1028 RYALS RD", "postcode": "38626"}}},
{"geometry": {"type": "Point", "coordinates": [-90.427256322, 34.510620877]}, "type": "Feature", "properties": {"collection_times": [{"days": "Mon-Sat", "time": "10:30am"}, {"days": "Sun", "time": "Closed"}], "id": "3862600004", "name": "USPS COLLECTION BOX - BLUE BOX", "address": {"city": "DUNDEE", "state": "MS", "street": "6125 HIGHWAY 49 N", "postcode": "38626"}}},
{"geometry": {"type": "Point", "coordinates": [-89.2274884131, 34.4749226122]}, "type": "Feature", "properties": {"collection_times": [{"days": "Mon-Fri", "time": "3:55pm"}, {"days": "Sat", "time": "9:15am"}, {"days": "Sun", "time": "Closed"}], "id": "3862700001", "name": "USPS COLLECTION BOX - BLUE BOX", "address": {"city": "ETTA", "state": "MS", "street": "1947 STATE ROAD 355", "postcode": "38627"}}},
{"geometry": {"type": "Point", "coordinates": [-89.2274884131, 34.4749226122]}, "type": "Feature", "properties": {"collection_times": [{"days": "Mon-Fri", "time": "11:30am"}, {"days": "Sat", "time": "9:15am"}, {"days": "Sun", "time": "Closed"}], "id": "3862700002", "name": "USPS COLLECTION BOX - PO LOBBY", "address": {"city": "ETTA", "state": "MS", "street": "1947 STATE ROAD 355", "postcode": "38627"}}},
{"geometry": {"type": "Point", "coordinates": [-88.9339812065, 34.8466221272]}, "type": "Feature", "properties": {"collection_times": [{"days": "Mon-Fri", "time": "4:00pm"}, {"days": "Sat", "time": "10:00am"}, {"days": "Sun", "time": "Closed"}], "id": "3862900001", "name": "USPS COLLECTION BOX - BLUE BOX", "address": {"city": "FALKNER", "state": "MS", "street": "20610 HIGHWAY 15", "postcode": "38629"}}},
{"geometry": {"type": "Point", "coordinates": [-88.9339812065, 34.8466221272]}, "type": "Feature", "properties": {"collection_times": [{"days": "Mon-Fri", "time": "3:00pm"}, {"days": "Sat", "time": "10:00am"}, {"days": "Sun", "time": "Closed"}], "id": "3862900002", "name": "USPS COLLECTION BOX - PO LOBBY", "address": {"city": "FALKNER", "state": "MS", "street": "20610 HIGHWAY 15", "postcode": "38629"}}},
{"geometry": {"type": "Point", "coordinates": [-90.6398791661, 34.3705005551]}, "type": "Feature", "properties": {"collection_times": [{"days": "Mon-Fri", "time": "12:00pm"}, {"days": "Sat", "time": "11:00am"}, {"days": "Sun", "time": "Closed"}], "id": "3863100002", "name": "USPS COLLECTION BOX - PO LOBBY", "address": {"city": "FRIARS POINT", "state": "MS", "street": "774 2ND ST", "postcode": "38631"}}},
{"geometry": {"type": "Point", "coordinates": [-90.6398791661, 34.3705005551]}, "type": "Feature", "properties": {"collection_times": [{"days": "Mon-Fri", "time": "4:30pm"}, {"days": "Sat", "time": "11:00am"}, {"days": "Sun", "time": "Closed"}], "id": "3863100003", "name": "USPS COLLECTION BOX - BLUE BOX", "address": {"city": "FRIARS POINT", "state": "MS", "street": "774 2ND ST", "postcode": "38631"}}},
{"geometry": {"type": "Point", "coordinates": [-89.9896079517, 34.8236520199]}, "type": "Feature", "properties": {"collection_times": [{"days": "Mon-Sat", "time": "4:00pm"}, {"days": "Sun", "time": "Closed"}], "id": "3863200001", "name": "USPS COLLECTION BOX - BLUE BOX", "address": {"city": "HERNANDO", "state": "MS", "street": "12 W COMMERCE ST", "postcode": "38632"}}},
{"geometry": {"type": "Point", "coordinates": [-89.9896079517, 34.8236520199]}, "type": "Feature", "properties": {"collection_times": [{"days": "Mon-Sat", "time": "4:00pm"}, {"days": "Sun", "time": "Closed"}], "id": "3863200002", "name": "USPS COLLECTION BOX - BLUE BOX", "address": {"city": "HERNANDO", "state": "MS", "street": "12 W COMMERCE ST", "postcode": "38632"}}},
{"geometry": {"type": "Point", "coordinates": [-89.9896079517, 34.8236520199]}, "type": "Feature", "properties": {"collection_times": [{"days": "Mon-Sat", "time": "4:00pm"}, {"days": "Sun", "time": "Closed"}], "id": "3863200004", "name": "USPS COLLECTION BOX - PO LOBBY", "address": {"city": "HERNANDO", "state": "MS", "street": "12 W COMMERCE ST", "postcode": "38632"}}},
{"geometry": {"type": "Point", "coordinates": [-89.9719714866, 34.82247263]}, "type": "Feature", "properties": {"collection_times": [{"days": "Mon-Sat", "time": "9:30am"}, {"days": "Sun", "time": "Closed"}], "id": "3863200006", "name": "USPS COLLECTION BOX - BLUE BOX", "address": {"city": "HERNANDO", "state": "MS", "street": "2600 MCINGVALE RD", "postcode": "38632"}}},
{"geometry": {"type": "Point", "coordinates": [-89.1834966135, 34.6252908711]}, "type": "Feature", "properties": {"collection_times": [{"days": "Mon-Fri", "time": "2:30pm"}, {"days": "Sat", "time": "9:45am"}, {"days": "Sun", "time": "Closed"}], "id": "3863300004", "name": "USPS COLLECTION BOX - PO LOBBY", "address": {"city": "HICKORY FLAT", "state": "MS", "street": "535 HIGHWAY 5", "postcode": "38633"}}},
{"geometry": {"type": "Point", "coordinates": [-89.1836946161, 34.649835604]}, "type": "Feature", "properties": {"collection_times": [{"days": "Mon-Fri", "time": "3:45pm"}, {"days": "Sat", "time": "9:45am"}, {"days": "Sun", "time": "Closed"}], "id": "3863300006", "name": "USPS COLLECTION BOX - BLUE BOX", "address": {"city": "HICKORY FLAT", "state": "MS", "street": "535 HIGHWAY 5", "postcode": "38633"}}},
{"geometry": {"type": "Point", "coordinates": [-89.4503587632, 34.7800076132]}, "type": "Feature", "properties": {"collection_times": [{"days": "Mon-Fri", "time": "4:00pm"}, {"days": "Sat", "time": "10:00am"}, {"days": "Sun", "time": "Closed"}], "id": "3863500015", "name": "USPS COLLECTION BOX - BLUE BOX", "address": {"city": "HOLLY SPRINGS", "state": "MS", "street": "365 MARTIN LUTHER KING JR DR", "postcode": "38635"}}},
{"geometry": {"type": "Point", "coordinates": [-89.4484981453, 34.7678312031]}, "type": "Feature", "properties": {"collection_times": [{"days": "Mon-Fri", "time": "4:00pm"}, {"days": "Sat", "time": "10:00am"}, {"days": "Sun", "time": "Closed"}], "id": "3863500016", "name": "USPS COLLECTION BOX - BLUE BOX", "address": {"city": "HOLLY SPRINGS", "state": "MS", "street": "110 N MEMPHIS ST", "postcode": "38635"}}},
{"geometry": {"type": "Point", "coordinates": [-89.4484981453, 34.7678312031]}, "type": "Feature", "properties": {"collection_times": [{"days": "Mon-Fri", "time": "4:00pm"}, {"days": "Sat", "time": "10:00am"}, {"days": "Sun", "time": "Closed"}], "id": "3863500018", "name": "USPS COLLECTION BOX - PO LOBBY", "address": {"city": "HOLLY SPRINGS", "state": "MS", "street": "110 N MEMPHIS ST", "postcode": "38635"}}},
{"geometry": {"type": "Point", "coordinates": [-89.4503587632, 34.7800076132]}, "type": "Feature", "properties": {"collection_times": [{"days": "Mon-Fri", "time": "4:00pm"}, {"days": "Sat", "time": "10:00am"}, {"days": "Sun", "time": "Closed"}], "id": "3863500019", "name": "USPS COLLECTION BOX - PO LOBBY", "address": {"city": "HOLLY SPRINGS", "state": "MS", "street": "365 MARTIN LUTHER KING JR DR", "postcode": "38635"}}},
{"geometry": {"type": "Point", "coordinates": [-90.0558608517, 34.962645851]}, "type": "Feature", "properties": {"collection_times": [{"days": "Mon-Fri", "time": "4:15pm"}, {"days": "Sat", "time": "1:00pm"}, {"days": "Sun", "time": "Closed"}], "id": "3863700001", "name": "USPS COLLECTION BOX - PO LOBBY", "address": {"city": "HORN LAKE", "state": "MS", "street": "3724 GOODMAN RD W", "postcode": "38637"}}},
{"geometry": {"type": "Point", "coordinates": [-90.0148478297, 34.9626115546]}, "type": "Feature", "properties": {"collection_times": [{"days": "Mon-Sat", "time": "10:00am"}, {"days": "Sun", "time": "Closed"}], "id": "3863700003", "name": "USPS COLLECTION BOX - BLUE BOX", "address": {"city": "HORN LAKE", "state": "MS", "street": "1413 GOODMAN RD W", "postcode": "38637"}}},
{"geometry": {"type": "Point", "coordinates": [-90.0558608517, 34.962645851]}, "type": "Feature", "properties": {"collection_times": [{"days": "Mon-Fri", "time": "4:15pm"}, {"days": "Sat", "time": "1:00pm"}, {"days": "Sun", "time": "Closed"}], "id": "3863700004", "name": "USPS COLLECTION BOX - BLUE BOX", "address": {"city": "HORN LAKE", "state": "MS", "street": "3724 GOODMAN RD W", "postcode": "38637"}}},
{"geometry": {"type": "Point", "coordinates": [-90.0558608517, 34.962645851]}, "type": "Feature", "properties": {"collection_times": [{"days": "Mon-Fri", "time": "4:15pm"}, {"days": "Sat", "time": "1:00pm"}, {"days": "Sun", "time": "Closed"}], "id": "3863700006", "name": "USPS COLLECTION BOX - BLUE BOX", "address": {"city": "HORN LAKE", "state": "MS", "street": "3724 GOODMAN RD W", "postcode": "38637"}}},
{"geometry": {"type": "Point", "coordinates": [-89.9640110568, 34.6187630358]}, "type": "Feature", "properties": {"collection_times": [{"days": "Mon-Sat", "time": "12:00pm"}, {"days": "Sun", "time": "Closed"}], "id": "3863800001", "name": "USPS COLLECTION BOX - BLUE BOX", "address": {"city": "INDEPENDENCE", "state": "MS", "street": "15 BILL HANDCOCK RD", "postcode": "38638"}}},
{"geometry": {"type": "Point", "coordinates": [-89.8102485259, 34.7063840903]}, "type": "Feature", "properties": {"collection_times": [{"days": "Mon-Sat", "time": "12:00pm"}, {"days": "Sun", "time": "Closed"}], "id": "3863800003", "name": "USPS COLLECTION BOX - PO LOBBY", "address": {"city": "INDEPENDENCE", "state": "MS", "street": "15 BILL HANCOCK RD", "postcode": "38638"}}},
{"geometry": {"type": "Point", "coordinates": [-90.4564855974, 34.3198292182]}, "type": "Feature", "properties": {"collection_times": [{"days": "Mon-Fri", "time": "3:45pm"}, {"days": "Sat", "time": "11:00am"}, {"days": "Sun", "time": "Closed"}], "id": "3863900001", "name": "USPS COLLECTION BOX - BLUE BOX", "address": {"city": "JONESTOWN", "state": "MS", "street": "195 LONGINO ST", "postcode": "38639"}}},
{"geometry": {"type": "Point", "coordinates": [-90.4564855974, 34.3198292182]}, "type": "Feature", "properties": {"collection_times": [{"days": "Mon-Fri", "time": "12:50pm"}, {"days": "Sat", "time": "11:00am"}, {"days": "Sun", "time": "Closed"}], "id": "3863900002", "name": "USPS COLLECTION BOX - PO LOBBY", "address": {"city": "JONESTOWN", "state": "MS", "street": "195 LONGINO ST", "postcode": "38639"}}},
{"geometry": {"type": "Point", "coordinates": [-90.1957794535, 34.8896555894]}, "type": "Feature", "properties": {"collection_times": [{"days": "Mon-Fri", "time": "3:45pm"}, {"days": "Sat", "time": "8:45am"}, {"days": "Sun", "time": "Closed"}], "id": "3864100001", "name": "USPS COLLECTION BOX - BLUE BOX", "address": {"city": "LAKE CORMORANT", "state": "MS", "street": "12744 STAR LANDING RD W", "postcode": "38641"}}},
{"geometry": {"type": "Point", "coordinates": [-90.2153152124, 34.9046748501]}, "type": "Feature", "properties": {"collection_times": [{"days": "Mon-Fri", "time": "12:00pm"}, {"days": "Sat", "time": "8:45am"}, {"days": "Sun", "time": "Closed"}], "id": "3864100002", "name": "USPS COLLECTION BOX - PO LOBBY", "address": {"city": "LAKE CORMORANT", "state": "MS", "street": "12744 STAR LANDING RD W", "postcode": "38641"}}},
{"geometry": {"type": "Point", "coordinates": [-89.3195076916, 34.9146731479]}, "type": "Feature", "properties": {"collection_times": [{"days": "Mon-Fri", "time": "4:00pm"}, {"days": "Sat", "time": "9:15am"}, {"days": "Sun", "time": "Closed"}], "id": "3864200001", "name": "USPS COLLECTION BOX - BLUE BOX", "address": {"city": "LAMAR", "state": "MS", "street": "10464 LAMAR RD", "postcode": "38642"}}},
{"geometry": {"type": "Point", "coordinates": [-89.3195076916, 34.9146731479]}, "type": "Feature", "properties": {"collection_times": [{"days": "Mon-Fri", "time": "11:30am"}, {"days": "Sat", "time": "9:15am"}, {"days": "Sun", "time": "Closed"}], "id": "3864200003", "name": "USPS COLLECTION BOX - PO LOBBY", "address": {"city": "LAMAR", "state": "MS", "street": "10464 LAMAR RD", "postcode": "38642"}}},
{"geometry": {"type": "Point", "coordinates": [-90.2821885275, 34.2027713252]}, "type": "Feature", "properties": {"collection_times": [{"days": "Mon-Fri", "time": "4:00pm"}, {"days": "Sat", "time": "11:30am"}, {"days": "Sun", "time": "Closed"}], "id": "3864300001", "name": "USPS COLLECTION BOX - BLUE BOX", "address": {"city": "LAMBERT", "state": "MS", "street": "700 COVINGTON AVE", "postcode": "38643"}}},
{"geometry": {"type": "Point", "coordinates": [-90.2821885275, 34.2027713252]}, "type": "Feature", "properties": {"collection_times": [{"days": "Mon-Fri", "time": "4:00pm"}, {"days": "Sat", "time": "11:30am"}, {"days": "Sun", "time": "Closed"}], "id": "3864300002", "name": "USPS COLLECTION BOX - PO LOBBY", "address": {"city": "LAMBERT", "state": "MS", "street": "700 COVINGTON AVE", "postcode": "38643"}}},
{"geometry": {"type": "Point", "coordinates": [-90.5414144709, 34.218858591]}, "type": "Feature", "properties": {"collection_times": [{"days": "Mon-Fri", "time": "4:00pm"}, {"days": "Sat", "time": "10:30am"}, {"days": "Sun", "time": "Closed"}], "id": "3864500001", "name": "USPS COLLECTION BOX - BLUE BOX", "address": {"city": "LYON", "state": "MS", "street": "109 PARK ST", "postcode": "38645"}}},
{"geometry": {"type": "Point", "coordinates": [-90.5414144709, 34.218858591]}, "type": "Feature", "properties": {"collection_times": [{"days": "Mon-Fri", "time": "3:00pm"}, {"days": "Sat", "time": "10:30am"}, {"days": "Sun", "time": "Closed"}], "id": "3864500002", "name": "USPS COLLECTION BOX - PO LOBBY", "address": {"city": "LYON", "state": "MS", "street": "109 PARK ST", "postcode": "38645"}}},
{"geometry": {"type": "Point", "coordinates": [-90.2719345549, 34.2566649717]}, "type": "Feature", "properties": {"collection_times": [{"days": "Mon-Fri", "time": "4:45pm"}, {"days": "Sat", "time": "12:00pm"}, {"days": "Sun", "time": "Closed"}], "id": "3864600008", "name": "USPS COLLECTION BOX - BLUE BOX", "address": {"city": "MARKS", "state": "MS", "street": "423 POPLAR ST", "postcode": "38646"}}},
{"geometry": {"type": "Point", "coordinates": [-90.2719345549, 34.2566649717]}, "type": "Feature", "properties": {"collection_times": [{"days": "Mon-Fri", "time": "4:45pm"}, {"days": "Sat", "time": "12:00pm"}, {"days": "Sun", "time": "Closed"}], "id": "3864600011", "name": "USPS COLLECTION BOX - PO LOBBY", "address": {"city": "MARKS", "state": "MS", "street": "423 POPLAR ST", "postcode": "38646"}}},
{"geometry": {"type": "Point", "coordinates": [-90.2719345549, 34.2566649717]}, "type": "Feature", "properties": {"collection_times": [{"days": "Mon-Fri", "time": "4:45pm"}, {"days": "Sat", "time": "12:00pm"}, {"days": "Sun", "time": "Closed"}], "id": "3864600012", "name": "USPS COLLECTION BOX - PO LOBBY", "address": {"city": "MARKS", "state": "MS", "street": "423 POPLAR ST", "postcode": "38646"}}},
{"geometry": {"type": "Point", "coordinates": [-89.2516797723, 34.9815406387]}, "type": "Feature", "properties": {"collection_times": [{"days": "Mon-Fri", "time": "3:45pm"}, {"days": "Sat", "time": "9:15am"}, {"days": "Sun", "time": "Closed"}], "id": "3864700001", "name": "USPS COLLECTION BOX - BLUE BOX", "address": {"city": "MICHIGAN CITY", "state": "MS", "street": "73 MAIN ST", "postcode": "38647"}}},
{"geometry": {"type": "Point", "coordinates": [-89.2492557728, 34.9801389055]}, "type": "Feature", "properties": {"collection_times": [{"days": "Mon-Fri", "time": "11:30am"}, {"days": "Sat", "time": "9:15am"}, {"days": "Sun", "time": "Closed"}], "id": "3864700002", "name": "USPS COLLECTION BOX - PO LOBBY", "address": {"city": "MICHIGAN CITY", "state": "MS", "street": "73 MAIN ST", "postcode": "38647"}}},
{"geometry": {"type": "Point", "coordinates": [-89.1190998462, 34.5586612414]}, "type": "Feature", "properties": {"collection_times": [{"days": "Mon-Fri", "time": "4:00pm"}, {"days": "Sat", "time": "10:00am"}, {"days": "Sun", "time": "Closed"}], "id": "3865000001", "name": "USPS COLLECTION BOX - BLUE BOX", "address": {"city": "MYRTLE", "state": "MS", "street": "1183 SPRINGDALE AVE", "postcode": "38650"}}},
{"geometry": {"type": "Point", "coordinates": [-89.1190998462, 34.5586612414]}, "type": "Feature", "properties": {"collection_times": [{"days": "Mon-Fri", "time": "2:30pm"}, {"days": "Sat", "time": "9:00am"}, {"days": "Sun", "time": "Closed"}], "id": "3865000002", "name": "USPS COLLECTION BOX - PO LOBBY", "address": {"city": "MYRTLE", "state": "MS", "street": "1183 SPRINGDALE AVE", "postcode": "38650"}}},
{"geometry": {"type": "Point", "coordinates": [-89.9934243228, 34.8838168579]}, "type": "Feature", "properties": {"collection_times": [{"days": "Mon-Fri", "time": "4:30pm"}, {"days": "Sat", "time": "11:00am"}, {"days": "Sun", "time": "Closed"}], "id": "3865100002", "name": "USPS COLLECTION BOX - BLUE BOX", "address": {"city": "NESBIT", "state": "MS", "street": "600 OLD HIGHWAY 51 N", "postcode": "38651"}}},
{"geometry": {"type": "Point", "coordinates": [-89.993364083, 34.883934097]}, "type": "Feature", "properties": {"collection_times": [{"days": "Mon-Fri", "time": "4:30pm"}, {"days": "Sat", "time": "11:00am"}, {"days": "Sun", "time": "Closed"}], "id": "3865100003", "name": "USPS COLLECTION BOX - BLUE BOX", "address": {"city": "NESBIT", "state": "MS", "street": "600 OLD HIGHWAY 51 N", "postcode": "38651"}}},
{"geometry": {"type": "Point", "coordinates": [-89.9934243228, 34.8838168579]}, "type": "Feature", "properties": {"collection_times": [{"days": "Mon-Fri", "time": "4:30pm"}, {"days": "Sat", "time": "11:00am"}, {"days": "Sun", "time": "Closed"}], "id": "3865100004", "name": "USPS COLLECTION BOX - PO LOBBY", "address": {"city": "NESBIT", "state": "MS", "street": "600 OLD HIGHWAY 51 N", "postcode": "38651"}}},
{"geometry": {"type": "Point", "coordinates": [-89.9934243228, 34.8838168579]}, "type": "Feature", "properties": {"collection_times": [{"days": "Mon-Fri", "time": "4:30pm"}, {"days": "Sat", "time": "11:00am"}, {"days": "Sun", "time": "Closed"}], "id": "3865100006", "name": "USPS COLLECTION BOX - PO LOBBY", "address": {"city": "NESBIT", "state": "MS", "street": "600 OLD HIGHWAY 51 N", "postcode": "38651"}}},
{"geometry": {"type": "Point", "coordinates": [-88.9993817771, 34.4815685813]}, "type": "Feature", "properties": {"collection_times": [{"days": "Mon-Fri", "time": "4:30pm"}, {"days": "Sat", "time": "3:00pm"}, {"days": "Sun", "time": "Closed"}], "id": "3865200001", "name": "USPS COLLECTION BOX - BLUE BOX", "address": {"city": "NEW ALBANY", "state": "MS", "street": "801 E BANKHEAD ST", "postcode": "38652"}}},
{"geometry": {"type": "Point", "coordinates": [-89.0106167078, 34.494800986]}, "type": "Feature", "properties": {"collection_times": [{"days": "Mon-Sat", "time": "2:30pm"}, {"days": "Sun", "time": "Closed"}], "id": "3865200002", "name": "USPS COLLECTION BOX - BLUE BOX", "address": {"city": "NEW ALBANY", "state": "MS", "street": "142 W BANKHEAD ST", "postcode": "38652"}}},
{"geometry": {"type": "Point", "coordinates": [-89.029202366, 34.4980524647]}, "type": "Feature", "properties": {"collection_times": [{"days": "Mon-Sat", "time": "11:00am"}, {"days": "Sun", "time": "Closed"}], "id": "3865200012", "name": "USPS COLLECTION BOX - BLUE BOX", "address": {"city": "NEW ALBANY", "state": "MS", "street": "201 STATE HIGHWAY 30 W", "postcode": "38652"}}},
{"geometry": {"type": "Point", "coordinates": [-88.9993817771, 34.4815685813]}, "type": "Feature", "properties": {"collection_times": [{"days": "Mon-Fri", "time": "4:30pm"}, {"days": "Sat", "time": "3:00pm"}, {"days": "Sun", "time": "Closed"}], "id": "3865200019", "name": "USPS COLLECTION BOX - BLUE BOX", "address": {"city": "NEW ALBANY", "state": "MS", "street": "801 E BANKHEAD ST", "postcode": "38652"}}},
{"geometry": {"type": "Point", "coordinates": [-88.9993817771, 34.4815685813]}, "type": "Feature", "properties": {"collection_times": [{"days": "Mon-Fri", "time": "4:30pm"}, {"days": "Sat", "time": "3:00pm"}, {"days": "Sun", "time": "Closed"}], "id": "3865200022", "name": "USPS COLLECTION BOX - PO LOBBY", "address": {"city": "NEW ALBANY", "state": "MS", "street": "801 E BANKHEAD ST", "postcode": "38652"}}},
{"geometry": {"type": "Point", "coordinates": [-89.0307470889, 34.4944044372]}, "type": "Feature", "properties": {"collection_times": [{"days": "Mon-Sat", "time": "11:00am"}, {"days": "Sun", "time": "Closed"}], "id": "3865200023", "name": "USPS COLLECTION BOX - BLUE BOX", "address": {"city": "NEW ALBANY", "state": "MS", "street": "320 PARK PLAZA DR", "postcode": "38652"}}},
{"geometry": {"type": "Point", "coordinates": [-89.831937821, 34.9650355971]}, "type": "Feature", "properties": {"collection_times": [{"days": "Mon-Sat", "time": "10:00am"}, {"days": "Sun", "time": "Closed"}], "id": "3865400002", "name": "USPS COLLECTION BOX - BLUE BOX", "address": {"city": "OLIVE BRANCH", "state": "MS", "street": "9150 PIGEON ROOST RD", "postcode": "38654"}}},
{"geometry": {"type": "Point", "coordinates": [-89.8334264189, 34.9492071653]}, "type": "Feature", "properties": {"collection_times": [{"days": "Mon-Fri", "time": "5:00pm"}, {"days": "Sat", "time": "3:00pm"}, {"days": "Sun", "time": "Closed"}], "id": "3865400004", "name": "USPS COLLECTION BOX - BLUE BOX", "address": {"city": "OLIVE BRANCH", "state": "MS", "street": "8850 MIDSOUTH DR", "postcode": "38654"}}},
{"geometry": {"type": "Point", "coordinates": [-89.8334264189, 34.9492071653]}, "type": "Feature", "properties": {"collection_times": [{"days": "Mon-Fri", "time": "5:00pm"}, {"days": "Sat", "time": "3:00pm"}, {"days": "Sun", "time": "Closed"}], "id": "3865400005", "name": "USPS COLLECTION BOX - BLUE BOX", "address": {"city": "OLIVE BRANCH", "state": "MS", "street": "8850 MIDSOUTH DR", "postcode": "38654"}}},
{"geometry": {"type": "Point", "coordinates": [-89.8334264189, 34.9492071653]}, "type": "Feature", "properties": {"collection_times": [{"days": "Mon-Fri", "time": "5:00pm"}, {"days": "Sat", "time": "3:00pm"}, {"days": "Sun", "time": "Closed"}], "id": "3865400006", "name": "USPS COLLECTION BOX - PO LOBBY", "address": {"city": "OLIVE BRANCH", "state": "MS", "street": "8850 MIDSOUTH DR", "postcode": "38654"}}},
{"geometry": {"type": "Point", "coordinates": [-89.8334264189, 34.9492071653]}, "type": "Feature", "properties": {"collection_times": [{"days": "Mon-Fri", "time": "5:00pm"}, {"days": "Sat", "time": "3:00pm"}, {"days": "Sun", "time": "Closed"}], "id": "3865400007", "name": "USPS COLLECTION BOX - PO LOBBY", "address": {"city": "OLIVE BRANCH", "state": "MS", "street": "8850 MIDSOUTH DR", "postcode": "38654"}}},
{"geometry": {"type": "Point", "coordinates": [-89.8578287891, 34.9621998755]}, "type": "Feature", "properties": {"collection_times": [{"days": "Mon-Sat", "time": "10:00am"}, {"days": "Sun", "time": "Closed"}], "id": "3865400008", "name": "USPS COLLECTION BOX - BLUE BOX", "address": {"city": "OLIVE BRANCH", "state": "MS", "street": "7427 GOODMAN RD", "postcode": "38654"}}},
{"geometry": {"type": "Point", "coordinates": [-89.8334264189, 34.9492071653]}, "type": "Feature", "properties": {"collection_times": [{"days": "Mon-Fri", "time": "5:00pm"}, {"days": "Sat", "time": "3:00pm"}, {"days": "Sun", "time": "Closed"}], "id": "3865400009", "name": "USPS COLLECTION BOX - BLUE BOX", "address": {"city": "OLIVE BRANCH", "state": "MS", "street": "8850 MIDSOUTH DR", "postcode": "38654"}}},
{"geometry": {"type": "Point", "coordinates": [-89.7949190314, 34.9289019465]}, "type": "Feature", "properties": {"collection_times": [{"days": "Mon-Sat", "time": "10:00am"}, {"days": "Sun", "time": "Closed"}], "id": "3865400010", "name": "USPS COLLECTION BOX - BLUE BOX", "address": {"city": "OLIVE BRANCH", "state": "MS", "street": "4740 BETHEL RD", "postcode": "38654"}}},
{"geometry": {"type": "Point", "coordinates": [-89.5212519797, 34.367245103]}, "type": "Feature", "properties": {"collection_times": [{"days": "Mon-Sat", "time": "10:00am"}, {"days": "Sun", "time": "Closed"}], "id": "3865500001", "name": "USPS COLLECTION BOX - BLUE BOX", "address": {"city": "OXFORD", "state": "MS", "street": "911 JACKSON AVE E", "postcode": "38655"}}},
{"geometry": {"type": "Point", "coordinates": [-89.5190329413, 34.3661322767]}, "type": "Feature", "properties": {"collection_times": [{"days": "Mon-Sat", "time": "10:00am"}, {"days": "Sun", "time": "Closed"}], "id": "3865500012", "name": "USPS COLLECTION BOX - BLUE BOX", "address": {"city": "OXFORD", "state": "MS", "street": "160 COURTHOUSE SQ", "postcode": "38655"}}},
{"geometry": {"type": "Point", "coordinates": [-89.5337148959, 34.380792798]}, "type": "Feature", "properties": {"collection_times": [{"days": "Mon-Fri", "time": "5:00pm"}, {"days": "Sat", "time": "12:30pm"}, {"days": "Sun", "time": "Closed"}], "id": "3865500026", "name": "USPS COLLECTION BOX - BLUE BOX", "address": {"city": "OXFORD", "state": "MS", "street": "401 MCELROY DR", "postcode": "38655"}}},
{"geometry": {"type": "Point", "coordinates": [-89.5337148959, 34.380792798]}, "type": "Feature", "properties": {"collection_times": [{"days": "Mon-Fri", "time": "5:00pm"}, {"days": "Sat", "time": "12:30pm"}, {"days": "Sun", "time": "Closed"}], "id": "3865500027", "name": "USPS COLLECTION BOX - BLUE BOX", "address": {"city": "OXFORD", "state": "MS", "street": "401 MCELROY DR", "postcode": "38655"}}},
{"geometry": {"type": "Point", "coordinates": [-89.5337148959, 34.380792798]}, "type": "Feature", "properties": {"collection_times": [{"days": "Mon-Fri", "time": "5:00pm"}, {"days": "Sat", "time": "12:45pm"}, {"days": "Sun", "time": "Closed"}], "id": "3865500028", "name": "USPS COLLECTION BOX - PO LOBBY", "address": {"city": "OXFORD", "state": "MS", "street": "401 MCELROY DR", "postcode": "38655"}}},
{"geometry": {"type": "Point", "coordinates": [-89.5337148959, 34.380792798]}, "type": "Feature", "properties": {"collection_times": [{"days": "Mon-Fri", "time": "5:00pm"}, {"days": "Sat", "time": "12:45pm"}, {"days": "Sun", "time": "Closed"}], "id": "3865500031", "name": "USPS COLLECTION BOX - PO LOBBY", "address": {"city": "OXFORD", "state": "MS", "street": "401 MCELROY DR", "postcode": "38655"}}},
{"geometry": {"type": "Point", "coordinates": [-89.5191216313, 34.3664763438]}, "type": "Feature", "properties": {"collection_times": [{"days": "Mon-Sat", "time": "10:00am"}, {"days": "Sun", "time": "Closed"}], "id": "3865500032", "name": "USPS COLLECTION BOX - BLUE BOX", "address": {"city": "OXFORD", "state": "MS", "street": "100 COURTHOUSE SQ", "postcode": "38655"}}},
{"geometry": {"type": "Point", "coordinates": [-89.9439294939, 34.2160147514]}, "type": "Feature", "properties": {"collection_times": [{"days": "Mon-Fri", "time": "4:00pm"}, {"days": "Sat", "time": "10:00am"}, {"days": "Sun", "time": "Closed"}], "id": "3865800001", "name": "USPS COLLECTION BOX - BLUE BOX", "address": {"city": "POPE", "state": "MS", "street": "774 MAIN ST", "postcode": "38658"}}},
{"geometry": {"type": "Point", "coordinates": [-89.9439294939, 34.2160147514]}, "type": "Feature", "properties": {"collection_times": [{"days": "Mon-Fri", "time": "11:30am"}, {"days": "Sat", "time": "10:00am"}, {"days": "Sun", "time": "Closed"}], "id": "3865800002", "name": "USPS COLLECTION BOX - PO LOBBY", "address": {"city": "POPE", "state": "MS", "street": "774 MAIN ST", "postcode": "38658"}}},
{"geometry": {"type": "Point", "coordinates": [-89.3081735266, 34.6446619455]}, "type": "Feature", "properties": {"collection_times": [{"days": "Mon-Fri", "time": "4:30pm"}, {"days": "Sat", "time": "10:30am"}, {"days": "Sun", "time": "Closed"}], "id": "3865900002", "name": "USPS COLLECTION BOX - BLUE BOX", "address": {"city": "POTTS CAMP", "state": "MS", "street": "24 S CENTER ST", "postcode": "38659"}}},
{"geometry": {"type": "Point", "coordinates": [-89.3066608691, 34.6454193336]}, "type": "Feature", "properties": {"collection_times": [{"days": "Mon-Fri", "time": "2:50pm"}, {"days": "Sat", "time": "10:30am"}, {"days": "Sun", "time": "Closed"}], "id": "3865900003", "name": "USPS COLLECTION BOX - PO LOBBY", "address": {"city": "POTTS CAMP", "state": "MS", "street": "24 S CENTER ST", "postcode": "38659"}}},
{"geometry": {"type": "Point", "coordinates": [-89.5547113104, 34.893424932]}, "type": "Feature", "properties": {"collection_times": [{"days": "Mon-Fri", "time": "3:45pm"}, {"days": "Sat", "time": "8:15am"}, {"days": "Sun", "time": "Closed"}], "id": "3866100004", "name": "USPS COLLECTION BOX - BLUE BOX", "address": {"city": "RED BANKS", "state": "MS", "street": "406 YARBROUGH LOOP", "postcode": "38661"}}},
{"geometry": {"type": "Point", "coordinates": [-89.5547113104, 34.893424932]}, "type": "Feature", "properties": {"collection_times": [{"days": "Mon-Fri", "time": "12:00pm"}, {"days": "Sat", "time": "8:15am"}, {"days": "Sun", "time": "Closed"}], "id": "3866100005", "name": "USPS COLLECTION BOX - PO LOBBY", "address": {"city": "RED BANKS", "state": "MS", "street": "406 YARBROUGH LOOP", "postcode": "38661"}}},
{"geometry": {"type": "Point", "coordinates": [-88.9553686381, 34.7189061344]}, "type": "Feature", "properties": {"collection_times": [{"days": "Mon-Fri", "time": "4:30pm"}, {"days": "Sat", "time": "3:30pm"}, {"days": "Sun", "time": "Closed"}], "id": "3866300001", "name": "USPS COLLECTION BOX - BLUE BOX", "address": {"city": "RIPLEY", "state": "MS", "street": "919 CITY AVE S", "postcode": "38663"}}},
{"geometry": {"type": "Point", "coordinates": [-88.9553686381, 34.7189061344]}, "type": "Feature", "properties": {"collection_times": [{"days": "Mon-Fri", "time": "4:30pm"}, {"days": "Sat", "time": "3:30pm"}, {"days": "Sun", "time": "Closed"}], "id": "3866300002", "name": "USPS COLLECTION BOX - BLUE BOX", "address": {"city": "RIPLEY", "state": "MS", "street": "919 CITY AVE S", "postcode": "38663"}}},
{"geometry": {"type": "Point", "coordinates": [-88.9490115301, 34.7297401456]}, "type": "Feature", "properties": {"collection_times": [{"days": "Mon-Sat", "time": "12:00pm"}, {"days": "Sun", "time": "Closed"}], "id": "3866300003", "name": "USPS COLLECTION BOX - BLUE BOX", "address": {"city": "RIPLEY", "state": "MS", "street": "102 N MAIN ST", "postcode": "38663"}}},
{"geometry": {"type": "Point", "coordinates": [-88.9460961259, 34.7303163651]}, "type": "Feature", "properties": {"collection_times": [{"days": "Mon-Sat", "time": "12:00pm"}, {"days": "Sun", "time": "Closed"}], "id": "3866300004", "name": "USPS COLLECTION BOX - BLUE BOX", "address": {"city": "RIPLEY", "state": "MS", "street": "305 E JEFFERSON ST", "postcode": "38663"}}},
{"geometry": {"type": "Point", "coordinates": [-88.9553686381, 34.7189061344]}, "type": "Feature", "properties": {"collection_times": [{"days": "Mon-Fri", "time": "4:30pm"}, {"days": "Sat", "time": "3:30pm"}, {"days": "Sun", "time": "Closed"}], "id": "3866300005", "name": "USPS COLLECTION BOX - PO LOBBY", "address": {"city": "RIPLEY", "state": "MS", "street": "919 CITY AVE S", "postcode": "38663"}}},
{"geometry": {"type": "Point", "coordinates": [-90.3139768997, 34.8205962401]}, "type": "Feature", "properties": {"collection_times": [{"days": "Mon-Fri", "time": "4:30pm"}, {"days": "Sat", "time": "10:30am"}, {"days": "Sun", "time": "Closed"}], "id": "3866400001", "name": "USPS COLLECTION BOX - BLUE BOX", "address": {"city": "ROBINSONVILLE", "state": "MS", "street": "11457 OLD HIGHWAY 61 N", "postcode": "38664"}}},
{"geometry": {"type": "Point", "coordinates": [-90.3139768997, 34.8205962401]}, "type": "Feature", "properties": {"collection_times": [{"days": "Mon-Fri", "time": "4:30pm"}, {"days": "Sat", "time": "10:30am"}, {"days": "Sun", "time": "Closed"}], "id": "3866400002", "name": "USPS COLLECTION BOX - PO LOBBY", "address": {"city": "ROBINSONVILLE", "state": "MS", "street": "11457 OLD HIGHWAY 61 N", "postcode": "38664"}}},
{"geometry": {"type": "Point", "coordinates": [-90.3415804115, 34.8158841692]}, "type": "Feature", "properties": {"collection_times": [{"days": "Mon-Fri", "time": "4:30pm"}, {"days": "Sat", "time": "10:30am"}, {"days": "Sun", "time": "Closed"}], "id": "3866400003", "name": "USPS COLLECTION BOX - BLUE BOX", "address": {"city": "ROBINSONVILLE", "state": "MS", "street": "11457 OLD HIGHWAY 61 N", "postcode": "38664"}}},
{"geometry": {"type": "Point", "coordinates": [-90.2050476784, 34.5618873386]}, "type": "Feature", "properties": {"collection_times": [{"days": "Mon-Fri", "time": "3:15pm"}, {"days": "Sat", "time": "8:45am"}, {"days": "Sun", "time": "Closed"}], "id": "3866500001", "name": "USPS COLLECTION BOX - BLUE BOX", "address": {"city": "SARAH", "state": "MS", "street": "1353 SARAH RD", "postcode": "38665"}}},
{"geometry": {"type": "Point", "coordinates": [-90.2050476784, 34.5618873386]}, "type": "Feature", "properties": {"collection_times": [{"days": "Mon-Fri", "time": "10:50am"}, {"days": "Sat", "time": "8:45am"}, {"days": "Sun", "time": "Closed"}], "id": "3866500002", "name": "USPS COLLECTION BOX - PO LOBBY", "address": {"city": "SARAH", "state": "MS", "street": "1353 SARAH RD", "postcode": "38665"}}},
{"geometry": {"type": "Point", "coordinates": [-89.9162877128, 34.4353441577]}, "type": "Feature", "properties": {"collection_times": [{"days": "Mon-Fri", "time": "3:45pm"}, {"days": "Sat", "time": "10:00am"}, {"days": "Sun", "time": "Closed"}], "id": "3866600001", "name": "USPS COLLECTION BOX - BLUE BOX", "address": {"city": "SARDIS", "state": "MS", "street": "209 S MAIN ST", "postcode": "38666"}}},
{"geometry": {"type": "Point", "coordinates": [-89.9162877128, 34.4353441577]}, "type": "Feature", "properties": {"collection_times": [{"days": "Mon-Fri", "time": "4:30pm"}, {"days": "Sat", "time": "10:00am"}, {"days": "Sun", "time": "Closed"}], "id": "3866600002", "name": "USPS COLLECTION BOX - PO LOBBY", "address": {"city": "SARDIS", "state": "MS", "street": "209 S MAIN ST", "postcode": "38666"}}},
{"geometry": {"type": "Point", "coordinates": [-89.916773434, 34.4361083472]}, "type": "Feature", "properties": {"collection_times": [{"days": "Mon-Fri", "time": "3:45pm"}, {"days": "Sat", "time": "10:00am"}, {"days": "Sun", "time": "Closed"}], "id": "3866600004", "name": "USPS COLLECTION BOX - BLUE BOX", "address": {"city": "SARDIS", "state": "MS", "street": "208 BACK ST", "postcode": "38666"}}},
{"geometry": {"type": "Point", "coordinates": [-89.9638268212, 34.6188650779]}, "type": "Feature", "properties": {"collection_times": [{"days": "Mon-Fri", "time": "4:30pm"}, {"days": "Sat", "time": "2:00pm"}, {"days": "Sun", "time": "Closed"}], "id": "3866800001", "name": "USPS COLLECTION BOX - PO LOBBY", "address": {"city": "SENATOBIA", "state": "MS", "street": "100 W MAIN ST", "postcode": "38668"}}},
{"geometry": {"type": "Point", "coordinates": [-89.9002107058, 34.6028175656]}, "type": "Feature", "properties": {"collection_times": [{"days": "Mon-Fri", "time": "4:20pm"}, {"days": "Sat", "time": "2:00pm"}, {"days": "Sun", "time": "Closed"}], "id": "3866800002", "name": "USPS COLLECTION BOX - BLUE BOX", "address": {"city": "SENATOBIA", "state": "MS", "street": "100 WALKER", "postcode": "38668"}}},
{"geometry": {"type": "Point", "coordinates": [-89.9002107058, 34.6028175656]}, "type": "Feature", "properties": {"collection_times": [{"days": "Mon-Fri", "time": "4:20pm"}, {"days": "Sat", "time": "2:00pm"}, {"days": "Sun", "time": "Closed"}], "id": "3866800011", "name": "USPS COLLECTION BOX - BLUE BOX", "address": {"city": "SENATOBIA", "state": "MS", "street": "100 WALKER", "postcode": "38668"}}},
{"geometry": {"type": "Point", "coordinates": [-90.2851709841, 34.4235997441]}, "type": "Feature", "properties": {"collection_times": [{"days": "Mon-Fri", "time": "4:00pm"}, {"days": "Sat", "time": "9:15am"}, {"days": "Sun", "time": "Closed"}], "id": "3867000001", "name": "USPS COLLECTION BOX - BLUE BOX", "address": {"city": "SLEDGE", "state": "MS", "street": "CORNER OF WILLIAMS AVE", "postcode": "38670"}}},
{"geometry": {"type": "Point", "coordinates": [-90.2851709841, 34.4235997441]}, "type": "Feature", "properties": {"collection_times": [{"days": "Mon-Fri", "time": "11:00am"}, {"days": "Sat", "time": "9:15am"}, {"days": "Sun", "time": "Closed"}], "id": "3867000002", "name": "USPS COLLECTION BOX - PO LOBBY", "address": {"city": "SLEDGE", "state": "MS", "street": "CORNER OF WILLIAMS AVE", "postcode": "38670"}}},
{"geometry": {"type": "Point", "coordinates": [-89.9734358199, 34.962645851]}, "type": "Feature", "properties": {"collection_times": [{"days": "Mon-Sat", "time": "1:05pm"}, {"days": "Sun", "time": "Closed"}], "id": "3867100012", "name": "USPS COLLECTION BOX - BLUE BOX", "address": {"city": "SOUTHAVEN", "state": "MS", "street": "945 GOODMAN RD E", "postcode": "38671"}}},
{"geometry": {"type": "Point", "coordinates": [-89.9898269038, 34.9712148089]}, "type": "Feature", "properties": {"collection_times": [{"days": "Mon-Fri", "time": "5:00pm"}, {"days": "Sat", "time": "3:00pm"}, {"days": "Sun", "time": "Closed"}], "id": "3867100013", "name": "USPS COLLECTION BOX - BLUE BOX", "address": {"city": "SOUTHAVEN", "state": "MS", "street": "7550 AIRWAYS BLVD", "postcode": "38671"}}},
{"geometry": {"type": "Point", "coordinates": [-89.9898269038, 34.9712148089]}, "type": "Feature", "properties": {"collection_times": [{"days": "Mon-Fri", "time": "5:00pm"}, {"days": "Sat", "time": "3:00pm"}, {"days": "Sun", "time": "Closed"}], "id": "3867100015", "name": "USPS COLLECTION BOX - PO LOBBY", "address": {"city": "SOUTHAVEN", "state": "MS", "street": "7550 AIRWAYS BLVD", "postcode": "38671"}}},
{"geometry": {"type": "Point", "coordinates": [-89.9898269038, 34.9712148089]}, "type": "Feature", "properties": {"collection_times": [{"days": "Mon-Fri", "time": "5:00pm"}, {"days": "Sat", "time": "3:00pm"}, {"days": "Sun", "time": "Closed"}], "id": "3867100016", "name": "USPS COLLECTION BOX - BLUE BOX", "address": {"city": "SOUTHAVEN", "state": "MS", "street": "7550 AIRWAYS BLVD", "postcode": "38671"}}},
{"geometry": {"type": "Point", "coordinates": [-89.9898269038, 34.9712148089]}, "type": "Feature", "properties": {"collection_times": [{"days": "Mon-Fri", "time": "5:00pm"}, {"days": "Sat", "time": "3:00pm"}, {"days": "Sun", "time": "Closed"}], "id": "3867100021", "name": "USPS COLLECTION BOX - BLUE BOX", "address": {"city": "SOUTHAVEN", "state": "MS", "street": "7550 AIRWAYS BLVD", "postcode": "38671"}}},
{"geometry": {"type": "Point", "coordinates": [-90.0048476902, 34.9879436952]}, "type": "Feature", "properties": {"collection_times": [{"days": "Mon-Sat", "time": "12:00pm"}, {"days": "Sun", "time": "Closed"}], "id": "3867100022", "name": "USPS COLLECTION BOX - BLUE BOX", "address": {"city": "SOUTHAVEN", "state": "MS", "street": "3095 GOODMAN RD E", "postcode": "38671"}}},
{"geometry": {"type": "Point", "coordinates": [-89.9898269038, 34.9712148089]}, "type": "Feature", "properties": {"collection_times": [{"days": "Mon-Fri", "time": "5:00pm"}, {"days": "Sat", "time": "3:00pm"}, {"days": "Sun", "time": "Closed"}], "id": "3867100023", "name": "USPS COLLECTION BOX - APC", "address": {"city": "SOUTHAVEN", "state": "MS", "street": "7550 AIRWAYS BLVD", "postcode": "38671"}}},
{"geometry": {"type": "Point", "coordinates": [-89.5957350568, 34.302648316]}, "type": "Feature", "properties": {"collection_times": [{"days": "Mon-Fri", "time": "4:00pm"}, {"days": "Sat", "time": "9:45am"}, {"days": "Sun", "time": "Closed"}], "id": "3867300001", "name": "USPS COLLECTION BOX - BLUE BOX", "address": {"city": "TAYLOR", "state": "MS", "street": "MAIN ST ST", "postcode": "38673"}}},
{"geometry": {"type": "Point", "coordinates": [-89.5957350568, 34.302648316]}, "type": "Feature", "properties": {"collection_times": [{"days": "Mon-Fri", "time": "2:30pm"}, {"days": "Sat", "time": "9:45am"}, {"days": "Sun", "time": "Closed"}], "id": "3867300002", "name": "USPS COLLECTION BOX - PO LOBBY", "address": {"city": "TAYLOR", "state": "MS", "street": "MAIN ST ST", "postcode": "38673"}}},
{"geometry": {"type": "Point", "coordinates": [-88.9073696485, 34.9005228268]}, "type": "Feature", "properties": {"collection_times": [{"days": "Mon-Fri", "time": "12:00pm"}, {"days": "Sat", "time": "9:30am"}, {"days": "Sun", "time": "Closed"}], "id": "3867400002", "name": "USPS COLLECTION BOX - PO LOBBY", "address": {"city": "TIPLERSVILLE", "state": "MS", "street": "24440 HIGHWAY 15", "postcode": "38674"}}},
{"geometry": {"type": "Point", "coordinates": [-88.900999275, 34.875981115]}, "type": "Feature", "properties": {"collection_times": [{"days": "Mon-Fri", "time": "3:00pm"}, {"days": "Sat", "time": "9:30am"}, {"days": "Sun", "time": "Closed"}], "id": "3867400003", "name": "USPS COLLECTION BOX - BLUE BOX", "address": {"city": "TIPLERSVILLE", "state": "MS", "street": "24440 HIGHWAY 15", "postcode": "38674"}}},
{"geometry": {"type": "Point", "coordinates": [-90.3827301973, 34.6878971578]}, "type": "Feature", "properties": {"collection_times": [{"days": "Mon-Fri", "time": "4:30pm"}, {"days": "Sat", "time": "11:30am"}, {"days": "Sun", "time": "Closed"}], "id": "3867600000", "name": "USPS COLLECTION BOX - BLUE BOX", "address": {"city": "TUNICA", "state": "MS", "street": "912 MAGNOLIA ST", "postcode": "38676"}}},
{"geometry": {"type": "Point", "coordinates": [-90.3827301973, 34.6878971578]}, "type": "Feature", "properties": {"collection_times": [{"days": "Mon-Fri", "time": "4:30pm"}, {"days": "Sat", "time": "11:30am"}, {"days": "Sun", "time": "Closed"}], "id": "3867600001", "name": "USPS COLLECTION BOX - PO LOBBY", "address": {"city": "TUNICA", "state": "MS", "street": "912 MAGNOLIA ST", "postcode": "38676"}}},
{"geometry": {"type": "Point", "coordinates": [-89.6175924134, 34.8460573805]}, "type": "Feature", "properties": {"collection_times": [{"days": "Mon-Fri", "time": "3:45pm"}, {"days": "Sat", "time": "10:00am"}, {"days": "Sun", "time": "Closed"}], "id": "3867900001", "name": "USPS COLLECTION BOX - BLUE BOX", "address": {"city": "VICTORIA", "state": "MS", "street": "5764 HIGHWAY 178 W", "postcode": "38679"}}},
{"geometry": {"type": "Point", "coordinates": [-89.6175924134, 34.8460573805]}, "type": "Feature", "properties": {"collection_times": [{"days": "Mon-Fri", "time": "3:45pm"}, {"days": "Sat", "time": "10:00am"}, {"days": "Sun", "time": "Closed"}], "id": "3867900002", "name": "USPS COLLECTION BOX - PO LOBBY", "address": {"city": "VICTORIA", "state": "MS", "street": "5764 HIGHWAY 178 W", "postcode": "38679"}}},
{"geometry": {"type": "Point", "coordinates": [-90.1554230501, 34.947404732]}, "type": "Feature", "properties": {"collection_times": [{"days": "Mon-Fri", "time": "4:15pm"}, {"days": "Sat", "time": "10:30am"}, {"days": "Sun", "time": "Closed"}], "id": "3868000001", "name": "USPS COLLECTION BOX - BLUE BOX", "address": {"city": "WALLS", "state": "MS", "street": "6380 HIGHWAY 161", "postcode": "38680"}}},
{"geometry": {"type": "Point", "coordinates": [-90.1554230501, 34.947404732]}, "type": "Feature", "properties": {"collection_times": [{"days": "Mon-Fri", "time": "4:30pm"}, {"days": "Sat", "time": "10:30am"}, {"days": "Sun", "time": "Closed"}], "id": "3868000003", "name": "USPS COLLECTION BOX - PO LOBBY", "address": {"city": "WALLS", "state": "MS", "street": "6380 HIGHWAY 161", "postcode": "38680"}}},
{"geometry": {"type": "Point", "coordinates": [-88.9015286784, 34.9462193496]}, "type": "Feature", "properties": {"collection_times": [{"days": "Mon-Fri", "time": "4:00pm"}, {"days": "Sat", "time": "10:00am"}, {"days": "Sun", "time": "Closed"}], "id": "3868300001", "name": "USPS COLLECTION BOX - BLUE BOX", "address": {"city": "WALNUT", "state": "MS", "street": "50 HIGHWAY 354", "postcode": "38683"}}},
{"geometry": {"type": "Point", "coordinates": [-88.9015286784, 34.9462193496]}, "type": "Feature", "properties": {"collection_times": [{"days": "Mon-Fri", "time": "4:00pm"}, {"days": "Sat", "time": "10:00am"}, {"days": "Sun", "time": "Closed"}], "id": "3868300003", "name": "USPS COLLECTION BOX - PO LOBBY", "address": {"city": "WALNUT", "state": "MS", "street": "50 HIGHWAY 354", "postcode": "38683"}}},
{"geometry": {"type": "Point", "coordinates": [-89.45727563, 34.6454996301]}, "type": "Feature", "properties": {"collection_times": [{"days": "Mon-Fri", "time": "4:00pm"}, {"days": "Sat", "time": "8:30am"}, {"days": "Sun", "time": "Closed"}], "id": "3868500001", "name": "USPS COLLECTION BOX - BLUE BOX", "address": {"city": "WATERFORD", "state": "MS", "street": "9 BETHLEHEM RD", "postcode": "38685"}}},
{"geometry": {"type": "Point", "coordinates": [-89.45727563, 34.6454996301]}, "type": "Feature", "properties": {"collection_times": [{"days": "Mon-Fri", "time": "10:50am"}, {"days": "Sat", "time": "8:30am"}, {"days": "Sun", "time": "Closed"}], "id": "3868500002", "name": "USPS COLLECTION BOX - PO LOBBY", "address": {"city": "WATERFORD", "state": "MS", "street": "9 BETHLEHEM RD", "postcode": "38685"}}}
]}
