{"type": "FeatureCollection", "features": [
{"geometry": {"type": "Point", "coordinates": [-91.0634001651, 33.4109007002]}, "type": "Feature", "properties": {"collection_times": [{"days": "Mon-Fri", "time": "5:00pm"}, {"days": "Sat", "time": "11:00am"}, {"days": "Sun", "time": "Closed"}], "id": "3870100000", "name": "USPS COLLECTION BOX - BLUE BOX", "address": {"city": "GREENVILLE", "state": "MS", "street": "305 MAIN ST", "postcode": "38701"}}},
{"geometry": {"type": "Point", "coordinates": [-91.0634001651, 33.4109007002]}, "type": "Feature", "properties": {"collection_times": [{"days": "Mon-Fri", "time": "5:00pm"}, {"days": "Sat", "time": "11:00am"}, {"days": "Sun", "time": "Closed"}], "id": "3870100001", "name": "USPS COLLECTION BOX - BLUE BOX", "address": {"city": "GREENVILLE", "state": "MS", "street": "305 MAIN ST", "postcode": "38701"}}},
{"geometry": {"type": "Point", "coordinates": [-91.0634001651, 33.4109007002]}, "type": "Feature", "properties": {"collection_times": [{"days": "Mon-Fri", "time": "5:00pm"}, {"days": "Sat", "time": "11:00am"}, {"days": "Sun", "time": "Closed"}], "id": "3870100002", "name": "USPS COLLECTION BOX - BLUE BOX", "address": {"city": "GREENVILLE", "state": "MS", "street": "305 MAIN ST", "postcode": "38701"}}},
{"geometry": {"type": "Point", "coordinates": [-91.0534367896, 33.3871128403]}, "type": "Feature", "properties": {"collection_times": [{"days": "Mon-Fri", "time": "5:00pm"}, {"days": "Sat", "time": "11:00am"}, {"days": "Sun", "time": "Closed"}], "id": "3870100003", "name": "USPS COLLECTION BOX - EXPRESS", "address": {"city": "GREENVILLE", "state": "MS", "street": "305 MAIN ST", "postcode": "38701"}}},
{"geometry": {"type": "Point", "coordinates": [-91.0521532286, 33.4066307525]}, "type": "Feature", "properties": {"collection_times": [{"days": "Mon-Fri", "time": "1:00pm"}, {"days": "Sat-Sun", "time": "Closed"}], "id": "3870100011", "name": "USPS COLLECTION BOX - BLUE BOX", "address": {"city": "GREENVILLE", "state": "MS", "street": "1024 WASHINGTON AVE", "postcode": "38701"}}},
{"geometry": {"type": "Point", "coordinates": [-91.052891632, 33.4086305799]}, "type": "Feature", "properties": {"collection_times": [{"days": "Mon-Fri", "time": "2:00pm"}, {"days": "Sat-Sun", "time": "Closed"}], "id": "3870100012", "name": "USPS COLLECTION BOX - BLUE BOX", "address": {"city": "GREENVILLE", "state": "MS", "street": "900 COURTHOUSE ALY", "postcode": "38701"}}},
{"geometry": {"type": "Point", "coordinates": [-91.052891632, 33.4086305799]}, "type": "Feature", "properties": {"collection_times": [{"days": "Mon-Fri", "time": "2:00pm"}, {"days": "Sat-Sun", "time": "Closed"}], "id": "3870100013", "name": "USPS COLLECTION BOX - BLUE BOX", "address": {"city": "GREENVILLE", "state": "MS", "street": "900 COURTHOUSE ALY", "postcode": "38701"}}},
{"geometry": {"type": "Point", "coordinates": [-91.0501794494, 33.4040210666]}, "type": "Feature", "properties": {"collection_times": [{"days": "Mon-Fri", "time": "1:00pm"}, {"days": "Sat-Sun", "time": "Closed"}], "id": "3870100021", "name": "USPS COLLECTION BOX - BLUE BOX", "address": {"city": "GREENVILLE", "state": "MS", "street": "339 ARNOLD AVE", "postcode": "38701"}}},
{"geometry": {"type": "Point", "coordinates": [-91.0537020229, 33.3839701423]}, "type": "Feature", "properties": {"collection_times": [{"days": "Mon-Fri", "time": "3:00pm"}, {"days": "Sat-Sun", "time": "Closed"}], "id": "3870100024", "name": "USPS COLLECTION BOX - BLUE BOX", "address": {"city": "GREENVILLE", "state": "MS", "street": "1427 S MAIN ST", "postcode": "38701"}}},
{"geometry": {"type": "Point", "coordinates": [-91.0537020229, 33.3839701423]}, "type": "Feature", "properties": {"collection_times": [{"days": "Mon-Fri", "time": "3:00pm"}, {"days": "Sat-Sun", "time": "Closed"}], "id": "3870100025", "name": "USPS COLLECTION BOX - BLUE BOX", "address": {"city": "GREENVILLE", "state": "MS", "street": "1427 S MAIN ST", "postcode": "38701"}}},
{"geometry": {"type": "Point", "coordinates": [-91.0537020229, 33.3839701423]}, "type": "Feature", "properties": {"collection_times": [{"days": "Mon-Fri", "time": "3:00pm"}, {"days": "Sat-Sun", "time": "Closed"}], "id": "3870100026", "name": "USPS COLLECTION BOX - BLUE BOX", "address": {"city": "GREENVILLE", "state": "MS", "street": "1427 S MAIN ST", "postcode": "38701"}}},
{"geometry": {"type": "Point", "coordinates": [-91.0401433728, 33.3695545276]}, "type": "Feature", "properties": {"collection_times": [{"days": "Mon-Fri", "time": "1:00pm"}, {"days": "Sat-Sun", "time": "Closed"}], "id": "3870100028", "name": "USPS COLLECTION BOX - BLUE BOX", "address": {"city": "GREENVILLE", "state": "MS", "street": "1831 HIGHWAY 1 S", "postcode": "38701"}}},
{"geometry": {"type": "Point", "coordinates": [-91.0381735761, 33.3959197223]}, "type": "Feature", "properties": {"collection_times": [{"days": "Mon-Fri", "time": "1:00pm"}, {"days": "Sat-Sun", "time": "Closed"}], "id": "3870100030", "name": "USPS COLLECTION BOX - BLUE BOX", "address": {"city": "GREENVILLE", "state": "MS", "street": "855 MISSISSIPPI ST", "postcode": "38701"}}},
{"geometry": {"type": "Point", "coordinates": [-91.0634001651, 33.4109007002]}, "type": "Feature", "properties": {"collection_times": [{"days": "Mon-Fri", "time": "5:00pm"}, {"days": "Sat", "time": "11:00am"}, {"days": "Sun", "time": "Closed"}], "id": "3870100059", "name": "USPS COLLECTION BOX - PO LOBBY", "address": {"city": "GREENVILLE", "state": "MS", "street": "305 MAIN ST", "postcode": "38701"}}},
{"geometry": {"type": "Point", "coordinates": [-91.0537020229, 33.3839701423]}, "type": "Feature", "properties": {"collection_times": [{"days": "Mon-Fri", "time": "3:00pm"}, {"days": "Sat-Sun", "time": "Closed"}], "id": "3870100061", "name": "USPS COLLECTION BOX - BLUE BOX", "address": {"city": "GREENVILLE", "state": "MS", "street": "1427 S MAIN ST", "postcode": "38701"}}},
{"geometry": {"type": "Point", "coordinates": [-91.0401433728, 33.3695545276]}, "type": "Feature", "properties": {"collection_times": [{"days": "Mon-Fri", "time": "1:00pm"}, {"days": "Sat-Sun", "time": "Closed"}], "id": "3870100062", "name": "USPS COLLECTION BOX - BLUE BOX", "address": {"city": "GREENVILLE", "state": "MS", "street": "1831 HIGHWAY 1 S", "postcode": "38701"}}},
{"geometry": {"type": "Point", "coordinates": [-91.0397820144, 33.3743284322]}, "type": "Feature", "properties": {"collection_times": [{"days": "Mon-Fri", "time": "1:00pm"}, {"days": "Sat-Sun", "time": "Closed"}], "id": "3870100066", "name": "USPS COLLECTION BOX - BLUE BOX", "address": {"city": "GREENVILLE", "state": "MS", "street": "1651 HIGHWAY 1 S", "postcode": "38701"}}},
{"geometry": {"type": "Point", "coordinates": [-91.0281258046, 33.399740105]}, "type": "Feature", "properties": {"collection_times": [{"days": "Mon-Fri", "time": "4:12pm"}, {"days": "Sat", "time": "11:00am"}, {"days": "Sun", "time": "Closed"}], "id": "3870300001", "name": "USPS COLLECTION BOX - PO LOBBY", "address": {"city": "GREENVILLE", "state": "MS", "street": "1910 HIGHWAY 82 E", "postcode": "38703"}}},
{"geometry": {"type": "Point", "coordinates": [-91.0266063807, 33.4165632876]}, "type": "Feature", "properties": {"collection_times": [{"days": "Mon-Fri", "time": "4:12pm"}, {"days": "Sat", "time": "11:00am"}, {"days": "Sun", "time": "Closed"}], "id": "3870300002", "name": "USPS COLLECTION BOX - EXPRESS", "address": {"city": "GREENVILLE", "state": "MS", "street": "1910 HIGHWAY 82 E", "postcode": "38703"}}},
{"geometry": {"type": "Point", "coordinates": [-91.0281258046, 33.399740105]}, "type": "Feature", "properties": {"collection_times": [{"days": "Mon-Fri", "time": "4:12pm"}, {"days": "Sat", "time": "11:00am"}, {"days": "Sun", "time": "Closed"}], "id": "3870300003", "name": "USPS COLLECTION BOX - BLUE BOX", "address": {"city": "GREENVILLE", "state": "MS", "street": "1910 HIGHWAY 82 E", "postcode": "38703"}}},
{"geometry": {"type": "Point", "coordinates": [-91.0281258046, 33.399740105]}, "type": "Feature", "properties": {"collection_times": [{"days": "Mon-Fri", "time": "4:12pm"}, {"days": "Sat", "time": "11:00am"}, {"days": "Sun", "time": "Closed"}], "id": "3870300004", "name": "USPS COLLECTION BOX - BLUE BOX", "address": {"city": "GREENVILLE", "state": "MS", "street": "1910 HIGHWAY 82 E", "postcode": "38703"}}},
{"geometry": {"type": "Point", "coordinates": [-91.0281258046, 33.399740105]}, "type": "Feature", "properties": {"collection_times": [{"days": "Mon-Fri", "time": "4:12pm"}, {"days": "Sat", "time": "11:00am"}, {"days": "Sun", "time": "Closed"}], "id": "3870300005", "name": "USPS COLLECTION BOX - BLUE BOX", "address": {"city": "GREENVILLE", "state": "MS", "street": "1910 HIGHWAY 82 E", "postcode": "38703"}}},
{"geometry": {"type": "Point", "coordinates": [-91.0281258046, 33.399740105]}, "type": "Feature", "properties": {"collection_times": [{"days": "Mon-Fri", "time": "4:12pm"}, {"days": "Sat", "time": "11:00am"}, {"days": "Sun", "time": "Closed"}], "id": "3870300006", "name": "USPS COLLECTION BOX - BLUE BOX", "address": {"city": "GREENVILLE", "state": "MS", "street": "1910 HIGHWAY 82 E", "postcode": "38703"}}},
{"geometry": {"type": "Point", "coordinates": [-91.0281258046, 33.399740105]}, "type": "Feature", "properties": {"collection_times": [{"days": "Mon-Fri", "time": "4:12pm"}, {"days": "Sat", "time": "11:00am"}, {"days": "Sun", "time": "Closed"}], "id": "3870300007", "name": "USPS COLLECTION BOX - BLUE BOX", "address": {"city": "GREENVILLE", "state": "MS", "street": "1910 HIGHWAY 82 E", "postcode": "38703"}}},
{"geometry": {"type": "Point", "coordinates": [-90.8180662396, 34.1107670377]}, "type": "Feature", "properties": {"collection_times": [{"days": "Mon-Fri", "time": "3:45pm"}, {"days": "Sat-Sun", "time": "Closed"}], "id": "3872000000", "name": "USPS COLLECTION BOX - BLUE BOX", "address": {"city": "ALLIGATOR", "state": "MS", "street": "5 MAIN ST", "postcode": "38720"}}},
{"geometry": {"type": "Point", "coordinates": [-90.8180662396, 34.1107670377]}, "type": "Feature", "properties": {"collection_times": [{"days": "Mon-Fri", "time": "1:00pm"}, {"days": "Sat", "time": "9:00am"}, {"days": "Sun", "time": "Closed"}], "id": "3872000001", "name": "USPS COLLECTION BOX - PO LOBBY", "address": {"city": "ALLIGATOR", "state": "MS", "street": "5 MAIN ST", "postcode": "38720"}}},
{"geometry": {"type": "Point", "coordinates": [-90.7846436929, 33.0254890396]}, "type": "Feature", "properties": {"collection_times": [{"days": "Mon-Fri", "time": "4:00pm"}, {"days": "Sat", "time": "9:00am"}, {"days": "Sun", "time": "Closed"}], "id": "3872100000", "name": "USPS COLLECTION BOX - BLUE BOX", "address": {"city": "ANGUILLA", "state": "MS", "street": "205 HOLLAND ST", "postcode": "38721"}}},
{"geometry": {"type": "Point", "coordinates": [-90.7846436929, 33.0254890396]}, "type": "Feature", "properties": {"collection_times": [{"days": "Mon-Fri", "time": "11:30am"}, {"days": "Sat", "time": "9:00am"}, {"days": "Sun", "time": "Closed"}], "id": "3872100001", "name": "USPS COLLECTION BOX - PO LOBBY", "address": {"city": "ANGUILLA", "state": "MS", "street": "205 HOLLAND ST", "postcode": "38721"}}},
{"geometry": {"type": "Point", "coordinates": [-90.8766687613, 33.2698822187]}, "type": "Feature", "properties": {"collection_times": [{"days": "Mon-Fri", "time": "4:15pm"}, {"days": "Sat-Sun", "time": "Closed"}], "id": "3872200000", "name": "USPS COLLECTION BOX - BLUE BOX", "address": {"city": "ARCOLA", "state": "MS", "street": "104 S DEER CREEK DR", "postcode": "38722"}}},
{"geometry": {"type": "Point", "coordinates": [-90.8766687613, 33.2698822187]}, "type": "Feature", "properties": {"collection_times": [{"days": "Mon-Fri", "time": "11:50am"}, {"days": "Sat", "time": "9:00am"}, {"days": "Sun", "time": "Closed"}], "id": "3872200001", "name": "USPS COLLECTION BOX - PO LOBBY", "address": {"city": "ARCOLA", "state": "MS", "street": "104 S DEER CREEK DR", "postcode": "38722"}}},
{"geometry": {"type": "Point", "coordinates": [-91.0476551521, 33.2301133387]}, "type": "Feature", "properties": {"collection_times": [{"days": "Mon-Fri", "time": "3:45pm"}, {"days": "Sat-Sun", "time": "Closed"}], "id": "3872300000", "name": "USPS COLLECTION BOX - BLUE BOX", "address": {"city": "AVON", "state": "MS", "street": "50 AVON RD N", "postcode": "38723"}}},
{"geometry": {"type": "Point", "coordinates": [-91.0470593937, 33.2305719757]}, "type": "Feature", "properties": {"collection_times": [{"days": "Mon-Fri", "time": "11:50am"}, {"days": "Sat", "time": "9:00am"}, {"days": "Sun", "time": "Closed"}], "id": "3872300001", "name": "USPS COLLECTION BOX - PO LOBBY", "address": {"city": "AVON", "state": "MS", "street": "50 AVON RD N", "postcode": "38723"}}},
{"geometry": {"type": "Point", "coordinates": [-91.0092375997, 33.6514868157]}, "type": "Feature", "properties": {"collection_times": [{"days": "Mon-Fri", "time": "4:15pm"}, {"days": "Sat-Sun", "time": "Closed"}], "id": "3872500000", "name": "USPS COLLECTION BOX - BLUE BOX", "address": {"city": "BENOIT", "state": "MS", "street": "105 PRESTON ST", "postcode": "38725"}}},
{"geometry": {"type": "Point", "coordinates": [-91.0092375997, 33.6514868157]}, "type": "Feature", "properties": {"collection_times": [{"days": "Mon-Fri", "time": "11:30am"}, {"days": "Sat", "time": "9:00am"}, {"days": "Sun", "time": "Closed"}], "id": "3872500002", "name": "USPS COLLECTION BOX - PO LOBBY", "address": {"city": "BENOIT", "state": "MS", "street": "105 PRESTON ST", "postcode": "38725"}}},
{"geometry": {"type": "Point", "coordinates": [-90.9680897706, 33.7650204257]}, "type": "Feature", "properties": {"collection_times": [{"days": "Mon-Fri", "time": "3:45pm"}, {"days": "Sat", "time": "9:45am"}, {"days": "Sun", "time": "Closed"}], "id": "3872600000", "name": "USPS COLLECTION BOX - BLUE BOX", "address": {"city": "BEULAH", "state": "MS", "street": "HWY 1 NORTH", "postcode": "38726"}}},
{"geometry": {"type": "Point", "coordinates": [-90.9680897706, 33.7650204257]}, "type": "Feature", "properties": {"collection_times": [{"days": "Mon-Fri", "time": "12:00pm"}, {"days": "Sat", "time": "9:45am"}, {"days": "Sun", "time": "Closed"}], "id": "3872600001", "name": "USPS COLLECTION BOX - PO LOBBY", "address": {"city": "BEULAH", "state": "MS", "street": "HWY 1 NORTH", "postcode": "38726"}}},
{"geometry": {"type": "Point", "coordinates": [-90.8660667597, 33.7038291623]}, "type": "Feature", "properties": {"collection_times": [{"days": "Mon-Fri", "time": "1:50pm"}, {"days": "Sat", "time": "9:30am"}, {"days": "Sun", "time": "Closed"}], "id": "3873000000", "name": "USPS COLLECTION BOX - PO LOBBY", "address": {"city": "BOYLE", "state": "MS", "street": "123 HIGHWAY 446", "postcode": "38730"}}},
{"geometry": {"type": "Point", "coordinates": [-90.8660667597, 33.7038291623]}, "type": "Feature", "properties": {"collection_times": [{"days": "Mon-Fri", "time": "3:30pm"}, {"days": "Sat", "time": "9:00am"}, {"days": "Sun", "time": "Closed"}], "id": "3873000001", "name": "USPS COLLECTION BOX - BLUE BOX", "address": {"city": "BOYLE", "state": "MS", "street": "123 HIGHWAY 446", "postcode": "38730"}}},
{"geometry": {"type": "Point", "coordinates": [-90.7109767002, 33.7474163385]}, "type": "Feature", "properties": {"collection_times": [{"days": "Mon-Sat", "time": "9:00am"}, {"days": "Sun", "time": "Closed"}], "id": "3873200007", "name": "USPS COLLECTION BOX - BLUE BOX", "address": {"city": "CLEVELAND", "state": "MS", "street": "901 E SUNFLOWER RD", "postcode": "38732"}}},
{"geometry": {"type": "Point", "coordinates": [-90.7104281591, 33.7385856932]}, "type": "Feature", "properties": {"collection_times": [{"days": "Mon-Sat", "time": "9:00am"}, {"days": "Sun", "time": "Closed"}], "id": "3873200011", "name": "USPS COLLECTION BOX - BLUE BOX", "address": {"city": "CLEVELAND", "state": "MS", "street": "405 MARTIN L KING JR DR", "postcode": "38732"}}},
{"geometry": {"type": "Point", "coordinates": [-90.7230378358, 33.7443284369]}, "type": "Feature", "properties": {"collection_times": [{"days": "Mon-Sat", "time": "9:00am"}, {"days": "Sun", "time": "Closed"}], "id": "3873200012", "name": "USPS COLLECTION BOX - BLUE BOX", "address": {"city": "CLEVELAND", "state": "MS", "street": "200 S COURT ST", "postcode": "38732"}}},
{"geometry": {"type": "Point", "coordinates": [-90.718446122, 33.7434722329]}, "type": "Feature", "properties": {"collection_times": [{"days": "Mon-Fri", "time": "5:00pm"}, {"days": "Sat", "time": "4:00pm"}, {"days": "Sun", "time": "Closed"}], "id": "3873200014", "name": "USPS COLLECTION BOX - PO LOBBY", "address": {"city": "CLEVELAND", "state": "MS", "street": "210 S CHRISMAN AVE", "postcode": "38732"}}},
{"geometry": {"type": "Point", "coordinates": [-90.718446122, 33.7434722329]}, "type": "Feature", "properties": {"collection_times": [{"days": "Mon-Fri", "time": "5:00pm"}, {"days": "Sat", "time": "4:00pm"}, {"days": "Sun", "time": "Closed"}], "id": "3873200016", "name": "USPS COLLECTION BOX - BLUE BOX", "address": {"city": "CLEVELAND", "state": "MS", "street": "210 S CHRISMAN AVE", "postcode": "38732"}}},
{"geometry": {"type": "Point", "coordinates": [-90.718446122, 33.7434722329]}, "type": "Feature", "properties": {"collection_times": [{"days": "Mon-Fri", "time": "5:00pm"}, {"days": "Sat", "time": "4:00pm"}, {"days": "Sun", "time": "Closed"}], "id": "3873200017", "name": "USPS COLLECTION BOX - BLUE BOX", "address": {"city": "CLEVELAND", "state": "MS", "street": "210 S CHRISMAN AVE", "postcode": "38732"}}},
{"geometry": {"type": "Point", "coordinates": [-90.5044851919, 33.6569052811]}, "type": "Feature", "properties": {"collection_times": [{"days": "Mon-Fri", "time": "3:45pm"}, {"days": "Sat-Sun", "time": "Closed"}], "id": "3873600000", "name": "USPS COLLECTION BOX - BLUE BOX", "address": {"city": "DODDSVILLE", "state": "MS", "street": "110 5TH AVE", "postcode": "38736"}}},
{"geometry": {"type": "Point", "coordinates": [-90.5044851919, 33.6569052811]}, "type": "Feature", "properties": {"collection_times": [{"days": "Mon-Fri", "time": "11:50am"}, {"days": "Sat", "time": "9:00am"}, {"days": "Sun", "time": "Closed"}], "id": "3873600001", "name": "USPS COLLECTION BOX - PO LOBBY", "address": {"city": "DODDSVILLE", "state": "MS", "street": "110 5TH AVE", "postcode": "38736"}}},
{"geometry": {"type": "Point", "coordinates": [-90.5290648113, 33.8121522196]}, "type": "Feature", "properties": {"collection_times": [{"days": "Mon-Fri", "time": "3:40pm"}, {"days": "Sat", "time": "9:45am"}, {"days": "Sun", "time": "Closed"}], "id": "3873700000", "name": "USPS COLLECTION BOX - BLUE BOX", "address": {"city": "DREW", "state": "MS", "street": "146 W PARK AVE", "postcode": "38737"}}},
{"geometry": {"type": "Point", "coordinates": [-90.5290648112, 33.8121522191]}, "type": "Feature", "properties": {"collection_times": [{"days": "Mon-Fri", "time": "3:40pm"}, {"days": "Sat", "time": "9:45am"}, {"days": "Sun", "time": "Closed"}], "id": "3873700001", "name": "USPS COLLECTION BOX - PO LOBBY", "address": {"city": "DREW", "state": "MS", "street": "146 W PARK AVE", "postcode": "38737"}}},
{"geometry": {"type": "Point", "coordinates": [-90.490325236, 34.0720193888]}, "type": "Feature", "properties": {"collection_times": [{"days": "Mon-Fri", "time": "2:00pm"}, {"days": "Sat-Sun", "time": "Closed"}], "id": "3873900000", "name": "USPS COLLECTION BOX - BLUE BOX", "address": {"city": "DUBLIN", "state": "MS", "street": "310 SAINT PATRICK RD", "postcode": "38739"}}},
{"geometry": {"type": "Point", "coordinates": [-90.490325236, 34.0720193888]}, "type": "Feature", "properties": {"collection_times": [{"days": "Mon-Fri", "time": "10:30am"}, {"days": "Sat", "time": "9:00am"}, {"days": "Sun", "time": "Closed"}], "id": "3873900001", "name": "USPS COLLECTION BOX - PO LOBBY", "address": {"city": "DUBLIN", "state": "MS", "street": "310 SAINT PATRICK RD", "postcode": "38739"}}},
{"geometry": {"type": "Point", "coordinates": [-90.8238175773, 34.055694569]}, "type": "Feature", "properties": {"collection_times": [{"days": "Mon-Fri", "time": "4:00pm"}, {"days": "Sat-Sun", "time": "Closed"}], "id": "3874000000", "name": "USPS COLLECTION BOX - BLUE BOX", "address": {"city": "DUNCAN", "state": "MS", "street": "112 E MAIN ST", "postcode": "38740"}}},
{"geometry": {"type": "Point", "coordinates": [-90.8238175773, 34.055694569]}, "type": "Feature", "properties": {"collection_times": [{"days": "Mon-Fri", "time": "11:50am"}, {"days": "Sat", "time": "9:00am"}, {"days": "Sun", "time": "Closed"}], "id": "3874000001", "name": "USPS COLLECTION BOX - PO LOBBY", "address": {"city": "DUNCAN", "state": "MS", "street": "112 E MAIN ST", "postcode": "38740"}}},
{"geometry": {"type": "Point", "coordinates": [-91.0051338982, 32.9906357625]}, "type": "Feature", "properties": {"collection_times": [{"days": "Mon-Fri", "time": "4:00pm"}, {"days": "Sat", "time": "10:00am"}, {"days": "Sun", "time": "Closed"}], "id": "3874400000", "name": "USPS COLLECTION BOX - BLUE BOX", "address": {"city": "GLEN ALLAN", "state": "MS", "street": "924 LAKE WASHINGTON RD E", "postcode": "38744"}}},
{"geometry": {"type": "Point", "coordinates": [-91.0051338982, 32.9906357625]}, "type": "Feature", "properties": {"collection_times": [{"days": "Mon-Fri", "time": "12:00pm"}, {"days": "Sat", "time": "10:00am"}, {"days": "Sun", "time": "Closed"}], "id": "3874400001", "name": "USPS COLLECTION BOX - PO LOBBY", "address": {"city": "GLEN ALLAN", "state": "MS", "street": "924 LAKE WASHINGTON RD E", "postcode": "38744"}}},
{"geometry": {"type": "Point", "coordinates": [-90.966758495, 32.9920224486]}, "type": "Feature", "properties": {"collection_times": [{"days": "Mon-Fri", "time": "3:55pm"}, {"days": "Sat-Sun", "time": "Closed"}], "id": "3874500000", "name": "USPS COLLECTION BOX - BLUE BOX", "address": {"city": "GRACE", "state": "MS", "street": "HWY 16 E", "postcode": "38745"}}},
{"geometry": {"type": "Point", "coordinates": [-90.966758495, 32.9920224486]}, "type": "Feature", "properties": {"collection_times": [{"days": "Mon-Fri", "time": "2:30pm"}, {"days": "Sat", "time": "9:00am"}, {"days": "Sun", "time": "Closed"}], "id": "3874500001", "name": "USPS COLLECTION BOX - PO LOBBY", "address": {"city": "GRACE", "state": "MS", "street": "HWY 16 E", "postcode": "38745"}}},
{"geometry": {"type": "Point", "coordinates": [-90.9442325267, 33.944391457]}, "type": "Feature", "properties": {"collection_times": [{"days": "Mon-Fri", "time": "4:10pm"}, {"days": "Sat-Sun", "time": "Closed"}], "id": "3874600000", "name": "USPS COLLECTION BOX - BLUE BOX", "address": {"city": "GUNNISON", "state": "MS", "street": "514 RAILROAD AVE", "postcode": "38746"}}},
{"geometry": {"type": "Point", "coordinates": [-90.9442325267, 33.944391457]}, "type": "Feature", "properties": {"collection_times": [{"days": "Mon-Fri", "time": "11:50am"}, {"days": "Sat", "time": "9:00am"}, {"days": "Sun", "time": "Closed"}], "id": "3874600001", "name": "USPS COLLECTION BOX - PO LOBBY", "address": {"city": "GUNNISON", "state": "MS", "street": "514 RAILROAD AVE", "postcode": "38746"}}},
{"geometry": {"type": "Point", "coordinates": [-90.8542904344, 33.1696707698]}, "type": "Feature", "properties": {"collection_times": [{"days": "Mon-Fri", "time": "4:05pm"}, {"days": "Sat", "time": "9:55am"}, {"days": "Sun", "time": "Closed"}], "id": "3874800000", "name": "USPS COLLECTION BOX - BLUE BOX", "address": {"city": "HOLLANDALE", "state": "MS", "street": "121 EAST AVE S", "postcode": "38748"}}},
{"geometry": {"type": "Point", "coordinates": [-90.8535820953, 33.1677050918]}, "type": "Feature", "properties": {"collection_times": [{"days": "Mon-Sat", "time": "12:00pm"}, {"days": "Sun", "time": "Closed"}], "id": "3874800002", "name": "USPS COLLECTION BOX - BLUE BOX", "address": {"city": "HOLLANDALE", "state": "MS", "street": "301 EAST AVE S", "postcode": "38748"}}},
{"geometry": {"type": "Point", "coordinates": [-90.8542904344, 33.1696707698]}, "type": "Feature", "properties": {"collection_times": [{"days": "Mon-Fri", "time": "4:05pm"}, {"days": "Sat", "time": "9:55am"}, {"days": "Sun", "time": "Closed"}], "id": "3874800003", "name": "USPS COLLECTION BOX - PO LOBBY", "address": {"city": "HOLLANDALE", "state": "MS", "street": "121 EAST AVE S", "postcode": "38748"}}},
{"geometry": {"type": "Point", "coordinates": [-90.6506577891, 33.453219082]}, "type": "Feature", "properties": {"collection_times": [{"days": "Mon-Fri", "time": "4:40pm"}, {"days": "Sat", "time": "3:40pm"}, {"days": "Sun", "time": "Closed"}], "id": "3875100000", "name": "USPS COLLECTION BOX - BLUE BOX", "address": {"city": "INDIANOLA", "state": "MS", "street": "100 W PERCY ST", "postcode": "38751"}}},
{"geometry": {"type": "Point", "coordinates": [-90.6506577891, 33.453219082]}, "type": "Feature", "properties": {"collection_times": [{"days": "Mon-Fri", "time": "4:40pm"}, {"days": "Sat", "time": "3:40pm"}, {"days": "Sun", "time": "Closed"}], "id": "3875100001", "name": "USPS COLLECTION BOX - BLUE BOX", "address": {"city": "INDIANOLA", "state": "MS", "street": "100 W PERCY ST", "postcode": "38751"}}},
{"geometry": {"type": "Point", "coordinates": [-90.6506577891, 33.453219082]}, "type": "Feature", "properties": {"collection_times": [{"days": "Mon-Fri", "time": "4:40pm"}, {"days": "Sat", "time": "3:40pm"}, {"days": "Sun", "time": "Closed"}], "id": "3875100002", "name": "USPS COLLECTION BOX - PO LOBBY", "address": {"city": "INDIANOLA", "state": "MS", "street": "100 W PERCY ST", "postcode": "38751"}}},
{"geometry": {"type": "Point", "coordinates": [-90.655847503, 33.4410892364]}, "type": "Feature", "properties": {"collection_times": [{"days": "Mon-Sat", "time": "9:30am"}, {"days": "Sun", "time": "Closed"}], "id": "3875100005", "name": "USPS COLLECTION BOX - BLUE BOX", "address": {"city": "INDIANOLA", "state": "MS", "street": "703 KINLOCK RD", "postcode": "38751"}}},
{"geometry": {"type": "Point", "coordinates": [-90.6282809962, 33.458017285]}, "type": "Feature", "properties": {"collection_times": [{"days": "Mon-Fri", "time": "11:00am"}, {"days": "Sat", "time": "10:30am"}, {"days": "Sun", "time": "Closed"}], "id": "3875100006", "name": "USPS COLLECTION BOX - BLUE BOX", "address": {"city": "INDIANOLA", "state": "MS", "street": "1212 HIGHWAY 82 E", "postcode": "38751"}}},
{"geometry": {"type": "Point", "coordinates": [-90.651360048, 33.4516140296]}, "type": "Feature", "properties": {"collection_times": [{"days": "Mon-Fri", "time": "3:00pm"}, {"days": "Sat", "time": "9:00am"}, {"days": "Sun", "time": "Closed"}], "id": "3875100009", "name": "USPS COLLECTION BOX - BLUE BOX", "address": {"city": "INDIANOLA", "state": "MS", "street": "114 FRONT AVE", "postcode": "38751"}}},
{"geometry": {"type": "Point", "coordinates": [-90.6500295028, 33.4516736131]}, "type": "Feature", "properties": {"collection_times": [{"days": "Mon-Fri", "time": "3:00pm"}, {"days": "Sat-Sun", "time": "Closed"}], "id": "3875100010", "name": "USPS COLLECTION BOX - BLUE BOX", "address": {"city": "INDIANOLA", "state": "MS", "street": "100 COURT AVE", "postcode": "38751"}}},
{"geometry": {"type": "Point", "coordinates": [-90.6500295028, 33.4516736131]}, "type": "Feature", "properties": {"collection_times": [{"days": "Mon-Fri", "time": "3:00pm"}, {"days": "Sat-Sun", "time": "Closed"}], "id": "3875100011", "name": "USPS COLLECTION BOX - BLUE BOX", "address": {"city": "INDIANOLA", "state": "MS", "street": "100 COURT AVE", "postcode": "38751"}}},
{"geometry": {"type": "Point", "coordinates": [-90.6450744921, 33.4581503796]}, "type": "Feature", "properties": {"collection_times": [{"days": "Mon-Fri", "time": "11:00am"}, {"days": "Sat", "time": "10:30am"}, {"days": "Sun", "time": "Closed"}], "id": "3875100012", "name": "USPS COLLECTION BOX - BLUE BOX", "address": {"city": "INDIANOLA", "state": "MS", "street": "412 HIGHWAY 82 E", "postcode": "38751"}}},
{"geometry": {"type": "Point", "coordinates": [-90.6495872417, 33.4579751083]}, "type": "Feature", "properties": {"collection_times": [{"days": "Mon-Fri", "time": "1:30pm"}, {"days": "Sat-Sun", "time": "Closed"}], "id": "3875100013", "name": "USPS COLLECTION BOX - BLUE BOX", "address": {"city": "INDIANOLA", "state": "MS", "street": "147 HIGHWAY 82 E", "postcode": "38751"}}},
{"geometry": {"type": "Point", "coordinates": [-90.6495872417, 33.4579751083]}, "type": "Feature", "properties": {"collection_times": [{"days": "Mon-Fri", "time": "1:30pm"}, {"days": "Sat-Sun", "time": "Closed"}], "id": "3875100015", "name": "USPS COLLECTION BOX - BLUE BOX", "address": {"city": "INDIANOLA", "state": "MS", "street": "147 HIGHWAY 82 E", "postcode": "38751"}}},
{"geometry": {"type": "Point", "coordinates": [-90.59160462, 33.3537196776]}, "type": "Feature", "properties": {"collection_times": [{"days": "Mon-Fri", "time": "4:10pm"}, {"days": "Sat", "time": "10:10am"}, {"days": "Sun", "time": "Closed"}], "id": "3875300000", "name": "USPS COLLECTION BOX - BLUE BOX", "address": {"city": "INVERNESS", "state": "MS", "street": "900 THIRD ST", "postcode": "38753"}}},
{"geometry": {"type": "Point", "coordinates": [-90.59160462, 33.3537196776]}, "type": "Feature", "properties": {"collection_times": [{"days": "Mon-Fri", "time": "2:30pm"}, {"days": "Sat", "time": "10:10am"}, {"days": "Sun", "time": "Closed"}], "id": "3875300001", "name": "USPS COLLECTION BOX - PO LOBBY", "address": {"city": "INVERNESS", "state": "MS", "street": "900 THIRD ST", "postcode": "38753"}}},
{"geometry": {"type": "Point", "coordinates": [-90.5942955956, 33.2620146666]}, "type": "Feature", "properties": {"collection_times": [{"days": "Mon-Fri", "time": "4:15pm"}, {"days": "Sat-Sun", "time": "Closed"}], "id": "3875400000", "name": "USPS COLLECTION BOX - BLUE BOX", "address": {"city": "ISOLA", "state": "MS", "street": "400 JULIA ST", "postcode": "38754"}}},
{"geometry": {"type": "Point", "coordinates": [-90.5942955956, 33.2620146666]}, "type": "Feature", "properties": {"collection_times": [{"days": "Mon-Fri", "time": "11:30am"}, {"days": "Sat", "time": "9:00am"}, {"days": "Sun", "time": "Closed"}], "id": "3875400001", "name": "USPS COLLECTION BOX - PO LOBBY", "address": {"city": "ISOLA", "state": "MS", "street": "400 JULIA ST", "postcode": "38754"}}},
{"geometry": {"type": "Point", "coordinates": [-90.9521001366, 33.4012885407]}, "type": "Feature", "properties": {"collection_times": [{"days": "Mon-Fri", "time": "11:30am"}, {"days": "Sat", "time": "11:00am"}, {"days": "Sun", "time": "Closed"}], "id": "3875600005", "name": "USPS COLLECTION BOX - BLUE BOX", "address": {"city": "LELAND", "state": "MS", "street": "3836 HIGHWAY 82 W", "postcode": "38756"}}},
{"geometry": {"type": "Point", "coordinates": [-90.8980986902, 33.4048087366]}, "type": "Feature", "properties": {"collection_times": [{"days": "Mon-Fri", "time": "4:30pm"}, {"days": "Sat", "time": "11:00am"}, {"days": "Sun", "time": "Closed"}], "id": "3875600006", "name": "USPS COLLECTION BOX - PO LOBBY", "address": {"city": "LELAND", "state": "MS", "street": "204 N BROAD ST", "postcode": "38756"}}},
{"geometry": {"type": "Point", "coordinates": [-90.8980986902, 33.4048087366]}, "type": "Feature", "properties": {"collection_times": [{"days": "Mon-Fri", "time": "4:30pm"}, {"days": "Sat", "time": "11:00am"}, {"days": "Sun", "time": "Closed"}], "id": "3875600007", "name": "USPS COLLECTION BOX - BLUE BOX", "address": {"city": "LELAND", "state": "MS", "street": "204 N BROAD ST", "postcode": "38756"}}},
{"geometry": {"type": "Point", "coordinates": [-90.7248015534, 33.8387552681]}, "type": "Feature", "properties": {"collection_times": [{"days": "Mon-Fri", "time": "3:45pm"}, {"days": "Sat-Sun", "time": "Closed"}], "id": "3875900000", "name": "USPS COLLECTION BOX - BLUE BOX", "address": {"city": "MERIGOLD", "state": "MS", "street": "106 E GOFF ST", "postcode": "38759"}}},
{"geometry": {"type": "Point", "coordinates": [-90.7248015534, 33.8387552681]}, "type": "Feature", "properties": {"collection_times": [{"days": "Mon-Fri", "time": "2:30pm"}, {"days": "Sat", "time": "9:00am"}, {"days": "Sun", "time": "Closed"}], "id": "3875900001", "name": "USPS COLLECTION BOX - PO LOBBY", "address": {"city": "MERIGOLD", "state": "MS", "street": "106 E GOFF ST", "postcode": "38759"}}},
{"geometry": {"type": "Point", "coordinates": [-91.0014523378, 33.4505582935]}, "type": "Feature", "properties": {"collection_times": [{"days": "Mon-Fri", "time": "4:15pm"}, {"days": "Sat-Sun", "time": "Closed"}], "id": "3876000000", "name": "USPS COLLECTION BOX - BLUE BOX", "address": {"city": "METCALFE", "state": "MS", "street": "401 METCALFE RD", "postcode": "38760"}}},
{"geometry": {"type": "Point", "coordinates": [-91.0014523378, 33.4505582935]}, "type": "Feature", "properties": {"collection_times": [{"days": "Mon-Fri", "time": "11:50am"}, {"days": "Sat", "time": "9:00am"}, {"days": "Sun", "time": "Closed"}], "id": "3876000001", "name": "USPS COLLECTION BOX - PO LOBBY", "address": {"city": "METCALFE", "state": "MS", "street": "401 METCALFE RD", "postcode": "38760"}}},
{"geometry": {"type": "Point", "coordinates": [-90.5064982937, 33.4494183595]}, "type": "Feature", "properties": {"collection_times": [{"days": "Mon-Fri", "time": "3:45pm"}, {"days": "Sat", "time": "10:25am"}, {"days": "Sun", "time": "Closed"}], "id": "3876100000", "name": "USPS COLLECTION BOX - PO LOBBY", "address": {"city": "MOORHEAD", "state": "MS", "street": "900 E DELTA AVE", "postcode": "38761"}}},
{"geometry": {"type": "Point", "coordinates": [-90.5064982937, 33.4494183595]}, "type": "Feature", "properties": {"collection_times": [{"days": "Mon-Fri", "time": "3:45pm"}, {"days": "Sat", "time": "10:25am"}, {"days": "Sun", "time": "Closed"}], "id": "3876100001", "name": "USPS COLLECTION BOX - BLUE BOX", "address": {"city": "MOORHEAD", "state": "MS", "street": "900 E DELTA AVE", "postcode": "38761"}}},
{"geometry": {"type": "Point", "coordinates": [-90.7267613627, 33.8654167664]}, "type": "Feature", "properties": {"collection_times": [{"days": "Mon-Fri", "time": "4:00pm"}, {"days": "Sat", "time": "11:00am"}, {"days": "Sun", "time": "Closed"}], "id": "3876200000", "name": "USPS COLLECTION BOX - BLUE BOX", "address": {"city": "MOUND BAYOU", "state": "MS", "street": "206 S EDWARDS AVE", "postcode": "38762"}}},
{"geometry": {"type": "Point", "coordinates": [-90.7267613627, 33.8654167664]}, "type": "Feature", "properties": {"collection_times": [{"days": "Mon-Fri", "time": "4:00pm"}, {"days": "Sat", "time": "11:00am"}, {"days": "Sun", "time": "Closed"}], "id": "3876200001", "name": "USPS COLLECTION BOX - PO LOBBY", "address": {"city": "MOUND BAYOU", "state": "MS", "street": "206 S EDWARDS AVE", "postcode": "38762"}}},
{"geometry": {"type": "Point", "coordinates": [-90.8720007607, 33.7993907775]}, "type": "Feature", "properties": {"collection_times": [{"days": "Mon-Fri", "time": "3:55pm"}, {"days": "Sat-Sun", "time": "Closed"}], "id": "3876400000", "name": "USPS COLLECTION BOX - BLUE BOX", "address": {"city": "PACE", "state": "MS", "street": "329 JENNY WASHINGTON RD", "postcode": "38764"}}},
{"geometry": {"type": "Point", "coordinates": [-90.8720007607, 33.7993907775]}, "type": "Feature", "properties": {"collection_times": [{"days": "Mon-Fri", "time": "12:00pm"}, {"days": "Sat", "time": "9:00am"}, {"days": "Sun", "time": "Closed"}], "id": "3876400001", "name": "USPS COLLECTION BOX - PO LOBBY", "address": {"city": "PACE", "state": "MS", "street": "329 JENNY WASHINGTON RD", "postcode": "38764"}}},
{"geometry": {"type": "Point", "coordinates": [-90.7818120684, 34.1491623319]}, "type": "Feature", "properties": {"collection_times": [{"days": "Mon-Fri", "time": "3:30pm"}, {"days": "Sat", "time": "10:15am"}, {"days": "Sun", "time": "Closed"}], "id": "3876700000", "name": "USPS COLLECTION BOX - BLUE BOX", "address": {"city": "RENA LARA", "state": "MS", "street": "3291 HIGHWAY 1", "postcode": "38767"}}},
{"geometry": {"type": "Point", "coordinates": [-90.780196774, 34.1497029955]}, "type": "Feature", "properties": {"collection_times": [{"days": "Mon-Fri", "time": "10:50am"}, {"days": "Sat", "time": "10:15am"}, {"days": "Sun", "time": "Closed"}], "id": "3876700001", "name": "USPS COLLECTION BOX - PO LOBBY", "address": {"city": "RENA LARA", "state": "MS", "street": "3291 HIGHWAY 1", "postcode": "38767"}}},
{"geometry": {"type": "Point", "coordinates": [-90.478971743, 33.9611384849]}, "type": "Feature", "properties": {"collection_times": [{"days": "Mon-Fri", "time": "3:15pm"}, {"days": "Sat", "time": "9:45am"}, {"days": "Sun", "time": "Closed"}], "id": "3876800000", "name": "USPS COLLECTION BOX - BLUE BOX", "address": {"city": "ROME", "state": "MS", "street": "800 ROME-BALTZER RD", "postcode": "38768"}}},
{"geometry": {"type": "Point", "coordinates": [-90.478971743, 33.9611384849]}, "type": "Feature", "properties": {"collection_times": [{"days": "Mon-Sat", "time": "10:00am"}, {"days": "Sun", "time": "Closed"}], "id": "3876800001", "name": "USPS COLLECTION BOX - PO LOBBY", "address": {"city": "ROME", "state": "MS", "street": "800 ROME-BALTZER RD", "postcode": "38768"}}},
{"geometry": {"type": "Point", "coordinates": [-91.0290891466, 33.8621167953]}, "type": "Feature", "properties": {"collection_times": [{"days": "Mon-Fri", "time": "4:00pm"}, {"days": "Sat", "time": "11:30am"}, {"days": "Sun", "time": "Closed"}], "id": "3876900001", "name": "USPS COLLECTION BOX - BLUE BOX", "address": {"city": "ROSEDALE", "state": "MS", "street": "700 FRONT ST", "postcode": "38769"}}},
{"geometry": {"type": "Point", "coordinates": [-91.0290891466, 33.8621167953]}, "type": "Feature", "properties": {"collection_times": [{"days": "Mon-Fri", "time": "4:00pm"}, {"days": "Sat", "time": "11:30am"}, {"days": "Sun", "time": "Closed"}], "id": "3876900002", "name": "USPS COLLECTION BOX - PO LOBBY", "address": {"city": "ROSEDALE", "state": "MS", "street": "700 FRONT ST", "postcode": "38769"}}},
{"geometry": {"type": "Point", "coordinates": [-90.5506029367, 33.7257989399]}, "type": "Feature", "properties": {"collection_times": [{"days": "Mon-Fri", "time": "4:00pm"}, {"days": "Sat", "time": "10:30am"}, {"days": "Sun", "time": "Closed"}], "id": "3877100000", "name": "USPS COLLECTION BOX - BLUE BOX", "address": {"city": "RULEVILLE", "state": "MS", "street": "115 N CHESTER AVE", "postcode": "38771"}}},
{"geometry": {"type": "Point", "coordinates": [-90.5506029367, 33.7257989399]}, "type": "Feature", "properties": {"collection_times": [{"days": "Mon-Fri", "time": "4:00pm"}, {"days": "Sat", "time": "10:30am"}, {"days": "Sun", "time": "Closed"}], "id": "3877100006", "name": "USPS COLLECTION BOX - PO LOBBY", "address": {"city": "RULEVILLE", "state": "MS", "street": "115 N CHESTER AVE", "postcode": "38771"}}},
{"geometry": {"type": "Point", "coordinates": [-90.5506029367, 33.7257989399]}, "type": "Feature", "properties": {"collection_times": [{"days": "Mon-Fri", "time": "4:00pm"}, {"days": "Sat", "time": "10:30am"}, {"days": "Sun", "time": "Closed"}], "id": "3877100007", "name": "USPS COLLECTION BOX - PO LOBBY", "address": {"city": "RULEVILLE", "state": "MS", "street": "115 N CHESTER AVE", "postcode": "38771"}}},
{"geometry": {"type": "Point", "coordinates": [-91.074434108, 33.5935600904]}, "type": "Feature", "properties": {"collection_times": [{"days": "Mon-Fri", "time": "3:45pm"}, {"days": "Sat-Sun", "time": "Closed"}], "id": "3877200000", "name": "USPS COLLECTION BOX - BLUE BOX", "address": {"city": "SCOTT", "state": "MS", "street": "1 COTTON ROW", "postcode": "38772"}}},
{"geometry": {"type": "Point", "coordinates": [-91.074434108, 33.5935600904]}, "type": "Feature", "properties": {"collection_times": [{"days": "Mon-Fri", "time": "2:30pm"}, {"days": "Sat", "time": "9:00am"}, {"days": "Sun", "time": "Closed"}], "id": "3877200001", "name": "USPS COLLECTION BOX - PO LOBBY", "address": {"city": "SCOTT", "state": "MS", "street": "1 COTTON ROW", "postcode": "38772"}}},
{"geometry": {"type": "Point", "coordinates": [-90.7723703253, 33.6020070643]}, "type": "Feature", "properties": {"collection_times": [{"days": "Mon-Fri", "time": "4:10pm"}, {"days": "Sat", "time": "11:45am"}, {"days": "Sun", "time": "Closed"}], "id": "3877300000", "name": "USPS COLLECTION BOX - BLUE BOX", "address": {"city": "SHAW", "state": "MS", "street": "100 FAISON ST", "postcode": "38773"}}},
{"geometry": {"type": "Point", "coordinates": [-90.7723703253, 33.6020070643]}, "type": "Feature", "properties": {"collection_times": [{"days": "Mon-Fri", "time": "4:10pm"}, {"days": "Sat", "time": "11:45am"}, {"days": "Sun", "time": "Closed"}], "id": "3877300001", "name": "USPS COLLECTION BOX - PO LOBBY", "address": {"city": "SHAW", "state": "MS", "street": "100 FAISON ST", "postcode": "38773"}}},
{"geometry": {"type": "Point", "coordinates": [-90.7684328094, 33.950983087]}, "type": "Feature", "properties": {"collection_times": [{"days": "Mon-Fri", "time": "4:00pm"}, {"days": "Sat", "time": "11:00am"}, {"days": "Sun", "time": "Closed"}], "id": "3877400000", "name": "USPS COLLECTION BOX - BLUE BOX", "address": {"city": "SHELBY", "state": "MS", "street": "304 SECOND AVE", "postcode": "38774"}}},
{"geometry": {"type": "Point", "coordinates": [-90.9221231131, 33.4261390469]}, "type": "Feature", "properties": {"collection_times": [{"days": "Mon-Fri", "time": "3:30pm"}, {"days": "Sat", "time": "9:45am"}, {"days": "Sun", "time": "Closed"}], "id": "3877600000", "name": "USPS COLLECTION BOX - BLUE BOX", "address": {"city": "STONEVILLE", "state": "MS", "street": "4845 OLD LELAND RD", "postcode": "38776"}}},
{"geometry": {"type": "Point", "coordinates": [-90.9221231131, 33.4261390469]}, "type": "Feature", "properties": {"collection_times": [{"days": "Mon-Fri", "time": "11:50am"}, {"days": "Sat", "time": "9:45am"}, {"days": "Sun", "time": "Closed"}], "id": "3877600001", "name": "USPS COLLECTION BOX - PO LOBBY", "address": {"city": "STONEVILLE", "state": "MS", "street": "4845 OLD LELAND RD", "postcode": "38776"}}},
{"geometry": {"type": "Point", "coordinates": [-90.5376934947, 33.542229311]}, "type": "Feature", "properties": {"collection_times": [{"days": "Mon-Fri", "time": "4:15pm"}, {"days": "Sat", "time": "11:00am"}, {"days": "Sun", "time": "Closed"}], "id": "3877800000", "name": "USPS COLLECTION BOX - BLUE BOX", "address": {"city": "SUNFLOWER", "state": "MS", "street": "102 W QUIVER ST", "postcode": "38778"}}},
{"geometry": {"type": "Point", "coordinates": [-90.5376934947, 33.542229311]}, "type": "Feature", "properties": {"collection_times": [{"days": "Mon-Fri", "time": "12:00pm"}, {"days": "Sat", "time": "11:00am"}, {"days": "Sun", "time": "Closed"}], "id": "3877800001", "name": "USPS COLLECTION BOX - PO LOBBY", "address": {"city": "SUNFLOWER", "state": "MS", "street": "102 W QUIVER ST", "postcode": "38778"}}},
{"geometry": {"type": "Point", "coordinates": [-91.0867622595, 33.2777977253]}, "type": "Feature", "properties": {"collection_times": [{"days": "Mon-Fri", "time": "3:45pm"}, {"days": "Sat", "time": "9:45am"}, {"days": "Sun", "time": "Closed"}], "id": "3878000000", "name": "USPS COLLECTION BOX - BLUE BOX", "address": {"city": "WAYSIDE", "state": "MS", "street": "3501 HIGHWAY 1 S", "postcode": "38780"}}},
{"geometry": {"type": "Point", "coordinates": [-91.043091628, 33.3076702774]}, "type": "Feature", "properties": {"collection_times": [{"days": "Mon-Fri", "time": "3:45pm"}, {"days": "Sat", "time": "9:45am"}, {"days": "Sun", "time": "Closed"}], "id": "3878000001", "name": "USPS COLLECTION BOX - PO LOBBY", "address": {"city": "WAYSIDE", "state": "MS", "street": "3501 HIGHWAY 1 S", "postcode": "38780"}}},
{"geometry": {"type": "Point", "coordinates": [-90.7507380794, 33.9121881789]}, "type": "Feature", "properties": {"collection_times": [{"days": "Mon-Fri", "time": "3:45pm"}, {"days": "Sat", "time": "9:35am"}, {"days": "Sun", "time": "Closed"}], "id": "3878100000", "name": "USPS COLLECTION BOX - BLUE BOX", "address": {"city": "WINSTONVILLE", "state": "MS", "street": "300 E WINSTON ST", "postcode": "38781"}}},
{"geometry": {"type": "Point", "coordinates": [-90.7507380794, 33.9121881789]}, "type": "Feature", "properties": {"collection_times": [{"days": "Mon-Fri", "time": "10:00am"}, {"days": "Sat", "time": "9:35am"}, {"days": "Sun", "time": "Closed"}], "id": "3878100001", "name": "USPS COLLECTION BOX - PO LOBBY", "address": {"city": "WINSTONVILLE", "state": "MS", "street": "300 E WINSTON ST", "postcode": "38781"}}}
]}
