{"type": "FeatureCollection", "features": [
{"geometry": {"type": "Point", "coordinates": [-88.746391788, 34.2533367662]}, "type": "Feature", "properties": {"collection_times": [{"days": "Mon-Sat", "time": "6:00pm"}, {"days": "Sun", "time": "Closed"}], "id": "3880100000", "name": "USPS COLLECTION BOX - PO LOBBY", "address": {"city": "TUPELO", "state": "MS", "street": "362 S THOMAS ST", "postcode": "38801"}}},
{"geometry": {"type": "Point", "coordinates": [-88.746391788, 34.2533367662]}, "type": "Feature", "properties": {"collection_times": [{"days": "Mon-Sat", "time": "6:00pm"}, {"days": "Sun", "time": "Closed"}], "id": "3880100001", "name": "USPS COLLECTION BOX - PO LOBBY", "address": {"city": "TUPELO", "state": "MS", "street": "362 S THOMAS ST", "postcode": "38801"}}},
{"geometry": {"type": "Point", "coordinates": [-88.746391788, 34.2533367662]}, "type": "Feature", "properties": {"collection_times": [{"days": "Mon-Sat", "time": "6:00pm"}, {"days": "Sun", "time": "Closed"}], "id": "3880100002", "name": "USPS COLLECTION BOX - PO LOBBY", "address": {"city": "TUPELO", "state": "MS", "street": "362 S THOMAS ST", "postcode": "38801"}}},
{"geometry": {"type": "Point", "coordinates": [-88.715829217, 34.2536063414]}, "type": "Feature", "properties": {"collection_times": [{"days": "Mon-Fri", "time": "2:30pm"}, {"days": "Sat", "time": "12:00pm"}, {"days": "Sun", "time": "Closed"}], "id": "3880100008", "name": "USPS COLLECTION BOX - BLUE BOX", "address": {"city": "TUPELO", "state": "MS", "street": "327 N GLOSTER ST", "postcode": "38801"}}},
{"geometry": {"type": "Point", "coordinates": [-88.7199391962, 34.2187900905]}, "type": "Feature", "properties": {"collection_times": [{"days": "Mon-Sat", "time": "10:00am"}, {"days": "Sun", "time": "Closed"}], "id": "3880100011", "name": "USPS COLLECTION BOX - BLUE BOX", "address": {"city": "TUPELO", "state": "MS", "street": "1714 N GLOSTER ST", "postcode": "38801"}}},
{"geometry": {"type": "Point", "coordinates": [-88.7060264282, 34.3275729366]}, "type": "Feature", "properties": {"collection_times": [{"days": "Mon-Sat", "time": "11:00am"}, {"days": "Sun", "time": "Closed"}], "id": "3880100013", "name": "USPS COLLECTION BOX - BLUE BOX", "address": {"city": "TUPELO", "state": "MS", "street": "3883 N GLOSTER ST", "postcode": "38801"}}},
{"geometry": {"type": "Point", "coordinates": [-88.7163842198, 34.2502894972]}, "type": "Feature", "properties": {"collection_times": [{"days": "Mon-Fri", "time": "10:30am"}, {"days": "Sat", "time": "10:00am"}, {"days": "Sun", "time": "Closed"}], "id": "3880100019", "name": "USPS COLLECTION BOX - BLUE BOX", "address": {"city": "TUPELO", "state": "MS", "street": "499 S GLOSTER ST", "postcode": "38801"}}},
{"geometry": {"type": "Point", "coordinates": [-88.7163842198, 34.2502894972]}, "type": "Feature", "properties": {"collection_times": [{"days": "Mon-Fri", "time": "10:30am"}, {"days": "Sat", "time": "10:00am"}, {"days": "Sun", "time": "Closed"}], "id": "3880100020", "name": "USPS COLLECTION BOX - BLUE BOX", "address": {"city": "TUPELO", "state": "MS", "street": "499 S GLOSTER ST", "postcode": "38801"}}},
{"geometry": {"type": "Point", "coordinates": [-88.7234074467, 34.2299404464]}, "type": "Feature", "properties": {"collection_times": [{"days": "Mon-Fri", "time": "1:00pm"}, {"days": "Sat", "time": "11:00am"}, {"days": "Sun", "time": "Closed"}], "id": "3880100031", "name": "USPS COLLECTION BOX - BLUE BOX", "address": {"city": "TUPELO", "state": "MS", "street": "1040 CLIFF GOOKIN BLVD", "postcode": "38801"}}},
{"geometry": {"type": "Point", "coordinates": [-88.7112556255, 34.2573892027]}, "type": "Feature", "properties": {"collection_times": [{"days": "Mon-Fri", "time": "5:00pm"}, {"days": "Sat", "time": "11:00am"}, {"days": "Sun", "time": "Closed"}], "id": "3880100052", "name": "USPS COLLECTION BOX - BLUE BOX", "address": {"city": "TUPELO", "state": "MS", "street": "500 W MAIN ST", "postcode": "38801"}}},
{"geometry": {"type": "Point", "coordinates": [-88.7112556255, 34.2573892027]}, "type": "Feature", "properties": {"collection_times": [{"days": "Mon-Fri", "time": "5:00pm"}, {"days": "Sat", "time": "11:00am"}, {"days": "Sun", "time": "Closed"}], "id": "3880100054", "name": "USPS COLLECTION BOX - BLUE BOX", "address": {"city": "TUPELO", "state": "MS", "street": "500 W MAIN ST", "postcode": "38801"}}},
{"geometry": {"type": "Point", "coordinates": [-88.7112556255, 34.2573892027]}, "type": "Feature", "properties": {"collection_times": [{"days": "Mon-Fri", "time": "5:00pm"}, {"days": "Sat", "time": "11:00am"}, {"days": "Sun", "time": "Closed"}], "id": "3880100056", "name": "USPS COLLECTION BOX - BLUE BOX", "address": {"city": "TUPELO", "state": "MS", "street": "500 W MAIN ST", "postcode": "38801"}}},
{"geometry": {"type": "Point", "coordinates": [-88.7112556255, 34.2573892027]}, "type": "Feature", "properties": {"collection_times": [{"days": "Mon-Fri", "time": "5:00pm"}, {"days": "Sat", "time": "11:00am"}, {"days": "Sun", "time": "Closed"}], "id": "3880100057", "name": "USPS COLLECTION BOX - BLUE BOX", "address": {"city": "TUPELO", "state": "MS", "street": "500 W MAIN ST", "postcode": "38801"}}},
{"geometry": {"type": "Point", "coordinates": [-88.7112556255, 34.2573892027]}, "type": "Feature", "properties": {"collection_times": [{"days": "Mon-Fri", "time": "5:00pm"}, {"days": "Sat-Sun", "time": "Closed"}], "id": "3880100059", "name": "USPS COLLECTION BOX - PO LOBBY", "address": {"city": "TUPELO", "state": "MS", "street": "500 W MAIN ST", "postcode": "38801"}}},
{"geometry": {"type": "Point", "coordinates": [-88.7112556255, 34.2573892027]}, "type": "Feature", "properties": {"collection_times": [{"days": "Mon-Fri", "time": "5:00pm"}, {"days": "Sat-Sun", "time": "Closed"}], "id": "3880100062", "name": "USPS COLLECTION BOX - PO LOBBY", "address": {"city": "TUPELO", "state": "MS", "street": "500 W MAIN ST", "postcode": "38801"}}},
{"geometry": {"type": "Point", "coordinates": [-88.7043682271, 34.2575748482]}, "type": "Feature", "properties": {"collection_times": [{"days": "Mon-Fri", "time": "2:00pm"}, {"days": "Sat", "time": "12:00pm"}, {"days": "Sun", "time": "Closed"}], "id": "3880100063", "name": "USPS COLLECTION BOX - BLUE BOX", "address": {"city": "TUPELO", "state": "MS", "street": "114 N SPRING ST", "postcode": "38801"}}},
{"geometry": {"type": "Point", "coordinates": [-88.7044916695, 34.25927449]}, "type": "Feature", "properties": {"collection_times": [{"days": "Mon-Fri", "time": "2:00pm"}, {"days": "Sat", "time": "12:00pm"}, {"days": "Sun", "time": "Closed"}], "id": "3880100065", "name": "USPS COLLECTION BOX - BLUE BOX", "address": {"city": "TUPELO", "state": "MS", "street": "200 W JEFFERSON ST", "postcode": "38801"}}},
{"geometry": {"type": "Point", "coordinates": [-88.7052760692, 34.2572988168]}, "type": "Feature", "properties": {"collection_times": [{"days": "Mon-Fri", "time": "2:00pm"}, {"days": "Sat", "time": "12:00pm"}, {"days": "Sun", "time": "Closed"}], "id": "3880100068", "name": "USPS COLLECTION BOX - BLUE BOX", "address": {"city": "TUPELO", "state": "MS", "street": "115 S BROADWAY ST", "postcode": "38801"}}},
{"geometry": {"type": "Point", "coordinates": [-88.707034756, 34.2574739287]}, "type": "Feature", "properties": {"collection_times": [{"days": "Mon-Fri", "time": "2:00pm"}, {"days": "Sat", "time": "12:00pm"}, {"days": "Sun", "time": "Closed"}], "id": "3880100070", "name": "USPS COLLECTION BOX - BLUE BOX", "address": {"city": "TUPELO", "state": "MS", "street": "300 W MAIN ST", "postcode": "38801"}}},
{"geometry": {"type": "Point", "coordinates": [-88.6856257658, 34.2451784491]}, "type": "Feature", "properties": {"collection_times": [{"days": "Mon-Sat", "time": "10:00am"}, {"days": "Sun", "time": "Closed"}], "id": "3880100073", "name": "USPS COLLECTION BOX - BLUE BOX", "address": {"city": "TUPELO", "state": "MS", "street": "2653 S EASON BLVD", "postcode": "38801"}}},
{"geometry": {"type": "Point", "coordinates": [-88.720755546, 34.2572009074]}, "type": "Feature", "properties": {"collection_times": [{"days": "Mon-Fri", "time": "1:00pm"}, {"days": "Sat", "time": "12:00pm"}, {"days": "Sun", "time": "Closed"}], "id": "3880100074", "name": "USPS COLLECTION BOX - BLUE BOX", "address": {"city": "TUPELO", "state": "MS", "street": "1003 E MAIN ST", "postcode": "38801"}}},
{"geometry": {"type": "Point", "coordinates": [-88.7133477856, 34.2408867015]}, "type": "Feature", "properties": {"collection_times": [{"days": "Mon-Fri", "time": "11:00am"}, {"days": "Sat", "time": "10:00am"}, {"days": "Sun", "time": "Closed"}], "id": "3880100080", "name": "USPS COLLECTION BOX - BLUE BOX", "address": {"city": "TUPELO", "state": "MS", "street": "615 PEGRAM DR", "postcode": "38801"}}},
{"geometry": {"type": "Point", "coordinates": [-88.7133477856, 34.2408867015]}, "type": "Feature", "properties": {"collection_times": [{"days": "Mon-Fri", "time": "11:00am"}, {"days": "Sat", "time": "10:00am"}, {"days": "Sun", "time": "Closed"}], "id": "3880100084", "name": "USPS COLLECTION BOX - BLUE BOX", "address": {"city": "TUPELO", "state": "MS", "street": "615 PEGRAM DR", "postcode": "38801"}}},
{"geometry": {"type": "Point", "coordinates": [-88.717731832, 34.2427584673]}, "type": "Feature", "properties": {"collection_times": [{"days": "Mon-Fri", "time": "9:30am"}, {"days": "Sat-Sun", "time": "Closed"}], "id": "3880100085", "name": "USPS COLLECTION BOX - BLUE BOX", "address": {"city": "TUPELO", "state": "MS", "street": "830 S GLOSTER ST", "postcode": "38801"}}},
{"geometry": {"type": "Point", "coordinates": [-88.7029039834, 34.315508614]}, "type": "Feature", "properties": {"collection_times": [{"days": "Mon-Sat", "time": "9:00am"}, {"days": "Sun", "time": "Closed"}], "id": "3880100091", "name": "USPS COLLECTION BOX - BLUE BOX", "address": {"city": "TUPELO", "state": "MS", "street": "1001 BARNES CROSSING RD", "postcode": "38801"}}},
{"geometry": {"type": "Point", "coordinates": [-88.7486162517, 34.2547224553]}, "type": "Feature", "properties": {"collection_times": [{"days": "Mon-Sat", "time": "10:00am"}, {"days": "Sun", "time": "Closed"}], "id": "3880100092", "name": "USPS COLLECTION BOX - BLUE BOX", "address": {"city": "TUPELO", "state": "MS", "street": "2601 W MAIN ST", "postcode": "38801"}}},
{"geometry": {"type": "Point", "coordinates": [-88.7239171629, 34.213359096]}, "type": "Feature", "properties": {"collection_times": [{"days": "Mon-Fri", "time": "1:00pm"}, {"days": "Sat", "time": "11:00am"}, {"days": "Sun", "time": "Closed"}], "id": "3880100093", "name": "USPS COLLECTION BOX - BLUE BOX", "address": {"city": "TUPELO", "state": "MS", "street": "2505 S GREEN ST", "postcode": "38801"}}},
{"geometry": {"type": "Point", "coordinates": [-88.746391788, 34.2533367662]}, "type": "Feature", "properties": {"collection_times": [{"days": "Mon-Sat", "time": "6:00pm"}, {"days": "Sun", "time": "Closed"}], "id": "3880100094", "name": "USPS COLLECTION BOX - PO LOBBY", "address": {"city": "TUPELO", "state": "MS", "street": "362 S THOMAS ST", "postcode": "38801"}}},
{"geometry": {"type": "Point", "coordinates": [-88.746391788, 34.2533367662]}, "type": "Feature", "properties": {"collection_times": [{"days": "Mon-Sat", "time": "6:00pm"}, {"days": "Sun", "time": "Closed"}], "id": "3880100095", "name": "USPS COLLECTION BOX - PO LOBBY", "address": {"city": "TUPELO", "state": "MS", "street": "362 S THOMAS ST", "postcode": "38801"}}},
{"geometry": {"type": "Point", "coordinates": [-88.746391788, 34.2533367662]}, "type": "Feature", "properties": {"collection_times": [{"days": "Mon-Sat", "time": "6:00pm"}, {"days": "Sun", "time": "Closed"}], "id": "3880100096", "name": "USPS COLLECTION BOX - PO LOBBY", "address": {"city": "TUPELO", "state": "MS", "street": "362 S THOMAS ST", "postcode": "38801"}}},
{"geometry": {"type": "Point", "coordinates": [-88.746391788, 34.2533367662]}, "type": "Feature", "properties": {"collection_times": [{"days": "Mon-Sat", "time": "6:00pm"}, {"days": "Sun", "time": "Closed"}], "id": "3880100097", "name": "USPS COLLECTION BOX - PO LOBBY", "address": {"city": "TUPELO", "state": "MS", "street": "362 S THOMAS ST", "postcode": "38801"}}},
{"geometry": {"type": "Point", "coordinates": [-88.7042238712, 34.3156004225]}, "type": "Feature", "properties": {"collection_times": [{"days": "Mon-Sat", "time": "10:00am"}, {"days": "Sun", "time": "Closed"}], "id": "3880100098", "name": "USPS COLLECTION BOX - BLUE BOX", "address": {"city": "TUPELO", "state": "MS", "street": "930 BARNES CROSSING RD", "postcode": "38801"}}},
{"geometry": {"type": "Point", "coordinates": [-88.7112556255, 34.2573892027]}, "type": "Feature", "properties": {"collection_times": [{"days": "Mon-Fri", "time": "5:00pm"}, {"days": "Sat", "time": "11:00am"}, {"days": "Sun", "time": "Closed"}], "id": "3880100101", "name": "USPS COLLECTION BOX - BLUE BOX", "address": {"city": "TUPELO", "state": "MS", "street": "500 W MAIN ST", "postcode": "38801"}}},
{"geometry": {"type": "Point", "coordinates": [-88.7044916695, 34.25927449]}, "type": "Feature", "properties": {"collection_times": [{"days": "Mon-Fri", "time": "2:00pm"}, {"days": "Sat", "time": "12:00pm"}, {"days": "Sun", "time": "Closed"}], "id": "3880100102", "name": "USPS COLLECTION BOX - BLUE BOX", "address": {"city": "TUPELO", "state": "MS", "street": "200 W JEFFERSON ST", "postcode": "38801"}}},
{"geometry": {"type": "Point", "coordinates": [-88.7348159195, 34.2835026196]}, "type": "Feature", "properties": {"collection_times": [{"days": "Mon-Sat", "time": "11:00am"}, {"days": "Sun", "time": "Closed"}], "id": "3880100105", "name": "USPS COLLECTION BOX - BLUE BOX", "address": {"city": "TUPELO", "state": "MS", "street": "1718 MCCULLOUGH BLVD", "postcode": "38801"}}},
{"geometry": {"type": "Point", "coordinates": [-88.7723929836, 34.2166680902]}, "type": "Feature", "properties": {"collection_times": [{"days": "Mon-Fri", "time": "1:30pm"}, {"days": "Sat", "time": "12:00pm"}, {"days": "Sun", "time": "Closed"}], "id": "3880100106", "name": "USPS COLLECTION BOX - BLUE BOX", "address": {"city": "TUPELO", "state": "MS", "street": "71 TROY ST", "postcode": "38801"}}},
{"geometry": {"type": "Point", "coordinates": [-88.7112556255, 34.2573892027]}, "type": "Feature", "properties": {"collection_times": [{"days": "Mon-Fri", "time": "5:00pm"}, {"days": "Sat", "time": "11:00am"}, {"days": "Sun", "time": "Closed"}], "id": "3880100107", "name": "USPS COLLECTION BOX - BLUE BOX", "address": {"city": "TUPELO", "state": "MS", "street": "500 W MAIN ST", "postcode": "38801"}}},
{"geometry": {"type": "Point", "coordinates": [-88.7124053987, 34.2302321092]}, "type": "Feature", "properties": {"collection_times": [{"days": "Mon-Sat", "time": "9:30am"}, {"days": "Sun", "time": "Closed"}], "id": "3880100109", "name": "USPS COLLECTION BOX - BLUE BOX", "address": {"city": "TUPELO", "state": "MS", "street": "1150 S GREEN ST", "postcode": "38801"}}},
{"geometry": {"type": "Point", "coordinates": [-89.0317910474, 34.1739805651]}, "type": "Feature", "properties": {"collection_times": [{"days": "Mon-Fri", "time": "3:15pm"}, {"days": "Sat", "time": "9:45am"}, {"days": "Sun", "time": "Closed"}], "id": "3882000000", "name": "USPS COLLECTION BOX - BLUE BOX", "address": {"city": "ALGOMA", "state": "MS", "street": "5 MAIN AVE", "postcode": "38820"}}},
{"geometry": {"type": "Point", "coordinates": [-89.0317910474, 34.1739805651]}, "type": "Feature", "properties": {"collection_times": [{"days": "Mon-Fri", "time": "2:30pm"}, {"days": "Sat-Sun", "time": "Closed"}], "id": "3882000001", "name": "USPS COLLECTION BOX - PO LOBBY", "address": {"city": "ALGOMA", "state": "MS", "street": "5 MAIN AVE", "postcode": "38820"}}},
{"geometry": {"type": "Point", "coordinates": [-88.4888496342, 33.9855065125]}, "type": "Feature", "properties": {"collection_times": [{"days": "Mon-Fri", "time": "4:30pm"}, {"days": "Sat", "time": "4:00pm"}, {"days": "Sun", "time": "Closed"}], "id": "3882100000", "name": "USPS COLLECTION BOX - BLUE BOX", "address": {"city": "AMORY", "state": "MS", "street": "215 1ST AVE", "postcode": "38821"}}},
{"geometry": {"type": "Point", "coordinates": [-88.4888496342, 33.9855065125]}, "type": "Feature", "properties": {"collection_times": [{"days": "Mon-Fri", "time": "4:30pm"}, {"days": "Sat", "time": "4:00pm"}, {"days": "Sun", "time": "Closed"}], "id": "3882100001", "name": "USPS COLLECTION BOX - BLUE BOX", "address": {"city": "AMORY", "state": "MS", "street": "215 1ST AVE", "postcode": "38821"}}},
{"geometry": {"type": "Point", "coordinates": [-88.4888496342, 33.9855065125]}, "type": "Feature", "properties": {"collection_times": [{"days": "Mon-Fri", "time": "4:45pm"}, {"days": "Sat", "time": "4:00pm"}, {"days": "Sun", "time": "Closed"}], "id": "3882100002", "name": "USPS COLLECTION BOX - PO LOBBY", "address": {"city": "AMORY", "state": "MS", "street": "215 1ST AVE", "postcode": "38821"}}},
{"geometry": {"type": "Point", "coordinates": [-88.4910607894, 33.9970273176]}, "type": "Feature", "properties": {"collection_times": [{"days": "Mon-Sat", "time": "3:00pm"}, {"days": "Sun", "time": "Closed"}], "id": "3882100004", "name": "USPS COLLECTION BOX - BLUE BOX", "address": {"city": "AMORY", "state": "MS", "street": "1204 HIGHWAY 25 S", "postcode": "38821"}}},
{"geometry": {"type": "Point", "coordinates": [-88.4601750339, 33.9685395553]}, "type": "Feature", "properties": {"collection_times": [{"days": "Mon-Sat", "time": "1:00pm"}, {"days": "Sun", "time": "Closed"}], "id": "3882100007", "name": "USPS COLLECTION BOX - BLUE BOX", "address": {"city": "AMORY", "state": "MS", "street": "1515 HIGHWAY 278 E", "postcode": "38821"}}},
{"geometry": {"type": "Point", "coordinates": [-88.4825814398, 33.9792283403]}, "type": "Feature", "properties": {"collection_times": [{"days": "Mon-Sat", "time": "9:00am"}, {"days": "Sun", "time": "Closed"}], "id": "3882100014", "name": "USPS COLLECTION BOX - BLUE BOX", "address": {"city": "AMORY", "state": "MS", "street": "715 3RD ST S", "postcode": "38821"}}},
{"geometry": {"type": "Point", "coordinates": [-88.491731089, 33.99431852]}, "type": "Feature", "properties": {"collection_times": [{"days": "Mon-Sat", "time": "1:00pm"}, {"days": "Sun", "time": "Closed"}], "id": "3882100015", "name": "USPS COLLECTION BOX - BLUE BOX", "address": {"city": "AMORY", "state": "MS", "street": "105 HIGHWAY 6 N", "postcode": "38821"}}},
{"geometry": {"type": "Point", "coordinates": [-88.477097576, 33.980582192]}, "type": "Feature", "properties": {"collection_times": [{"days": "Mon-Sat", "time": "2:00pm"}, {"days": "Sun", "time": "Closed"}], "id": "3882100016", "name": "USPS COLLECTION BOX - BLUE BOX", "address": {"city": "AMORY", "state": "MS", "street": "905 HIGHWAY 278 E", "postcode": "38821"}}},
{"geometry": {"type": "Point", "coordinates": [-88.6349586572, 34.5096154381]}, "type": "Feature", "properties": {"collection_times": [{"days": "Mon-Fri", "time": "4:30pm"}, {"days": "Sat", "time": "10:00am"}, {"days": "Sun", "time": "Closed"}], "id": "3882400000", "name": "USPS COLLECTION BOX - BLUE BOX", "address": {"city": "BALDWYN", "state": "MS", "street": "205 W MAIN ST", "postcode": "38824"}}},
{"geometry": {"type": "Point", "coordinates": [-88.6347518552, 34.5095667581]}, "type": "Feature", "properties": {"collection_times": [{"days": "Mon-Fri", "time": "4:30pm"}, {"days": "Sat", "time": "10:00am"}, {"days": "Sun", "time": "Closed"}], "id": "3882400001", "name": "USPS COLLECTION BOX - BLUE BOX", "address": {"city": "BALDWYN", "state": "MS", "street": "205 W MAIN ST", "postcode": "38824"}}},
{"geometry": {"type": "Point", "coordinates": [-88.6349586572, 34.5096154381]}, "type": "Feature", "properties": {"collection_times": [{"days": "Mon-Fri", "time": "4:30pm"}, {"days": "Sat", "time": "10:00am"}, {"days": "Sun", "time": "Closed"}], "id": "3882400002", "name": "USPS COLLECTION BOX - PO LOBBY", "address": {"city": "BALDWYN", "state": "MS", "street": "205 W MAIN ST", "postcode": "38824"}}},
{"geometry": {"type": "Point", "coordinates": [-88.5212450793, 34.0178221237]}, "type": "Feature", "properties": {"collection_times": [{"days": "Mon-Fri", "time": "3:10pm"}, {"days": "Sat", "time": "9:45am"}, {"days": "Sun", "time": "Closed"}], "id": "3882500001", "name": "USPS COLLECTION BOX - BLUE BOX", "address": {"city": "BECKER", "state": "MS", "street": "52188 HIGHWAY 25 S", "postcode": "38825"}}},
{"geometry": {"type": "Point", "coordinates": [-88.5212450793, 34.0178221237]}, "type": "Feature", "properties": {"collection_times": [{"days": "Mon-Fri", "time": "11:30am"}, {"days": "Sat", "time": "9:45am"}, {"days": "Sun", "time": "Closed"}], "id": "3882500002", "name": "USPS COLLECTION BOX - PO LOBBY", "address": {"city": "BECKER", "state": "MS", "street": "52188 HIGHWAY 25 S", "postcode": "38825"}}},
{"geometry": {"type": "Point", "coordinates": [-88.8095503345, 34.3401650967]}, "type": "Feature", "properties": {"collection_times": [{"days": "Mon-Fri", "time": "3:40pm"}, {"days": "Sat", "time": "9:40am"}, {"days": "Sun", "time": "Closed"}], "id": "3882600001", "name": "USPS COLLECTION BOX - BLUE BOX", "address": {"city": "BELDEN", "state": "MS", "street": "3871 MCCULLOUGH BLVD", "postcode": "38826"}}},
{"geometry": {"type": "Point", "coordinates": [-88.8095503345, 34.3401650967]}, "type": "Feature", "properties": {"collection_times": [{"days": "Mon-Fri", "time": "4:25pm"}, {"days": "Sat", "time": "9:55am"}, {"days": "Sun", "time": "Closed"}], "id": "3882600002", "name": "USPS COLLECTION BOX - PO LOBBY", "address": {"city": "BELDEN", "state": "MS", "street": "3871 MCCULLOUGH BLVD", "postcode": "38826"}}},
{"geometry": {"type": "Point", "coordinates": [-88.210755059, 34.5112391275]}, "type": "Feature", "properties": {"collection_times": [{"days": "Mon-Fri", "time": "4:00pm"}, {"days": "Sat", "time": "12:00pm"}, {"days": "Sun", "time": "Closed"}], "id": "3882700001", "name": "USPS COLLECTION BOX - PO LOBBY", "address": {"city": "BELMONT", "state": "MS", "street": "363 2ND ST", "postcode": "38827"}}},
{"geometry": {"type": "Point", "coordinates": [-88.210755059, 34.5112391275]}, "type": "Feature", "properties": {"collection_times": [{"days": "Mon-Fri", "time": "4:00pm"}, {"days": "Sat", "time": "12:00pm"}, {"days": "Sun", "time": "Closed"}], "id": "3882700002", "name": "USPS COLLECTION BOX - BLUE BOX", "address": {"city": "BELMONT", "state": "MS", "street": "363 2ND ST", "postcode": "38827"}}},
{"geometry": {"type": "Point", "coordinates": [-88.874525434, 34.3980394751]}, "type": "Feature", "properties": {"collection_times": [{"days": "Mon-Fri", "time": "3:45pm"}, {"days": "Sat", "time": "10:15am"}, {"days": "Sun", "time": "Closed"}], "id": "3882800001", "name": "USPS COLLECTION BOX - BLUE BOX", "address": {"city": "BLUE SPRINGS", "state": "MS", "street": "1146 HIGHWAY 9 S", "postcode": "38828"}}},
{"geometry": {"type": "Point", "coordinates": [-88.874525434, 34.3980394751]}, "type": "Feature", "properties": {"collection_times": [{"days": "Mon-Fri", "time": "2:00pm"}, {"days": "Sat", "time": "10:15am"}, {"days": "Sun", "time": "Closed"}], "id": "3882800002", "name": "USPS COLLECTION BOX - PO LOBBY", "address": {"city": "BLUE SPRINGS", "state": "MS", "street": "1146 HIGHWAY 9 S", "postcode": "38828"}}},
{"geometry": {"type": "Point", "coordinates": [-88.566309599, 34.6637981983]}, "type": "Feature", "properties": {"collection_times": [{"days": "Mon-Fri", "time": "4:30pm"}, {"days": "Sat", "time": "4:00pm"}, {"days": "Sun", "time": "Closed"}], "id": "3882900000", "name": "USPS COLLECTION BOX - BLUE BOX", "address": {"city": "BOONEVILLE", "state": "MS", "street": "515 N 2ND ST", "postcode": "38829"}}},
{"geometry": {"type": "Point", "coordinates": [-88.566309599, 34.6637981983]}, "type": "Feature", "properties": {"collection_times": [{"days": "Mon-Fri", "time": "4:30pm"}, {"days": "Sat", "time": "4:00pm"}, {"days": "Sun", "time": "Closed"}], "id": "3882900001", "name": "USPS COLLECTION BOX - BLUE BOX", "address": {"city": "BOONEVILLE", "state": "MS", "street": "515 N 2ND ST", "postcode": "38829"}}},
{"geometry": {"type": "Point", "coordinates": [-88.566309599, 34.6637981983]}, "type": "Feature", "properties": {"collection_times": [{"days": "Mon-Fri", "time": "4:30pm"}, {"days": "Sat", "time": "4:00pm"}, {"days": "Sun", "time": "Closed"}], "id": "3882900002", "name": "USPS COLLECTION BOX - BLUE BOX", "address": {"city": "BOONEVILLE", "state": "MS", "street": "515 N 2ND ST", "postcode": "38829"}}},
{"geometry": {"type": "Point", "coordinates": [-88.5645558362, 34.6563281444]}, "type": "Feature", "properties": {"collection_times": [{"days": "Mon-Fri", "time": "3:45pm"}, {"days": "Sat", "time": "3:00pm"}, {"days": "Sun", "time": "Closed"}], "id": "3882900003", "name": "USPS COLLECTION BOX - BLUE BOX", "address": {"city": "BOONEVILLE", "state": "MS", "street": "100 S 1ST ST", "postcode": "38829"}}},
{"geometry": {"type": "Point", "coordinates": [-88.5645558362, 34.6563281444]}, "type": "Feature", "properties": {"collection_times": [{"days": "Mon-Fri", "time": "3:45pm"}, {"days": "Sat", "time": "3:00pm"}, {"days": "Sun", "time": "Closed"}], "id": "3882900004", "name": "USPS COLLECTION BOX - BLUE BOX", "address": {"city": "BOONEVILLE", "state": "MS", "street": "100 S 1ST ST", "postcode": "38829"}}},
{"geometry": {"type": "Point", "coordinates": [-88.566309599, 34.6637981983]}, "type": "Feature", "properties": {"collection_times": [{"days": "Mon-Fri", "time": "4:45pm"}, {"days": "Sat", "time": "4:00pm"}, {"days": "Sun", "time": "Closed"}], "id": "3882900017", "name": "USPS COLLECTION BOX - PO LOBBY", "address": {"city": "BOONEVILLE", "state": "MS", "street": "515 N 2ND ST", "postcode": "38829"}}},
{"geometry": {"type": "Point", "coordinates": [-88.566309599, 34.6637981983]}, "type": "Feature", "properties": {"collection_times": [{"days": "Mon-Fri", "time": "4:45pm"}, {"days": "Sat", "time": "4:00pm"}, {"days": "Sun", "time": "Closed"}], "id": "3882900018", "name": "USPS COLLECTION BOX - PO LOBBY", "address": {"city": "BOONEVILLE", "state": "MS", "street": "515 N 2ND ST", "postcode": "38829"}}},
{"geometry": {"type": "Point", "coordinates": [-88.3165940048, 34.8353605058]}, "type": "Feature", "properties": {"collection_times": [{"days": "Mon-Fri", "time": "3:55pm"}, {"days": "Sat", "time": "9:00am"}, {"days": "Sun", "time": "Closed"}], "id": "3883300001", "name": "USPS COLLECTION BOX - BLUE BOX", "address": {"city": "BURNSVILLE", "state": "MS", "street": "318 HIGHWAY 72", "postcode": "38833"}}},
{"geometry": {"type": "Point", "coordinates": [-88.3165940048, 34.8353605058]}, "type": "Feature", "properties": {"collection_times": [{"days": "Mon-Fri", "time": "2:30pm"}, {"days": "Sat", "time": "9:30am"}, {"days": "Sun", "time": "Closed"}], "id": "3883300002", "name": "USPS COLLECTION BOX - PO LOBBY", "address": {"city": "BURNSVILLE", "state": "MS", "street": "318 HIGHWAY 72", "postcode": "38833"}}},
{"geometry": {"type": "Point", "coordinates": [-88.5160343254, 34.9339786703]}, "type": "Feature", "properties": {"collection_times": [{"days": "Mon-Fri", "time": "5:00pm"}, {"days": "Sat", "time": "4:00pm"}, {"days": "Sun", "time": "Closed"}], "id": "3883400001", "name": "USPS COLLECTION BOX - BLUE BOX", "address": {"city": "CORINTH", "state": "MS", "street": "500 N MADISON ST", "postcode": "38834"}}},
{"geometry": {"type": "Point", "coordinates": [-88.5160343254, 34.9339786703]}, "type": "Feature", "properties": {"collection_times": [{"days": "Mon-Fri", "time": "5:00pm"}, {"days": "Sat", "time": "4:00pm"}, {"days": "Sun", "time": "Closed"}], "id": "3883400002", "name": "USPS COLLECTION BOX - PO LOBBY", "address": {"city": "CORINTH", "state": "MS", "street": "500 N MADISON ST", "postcode": "38834"}}},
{"geometry": {"type": "Point", "coordinates": [-88.5160343254, 34.9339786703]}, "type": "Feature", "properties": {"collection_times": [{"days": "Mon-Fri", "time": "5:00pm"}, {"days": "Sat", "time": "4:00pm"}, {"days": "Sun", "time": "Closed"}], "id": "3883400047", "name": "USPS COLLECTION BOX - PO LOBBY", "address": {"city": "CORINTH", "state": "MS", "street": "500 N MADISON ST", "postcode": "38834"}}},
{"geometry": {"type": "Point", "coordinates": [-88.5615712259, 34.9333121179]}, "type": "Feature", "properties": {"collection_times": [{"days": "Mon-Sat", "time": "10:00am"}, {"days": "Sun", "time": "Closed"}], "id": "3883400048", "name": "USPS COLLECTION BOX - BLUE BOX", "address": {"city": "CORINTH", "state": "MS", "street": "3600 TININ DR", "postcode": "38834"}}},
{"geometry": {"type": "Point", "coordinates": [-88.5266874808, 34.9366879785]}, "type": "Feature", "properties": {"collection_times": [{"days": "Mon-Sat", "time": "10:00am"}, {"days": "Sun", "time": "Closed"}], "id": "3883400049", "name": "USPS COLLECTION BOX - BLUE BOX", "address": {"city": "CORINTH", "state": "MS", "street": "405 W WALDRON ST", "postcode": "38834"}}},
{"geometry": {"type": "Point", "coordinates": [-88.5160343254, 34.9339786703]}, "type": "Feature", "properties": {"collection_times": [{"days": "Mon-Fri", "time": "5:00pm"}, {"days": "Sat", "time": "4:00pm"}, {"days": "Sun", "time": "Closed"}], "id": "3883400050", "name": "USPS COLLECTION BOX - BLUE BOX", "address": {"city": "CORINTH", "state": "MS", "street": "500 N MADISON ST", "postcode": "38834"}}},
{"geometry": {"type": "Point", "coordinates": [-88.5160343254, 34.9339786703]}, "type": "Feature", "properties": {"collection_times": [{"days": "Mon-Fri", "time": "5:00pm"}, {"days": "Sat", "time": "4:00pm"}, {"days": "Sun", "time": "Closed"}], "id": "3883400051", "name": "USPS COLLECTION BOX - BLUE BOX", "address": {"city": "CORINTH", "state": "MS", "street": "500 N MADISON ST", "postcode": "38834"}}},
{"geometry": {"type": "Point", "coordinates": [-88.2278450291, 34.5586290708]}, "type": "Feature", "properties": {"collection_times": [{"days": "Mon-Fri", "time": "12:00pm"}, {"days": "Sat", "time": "10:00am"}, {"days": "Sun", "time": "Closed"}], "id": "3883800001", "name": "USPS COLLECTION BOX - PO LOBBY", "address": {"city": "DENNIS", "state": "MS", "street": "744 HIGHWAY 4", "postcode": "38838"}}},
{"geometry": {"type": "Point", "coordinates": [-88.2278450291, 34.5586290708]}, "type": "Feature", "properties": {"collection_times": [{"days": "Mon-Fri", "time": "4:00pm"}, {"days": "Sat", "time": "10:00am"}, {"days": "Sun", "time": "Closed"}], "id": "3883800002", "name": "USPS COLLECTION BOX - BLUE BOX", "address": {"city": "DENNIS", "state": "MS", "street": "744 HIGHWAY 4", "postcode": "38838"}}},
{"geometry": {"type": "Point", "coordinates": [-88.2259037951, 34.5584773094]}, "type": "Feature", "properties": {"collection_times": [{"days": "Mon-Sat", "time": "12:00pm"}, {"days": "Sun", "time": "Closed"}], "id": "3883800003", "name": "USPS COLLECTION BOX - BLUE BOX", "address": {"city": "DENNIS", "state": "MS", "street": "732 HIGHWAY 25", "postcode": "38838"}}},
{"geometry": {"type": "Point", "coordinates": [-89.2833539372, 33.8550360789]}, "type": "Feature", "properties": {"collection_times": [{"days": "Mon-Fri", "time": "3:30pm"}, {"days": "Sat", "time": "8:30am"}, {"days": "Sun", "time": "Closed"}], "id": "3883900001", "name": "USPS COLLECTION BOX - BLUE BOX", "address": {"city": "DERMA", "state": "MS", "street": "115 S MAIN ST", "postcode": "38839"}}},
{"geometry": {"type": "Point", "coordinates": [-89.2833539372, 33.8550360789]}, "type": "Feature", "properties": {"collection_times": [{"days": "Mon-Fri", "time": "9:30am"}, {"days": "Sat", "time": "8:30am"}, {"days": "Sun", "time": "Closed"}], "id": "3883900002", "name": "USPS COLLECTION BOX - PO LOBBY", "address": {"city": "DERMA", "state": "MS", "street": "115 S MAIN ST", "postcode": "38839"}}},
{"geometry": {"type": "Point", "coordinates": [-88.8423920632, 34.3588868995]}, "type": "Feature", "properties": {"collection_times": [{"days": "Mon-Fri", "time": "4:00pm"}, {"days": "Sat", "time": "10:00am"}, {"days": "Sun", "time": "Closed"}], "id": "3884100001", "name": "USPS COLLECTION BOX - BLUE BOX", "address": {"city": "ECRU", "state": "MS", "street": "239 MAIN ST", "postcode": "38841"}}},
{"geometry": {"type": "Point", "coordinates": [-88.8423920632, 34.3588868995]}, "type": "Feature", "properties": {"collection_times": [{"days": "Mon-Fri", "time": "4:00pm"}, {"days": "Sat", "time": "10:00am"}, {"days": "Sun", "time": "Closed"}], "id": "3884100003", "name": "USPS COLLECTION BOX - PO LOBBY", "address": {"city": "ECRU", "state": "MS", "street": "239 MAIN ST", "postcode": "38841"}}},
{"geometry": {"type": "Point", "coordinates": [-88.4072611142, 34.2733877134]}, "type": "Feature", "properties": {"collection_times": [{"days": "Mon-Fri", "time": "4:30pm"}, {"days": "Sat", "time": "3:30pm"}, {"days": "Sun", "time": "Closed"}], "id": "3884300001", "name": "USPS COLLECTION BOX - BLUE BOX", "address": {"city": "FULTON", "state": "MS", "street": "103 E MAIN ST", "postcode": "38843"}}},
{"geometry": {"type": "Point", "coordinates": [-88.4072611142, 34.2733877134]}, "type": "Feature", "properties": {"collection_times": [{"days": "Mon-Fri", "time": "4:30pm"}, {"days": "Sat", "time": "3:30pm"}, {"days": "Sun", "time": "Closed"}], "id": "3884300002", "name": "USPS COLLECTION BOX - BLUE BOX", "address": {"city": "FULTON", "state": "MS", "street": "103 E MAIN ST", "postcode": "38843"}}},
{"geometry": {"type": "Point", "coordinates": [-88.4072611142, 34.2733877134]}, "type": "Feature", "properties": {"collection_times": [{"days": "Mon-Fri", "time": "4:30pm"}, {"days": "Sat", "time": "3:30pm"}, {"days": "Sun", "time": "Closed"}], "id": "3884300005", "name": "USPS COLLECTION BOX - PO LOBBY", "address": {"city": "FULTON", "state": "MS", "street": "103 E MAIN ST", "postcode": "38843"}}},
{"geometry": {"type": "Point", "coordinates": [-88.3774999973, 34.2644164121]}, "type": "Feature", "properties": {"collection_times": [{"days": "Mon-Sat", "time": "10:45am"}, {"days": "Sun", "time": "Closed"}], "id": "3884300006", "name": "USPS COLLECTION BOX - BLUE BOX", "address": {"city": "FULTON", "state": "MS", "street": "200 INTERCHANGE DR", "postcode": "38843"}}},
{"geometry": {"type": "Point", "coordinates": [-88.2515269818, 33.8845267864]}, "type": "Feature", "properties": {"collection_times": [{"days": "Mon-Fri", "time": "3:10pm"}, {"days": "Sat", "time": "9:00am"}, {"days": "Sun", "time": "Closed"}], "id": "3884400001", "name": "USPS COLLECTION BOX - BLUE BOX", "address": {"city": "GATTMAN", "state": "MS", "street": "52492 HIGHWAY 278 E", "postcode": "38844"}}},
{"geometry": {"type": "Point", "coordinates": [-88.2515269818, 33.8845267864]}, "type": "Feature", "properties": {"collection_times": [{"days": "Mon-Fri", "time": "11:20am"}, {"days": "Sat", "time": "9:00am"}, {"days": "Sun", "time": "Closed"}], "id": "3884400002", "name": "USPS COLLECTION BOX - PO LOBBY", "address": {"city": "GATTMAN", "state": "MS", "street": "52492 HIGHWAY 278 E", "postcode": "38844"}}},
{"geometry": {"type": "Point", "coordinates": [-88.3647160394, 34.8541303087]}, "type": "Feature", "properties": {"collection_times": [{"days": "Mon-Fri", "time": "3:45pm"}, {"days": "Sat", "time": "10:15am"}, {"days": "Sun", "time": "Closed"}], "id": "3884600001", "name": "USPS COLLECTION BOX - BLUE BOX", "address": {"city": "GLEN", "state": "MS", "street": "2430 HIGHWAY 72 E", "postcode": "38846"}}},
{"geometry": {"type": "Point", "coordinates": [-88.3647160394, 34.8541303087]}, "type": "Feature", "properties": {"collection_times": [{"days": "Mon-Fri", "time": "11:30am"}, {"days": "Sat", "time": "10:15am"}, {"days": "Sun", "time": "Closed"}], "id": "3884600002", "name": "USPS COLLECTION BOX - PO LOBBY", "address": {"city": "GLEN", "state": "MS", "street": "2430 HIGHWAY 72 E", "postcode": "38846"}}},
{"geometry": {"type": "Point", "coordinates": [-88.2375839308, 34.4091958256]}, "type": "Feature", "properties": {"collection_times": [{"days": "Mon-Fri", "time": "3:45pm"}, {"days": "Sat", "time": "11:00am"}, {"days": "Sun", "time": "Closed"}], "id": "3884700001", "name": "USPS COLLECTION BOX - BLUE BOX", "address": {"city": "GOLDEN", "state": "MS", "street": "195 FRONT ST", "postcode": "38847"}}},
{"geometry": {"type": "Point", "coordinates": [-88.2375839308, 34.4091958256]}, "type": "Feature", "properties": {"collection_times": [{"days": "Mon-Fri", "time": "1:00pm"}, {"days": "Sat", "time": "11:00am"}, {"days": "Sun", "time": "Closed"}], "id": "3884700002", "name": "USPS COLLECTION BOX - PO LOBBY", "address": {"city": "GOLDEN", "state": "MS", "street": "195 FRONT ST", "postcode": "38847"}}},
{"geometry": {"type": "Point", "coordinates": [-88.32293735, 33.8938536666]}, "type": "Feature", "properties": {"collection_times": [{"days": "Mon-Fri", "time": "1:30pm"}, {"days": "Sat", "time": "8:45am"}, {"days": "Sun", "time": "Closed"}], "id": "3884800001", "name": "USPS COLLECTION BOX - BLUE BOX", "address": {"city": "GREENWOOD SPRING", "state": "MS", "street": "52066 HWY 278 E", "postcode": "38848"}}},
{"geometry": {"type": "Point", "coordinates": [-88.32293735, 33.8938536666]}, "type": "Feature", "properties": {"collection_times": [{"days": "Mon-Fri", "time": "2:15pm"}, {"days": "Sat", "time": "8:45am"}, {"days": "Sun", "time": "Closed"}], "id": "3884800002", "name": "USPS COLLECTION BOX - PO LOBBY", "address": {"city": "GREENWOOD SPRING", "state": "MS", "street": "52066 HWY 278 E", "postcode": "38848"}}},
{"geometry": {"type": "Point", "coordinates": [-88.6600286115, 34.4415405889]}, "type": "Feature", "properties": {"collection_times": [{"days": "Mon-Fri", "time": "4:00pm"}, {"days": "Sat", "time": "8:15am"}, {"days": "Sun", "time": "Closed"}], "id": "3884900000", "name": "USPS COLLECTION BOX - BLUE BOX", "address": {"city": "GUNTOWN", "state": "MS", "street": "1660 MAIN ST", "postcode": "38849"}}},
{"geometry": {"type": "Point", "coordinates": [-88.6598583412, 34.4419009526]}, "type": "Feature", "properties": {"collection_times": [{"days": "Mon-Fri", "time": "3:00pm"}, {"days": "Sat", "time": "8:15am"}, {"days": "Sun", "time": "Closed"}], "id": "3884900001", "name": "USPS COLLECTION BOX - PO LOBBY", "address": {"city": "GUNTOWN", "state": "MS", "street": "1660 MAIN ST", "postcode": "38849"}}},
{"geometry": {"type": "Point", "coordinates": [-89.0224204597, 34.0377058686]}, "type": "Feature", "properties": {"collection_times": [{"days": "Mon-Fri", "time": "4:15pm"}, {"days": "Sat", "time": "9:45am"}, {"days": "Sun", "time": "Closed"}], "id": "3885000001", "name": "USPS COLLECTION BOX - BLUE BOX", "address": {"city": "HOULKA", "state": "MS", "street": "206 WALKER ST", "postcode": "38850"}}},
{"geometry": {"type": "Point", "coordinates": [-89.0224204597, 34.0377058686]}, "type": "Feature", "properties": {"collection_times": [{"days": "Mon-Fri", "time": "2:00pm"}, {"days": "Sat", "time": "9:00am"}, {"days": "Sun", "time": "Closed"}], "id": "3885000004", "name": "USPS COLLECTION BOX - PO LOBBY", "address": {"city": "HOULKA", "state": "MS", "street": "206 WALKER ST", "postcode": "38850"}}},
{"geometry": {"type": "Point", "coordinates": [-89.0003327813, 33.8997778432]}, "type": "Feature", "properties": {"collection_times": [{"days": "Mon-Fri", "time": "4:30pm"}, {"days": "Sat", "time": "2:30pm"}, {"days": "Sun", "time": "Closed"}], "id": "3885100001", "name": "USPS COLLECTION BOX - BLUE BOX", "address": {"city": "HOUSTON", "state": "MS", "street": "217 N JACKSON ST", "postcode": "38851"}}},
{"geometry": {"type": "Point", "coordinates": [-89.0003327813, 33.8997778432]}, "type": "Feature", "properties": {"collection_times": [{"days": "Mon-Fri", "time": "4:45pm"}, {"days": "Sat", "time": "2:30pm"}, {"days": "Sun", "time": "Closed"}], "id": "3885100002", "name": "USPS COLLECTION BOX - PO LOBBY", "address": {"city": "HOUSTON", "state": "MS", "street": "217 N JACKSON ST", "postcode": "38851"}}},
{"geometry": {"type": "Point", "coordinates": [-88.1972411964, 34.8133065061]}, "type": "Feature", "properties": {"collection_times": [{"days": "Mon-Fri", "time": "4:30pm"}, {"days": "Sat", "time": "11:00am"}, {"days": "Sun", "time": "Closed"}], "id": "3885200000", "name": "USPS COLLECTION BOX - BLUE BOX", "address": {"city": "IUKA", "state": "MS", "street": "801 W EASTPORT ST", "postcode": "38852"}}},
{"geometry": {"type": "Point", "coordinates": [-88.1972411964, 34.8133065061]}, "type": "Feature", "properties": {"collection_times": [{"days": "Mon-Fri", "time": "4:30pm"}, {"days": "Sat", "time": "11:00am"}, {"days": "Sun", "time": "Closed"}], "id": "3885200001", "name": "USPS COLLECTION BOX - BLUE BOX", "address": {"city": "IUKA", "state": "MS", "street": "801 W EASTPORT ST", "postcode": "38852"}}},
{"geometry": {"type": "Point", "coordinates": [-88.1972411964, 34.8133065061]}, "type": "Feature", "properties": {"collection_times": [{"days": "Mon-Fri", "time": "4:30pm"}, {"days": "Sat", "time": "11:00am"}, {"days": "Sun", "time": "Closed"}], "id": "3885200002", "name": "USPS COLLECTION BOX - PO LOBBY", "address": {"city": "IUKA", "state": "MS", "street": "801 W EASTPORT ST", "postcode": "38852"}}},
{"geometry": {"type": "Point", "coordinates": [-88.1903732838, 34.8112887021]}, "type": "Feature", "properties": {"collection_times": [{"days": "Mon-Fri", "time": "3:00pm"}, {"days": "Sat", "time": "9:30am"}, {"days": "Sun", "time": "Closed"}], "id": "3885200004", "name": "USPS COLLECTION BOX - BLUE BOX", "address": {"city": "IUKA", "state": "MS", "street": "127 E FRONT ST", "postcode": "38852"}}},
{"geometry": {"type": "Point", "coordinates": [-88.2031585806, 34.8034994269]}, "type": "Feature", "properties": {"collection_times": [{"days": "Mon-Fri", "time": "3:00pm"}, {"days": "Sat", "time": "9:30am"}, {"days": "Sun", "time": "Closed"}], "id": "3885200008", "name": "USPS COLLECTION BOX - BLUE BOX", "address": {"city": "IUKA", "state": "MS", "street": "1008 BATTLEGROUND DR", "postcode": "38852"}}},
{"geometry": {"type": "Point", "coordinates": [-88.205997714, 34.809773593]}, "type": "Feature", "properties": {"collection_times": [{"days": "Mon-Fri", "time": "3:00pm"}, {"days": "Sat", "time": "9:30am"}, {"days": "Sun", "time": "Closed"}], "id": "3885200009", "name": "USPS COLLECTION BOX - BLUE BOX", "address": {"city": "IUKA", "state": "MS", "street": "1413 W QUITMAN ST", "postcode": "38852"}}},
{"geometry": {"type": "Point", "coordinates": [-88.4646894103, 34.3599952242]}, "type": "Feature", "properties": {"collection_times": [{"days": "Mon-Fri", "time": "4:00pm"}, {"days": "Sat", "time": "10:00am"}, {"days": "Sun", "time": "Closed"}], "id": "3885500001", "name": "USPS COLLECTION BOX - BLUE BOX", "address": {"city": "MANTACHIE", "state": "MS", "street": "3664 HIGHWAY 371 N", "postcode": "38855"}}},
{"geometry": {"type": "Point", "coordinates": [-88.4646894103, 34.3599952242]}, "type": "Feature", "properties": {"collection_times": [{"days": "Mon-Fri", "time": "4:00pm"}, {"days": "Sat", "time": "10:00am"}, {"days": "Sun", "time": "Closed"}], "id": "3885500002", "name": "USPS COLLECTION BOX - PO LOBBY", "address": {"city": "MANTACHIE", "state": "MS", "street": "3664 HIGHWAY 371 N", "postcode": "38855"}}},
{"geometry": {"type": "Point", "coordinates": [-88.4646894103, 34.3599952242]}, "type": "Feature", "properties": {"collection_times": [{"days": "Mon-Fri", "time": "4:00pm"}, {"days": "Sat", "time": "10:00am"}, {"days": "Sun", "time": "Closed"}], "id": "3885500003", "name": "USPS COLLECTION BOX - PO LOBBY", "address": {"city": "MANTACHIE", "state": "MS", "street": "3664 HIGHWAY 371 N", "postcode": "38855"}}},
{"geometry": {"type": "Point", "coordinates": [-88.4665944544, 34.5025245017]}, "type": "Feature", "properties": {"collection_times": [{"days": "Mon-Fri", "time": "3:45pm"}, {"days": "Sat", "time": "10:00am"}, {"days": "Sun", "time": "Closed"}], "id": "3885600000", "name": "USPS COLLECTION BOX - BLUE BOX", "address": {"city": "MARIETTA", "state": "MS", "street": "5 COUNTY ROAD 4060", "postcode": "38856"}}},
{"geometry": {"type": "Point", "coordinates": [-88.4665944544, 34.5025245017]}, "type": "Feature", "properties": {"collection_times": [{"days": "Mon-Fri", "time": "12:00pm"}, {"days": "Sat", "time": "9:45am"}, {"days": "Sun", "time": "Closed"}], "id": "3885600001", "name": "USPS COLLECTION BOX - PO LOBBY", "address": {"city": "MARIETTA", "state": "MS", "street": "5 COUNTY ROAD 4060", "postcode": "38856"}}},
{"geometry": {"type": "Point", "coordinates": [-88.5920442173, 34.2539182316]}, "type": "Feature", "properties": {"collection_times": [{"days": "Mon-Fri", "time": "4:30pm"}, {"days": "Sat", "time": "10:30am"}, {"days": "Sun", "time": "Closed"}], "id": "3885700001", "name": "USPS COLLECTION BOX - BLUE BOX", "address": {"city": "MOOREVILLE", "state": "MS", "street": "110 ROAD 1427", "postcode": "38857"}}},
{"geometry": {"type": "Point", "coordinates": [-88.5920442173, 34.2539182316]}, "type": "Feature", "properties": {"collection_times": [{"days": "Mon-Fri", "time": "4:30pm"}, {"days": "Sat", "time": "10:30am"}, {"days": "Sun", "time": "Closed"}], "id": "3885700002", "name": "USPS COLLECTION BOX - PO LOBBY", "address": {"city": "MOOREVILLE", "state": "MS", "street": "110 ROAD 1427", "postcode": "38857"}}},
{"geometry": {"type": "Point", "coordinates": [-88.622266527, 34.0899648047]}, "type": "Feature", "properties": {"collection_times": [{"days": "Mon-Fri", "time": "4:30pm"}, {"days": "Sat", "time": "11:15am"}, {"days": "Sun", "time": "Closed"}], "id": "3885800001", "name": "USPS COLLECTION BOX - BLUE BOX", "address": {"city": "NETTLETON", "state": "MS", "street": "4540 UNION AVE", "postcode": "38858"}}},
{"geometry": {"type": "Point", "coordinates": [-88.622266527, 34.0899648047]}, "type": "Feature", "properties": {"collection_times": [{"days": "Mon-Fri", "time": "4:30pm"}, {"days": "Sat", "time": "11:15am"}, {"days": "Sun", "time": "Closed"}], "id": "3885800003", "name": "USPS COLLECTION BOX - PO LOBBY", "address": {"city": "NETTLETON", "state": "MS", "street": "4540 UNION AVE", "postcode": "38858"}}},
{"geometry": {"type": "Point", "coordinates": [-88.7518845217, 34.0047697017]}, "type": "Feature", "properties": {"collection_times": [{"days": "Mon-Fri", "time": "4:30pm"}, {"days": "Sat", "time": "11:00am"}, {"days": "Sun", "time": "Closed"}], "id": "3886000001", "name": "USPS COLLECTION BOX - BLUE BOX", "address": {"city": "OKOLONA", "state": "MS", "street": "319 W MAIN ST", "postcode": "38860"}}},
{"geometry": {"type": "Point", "coordinates": [-88.7518845217, 34.0047697017]}, "type": "Feature", "properties": {"collection_times": [{"days": "Mon-Fri", "time": "4:45pm"}, {"days": "Sat", "time": "11:00am"}, {"days": "Sun", "time": "Closed"}], "id": "3886000002", "name": "USPS COLLECTION BOX - PO LOBBY", "address": {"city": "OKOLONA", "state": "MS", "street": "319 W MAIN ST", "postcode": "38860"}}},
{"geometry": {"type": "Point", "coordinates": [-88.6654370255, 34.2280695026]}, "type": "Feature", "properties": {"collection_times": [{"days": "Mon-Fri", "time": "3:00pm"}, {"days": "Sat", "time": "9:00am"}, {"days": "Sun", "time": "Closed"}], "id": "3886200001", "name": "USPS COLLECTION BOX - BLUE BOX", "address": {"city": "PLANTERSVILLE", "state": "MS", "street": "2440 MAIN ST", "postcode": "38862"}}},
{"geometry": {"type": "Point", "coordinates": [-88.6654370255, 34.2280695026]}, "type": "Feature", "properties": {"collection_times": [{"days": "Mon-Fri", "time": "3:30pm"}, {"days": "Sat", "time": "9:00am"}, {"days": "Sun", "time": "Closed"}], "id": "3886200002", "name": "USPS COLLECTION BOX - PO LOBBY", "address": {"city": "PLANTERSVILLE", "state": "MS", "street": "2440 MAIN ST", "postcode": "38862"}}},
{"geometry": {"type": "Point", "coordinates": [-88.9984669686, 34.2471555859]}, "type": "Feature", "properties": {"collection_times": [{"days": "Mon-Fri", "time": "1:30pm"}, {"days": "Sat", "time": "12:00pm"}, {"days": "Sun", "time": "Closed"}], "id": "3886300001", "name": "USPS COLLECTION BOX - BLUE BOX", "address": {"city": "PONTOTOC", "state": "MS", "street": "59 S MAIN ST", "postcode": "38863"}}},
{"geometry": {"type": "Point", "coordinates": [-88.9984669686, 34.2471555859]}, "type": "Feature", "properties": {"collection_times": [{"days": "Mon-Fri", "time": "1:30pm"}, {"days": "Sat", "time": "12:00pm"}, {"days": "Sun", "time": "Closed"}], "id": "3886300002", "name": "USPS COLLECTION BOX - BLUE BOX", "address": {"city": "PONTOTOC", "state": "MS", "street": "59 S MAIN ST", "postcode": "38863"}}},
{"geometry": {"type": "Point", "coordinates": [-89.0185258045, 34.2626833386]}, "type": "Feature", "properties": {"collection_times": [{"days": "Mon-Fri", "time": "4:30pm"}, {"days": "Sat", "time": "2:30pm"}, {"days": "Sun", "time": "Closed"}], "id": "3886300021", "name": "USPS COLLECTION BOX - BLUE BOX", "address": {"city": "PONTOTOC", "state": "MS", "street": "305 HIGHWAY 15 N", "postcode": "38863"}}},
{"geometry": {"type": "Point", "coordinates": [-89.0185258045, 34.2626833386]}, "type": "Feature", "properties": {"collection_times": [{"days": "Mon-Fri", "time": "4:30pm"}, {"days": "Sat", "time": "2:30pm"}, {"days": "Sun", "time": "Closed"}], "id": "3886300022", "name": "USPS COLLECTION BOX - BLUE BOX", "address": {"city": "PONTOTOC", "state": "MS", "street": "305 HIGHWAY 15 N", "postcode": "38863"}}},
{"geometry": {"type": "Point", "coordinates": [-89.0185258045, 34.2626833386]}, "type": "Feature", "properties": {"collection_times": [{"days": "Mon-Fri", "time": "4:30pm"}, {"days": "Sat", "time": "2:30pm"}, {"days": "Sun", "time": "Closed"}], "id": "3886300023", "name": "USPS COLLECTION BOX - PO LOBBY", "address": {"city": "PONTOTOC", "state": "MS", "street": "305 HIGHWAY 15 N", "postcode": "38863"}}},
{"geometry": {"type": "Point", "coordinates": [-89.0185258045, 34.2626833386]}, "type": "Feature", "properties": {"collection_times": [{"days": "Mon-Fri", "time": "4:30pm"}, {"days": "Sat", "time": "2:30pm"}, {"days": "Sun", "time": "Closed"}], "id": "3886300024", "name": "USPS COLLECTION BOX - PO LOBBY", "address": {"city": "PONTOTOC", "state": "MS", "street": "305 HIGHWAY 15 N", "postcode": "38863"}}},
{"geometry": {"type": "Point", "coordinates": [-89.1634518731, 34.1857970028]}, "type": "Feature", "properties": {"collection_times": [{"days": "Mon-Fri", "time": "3:15pm"}, {"days": "Sat", "time": "8:45am"}, {"days": "Sun", "time": "Closed"}], "id": "3886400001", "name": "USPS COLLECTION BOX - BLUE BOX", "address": {"city": "RANDOLPH", "state": "MS", "street": "213 RANDOLPH LOOP", "postcode": "38864"}}},
{"geometry": {"type": "Point", "coordinates": [-89.1634518731, 34.1857970028]}, "type": "Feature", "properties": {"collection_times": [{"days": "Mon-Fri", "time": "11:00am"}, {"days": "Sat", "time": "8:45am"}, {"days": "Sun", "time": "Closed"}], "id": "3886400003", "name": "USPS COLLECTION BOX - PO LOBBY", "address": {"city": "RANDOLPH", "state": "MS", "street": "213 RANDOLPH LOOP", "postcode": "38864"}}},
{"geometry": {"type": "Point", "coordinates": [-88.5282442347, 34.7632862622]}, "type": "Feature", "properties": {"collection_times": [{"days": "Mon-Fri", "time": "4:00pm"}, {"days": "Sat", "time": "10:30am"}, {"days": "Sun", "time": "Closed"}], "id": "3886500002", "name": "USPS COLLECTION BOX - PO LOBBY", "address": {"city": "RIENZI", "state": "MS", "street": "73 S FRONT ST", "postcode": "38865"}}},
{"geometry": {"type": "Point", "coordinates": [-88.5282442347, 34.7632862622]}, "type": "Feature", "properties": {"collection_times": [{"days": "Mon-Fri", "time": "4:00pm"}, {"days": "Sat", "time": "10:30am"}, {"days": "Sun", "time": "Closed"}], "id": "3886500003", "name": "USPS COLLECTION BOX - BLUE BOX", "address": {"city": "RIENZI", "state": "MS", "street": "73 S FRONT ST", "postcode": "38865"}}},
{"geometry": {"type": "Point", "coordinates": [-88.6940623628, 34.38126137]}, "type": "Feature", "properties": {"collection_times": [{"days": "Mon-Fri", "time": "4:30pm"}, {"days": "Sat", "time": "10:00am"}, {"days": "Sun", "time": "Closed"}], "id": "3886600000", "name": "USPS COLLECTION BOX - PO LOBBY", "address": {"city": "SALTILLO", "state": "MS", "street": "162 MOBILE ST", "postcode": "38866"}}},
{"geometry": {"type": "Point", "coordinates": [-88.6940623628, 34.38126137]}, "type": "Feature", "properties": {"collection_times": [{"days": "Mon-Fri", "time": "4:10pm"}, {"days": "Sat", "time": "10:00am"}, {"days": "Sun", "time": "Closed"}], "id": "3886600001", "name": "USPS COLLECTION BOX - BLUE BOX", "address": {"city": "SALTILLO", "state": "MS", "street": "162 MOBILE ST", "postcode": "38866"}}},
{"geometry": {"type": "Point", "coordinates": [-88.7192889207, 34.1207484832]}, "type": "Feature", "properties": {"collection_times": [{"days": "Mon-Fri", "time": "4:10pm"}, {"days": "Sat", "time": "9:30am"}, {"days": "Sun", "time": "Closed"}], "id": "3886800001", "name": "USPS COLLECTION BOX - BLUE BOX", "address": {"city": "SHANNON", "state": "MS", "street": "718 ROMIE HILL AVE", "postcode": "38868"}}},
{"geometry": {"type": "Point", "coordinates": [-88.7192889207, 34.1207484832]}, "type": "Feature", "properties": {"collection_times": [{"days": "Mon-Fri", "time": "4:30pm"}, {"days": "Sat", "time": "9:15am"}, {"days": "Sun", "time": "Closed"}], "id": "3886800002", "name": "USPS COLLECTION BOX - PO LOBBY", "address": {"city": "SHANNON", "state": "MS", "street": "718 ROMIE HILL AVE", "postcode": "38868"}}},
{"geometry": {"type": "Point", "coordinates": [-88.7192889207, 34.1207484832]}, "type": "Feature", "properties": {"collection_times": [{"days": "Mon-Fri", "time": "4:30pm"}, {"days": "Sat", "time": "9:15am"}, {"days": "Sun", "time": "Closed"}], "id": "3886800003", "name": "USPS COLLECTION BOX - PO LOBBY", "address": {"city": "SHANNON", "state": "MS", "street": "718 ROMIE HILL AVE", "postcode": "38868"}}},
{"geometry": {"type": "Point", "coordinates": [-88.8444206319, 34.358891599]}, "type": "Feature", "properties": {"collection_times": [{"days": "Mon-Fri", "time": "4:00pm"}, {"days": "Sat", "time": "9:15am"}, {"days": "Sun", "time": "Closed"}], "id": "3886900001", "name": "USPS COLLECTION BOX - BLUE BOX", "address": {"city": "SHERMAN", "state": "MS", "street": "65 E MAIN ST", "postcode": "38869"}}},
{"geometry": {"type": "Point", "coordinates": [-88.8444206319, 34.358891599]}, "type": "Feature", "properties": {"collection_times": [{"days": "Mon-Fri", "time": "11:00am"}, {"days": "Sat", "time": "9:15am"}, {"days": "Sun", "time": "Closed"}], "id": "3886900002", "name": "USPS COLLECTION BOX - PO LOBBY", "address": {"city": "SHERMAN", "state": "MS", "street": "65 E MAIN ST", "postcode": "38869"}}},
{"geometry": {"type": "Point", "coordinates": [-88.3937963839, 34.0695878081]}, "type": "Feature", "properties": {"collection_times": [{"days": "Mon-Sat", "time": "1:00pm"}, {"days": "Sun", "time": "Closed"}], "id": "3887000003", "name": "USPS COLLECTION BOX - BLUE BOX", "address": {"city": "SMITHVILLE", "state": "MS", "street": "63466 HIGHWAY 25 N", "postcode": "38870"}}},
{"geometry": {"type": "Point", "coordinates": [-89.1795349879, 34.2995909115]}, "type": "Feature", "properties": {"collection_times": [{"days": "Mon-Fri", "time": "3:15pm"}, {"days": "Sat", "time": "8:45am"}, {"days": "Sun", "time": "Closed"}], "id": "3887100001", "name": "USPS COLLECTION BOX - BLUE BOX", "address": {"city": "THAXTON", "state": "MS", "street": "779 THAXTON RD", "postcode": "38871"}}},
{"geometry": {"type": "Point", "coordinates": [-89.1795349879, 34.2995909115]}, "type": "Feature", "properties": {"collection_times": [{"days": "Mon-Fri", "time": "12:00pm"}, {"days": "Sat", "time": "8:45am"}, {"days": "Sun", "time": "Closed"}], "id": "3887100003", "name": "USPS COLLECTION BOX - PO LOBBY", "address": {"city": "THAXTON", "state": "MS", "street": "779 THAXTON RD", "postcode": "38871"}}},
{"geometry": {"type": "Point", "coordinates": [-88.2322840117, 34.6362336462]}, "type": "Feature", "properties": {"collection_times": [{"days": "Mon-Fri", "time": "3:45pm"}, {"days": "Sat", "time": "11:30am"}, {"days": "Sun", "time": "Closed"}], "id": "3887300000", "name": "USPS COLLECTION BOX - BLUE BOX", "address": {"city": "TISHOMINGO", "state": "MS", "street": "9 NATCHEZ ST", "postcode": "38873"}}},
{"geometry": {"type": "Point", "coordinates": [-88.2322840117, 34.6362336462]}, "type": "Feature", "properties": {"collection_times": [{"days": "Mon-Fri", "time": "3:45pm"}, {"days": "Sat", "time": "11:30am"}, {"days": "Sun", "time": "Closed"}], "id": "3887300002", "name": "USPS COLLECTION BOX - PO LOBBY", "address": {"city": "TISHOMINGO", "state": "MS", "street": "9 NATCHEZ ST", "postcode": "38873"}}},
{"geometry": {"type": "Point", "coordinates": [-89.2356768774, 34.2566091984]}, "type": "Feature", "properties": {"collection_times": [{"days": "Mon-Fri", "time": "3:15pm"}, {"days": "Sat", "time": "9:45am"}, {"days": "Sun", "time": "Closed"}], "id": "3887400001", "name": "USPS COLLECTION BOX - BLUE BOX", "address": {"city": "TOCCOPOLA", "state": "MS", "street": "CORNER OF PERKINS ST", "postcode": "38874"}}},
{"geometry": {"type": "Point", "coordinates": [-89.2356768774, 34.2566091984]}, "type": "Feature", "properties": {"collection_times": [{"days": "Mon-Fri", "time": "10:00am"}, {"days": "Sat", "time": "8:00am"}, {"days": "Sun", "time": "Closed"}], "id": "3887400002", "name": "USPS COLLECTION BOX - PO LOBBY", "address": {"city": "TOCCOPOLA", "state": "MS", "street": "11 PERKINS ST", "postcode": "38874"}}},
{"geometry": {"type": "Point", "coordinates": [-88.2692566583, 34.238378195]}, "type": "Feature", "properties": {"collection_times": [{"days": "Mon-Fri", "time": "4:00pm"}, {"days": "Sat", "time": "9:15am"}, {"days": "Sun", "time": "Closed"}], "id": "3887600000", "name": "USPS COLLECTION BOX - BLUE BOX", "address": {"city": "TREMONT", "state": "MS", "street": "10019 HIGHWAY 178 E", "postcode": "38876"}}},
{"geometry": {"type": "Point", "coordinates": [-88.2694388987, 34.2383278197]}, "type": "Feature", "properties": {"collection_times": [{"days": "Mon-Fri", "time": "11:20am"}, {"days": "Sat", "time": "9:15am"}, {"days": "Sun", "time": "Closed"}], "id": "3887600001", "name": "USPS COLLECTION BOX - PO LOBBY", "address": {"city": "TREMONT", "state": "MS", "street": "10019 HIGHWAY 178 E", "postcode": "38876"}}},
{"geometry": {"type": "Point", "coordinates": [-88.9009080299, 33.9844033664]}, "type": "Feature", "properties": {"collection_times": [{"days": "Mon-Sat", "time": "12:30pm"}, {"days": "Sun", "time": "Closed"}], "id": "3887700000", "name": "USPS COLLECTION BOX - PO LOBBY", "address": {"city": "VAN VLEET", "state": "MS", "street": "1640 COUNTY ROAD 164", "postcode": "38877"}}},
{"geometry": {"type": "Point", "coordinates": [-88.9009080299, 33.9844033664]}, "type": "Feature", "properties": {"collection_times": [{"days": "Mon-Fri", "time": "3:00pm"}, {"days": "Sat", "time": "9:45am"}, {"days": "Sun", "time": "Closed"}], "id": "3887700001", "name": "USPS COLLECTION BOX - BLUE BOX", "address": {"city": "VAN VLEET", "state": "MS", "street": "1640 COUNTY ROAD 164", "postcode": "38877"}}},
{"geometry": {"type": "Point", "coordinates": [-89.173332146, 33.8773972649]}, "type": "Feature", "properties": {"collection_times": [{"days": "Mon-Fri", "time": "4:00pm"}, {"days": "Sat", "time": "10:45am"}, {"days": "Sun", "time": "Closed"}], "id": "3887800001", "name": "USPS COLLECTION BOX - BLUE BOX", "address": {"city": "VARDAMAN", "state": "MS", "street": "200 BURKETT AVE", "postcode": "38878"}}},
{"geometry": {"type": "Point", "coordinates": [-89.173332146, 33.8773972649]}, "type": "Feature", "properties": {"collection_times": [{"days": "Mon-Fri", "time": "2:30pm"}, {"days": "Sat", "time": "10:45am"}, {"days": "Sun", "time": "Closed"}], "id": "3887800002", "name": "USPS COLLECTION BOX - PO LOBBY", "address": {"city": "VARDAMAN", "state": "MS", "street": "200 BURKETT AVE", "postcode": "38878"}}},
{"geometry": {"type": "Point", "coordinates": [-89.1775820343, 33.875610751]}, "type": "Feature", "properties": {"collection_times": [{"days": "Mon-Sat", "time": "1:30pm"}, {"days": "Sun", "time": "Closed"}], "id": "3887800003", "name": "USPS COLLECTION BOX - BLUE BOX", "address": {"city": "VARDAMAN", "state": "MS", "street": "102 W SWEET POTATO ST", "postcode": "38878"}}},
{"geometry": {"type": "Point", "coordinates": [-88.7199577697, 34.1881622902]}, "type": "Feature", "properties": {"collection_times": [{"days": "Mon-Fri", "time": "5:00pm"}, {"days": "Sat", "time": "10:00am"}, {"days": "Sun", "time": "Closed"}], "id": "3887900001", "name": "USPS COLLECTION BOX - BLUE BOX", "address": {"city": "VERONA", "state": "MS", "street": "5107 RAYMOND AVE", "postcode": "38879"}}},
{"geometry": {"type": "Point", "coordinates": [-88.7199577697, 34.1881622902]}, "type": "Feature", "properties": {"collection_times": [{"days": "Mon-Fri", "time": "5:00pm"}, {"days": "Sat", "time": "10:00am"}, {"days": "Sun", "time": "Closed"}], "id": "3887900002", "name": "USPS COLLECTION BOX - PO LOBBY", "address": {"city": "VERONA", "state": "MS", "street": "5107 RAYMOND AVE", "postcode": "38879"}}},
{"geometry": {"type": "Point", "coordinates": [-88.7199577697, 34.1881622902]}, "type": "Feature", "properties": {"collection_times": [{"days": "Mon-Fri", "time": "5:00pm"}, {"days": "Sat", "time": "10:00am"}, {"days": "Sun", "time": "Closed"}], "id": "3887900003", "name": "USPS COLLECTION BOX - PO LOBBY", "address": {"city": "VERONA", "state": "MS", "street": "5107 RAYMOND AVE", "postcode": "38879"}}},
{"geometry": {"type": "Point", "coordinates": [-88.6036122489, 34.5815199982]}, "type": "Feature", "properties": {"collection_times": [{"days": "Mon-Fri", "time": "4:30pm"}, {"days": "Sat", "time": "12:00pm"}, {"days": "Sun", "time": "Closed"}], "id": "3888000000", "name": "USPS COLLECTION BOX - BLUE BOX", "address": {"city": "WHEELER", "state": "MS", "street": "11 COUNTY ROAD 5110", "postcode": "38880"}}},
{"geometry": {"type": "Point", "coordinates": [-88.6036122489, 34.5815199982]}, "type": "Feature", "properties": {"collection_times": [{"days": "Mon-Sat", "time": "12:00pm"}, {"days": "Sun", "time": "Closed"}], "id": "3888000001", "name": "USPS COLLECTION BOX - PO LOBBY", "address": {"city": "WHEELER", "state": "MS", "street": "11 COUNTY ROAD 5110", "postcode": "38880"}}}
]}
