{"type": "FeatureCollection", "features": [
{"geometry": {"type": "Point", "coordinates": [-89.6968324352, 33.7478417141]}, "type": "Feature", "properties": {"collection_times": [{"days": "Mon-Fri", "time": "1:00pm"}, {"days": "Sat-Sun", "time": "Closed"}], "id": "3890100000", "name": "USPS COLLECTION BOX - BLUE BOX", "address": {"city": "GRENADA", "state": "MS", "street": "960 AVENT DR", "postcode": "38901"}}},
{"geometry": {"type": "Point", "coordinates": [-89.8089825106, 33.7618757518]}, "type": "Feature", "properties": {"collection_times": [{"days": "Mon-Fri", "time": "10:00am"}, {"days": "Sat-Sun", "time": "Closed"}], "id": "3890100001", "name": "USPS COLLECTION BOX - BLUE BOX", "address": {"city": "GRENADA", "state": "MS", "street": "1983 COMMERCE ST", "postcode": "38901"}}},
{"geometry": {"type": "Point", "coordinates": [-89.8086940936, 33.7613937113]}, "type": "Feature", "properties": {"collection_times": [{"days": "Mon-Fri", "time": "9:30am"}, {"days": "Sat-Sun", "time": "Closed"}], "id": "3890100002", "name": "USPS COLLECTION BOX - BLUE BOX", "address": {"city": "GRENADA", "state": "MS", "street": "2026 COMMERCE ST", "postcode": "38901"}}},
{"geometry": {"type": "Point", "coordinates": [-89.8029774532, 33.7691572688]}, "type": "Feature", "properties": {"collection_times": [{"days": "Mon-Fri", "time": "1:00pm"}, {"days": "Sat-Sun", "time": "Closed"}], "id": "3890100004", "name": "USPS COLLECTION BOX - BLUE BOX", "address": {"city": "GRENADA", "state": "MS", "street": "318 SUNSET DR", "postcode": "38901"}}},
{"geometry": {"type": "Point", "coordinates": [-89.8287415206, 33.7821918019]}, "type": "Feature", "properties": {"collection_times": [{"days": "Mon-Fri", "time": "4:40pm"}, {"days": "Sat", "time": "3:00pm"}, {"days": "Sun", "time": "Closed"}], "id": "3890100009", "name": "USPS COLLECTION BOX - BLUE BOX", "address": {"city": "GRENADA", "state": "MS", "street": "2500 GATEWAY RD", "postcode": "38901"}}},
{"geometry": {"type": "Point", "coordinates": [-89.8287415206, 33.7821918019]}, "type": "Feature", "properties": {"collection_times": [{"days": "Mon-Fri", "time": "4:45pm"}, {"days": "Sat", "time": "3:00pm"}, {"days": "Sun", "time": "Closed"}], "id": "3890100010", "name": "USPS COLLECTION BOX - PO LOBBY", "address": {"city": "GRENADA", "state": "MS", "street": "2500 GATEWAY RD", "postcode": "38901"}}},
{"geometry": {"type": "Point", "coordinates": [-89.8287415206, 33.7821918019]}, "type": "Feature", "properties": {"collection_times": [{"days": "Mon-Fri", "time": "4:45pm"}, {"days": "Sat", "time": "3:00pm"}, {"days": "Sun", "time": "Closed"}], "id": "3890100011", "name": "USPS COLLECTION BOX - PO LOBBY", "address": {"city": "GRENADA", "state": "MS", "street": "2500 GATEWAY RD", "postcode": "38901"}}},
{"geometry": {"type": "Point", "coordinates": [-89.8287415206, 33.7821918019]}, "type": "Feature", "properties": {"collection_times": [{"days": "Mon-Fri", "time": "4:40pm"}, {"days": "Sat", "time": "3:00pm"}, {"days": "Sun", "time": "Closed"}], "id": "3890100012", "name": "USPS COLLECTION BOX - BLUE BOX", "address": {"city": "GRENADA", "state": "MS", "street": "2500 GATEWAY RD", "postcode": "38901"}}},
{"geometry": {"type": "Point", "coordinates": [-89.8116445009, 33.7689934102]}, "type": "Feature", "properties": {"collection_times": [{"days": "Mon-Fri", "time": "10:00am"}, {"days": "Sat-Sun", "time": "Closed"}], "id": "3890100014", "name": "USPS COLLECTION BOX - BLUE BOX", "address": {"city": "GRENADA", "state": "MS", "street": "1315 SUNSET DR", "postcode": "38901"}}},
{"geometry": {"type": "Point", "coordinates": [-89.808825096, 33.7647706463]}, "type": "Feature", "properties": {"collection_times": [{"days": "Mon-Fri", "time": "12:00pm"}, {"days": "Sat-Sun", "time": "Closed"}], "id": "3890100015", "name": "USPS COLLECTION BOX - BLUE BOX", "address": {"city": "GRENADA", "state": "MS", "street": "1742 COMMERCE ST", "postcode": "38901"}}},
{"geometry": {"type": "Point", "coordinates": [-89.8030277269, 33.7846741312]}, "type": "Feature", "properties": {"collection_times": [{"days": "Mon-Fri", "time": "11:30am"}, {"days": "Sat-Sun", "time": "Closed"}], "id": "3890100017", "name": "USPS COLLECTION BOX - BLUE BOX", "address": {"city": "GRENADA", "state": "MS", "street": "109 1ST ST", "postcode": "38901"}}},
{"geometry": {"type": "Point", "coordinates": [-89.8025550869, 33.7835213053]}, "type": "Feature", "properties": {"collection_times": [{"days": "Mon-Fri", "time": "2:00pm"}, {"days": "Sat-Sun", "time": "Closed"}], "id": "3890100019", "name": "USPS COLLECTION BOX - BLUE BOX", "address": {"city": "GRENADA", "state": "MS", "street": "178 S MAIN ST", "postcode": "38901"}}},
{"geometry": {"type": "Point", "coordinates": [-89.8287415206, 33.7821918019]}, "type": "Feature", "properties": {"collection_times": [{"days": "Mon-Fri", "time": "4:45pm"}, {"days": "Sat", "time": "3:00pm"}, {"days": "Sun", "time": "Closed"}], "id": "3890100022", "name": "USPS COLLECTION BOX - PO LOBBY", "address": {"city": "GRENADA", "state": "MS", "street": "2500 GATEWAY RD", "postcode": "38901"}}},
{"geometry": {"type": "Point", "coordinates": [-89.8287415206, 33.7821918019]}, "type": "Feature", "properties": {"collection_times": [{"days": "Mon-Fri", "time": "4:40pm"}, {"days": "Sat", "time": "3:00pm"}, {"days": "Sun", "time": "Closed"}], "id": "3890100027", "name": "USPS COLLECTION BOX - BLUE BOX", "address": {"city": "GRENADA", "state": "MS", "street": "2500 GATEWAY RD.", "postcode": "38901"}}},
{"geometry": {"type": "Point", "coordinates": [-89.8287415206, 33.7821918019]}, "type": "Feature", "properties": {"collection_times": [{"days": "Mon-Fri", "time": "4:40pm"}, {"days": "Sat", "time": "3:00pm"}, {"days": "Sun", "time": "Closed"}], "id": "3890100028", "name": "USPS COLLECTION BOX - BLUE BOX", "address": {"city": "GRENADA", "state": "MS", "street": "2500 GATEWAY RD.", "postcode": "38901"}}},
{"geometry": {"type": "Point", "coordinates": [-89.8115105035, 33.769103833]}, "type": "Feature", "properties": {"collection_times": [{"days": "Mon-Fri", "time": "12:00pm"}, {"days": "Sat-Sun", "time": "Closed"}], "id": "3890100030", "name": "USPS COLLECTION BOX - BLUE BOX", "address": {"city": "GRENADA", "state": "MS", "street": "1300 SUNSET DR", "postcode": "38901"}}},
{"geometry": {"type": "Point", "coordinates": [-89.3471429324, 33.9936897734]}, "type": "Feature", "properties": {"collection_times": [{"days": "Mon-Fri", "time": "4:30pm"}, {"days": "Sat", "time": "10:30am"}, {"days": "Sun", "time": "Closed"}], "id": "3891500000", "name": "USPS COLLECTION BOX - BLUE BOX", "address": {"city": "BRUCE", "state": "MS", "street": "309 N NEWBURGER AVE", "postcode": "38915"}}},
{"geometry": {"type": "Point", "coordinates": [-89.3470357845, 33.9936388778]}, "type": "Feature", "properties": {"collection_times": [{"days": "Mon-Fri", "time": "4:30pm"}, {"days": "Sat", "time": "10:30am"}, {"days": "Sun", "time": "Closed"}], "id": "3891500001", "name": "USPS COLLECTION BOX - PO LOBBY", "address": {"city": "BRUCE", "state": "MS", "street": "309 N NEWBERGER AVE", "postcode": "38915"}}},
{"geometry": {"type": "Point", "coordinates": [-89.3113737069, 33.856368689]}, "type": "Feature", "properties": {"collection_times": [{"days": "Mon-Fri", "time": "4:45pm"}, {"days": "Sat", "time": "2:30pm"}, {"days": "Sun", "time": "Closed"}], "id": "3891600000", "name": "USPS COLLECTION BOX - BLUE BOX", "address": {"city": "CALHOUN CITY", "state": "MS", "street": "205 N MAIN ST", "postcode": "38916"}}},
{"geometry": {"type": "Point", "coordinates": [-89.3113737069, 33.856368689]}, "type": "Feature", "properties": {"collection_times": [{"days": "Mon-Fri", "time": "4:45pm"}, {"days": "Sat", "time": "2:30pm"}, {"days": "Sun", "time": "Closed"}], "id": "3891600001", "name": "USPS COLLECTION BOX - PO LOBBY", "address": {"city": "CALHOUN CITY", "state": "MS", "street": "205 N MAIN ST", "postcode": "38916"}}},
{"geometry": {"type": "Point", "coordinates": [-89.346137229, 33.8117514655]}, "type": "Feature", "properties": {"collection_times": [{"days": "Mon-Fri", "time": "1:45pm"}, {"days": "Sat-Sun", "time": "Closed"}], "id": "3891600002", "name": "USPS COLLECTION BOX - BLUE BOX", "address": {"city": "CALHOUN CITY", "state": "MS", "street": "126 PUBLIC SQ", "postcode": "38916"}}},
{"geometry": {"type": "Point", "coordinates": [-89.9866555283, 33.5318951793]}, "type": "Feature", "properties": {"collection_times": [{"days": "Mon-Fri", "time": "3:55pm"}, {"days": "Sat", "time": "10:25am"}, {"days": "Sun", "time": "Closed"}], "id": "3891700000", "name": "USPS COLLECTION BOX - BLUE BOX", "address": {"city": "CARROLLTON", "state": "MS", "street": "104 W JACKSON ST", "postcode": "38917"}}},
{"geometry": {"type": "Point", "coordinates": [-89.9866555283, 33.5318951793]}, "type": "Feature", "properties": {"collection_times": [{"days": "Mon-Fri", "time": "4:00pm"}, {"days": "Sat", "time": "10:25am"}, {"days": "Sun", "time": "Closed"}], "id": "3891700001", "name": "USPS COLLECTION BOX - PO LOBBY", "address": {"city": "CARROLLTON", "state": "MS", "street": "104 W JACKSON ST", "postcode": "38917"}}},
{"geometry": {"type": "Point", "coordinates": [-90.0378677241, 33.896630583]}, "type": "Feature", "properties": {"collection_times": [{"days": "Mon-Fri", "time": "3:30pm"}, {"days": "Sat", "time": "9:30am"}, {"days": "Sun", "time": "Closed"}], "id": "3892000000", "name": "USPS COLLECTION BOX - BLUE BOX", "address": {"city": "CASCILLA", "state": "MS", "street": "CORNER OF WHITTEN RD", "postcode": "38920"}}},
{"geometry": {"type": "Point", "coordinates": [-90.0378677241, 33.896630583]}, "type": "Feature", "properties": {"collection_times": [{"days": "Mon-Fri", "time": "9:05am"}, {"days": "Sat", "time": "9:30am"}, {"days": "Sun", "time": "Closed"}], "id": "3892000001", "name": "USPS COLLECTION BOX - PO LOBBY", "address": {"city": "CASCILLA", "state": "MS", "street": "CORNER OF WHITTEN RD", "postcode": "38920"}}},
{"geometry": {"type": "Point", "coordinates": [-90.1774300151, 33.9453251477]}, "type": "Feature", "properties": {"collection_times": [{"days": "Mon-Fri", "time": "4:15pm"}, {"days": "Sat", "time": "12:00pm"}, {"days": "Sun", "time": "Closed"}], "id": "3892100000", "name": "USPS COLLECTION BOX - PO LOBBY", "address": {"city": "CHARLESTON", "state": "MS", "street": "3 NORTH SQ", "postcode": "38921"}}},
{"geometry": {"type": "Point", "coordinates": [-90.1774300151, 33.9453251477]}, "type": "Feature", "properties": {"collection_times": [{"days": "Mon-Fri", "time": "4:15pm"}, {"days": "Sat", "time": "12:00pm"}, {"days": "Sun", "time": "Closed"}], "id": "3892100001", "name": "USPS COLLECTION BOX - BLUE BOX", "address": {"city": "CHARLESTON", "state": "MS", "street": "3 NORTH SQ", "postcode": "38921"}}},
{"geometry": {"type": "Point", "coordinates": [-89.6760772592, 33.9748072266]}, "type": "Feature", "properties": {"collection_times": [{"days": "Mon-Fri", "time": "4:15pm"}, {"days": "Sat", "time": "10:15am"}, {"days": "Sun", "time": "Closed"}], "id": "3892200000", "name": "USPS COLLECTION BOX - BLUE BOX", "address": {"city": "COFFEEVILLE", "state": "MS", "street": "47 OAK ST", "postcode": "38922"}}},
{"geometry": {"type": "Point", "coordinates": [-89.6760772592, 33.9748072266]}, "type": "Feature", "properties": {"collection_times": [{"days": "Mon-Fri", "time": "4:30pm"}, {"days": "Sat", "time": "10:35am"}, {"days": "Sun", "time": "Closed"}], "id": "3892200001", "name": "USPS COLLECTION BOX - PO LOBBY", "address": {"city": "COFFEEVILLE", "state": "MS", "street": "47 OAK ST", "postcode": "38922"}}},
{"geometry": {"type": "Point", "coordinates": [-89.9770822789, 33.3688714654]}, "type": "Feature", "properties": {"collection_times": [{"days": "Mon-Fri", "time": "3:30pm"}, {"days": "Sat-Sun", "time": "Closed"}], "id": "3892300000", "name": "USPS COLLECTION BOX - BLUE BOX", "address": {"city": "COILA", "state": "MS", "street": "HWY 17 S", "postcode": "38923"}}},
{"geometry": {"type": "Point", "coordinates": [-89.9770822789, 33.3688714654]}, "type": "Feature", "properties": {"collection_times": [{"days": "Mon-Fri", "time": "11:50am"}, {"days": "Sat", "time": "9:00am"}, {"days": "Sun", "time": "Closed"}], "id": "3892300001", "name": "USPS COLLECTION BOX - PO LOBBY", "address": {"city": "COILA", "state": "MS", "street": "HWY 17 S", "postcode": "38923"}}},
{"geometry": {"type": "Point", "coordinates": [-90.1994791777, 33.2838076459]}, "type": "Feature", "properties": {"collection_times": [{"days": "Mon-Fri", "time": "3:50pm"}, {"days": "Sat", "time": "10:00am"}, {"days": "Sun", "time": "Closed"}], "id": "3892400000", "name": "USPS COLLECTION BOX - BLUE BOX", "address": {"city": "CRUGER", "state": "MS", "street": "CORNER OF RAILROAD ST", "postcode": "38924"}}},
{"geometry": {"type": "Point", "coordinates": [-90.1994791777, 33.2838076459]}, "type": "Feature", "properties": {"collection_times": [{"days": "Mon-Fri", "time": "11:30am"}, {"days": "Sat", "time": "10:00am"}, {"days": "Sun", "time": "Closed"}], "id": "3892400001", "name": "USPS COLLECTION BOX - PO LOBBY", "address": {"city": "CRUGER", "state": "MS", "street": "CORNER OF RAILROAD ST", "postcode": "38924"}}},
{"geometry": {"type": "Point", "coordinates": [-89.7117729208, 33.6335072381]}, "type": "Feature", "properties": {"collection_times": [{"days": "Mon-Fri", "time": "3:40pm"}, {"days": "Sat", "time": "10:25am"}, {"days": "Sun", "time": "Closed"}], "id": "3892500000", "name": "USPS COLLECTION BOX - BLUE BOX", "address": {"city": "DUCK HILL", "state": "MS", "street": "203 MAIN ST", "postcode": "38925"}}},
{"geometry": {"type": "Point", "coordinates": [-89.7129810649, 33.634082742]}, "type": "Feature", "properties": {"collection_times": [{"days": "Mon-Fri", "time": "2:30pm"}, {"days": "Sat", "time": "10:25am"}, {"days": "Sun", "time": "Closed"}], "id": "3892500001", "name": "USPS COLLECTION BOX - PO LOBBY", "address": {"city": "DUCK HILL", "state": "MS", "street": "203 MAIN ST", "postcode": "38925"}}},
{"geometry": {"type": "Point", "coordinates": [-90.0833015872, 34.1163464604]}, "type": "Feature", "properties": {"collection_times": [{"days": "Mon-Fri", "time": "11:00am"}, {"days": "Sat", "time": "8:00am"}, {"days": "Sun", "time": "Closed"}], "id": "3892700000", "name": "USPS COLLECTION BOX - PO LOBBY", "address": {"city": "ENID", "state": "MS", "street": "79 COUNTY ROAD 206", "postcode": "38927"}}},
{"geometry": {"type": "Point", "coordinates": [-90.0833015872, 34.1163464604]}, "type": "Feature", "properties": {"collection_times": [{"days": "Mon-Fri", "time": "3:45pm"}, {"days": "Sat-Sun", "time": "Closed"}], "id": "3892700001", "name": "USPS COLLECTION BOX - BLUE BOX", "address": {"city": "ENID", "state": "MS", "street": "79 COUNTY ROAD 206", "postcode": "38927"}}},
{"geometry": {"type": "Point", "coordinates": [-90.2930833359, 33.8283860165]}, "type": "Feature", "properties": {"collection_times": [{"days": "Mon-Fri", "time": "12:00pm"}, {"days": "Sat", "time": "9:00am"}, {"days": "Sun", "time": "Closed"}], "id": "3892800000", "name": "USPS COLLECTION BOX - PO LOBBY", "address": {"city": "GLENDORA", "state": "MS", "street": "18 WESTBROOK ST", "postcode": "38928"}}},
{"geometry": {"type": "Point", "coordinates": [-90.2930833359, 33.8283860165]}, "type": "Feature", "properties": {"collection_times": [{"days": "Mon-Fri", "time": "3:25pm"}, {"days": "Sat-Sun", "time": "Closed"}], "id": "3892800001", "name": "USPS COLLECTION BOX - BLUE BOX", "address": {"city": "GLENDORA", "state": "MS", "street": "18 WESTBROOK ST", "postcode": "38928"}}},
{"geometry": {"type": "Point", "coordinates": [-89.5769126032, 33.7609805755]}, "type": "Feature", "properties": {"collection_times": [{"days": "Mon-Fri", "time": "3:30pm"}, {"days": "Sat", "time": "9:15am"}, {"days": "Sun", "time": "Closed"}], "id": "3892900000", "name": "USPS COLLECTION BOX - BLUE BOX", "address": {"city": "GORE SPRINGS", "state": "MS", "street": "32394 HIGHWAY 8 E", "postcode": "38929"}}},
{"geometry": {"type": "Point", "coordinates": [-89.5769126032, 33.7609805755]}, "type": "Feature", "properties": {"collection_times": [{"days": "Mon-Fri", "time": "11:00am"}, {"days": "Sat", "time": "9:30am"}, {"days": "Sun", "time": "Closed"}], "id": "3892900001", "name": "USPS COLLECTION BOX - PO LOBBY", "address": {"city": "GORE SPRINGS", "state": "MS", "street": "32394 HIGHWAY 8 E", "postcode": "38929"}}},
{"geometry": {"type": "Point", "coordinates": [-90.1800431521, 33.5199401639]}, "type": "Feature", "properties": {"collection_times": [{"days": "Mon-Fri", "time": "4:45pm"}, {"days": "Sat", "time": "10:00am"}, {"days": "Sun", "time": "Closed"}], "id": "3893000002", "name": "USPS COLLECTION BOX - PO LOBBY", "address": {"city": "GREENWOOD", "state": "MS", "street": "200 E WASHINGTON ST", "postcode": "38930"}}},
{"geometry": {"type": "Point", "coordinates": [-90.1800152594, 33.5199521978]}, "type": "Feature", "properties": {"collection_times": [{"days": "Mon-Fri", "time": "4:17pm"}, {"days": "Sat", "time": "10:00am"}, {"days": "Sun", "time": "Closed"}], "id": "3893000004", "name": "USPS COLLECTION BOX - BLUE BOX", "address": {"city": "GREENWOOD", "state": "MS", "street": "303 WALTHALL", "postcode": "38930"}}},
{"geometry": {"type": "Point", "coordinates": [-90.1838894801, 33.520295063]}, "type": "Feature", "properties": {"collection_times": [{"days": "Mon-Fri", "time": "3:00pm"}, {"days": "Sat-Sun", "time": "Closed"}], "id": "3893000009", "name": "USPS COLLECTION BOX - BLUE BOX", "address": {"city": "GREENWOOD", "state": "MS", "street": "301 W MARKET ST", "postcode": "38930"}}},
{"geometry": {"type": "Point", "coordinates": [-90.1525678518, 33.5165091467]}, "type": "Feature", "properties": {"collection_times": [{"days": "Mon-Fri", "time": "1:00pm"}, {"days": "Sat-Sun", "time": "Closed"}], "id": "3893000017", "name": "USPS COLLECTION BOX - BLUE BOX", "address": {"city": "GREENWOOD", "state": "MS", "street": "200 HIGHWAY 7 S", "postcode": "38930"}}},
{"geometry": {"type": "Point", "coordinates": [-90.2047641501, 33.5268221033]}, "type": "Feature", "properties": {"collection_times": [{"days": "Mon-Fri", "time": "3:00pm"}, {"days": "Sat-Sun", "time": "Closed"}], "id": "3893000023", "name": "USPS COLLECTION BOX - BLUE BOX", "address": {"city": "GREENWOOD", "state": "MS", "street": "808 W PARK AVE", "postcode": "38930"}}},
{"geometry": {"type": "Point", "coordinates": [-90.1956343007, 33.5301949925]}, "type": "Feature", "properties": {"collection_times": [{"days": "Mon-Fri", "time": "2:55pm"}, {"days": "Sat-Sun", "time": "Closed"}], "id": "3893000024", "name": "USPS COLLECTION BOX - BLUE BOX", "address": {"city": "GREENWOOD", "state": "MS", "street": "719 W PARK AVE", "postcode": "38930"}}},
{"geometry": {"type": "Point", "coordinates": [-90.1850770128, 33.5240075704]}, "type": "Feature", "properties": {"collection_times": [{"days": "Mon-Fri", "time": "3:00pm"}, {"days": "Sat-Sun", "time": "Closed"}], "id": "3893000030", "name": "USPS COLLECTION BOX - BLUE BOX", "address": {"city": "GREENWOOD", "state": "MS", "street": "105 GRAND BLVD", "postcode": "38930"}}},
{"geometry": {"type": "Point", "coordinates": [-90.1800152594, 33.5199521978]}, "type": "Feature", "properties": {"collection_times": [{"days": "Mon-Fri", "time": "4:17pm"}, {"days": "Sat", "time": "10:00am"}, {"days": "Sun", "time": "Closed"}], "id": "3893000037", "name": "USPS COLLECTION BOX - BLUE BOX", "address": {"city": "GREENWOOD", "state": "MS", "street": "303 WALTHALL ST.", "postcode": "38930"}}},
{"geometry": {"type": "Point", "coordinates": [-90.2069927422, 33.5263105216]}, "type": "Feature", "properties": {"collection_times": [{"days": "Mon-Fri", "time": "4:45pm"}, {"days": "Sat", "time": "2:00pm"}, {"days": "Sun", "time": "Closed"}], "id": "3893000038", "name": "USPS COLLECTION BOX - BLUE BOX", "address": {"city": "GREENWOOD", "state": "MS", "street": "600 YALOBUSHA ST", "postcode": "38930"}}},
{"geometry": {"type": "Point", "coordinates": [-90.1984148473, 33.5182100116]}, "type": "Feature", "properties": {"collection_times": [{"days": "Mon-Sat", "time": "12:00pm"}, {"days": "Sun", "time": "Closed"}], "id": "3893000040", "name": "USPS COLLECTION BOX - BLUE BOX", "address": {"city": "GREENWOOD", "state": "MS", "street": "1401 RIVER RD", "postcode": "38930"}}},
{"geometry": {"type": "Point", "coordinates": [-90.2069927422, 33.5263105216]}, "type": "Feature", "properties": {"collection_times": [{"days": "Mon-Fri", "time": "5:00pm"}, {"days": "Sat", "time": "3:00pm"}, {"days": "Sun", "time": "Closed"}], "id": "3893000042", "name": "USPS COLLECTION BOX - PO LOBBY", "address": {"city": "GREENWOOD", "state": "MS", "street": "600 YALOBUSHA ST", "postcode": "38930"}}},
{"geometry": {"type": "Point", "coordinates": [-90.2069927422, 33.5263105216]}, "type": "Feature", "properties": {"collection_times": [{"days": "Mon-Fri", "time": "5:00pm"}, {"days": "Sat", "time": "3:00pm"}, {"days": "Sun", "time": "Closed"}], "id": "3893000043", "name": "USPS COLLECTION BOX - PO LOBBY", "address": {"city": "GREENWOOD", "state": "MS", "street": "600 YALOBUSHA ST", "postcode": "38930"}}},
{"geometry": {"type": "Point", "coordinates": [-90.2069927422, 33.5263105216]}, "type": "Feature", "properties": {"collection_times": [{"days": "Mon-Fri", "time": "5:00pm"}, {"days": "Sat", "time": "3:00pm"}, {"days": "Sun", "time": "Closed"}], "id": "3893000044", "name": "USPS COLLECTION BOX - PO LOBBY", "address": {"city": "GREENWOOD", "state": "MS", "street": "600 YALOBUSHA ST", "postcode": "38930"}}},
{"geometry": {"type": "Point", "coordinates": [-89.9763790472, 33.7646454671]}, "type": "Feature", "properties": {"collection_times": [{"days": "Mon-Fri", "time": "3:30pm"}, {"days": "Sat", "time": "9:30am"}, {"days": "Sun", "time": "Closed"}], "id": "3894000000", "name": "USPS COLLECTION BOX - BLUE BOX", "address": {"city": "HOLCOMB", "state": "MS", "street": "8334 HIGHWAY 7 S", "postcode": "38940"}}},
{"geometry": {"type": "Point", "coordinates": [-89.9763790472, 33.7646454671]}, "type": "Feature", "properties": {"collection_times": [{"days": "Mon-Fri", "time": "11:30am"}, {"days": "Sat", "time": "9:30am"}, {"days": "Sun", "time": "Closed"}], "id": "3894000001", "name": "USPS COLLECTION BOX - PO LOBBY", "address": {"city": "HOLCOMB", "state": "MS", "street": "8334 HIGHWAY 7 S", "postcode": "38940"}}},
{"geometry": {"type": "Point", "coordinates": [-90.3211469976, 33.4950514287]}, "type": "Feature", "properties": {"collection_times": [{"days": "Mon-Fri", "time": "4:15pm"}, {"days": "Sat", "time": "10:00am"}, {"days": "Sun", "time": "Closed"}], "id": "3894100000", "name": "USPS COLLECTION BOX - BLUE BOX", "address": {"city": "ITTA BENA", "state": "MS", "street": "100 DEWEY ST", "postcode": "38941"}}},
{"geometry": {"type": "Point", "coordinates": [-90.3211469976, 33.4950514287]}, "type": "Feature", "properties": {"collection_times": [{"days": "Mon-Fri", "time": "4:15pm"}, {"days": "Sat", "time": "10:00am"}, {"days": "Sun", "time": "Closed"}], "id": "3894100001", "name": "USPS COLLECTION BOX - PO LOBBY", "address": {"city": "ITTA BENA", "state": "MS", "street": "100 DEWEY ST", "postcode": "38941"}}},
{"geometry": {"type": "Point", "coordinates": [-89.8473248253, 33.5928482771]}, "type": "Feature", "properties": {"collection_times": [{"days": "Mon-Fri", "time": "4:30pm"}, {"days": "Sat", "time": "11:30am"}, {"days": "Sun", "time": "Closed"}], "id": "3894300000", "name": "USPS COLLECTION BOX - BLUE BOX", "address": {"city": "MCCARLEY", "state": "MS", "street": "4294 COUNTY ROAD 282", "postcode": "38943"}}},
{"geometry": {"type": "Point", "coordinates": [-89.8473248253, 33.5928482771]}, "type": "Feature", "properties": {"collection_times": [{"days": "Mon-Fri", "time": "1:50pm"}, {"days": "Sat", "time": "11:30am"}, {"days": "Sun", "time": "Closed"}], "id": "3894300001", "name": "USPS COLLECTION BOX - PO LOBBY", "address": {"city": "MCCARLEY", "state": "MS", "street": "4294 COUNTY ROAD 282", "postcode": "38943"}}},
{"geometry": {"type": "Point", "coordinates": [-90.3139212711, 33.7400263764]}, "type": "Feature", "properties": {"collection_times": [{"days": "Mon-Fri", "time": "3:45pm"}, {"days": "Sat-Sun", "time": "Closed"}], "id": "3894400000", "name": "USPS COLLECTION BOX - BLUE BOX", "address": {"city": "MINTER CITY", "state": "MS", "street": "28771 HIGHWAY 49", "postcode": "38944"}}},
{"geometry": {"type": "Point", "coordinates": [-90.3139212711, 33.7400263764]}, "type": "Feature", "properties": {"collection_times": [{"days": "Mon-Fri", "time": "11:30am"}, {"days": "Sat", "time": "9:00am"}, {"days": "Sun", "time": "Closed"}], "id": "3894400001", "name": "USPS COLLECTION BOX - PO LOBBY", "address": {"city": "MINTER CITY", "state": "MS", "street": "28771 HIGHWAY 49", "postcode": "38944"}}},
{"geometry": {"type": "Point", "coordinates": [-90.3505640351, 33.37981151]}, "type": "Feature", "properties": {"collection_times": [{"days": "Mon-Fri", "time": "2:30pm"}, {"days": "Sat", "time": "1:30pm"}, {"days": "Sun", "time": "Closed"}], "id": "3894600000", "name": "USPS COLLECTION BOX - PO LOBBY", "address": {"city": "MORGAN CITY", "state": "MS", "street": "208 DELTA ST", "postcode": "38946"}}},
{"geometry": {"type": "Point", "coordinates": [-90.3505640351, 33.37981151]}, "type": "Feature", "properties": {"collection_times": [{"days": "Mon-Fri", "time": "3:15pm"}, {"days": "Sat", "time": "10:40am"}, {"days": "Sun", "time": "Closed"}], "id": "3894600001", "name": "USPS COLLECTION BOX - BLUE BOX", "address": {"city": "MORGAN CITY", "state": "MS", "street": "208 DELTA ST", "postcode": "38946"}}},
{"geometry": {"type": "Point", "coordinates": [-89.9198475111, 33.5148447118]}, "type": "Feature", "properties": {"collection_times": [{"days": "Mon-Fri", "time": "4:00pm"}, {"days": "Sat-Sun", "time": "Closed"}], "id": "3894700000", "name": "USPS COLLECTION BOX - BLUE BOX", "address": {"city": "NORTH CARROLLTON", "state": "MS", "street": "101 MCCAIN", "postcode": "38947"}}},
{"geometry": {"type": "Point", "coordinates": [-89.9198475111, 33.5148447118]}, "type": "Feature", "properties": {"collection_times": [{"days": "Mon-Fri", "time": "12:00pm"}, {"days": "Sat", "time": "9:00am"}, {"days": "Sun", "time": "Closed"}], "id": "3894700001", "name": "USPS COLLECTION BOX - PO LOBBY", "address": {"city": "NORTH CARROLLTON", "state": "MS", "street": "101 MCCAIN", "postcode": "38947"}}},
{"geometry": {"type": "Point", "coordinates": [-89.8555483289, 34.0948130428]}, "type": "Feature", "properties": {"collection_times": [{"days": "Mon-Fri", "time": "3:40pm"}, {"days": "Sat", "time": "10:30am"}, {"days": "Sun", "time": "Closed"}], "id": "3894800000", "name": "USPS COLLECTION BOX - BLUE BOX", "address": {"city": "OAKLAND", "state": "MS", "street": "MAIN ST ST", "postcode": "38948"}}},
{"geometry": {"type": "Point", "coordinates": [-89.8555483289, 34.0948130428]}, "type": "Feature", "properties": {"collection_times": [{"days": "Mon-Fri", "time": "11:30am"}, {"days": "Sat", "time": "10:30am"}, {"days": "Sun", "time": "Closed"}], "id": "3894800001", "name": "USPS COLLECTION BOX - PO LOBBY", "address": {"city": "OAKLAND", "state": "MS", "street": "MAIN ST ST", "postcode": "38948"}}},
{"geometry": {"type": "Point", "coordinates": [-90.18064241, 33.7461879203]}, "type": "Feature", "properties": {"collection_times": [{"days": "Mon-Fri", "time": "2:00pm"}, {"days": "Sat", "time": "9:00am"}, {"days": "Sun", "time": "Closed"}], "id": "3895000000", "name": "USPS COLLECTION BOX - PO LOBBY", "address": {"city": "PHILIPP", "state": "MS", "street": "1277 HIGHWAY 8", "postcode": "38950"}}},
{"geometry": {"type": "Point", "coordinates": [-90.18064241, 33.7461879203]}, "type": "Feature", "properties": {"collection_times": [{"days": "Mon-Fri", "time": "3:45pm"}, {"days": "Sat-Sun", "time": "Closed"}], "id": "3895000001", "name": "USPS COLLECTION BOX - BLUE BOX", "address": {"city": "PHILIPP", "state": "MS", "street": "1277 HIGHWAY 8", "postcode": "38950"}}},
{"geometry": {"type": "Point", "coordinates": [-89.3379305438, 33.9401196327]}, "type": "Feature", "properties": {"collection_times": [{"days": "Mon-Fri", "time": "4:15pm"}, {"days": "Sat-Sun", "time": "Closed"}], "id": "3895100000", "name": "USPS COLLECTION BOX - BLUE BOX", "address": {"city": "PITTSBORO", "state": "MS", "street": "104 N MURPHREE ST", "postcode": "38951"}}},
{"geometry": {"type": "Point", "coordinates": [-89.3382859565, 33.9407112027]}, "type": "Feature", "properties": {"collection_times": [{"days": "Mon-Fri", "time": "12:00pm"}, {"days": "Sat", "time": "9:00am"}, {"days": "Sun", "time": "Closed"}], "id": "3895100001", "name": "USPS COLLECTION BOX - PO LOBBY", "address": {"city": "PITTSBORO", "state": "MS", "street": "104 N MURPHREE ST", "postcode": "38951"}}},
{"geometry": {"type": "Point", "coordinates": [-90.3483951026, 33.6418093623]}, "type": "Feature", "properties": {"collection_times": [{"days": "Mon-Fri", "time": "11:30am"}, {"days": "Sat", "time": "9:15am"}, {"days": "Sun", "time": "Closed"}], "id": "3895200000", "name": "USPS COLLECTION BOX - PO LOBBY", "address": {"city": "SCHLATER", "state": "MS", "street": "101 BEATRICE ST", "postcode": "38952"}}},
{"geometry": {"type": "Point", "coordinates": [-90.3483951026, 33.6418093623]}, "type": "Feature", "properties": {"collection_times": [{"days": "Mon-Fri", "time": "3:45pm"}, {"days": "Sat", "time": "9:15am"}, {"days": "Sun", "time": "Closed"}], "id": "3895200001", "name": "USPS COLLECTION BOX - BLUE BOX", "address": {"city": "SCHLATER", "state": "MS", "street": "101 BEATRICE ST", "postcode": "38952"}}},
{"geometry": {"type": "Point", "coordinates": [-89.8513655378, 33.925715473]}, "type": "Feature", "properties": {"collection_times": [{"days": "Mon-Fri", "time": "3:25pm"}, {"days": "Sat", "time": "9:45am"}, {"days": "Sun", "time": "Closed"}], "id": "3895300000", "name": "USPS COLLECTION BOX - BLUE BOX", "address": {"city": "SCOBEY", "state": "MS", "street": "N HWY 51", "postcode": "38953"}}},
{"geometry": {"type": "Point", "coordinates": [-89.8807637066, 33.929639086]}, "type": "Feature", "properties": {"collection_times": [{"days": "Mon-Fri", "time": "4:00pm"}, {"days": "Sat", "time": "9:45am"}, {"days": "Sun", "time": "Closed"}], "id": "3895300001", "name": "USPS COLLECTION BOX - PO LOBBY", "address": {"city": "SCOBEY", "state": "MS", "street": "N HWY 51", "postcode": "38953"}}},
{"geometry": {"type": "Point", "coordinates": [-90.18181882, 33.4017299603]}, "type": "Feature", "properties": {"collection_times": [{"days": "Mon-Fri", "time": "3:55pm"}, {"days": "Sat-Sun", "time": "Closed"}], "id": "3895400000", "name": "USPS COLLECTION BOX - BLUE BOX", "address": {"city": "SIDON", "state": "MS", "street": "W RAILROAD AVE", "postcode": "38954"}}},
{"geometry": {"type": "Point", "coordinates": [-90.18181882, 33.4017299603]}, "type": "Feature", "properties": {"collection_times": [{"days": "Mon-Fri", "time": "12:00pm"}, {"days": "Sat", "time": "9:00am"}, {"days": "Sun", "time": "Closed"}], "id": "3895400001", "name": "USPS COLLECTION BOX - PO LOBBY", "address": {"city": "SIDON", "state": "MS", "street": "W RAILROAD AVE", "postcode": "38954"}}},
{"geometry": {"type": "Point", "coordinates": [-90.3700597649, 33.9711947632]}, "type": "Feature", "properties": {"collection_times": [{"days": "Mon-Fri", "time": "4:00pm"}, {"days": "Sat-Sun", "time": "Closed"}], "id": "3895700000", "name": "USPS COLLECTION BOX - BLUE BOX", "address": {"city": "SUMNER", "state": "MS", "street": "508 WAYNE ST", "postcode": "38957"}}},
{"geometry": {"type": "Point", "coordinates": [-90.3700597649, 33.9711947632]}, "type": "Feature", "properties": {"collection_times": [{"days": "Mon-Fri", "time": "12:00pm"}, {"days": "Sat", "time": "9:00am"}, {"days": "Sun", "time": "Closed"}], "id": "3895700001", "name": "USPS COLLECTION BOX - PO LOBBY", "address": {"city": "SUMNER", "state": "MS", "street": "508 WAYNE ST", "postcode": "38957"}}},
{"geometry": {"type": "Point", "coordinates": [-89.8544401166, 33.9717957933]}, "type": "Feature", "properties": {"collection_times": [{"days": "Mon-Fri", "time": "3:30pm"}, {"days": "Sat-Sun", "time": "Closed"}], "id": "3896100000", "name": "USPS COLLECTION BOX - BLUE BOX", "address": {"city": "TILLATOBA", "state": "MS", "street": "HWY 330 W", "postcode": "38961"}}},
{"geometry": {"type": "Point", "coordinates": [-89.8544401166, 33.9717957933]}, "type": "Feature", "properties": {"collection_times": [{"days": "Mon-Fri", "time": "11:30am"}, {"days": "Sat", "time": "9:00am"}, {"days": "Sun", "time": "Closed"}], "id": "3896100001", "name": "USPS COLLECTION BOX - PO LOBBY", "address": {"city": "TILLATOBA", "state": "MS", "street": "HWY 330 W", "postcode": "38961"}}},
{"geometry": {"type": "Point", "coordinates": [-90.1804974899, 33.9117960422]}, "type": "Feature", "properties": {"collection_times": [{"days": "Mon-Fri", "time": "3:30pm"}, {"days": "Sat", "time": "11:15am"}, {"days": "Sun", "time": "Closed"}], "id": "3896200000", "name": "USPS COLLECTION BOX - BLUE BOX", "address": {"city": "TIPPO", "state": "MS", "street": "2309 TIPPO RD", "postcode": "38962"}}},
{"geometry": {"type": "Point", "coordinates": [-90.1804974899, 33.9117960422]}, "type": "Feature", "properties": {"collection_times": [{"days": "Mon-Fri", "time": "2:15pm"}, {"days": "Sat", "time": "11:15am"}, {"days": "Sun", "time": "Closed"}], "id": "3896200001", "name": "USPS COLLECTION BOX - PO LOBBY", "address": {"city": "TIPPO", "state": "MS", "street": "2309 TIPPO RD", "postcode": "38962"}}},
{"geometry": {"type": "Point", "coordinates": [-90.4256816849, 34.0132493632]}, "type": "Feature", "properties": {"collection_times": [{"days": "Mon-Fri", "time": "4:00pm"}, {"days": "Sat", "time": "11:00am"}, {"days": "Sun", "time": "Closed"}], "id": "3896300001", "name": "USPS COLLECTION BOX - BLUE BOX", "address": {"city": "TUTWILER", "state": "MS", "street": "201 ALMA ST", "postcode": "38963"}}},
{"geometry": {"type": "Point", "coordinates": [-90.4256816849, 34.0132493632]}, "type": "Feature", "properties": {"collection_times": [{"days": "Mon-Fri", "time": "3:45pm"}, {"days": "Sat", "time": "11:00am"}, {"days": "Sun", "time": "Closed"}], "id": "3896300002", "name": "USPS COLLECTION BOX - PO LOBBY", "address": {"city": "TUTWILER", "state": "MS", "street": "201 ALMA ST", "postcode": "38963"}}},
{"geometry": {"type": "Point", "coordinates": [-90.3574988868, 34.1055001877]}, "type": "Feature", "properties": {"collection_times": [{"days": "Mon-Fri", "time": "3:15pm"}, {"days": "Sat-Sun", "time": "Closed"}], "id": "3896400000", "name": "USPS COLLECTION BOX - BLUE BOX", "address": {"city": "VANCE", "state": "MS", "street": "13745 CHARLEY PRIDE HWY", "postcode": "38964"}}},
{"geometry": {"type": "Point", "coordinates": [-90.3328973373, 34.1072694389]}, "type": "Feature", "properties": {"collection_times": [{"days": "Mon-Fri", "time": "2:50pm"}, {"days": "Sat", "time": "9:00am"}, {"days": "Sun", "time": "Closed"}], "id": "3896400001", "name": "USPS COLLECTION BOX - PO LOBBY", "address": {"city": "VANCE", "state": "MS", "street": "13745 CHARLEY PRIDE HWY S", "postcode": "38964"}}},
{"geometry": {"type": "Point", "coordinates": [-89.6312854643, 34.1555690212]}, "type": "Feature", "properties": {"collection_times": [{"days": "Mon-Fri", "time": "4:30pm"}, {"days": "Sat", "time": "2:00pm"}, {"days": "Sun", "time": "Closed"}], "id": "3896500000", "name": "USPS COLLECTION BOX - BLUE BOX", "address": {"city": "WATER VALLEY", "state": "MS", "street": "501 N MAIN ST", "postcode": "38965"}}},
{"geometry": {"type": "Point", "coordinates": [-89.631983896, 34.152262608]}, "type": "Feature", "properties": {"collection_times": [{"days": "Mon-Fri", "time": "4:30pm"}, {"days": "Sat", "time": "2:00pm"}, {"days": "Sun", "time": "Closed"}], "id": "3896500002", "name": "USPS COLLECTION BOX - BLUE BOX", "address": {"city": "WATER VALLEY", "state": "MS", "street": "409 DUNCAN ST", "postcode": "38965"}}},
{"geometry": {"type": "Point", "coordinates": [-89.6312854643, 34.1555690212]}, "type": "Feature", "properties": {"collection_times": [{"days": "Mon-Fri", "time": "4:30pm"}, {"days": "Sat", "time": "2:00pm"}, {"days": "Sun", "time": "Closed"}], "id": "3896500011", "name": "USPS COLLECTION BOX - PO LOBBY", "address": {"city": "WATER VALLEY", "state": "MS", "street": "501 N MAIN ST", "postcode": "38965"}}},
{"geometry": {"type": "Point", "coordinates": [-90.3449385814, 33.9466976539]}, "type": "Feature", "properties": {"collection_times": [{"days": "Mon-Fri", "time": "4:00pm"}, {"days": "Sat", "time": "10:25am"}, {"days": "Sun", "time": "Closed"}], "id": "3896600000", "name": "USPS COLLECTION BOX - BLUE BOX", "address": {"city": "WEBB", "state": "MS", "street": "118 W MAIN ST", "postcode": "38966"}}},
{"geometry": {"type": "Point", "coordinates": [-90.3449385814, 33.9466976539]}, "type": "Feature", "properties": {"collection_times": [{"days": "Mon-Fri", "time": "11:20am"}, {"days": "Sat", "time": "10:25am"}, {"days": "Sun", "time": "Closed"}], "id": "3896600001", "name": "USPS COLLECTION BOX - PO LOBBY", "address": {"city": "WEBB", "state": "MS", "street": "118 W MAIN ST", "postcode": "38966"}}},
{"geometry": {"type": "Point", "coordinates": [-89.72904396, 33.4823041163]}, "type": "Feature", "properties": {"collection_times": [{"days": "Mon-Fri", "time": "4:45pm"}, {"days": "Sat", "time": "2:30pm"}, {"days": "Sun", "time": "Closed"}], "id": "3896700001", "name": "USPS COLLECTION BOX - BLUE BOX", "address": {"city": "WINONA", "state": "MS", "street": "212 SUMMIT ST", "postcode": "38967"}}},
{"geometry": {"type": "Point", "coordinates": [-89.7598801091, 33.4867520256]}, "type": "Feature", "properties": {"collection_times": [{"days": "Mon-Sat", "time": "11:00am"}, {"days": "Sun", "time": "Closed"}], "id": "3896700004", "name": "USPS COLLECTION BOX - BLUE BOX", "address": {"city": "WINONA", "state": "MS", "street": "601 MIDDLETON RD", "postcode": "38967"}}},
{"geometry": {"type": "Point", "coordinates": [-89.736785427, 33.4826752355]}, "type": "Feature", "properties": {"collection_times": [{"days": "Mon-Fri", "time": "12:00pm"}, {"days": "Sat-Sun", "time": "Closed"}], "id": "3896700007", "name": "USPS COLLECTION BOX - BLUE BOX", "address": {"city": "WINONA", "state": "MS", "street": "614 SUMMIT ST", "postcode": "38967"}}},
{"geometry": {"type": "Point", "coordinates": [-89.7307379047, 33.4823907484]}, "type": "Feature", "properties": {"collection_times": [{"days": "Mon-Fri", "time": "5:00pm"}, {"days": "Sat", "time": "2:30pm"}, {"days": "Sun", "time": "Closed"}], "id": "3896700008", "name": "USPS COLLECTION BOX - PO LOBBY", "address": {"city": "WINONA", "state": "MS", "street": "310 SUMMIT ST", "postcode": "38967"}}}
]}
