{"type": "FeatureCollection", "features": [
{"geometry": {"type": "Point", "coordinates": [-90.4873874212, 33.1763383131]}, "type": "Feature", "properties": {"collection_times": [{"days": "Mon-Fri", "time": "4:45pm"}, {"days": "Sat", "time": "10:30am"}, {"days": "Sun", "time": "Closed"}], "id": "3903800001", "name": "USPS COLLECTION BOX - BLUE BOX", "address": {"city": "BELZONI", "state": "MS", "street": "102 CHURCH ST", "postcode": "39038"}}},
{"geometry": {"type": "Point", "coordinates": [-90.4873874212, 33.1763383131]}, "type": "Feature", "properties": {"collection_times": [{"days": "Mon-Fri", "time": "4:45pm"}, {"days": "Sat", "time": "10:30am"}, {"days": "Sun", "time": "Closed"}], "id": "3903800002", "name": "USPS COLLECTION BOX - BLUE BOX", "address": {"city": "BELZONI", "state": "MS", "street": "102 CHURCH ST", "postcode": "39038"}}},
{"geometry": {"type": "Point", "coordinates": [-90.4873874212, 33.1763383131]}, "type": "Feature", "properties": {"collection_times": [{"days": "Mon-Fri", "time": "4:45pm"}, {"days": "Sat", "time": "10:30am"}, {"days": "Sun", "time": "Closed"}], "id": "3903800011", "name": "USPS COLLECTION BOX - PO LOBBY", "address": {"city": "BELZONI", "state": "MS", "street": "102 CHURCH ST", "postcode": "39038"}}},
{"geometry": {"type": "Point", "coordinates": [-90.2611884532, 32.8271126197]}, "type": "Feature", "properties": {"collection_times": [{"days": "Mon-Fri", "time": "3:15pm"}, {"days": "Sat", "time": "8:15am"}, {"days": "Sun", "time": "Closed"}], "id": "3903900000", "name": "USPS COLLECTION BOX - BLUE BOX", "address": {"city": "BENTON", "state": "MS", "street": "1224 OLD HIGHWAY 16", "postcode": "39039"}}},
{"geometry": {"type": "Point", "coordinates": [-90.2611884532, 32.8271126197]}, "type": "Feature", "properties": {"collection_times": [{"days": "Mon-Fri", "time": "3:15pm"}, {"days": "Sat", "time": "8:15am"}, {"days": "Sun", "time": "Closed"}], "id": "3903900001", "name": "USPS COLLECTION BOX - PO LOBBY", "address": {"city": "BENTON", "state": "MS", "street": "1224 OLD HIGHWAY 16", "postcode": "39039"}}},
{"geometry": {"type": "Point", "coordinates": [-90.3660950188, 32.6408977085]}, "type": "Feature", "properties": {"collection_times": [{"days": "Mon-Fri", "time": "3:15pm"}, {"days": "Sat-Sun", "time": "Closed"}], "id": "3904000001", "name": "USPS COLLECTION BOX - BLUE BOX", "address": {"city": "BENTONIA", "state": "MS", "street": "219 W RAILROAD AVE", "postcode": "39040"}}},
{"geometry": {"type": "Point", "coordinates": [-90.4602907709, 32.3489939621]}, "type": "Feature", "properties": {"collection_times": [{"days": "Mon-Fri", "time": "4:00pm"}, {"days": "Sat-Sun", "time": "Closed"}], "id": "3904100001", "name": "USPS COLLECTION BOX - BLUE BOX", "address": {"city": "BOLTON", "state": "MS", "street": "300 W MADISON ST", "postcode": "39041"}}},
{"geometry": {"type": "Point", "coordinates": [-90.4602907709, 32.3489939621]}, "type": "Feature", "properties": {"collection_times": [{"days": "Mon-Fri", "time": "4:00pm"}, {"days": "Sat", "time": "8:00am"}, {"days": "Sun", "time": "Closed"}], "id": "3904100002", "name": "USPS COLLECTION BOX - PO LOBBY", "address": {"city": "BOLTON", "state": "MS", "street": "300 W MADISON ST", "postcode": "39041"}}},
{"geometry": {"type": "Point", "coordinates": [-90.0181857952, 32.2838709917]}, "type": "Feature", "properties": {"collection_times": [{"days": "Mon-Fri", "time": "1:00pm"}, {"days": "Sat-Sun", "time": "Closed"}], "id": "3904200002", "name": "USPS COLLECTION BOX - BLUE BOX", "address": {"city": "BRANDON", "state": "MS", "street": "1500 W GOVERNMENT ST", "postcode": "39042"}}},
{"geometry": {"type": "Point", "coordinates": [-90.0346189971, 32.2838576139]}, "type": "Feature", "properties": {"collection_times": [{"days": "Mon-Fri", "time": "10:00am"}, {"days": "Sat-Sun", "time": "Closed"}], "id": "3904200007", "name": "USPS COLLECTION BOX - BLUE BOX", "address": {"city": "BRANDON", "state": "MS", "street": "1800 W GOVERNMENT ST", "postcode": "39042"}}},
{"geometry": {"type": "Point", "coordinates": [-90.0084244662, 32.2829332923]}, "type": "Feature", "properties": {"collection_times": [{"days": "Mon-Fri", "time": "4:30pm"}, {"days": "Sat", "time": "11:00am"}, {"days": "Sun", "time": "Closed"}], "id": "3904200013", "name": "USPS COLLECTION BOX - BLUE BOX", "address": {"city": "BRANDON", "state": "MS", "street": "1252 W GOVERNMENT ST", "postcode": "39042"}}},
{"geometry": {"type": "Point", "coordinates": [-90.0084244662, 32.2829332923]}, "type": "Feature", "properties": {"collection_times": [{"days": "Mon-Fri", "time": "4:30pm"}, {"days": "Sat", "time": "11:00am"}, {"days": "Sun", "time": "Closed"}], "id": "3904200018", "name": "USPS COLLECTION BOX - PO LOBBY", "address": {"city": "BRANDON", "state": "MS", "street": "1252 W GOVERNMENT ST", "postcode": "39042"}}},
{"geometry": {"type": "Point", "coordinates": [-89.9598509982, 32.2244220339]}, "type": "Feature", "properties": {"collection_times": [{"days": "Mon-Fri", "time": "2:00pm"}, {"days": "Sat-Sun", "time": "Closed"}], "id": "3904200021", "name": "USPS COLLECTION BOX - BLUE BOX", "address": {"city": "BRANDON", "state": "MS", "street": "211 E GOVERNMENT ST", "postcode": "39042"}}},
{"geometry": {"type": "Point", "coordinates": [-89.9598509982, 32.2244220339]}, "type": "Feature", "properties": {"collection_times": [{"days": "Mon-Fri", "time": "2:00pm"}, {"days": "Sat-Sun", "time": "Closed"}], "id": "3904200029", "name": "USPS COLLECTION BOX - BLUE BOX", "address": {"city": "BRANDON", "state": "MS", "street": "211 E GOVERNMENT ST", "postcode": "39042"}}},
{"geometry": {"type": "Point", "coordinates": [-90.0084244662, 32.2829332923]}, "type": "Feature", "properties": {"collection_times": [{"days": "Mon-Fri", "time": "4:30pm"}, {"days": "Sat", "time": "11:00am"}, {"days": "Sun", "time": "Closed"}], "id": "3904200030", "name": "USPS COLLECTION BOX - BLUE BOX", "address": {"city": "BRANDON", "state": "MS", "street": "1252 W GOVERNMENT ST", "postcode": "39042"}}},
{"geometry": {"type": "Point", "coordinates": [-89.9728911202, 32.0238108108]}, "type": "Feature", "properties": {"collection_times": [{"days": "Mon-Fri", "time": "4:00pm"}, {"days": "Sat", "time": "10:00am"}, {"days": "Sun", "time": "Closed"}], "id": "3904400001", "name": "USPS COLLECTION BOX - BLUE BOX", "address": {"city": "BRAXTON", "state": "MS", "street": "120 W MAIN ST", "postcode": "39044"}}},
{"geometry": {"type": "Point", "coordinates": [-89.9710652744, 32.0250475237]}, "type": "Feature", "properties": {"collection_times": [{"days": "Mon-Fri", "time": "2:15pm"}, {"days": "Sat", "time": "10:00am"}, {"days": "Sun", "time": "Closed"}], "id": "3904400002", "name": "USPS COLLECTION BOX - PO LOBBY", "address": {"city": "BRAXTON", "state": "MS", "street": "120 W MAIN ST", "postcode": "39044"}}},
{"geometry": {"type": "Point", "coordinates": [-89.9728911202, 32.0238108108]}, "type": "Feature", "properties": {"collection_times": [{"days": "Mon-Fri", "time": "2:15pm"}, {"days": "Sat", "time": "10:00am"}, {"days": "Sun", "time": "Closed"}], "id": "3904400004", "name": "USPS COLLECTION BOX - PO LOBBY", "address": {"city": "BRAXTON", "state": "MS", "street": "120 W MAIN ST", "postcode": "39044"}}},
{"geometry": {"type": "Point", "coordinates": [-89.8412184396, 32.7868455972]}, "type": "Feature", "properties": {"collection_times": [{"days": "Mon-Fri", "time": "3:45pm"}, {"days": "Sat-Sun", "time": "Closed"}], "id": "3904500001", "name": "USPS COLLECTION BOX - BLUE BOX", "address": {"city": "CAMDEN", "state": "MS", "street": "2124 HIGHWAY 17", "postcode": "39045"}}},
{"geometry": {"type": "Point", "coordinates": [-89.8412184396, 32.7868455972]}, "type": "Feature", "properties": {"collection_times": [{"days": "Mon-Fri", "time": "11:30am"}, {"days": "Sat", "time": "8:00am"}, {"days": "Sun", "time": "Closed"}], "id": "3904500002", "name": "USPS COLLECTION BOX - PO LOBBY", "address": {"city": "CAMDEN", "state": "MS", "street": "2124 HIGHWAY 17", "postcode": "39045"}}},
{"geometry": {"type": "Point", "coordinates": [-90.036320648, 32.6119731249]}, "type": "Feature", "properties": {"collection_times": [{"days": "Mon-Fri", "time": "5:00pm"}, {"days": "Sat", "time": "1:00pm"}, {"days": "Sun", "time": "Closed"}], "id": "3904600001", "name": "USPS COLLECTION BOX - PO LOBBY", "address": {"city": "CANTON", "state": "MS", "street": "150 S UNION ST", "postcode": "39046"}}},
{"geometry": {"type": "Point", "coordinates": [-90.036320648, 32.6119731249]}, "type": "Feature", "properties": {"collection_times": [{"days": "Mon-Fri", "time": "5:00pm"}, {"days": "Sat", "time": "1:00pm"}, {"days": "Sun", "time": "Closed"}], "id": "3904600002", "name": "USPS COLLECTION BOX - PO LOBBY", "address": {"city": "CANTON", "state": "MS", "street": "150 S UNION ST", "postcode": "39046"}}},
{"geometry": {"type": "Point", "coordinates": [-90.036320648, 32.6119731249]}, "type": "Feature", "properties": {"collection_times": [{"days": "Mon-Fri", "time": "5:00pm"}, {"days": "Sat", "time": "1:00pm"}, {"days": "Sun", "time": "Closed"}], "id": "3904600003", "name": "USPS COLLECTION BOX - BLUE BOX", "address": {"city": "CANTON", "state": "MS", "street": "150 S UNION ST", "postcode": "39046"}}},
{"geometry": {"type": "Point", "coordinates": [-90.036320648, 32.6119731249]}, "type": "Feature", "properties": {"collection_times": [{"days": "Mon-Fri", "time": "5:00pm"}, {"days": "Sat", "time": "1:00pm"}, {"days": "Sun", "time": "Closed"}], "id": "3904600004", "name": "USPS COLLECTION BOX - BLUE BOX", "address": {"city": "CANTON", "state": "MS", "street": "150 S UNION ST", "postcode": "39046"}}},
{"geometry": {"type": "Point", "coordinates": [-90.036320648, 32.6119731249]}, "type": "Feature", "properties": {"collection_times": [{"days": "Mon-Fri", "time": "5:00pm"}, {"days": "Sat", "time": "1:00pm"}, {"days": "Sun", "time": "Closed"}], "id": "3904600017", "name": "USPS COLLECTION BOX - BLUE BOX", "address": {"city": "CANTON", "state": "MS", "street": "150 S UNION ST", "postcode": "39046"}}},
{"geometry": {"type": "Point", "coordinates": [-90.036320648, 32.6119731249]}, "type": "Feature", "properties": {"collection_times": [{"days": "Mon-Fri", "time": "5:00pm"}, {"days": "Sat", "time": "1:00pm"}, {"days": "Sun", "time": "Closed"}], "id": "3904600021", "name": "USPS COLLECTION BOX - PO LOBBY", "address": {"city": "CANTON", "state": "MS", "street": "150 S UNION ST", "postcode": "39046"}}},
{"geometry": {"type": "Point", "coordinates": [-90.0138055303, 32.3599191431]}, "type": "Feature", "properties": {"collection_times": [{"days": "Mon-Fri", "time": "4:30pm"}, {"days": "Sat", "time": "11:00am"}, {"days": "Sun", "time": "Closed"}], "id": "3904700001", "name": "USPS COLLECTION BOX - BLUE BOX", "address": {"city": "BRANDON", "state": "MS", "street": "610 GRANTS FERRY RD", "postcode": "39047"}}},
{"geometry": {"type": "Point", "coordinates": [-90.0138055303, 32.3599191431]}, "type": "Feature", "properties": {"collection_times": [{"days": "Mon-Fri", "time": "4:30pm"}, {"days": "Sat", "time": "11:00am"}, {"days": "Sun", "time": "Closed"}], "id": "3904700002", "name": "USPS COLLECTION BOX - BLUE BOX", "address": {"city": "BRANDON", "state": "MS", "street": "610 GRANTS FERRY RD", "postcode": "39047"}}},
{"geometry": {"type": "Point", "coordinates": [-90.0138055303, 32.3599191431]}, "type": "Feature", "properties": {"collection_times": [{"days": "Mon-Fri", "time": "4:30pm"}, {"days": "Sat", "time": "11:00am"}, {"days": "Sun", "time": "Closed"}], "id": "3904700003", "name": "USPS COLLECTION BOX - BLUE BOX", "address": {"city": "BRANDON", "state": "MS", "street": "610 GRANTS FERRY RD", "postcode": "39047"}}},
{"geometry": {"type": "Point", "coordinates": [-90.0138055303, 32.3599191431]}, "type": "Feature", "properties": {"collection_times": [{"days": "Mon-Fri", "time": "4:30pm"}, {"days": "Sat", "time": "11:00am"}, {"days": "Sun", "time": "Closed"}], "id": "3904700004", "name": "USPS COLLECTION BOX - PO LOBBY", "address": {"city": "BRANDON", "state": "MS", "street": "610 GRANTS FERRY RD", "postcode": "39047"}}},
{"geometry": {"type": "Point", "coordinates": [-90.0138055303, 32.3599191431]}, "type": "Feature", "properties": {"collection_times": [{"days": "Mon-Fri", "time": "4:30pm"}, {"days": "Sat", "time": "11:00am"}, {"days": "Sun", "time": "Closed"}], "id": "3904700005", "name": "USPS COLLECTION BOX - PO LOBBY", "address": {"city": "BRANDON", "state": "MS", "street": "610 GRANTS FERRY RD", "postcode": "39047"}}},
{"geometry": {"type": "Point", "coordinates": [-90.0424790222, 32.3818651975]}, "type": "Feature", "properties": {"collection_times": [{"days": "Mon-Fri", "time": "10:00am"}, {"days": "Sat-Sun", "time": "Closed"}], "id": "3904700006", "name": "USPS COLLECTION BOX - BLUE BOX", "address": {"city": "BRANDON", "state": "MS", "street": "1149 OLD FANNIN RD", "postcode": "39047"}}},
{"geometry": {"type": "Point", "coordinates": [-89.5344963299, 32.7377822534]}, "type": "Feature", "properties": {"collection_times": [{"days": "Mon-Fri", "time": "4:15pm"}, {"days": "Sat", "time": "12:00pm"}, {"days": "Sun", "time": "Closed"}], "id": "3905100003", "name": "USPS COLLECTION BOX - BLUE BOX", "address": {"city": "CARTHAGE", "state": "MS", "street": "200 N PEARL ST", "postcode": "39051"}}},
{"geometry": {"type": "Point", "coordinates": [-89.5346070249, 32.7373210503]}, "type": "Feature", "properties": {"collection_times": [{"days": "Mon-Fri", "time": "4:15pm"}, {"days": "Sat", "time": "12:00pm"}, {"days": "Sun", "time": "Closed"}], "id": "3905100004", "name": "USPS COLLECTION BOX - BLUE BOX", "address": {"city": "CARTHAGE", "state": "MS", "street": "201 N PEARL ST", "postcode": "39051"}}},
{"geometry": {"type": "Point", "coordinates": [-89.5344963299, 32.7377822534]}, "type": "Feature", "properties": {"collection_times": [{"days": "Mon-Fri", "time": "4:15pm"}, {"days": "Sat", "time": "12:00pm"}, {"days": "Sun", "time": "Closed"}], "id": "3905100006", "name": "USPS COLLECTION BOX - BLUE BOX", "address": {"city": "CARTHAGE", "state": "MS", "street": "200 N PEARL ST", "postcode": "39051"}}},
{"geometry": {"type": "Point", "coordinates": [-89.5346070249, 32.7373210503]}, "type": "Feature", "properties": {"collection_times": [{"days": "Mon-Fri", "time": "4:15pm"}, {"days": "Sat", "time": "12:00pm"}, {"days": "Sun", "time": "Closed"}], "id": "3905100007", "name": "USPS COLLECTION BOX - PO LOBBY", "address": {"city": "CARTHAGE", "state": "MS", "street": "201 N PEARL ST", "postcode": "39051"}}},
{"geometry": {"type": "Point", "coordinates": [-90.9214112998, 32.8036405638]}, "type": "Feature", "properties": {"collection_times": [{"days": "Mon-Fri", "time": "3:45pm"}, {"days": "Sat-Sun", "time": "Closed"}], "id": "3905400001", "name": "USPS COLLECTION BOX - BLUE BOX", "address": {"city": "CARY", "state": "MS", "street": "95 DOGWOOD ST", "postcode": "39054"}}},
{"geometry": {"type": "Point", "coordinates": [-90.9243901678, 32.8084562058]}, "type": "Feature", "properties": {"collection_times": [{"days": "Mon-Fri", "time": "11:50am"}, {"days": "Sat", "time": "8:00am"}, {"days": "Sun", "time": "Closed"}], "id": "3905400002", "name": "USPS COLLECTION BOX - PO LOBBY", "address": {"city": "CARY", "state": "MS", "street": "95 DOGWOOD ST", "postcode": "39054"}}},
{"geometry": {"type": "Point", "coordinates": [-90.3066447005, 32.3297653528]}, "type": "Feature", "properties": {"collection_times": [{"days": "Mon-Fri", "time": "11:00am"}, {"days": "Sat-Sun", "time": "Closed"}], "id": "3905600003", "name": "USPS COLLECTION BOX - BLUE BOX", "address": {"city": "CLINTON", "state": "MS", "street": "812 HIGHWAY 80 E", "postcode": "39056"}}},
{"geometry": {"type": "Point", "coordinates": [-90.3261653545, 32.333399459]}, "type": "Feature", "properties": {"collection_times": [{"days": "Mon-Fri", "time": "11:00am"}, {"days": "Sat-Sun", "time": "Closed"}], "id": "3905600004", "name": "USPS COLLECTION BOX - BLUE BOX", "address": {"city": "CLINTON", "state": "MS", "street": "117 HIGHWAY 80 E", "postcode": "39056"}}},
{"geometry": {"type": "Point", "coordinates": [-90.3257623326, 32.3218073712]}, "type": "Feature", "properties": {"collection_times": [{"days": "Mon-Fri", "time": "11:00am"}, {"days": "Sat-Sun", "time": "Closed"}], "id": "3905600005", "name": "USPS COLLECTION BOX - BLUE BOX", "address": {"city": "CLINTON", "state": "MS", "street": "501 SPRINGRIDGE RD", "postcode": "39056"}}},
{"geometry": {"type": "Point", "coordinates": [-90.3130239035, 32.3347934768]}, "type": "Feature", "properties": {"collection_times": [{"days": "Mon-Fri", "time": "11:00am"}, {"days": "Sat-Sun", "time": "Closed"}], "id": "3905600008", "name": "USPS COLLECTION BOX - BLUE BOX", "address": {"city": "CLINTON", "state": "MS", "street": "204 CLINTON BLVD", "postcode": "39056"}}},
{"geometry": {"type": "Point", "coordinates": [-90.3130239035, 32.3347934768]}, "type": "Feature", "properties": {"collection_times": [{"days": "Mon-Fri", "time": "11:00am"}, {"days": "Sat-Sun", "time": "Closed"}], "id": "3905600009", "name": "USPS COLLECTION BOX - BLUE BOX", "address": {"city": "CLINTON", "state": "MS", "street": "204 CLINTON BLVD", "postcode": "39056"}}},
{"geometry": {"type": "Point", "coordinates": [-90.3137572478, 32.3477275221]}, "type": "Feature", "properties": {"collection_times": [{"days": "Mon-Fri", "time": "11:00am"}, {"days": "Sat-Sun", "time": "Closed"}], "id": "3905600010", "name": "USPS COLLECTION BOX - BLUE BOX", "address": {"city": "CLINTON", "state": "MS", "street": "822 E NORTHSIDE DR", "postcode": "39056"}}},
{"geometry": {"type": "Point", "coordinates": [-90.3383062463, 32.3365996541]}, "type": "Feature", "properties": {"collection_times": [{"days": "Mon-Fri", "time": "3:00pm"}, {"days": "Sat-Sun", "time": "Closed"}], "id": "3905600016", "name": "USPS COLLECTION BOX - BLUE BOX", "address": {"city": "CLINTON", "state": "MS", "street": "606 HIGHWAY 80 W", "postcode": "39056"}}},
{"geometry": {"type": "Point", "coordinates": [-90.3383062463, 32.3365996541]}, "type": "Feature", "properties": {"collection_times": [{"days": "Mon-Fri", "time": "3:00pm"}, {"days": "Sat-Sun", "time": "Closed"}], "id": "3905600018", "name": "USPS COLLECTION BOX - BLUE BOX", "address": {"city": "CLINTON", "state": "MS", "street": "606 HIGHWAY 80 W", "postcode": "39056"}}},
{"geometry": {"type": "Point", "coordinates": [-90.3293275423, 32.3412417168]}, "type": "Feature", "properties": {"collection_times": [{"days": "Mon-Fri", "time": "4:30pm"}, {"days": "Sat", "time": "12:00pm"}, {"days": "Sun", "time": "Closed"}], "id": "3905600022", "name": "USPS COLLECTION BOX - BLUE BOX", "address": {"city": "CLINTON", "state": "MS", "street": "100 E LAWSON ST", "postcode": "39056"}}},
{"geometry": {"type": "Point", "coordinates": [-90.3294170363, 32.3412244925]}, "type": "Feature", "properties": {"collection_times": [{"days": "Mon-Fri", "time": "4:30pm"}, {"days": "Sat", "time": "12:00pm"}, {"days": "Sun", "time": "Closed"}], "id": "3905600023", "name": "USPS COLLECTION BOX - BLUE BOX", "address": {"city": "CLINTON", "state": "MS", "street": "100 E LAWSON ST", "postcode": "39056"}}},
{"geometry": {"type": "Point", "coordinates": [-90.3294170363, 32.3412244925]}, "type": "Feature", "properties": {"collection_times": [{"days": "Mon-Fri", "time": "4:30pm"}, {"days": "Sat", "time": "12:00pm"}, {"days": "Sun", "time": "Closed"}], "id": "3905600024", "name": "USPS COLLECTION BOX - BLUE BOX", "address": {"city": "CLINTON", "state": "MS", "street": "100 E LAWSON ST", "postcode": "39056"}}},
{"geometry": {"type": "Point", "coordinates": [-90.3294170363, 32.3412244925]}, "type": "Feature", "properties": {"collection_times": [{"days": "Mon-Fri", "time": "4:30pm"}, {"days": "Sat", "time": "12:00pm"}, {"days": "Sun", "time": "Closed"}], "id": "3905600029", "name": "USPS COLLECTION BOX - PO LOBBY", "address": {"city": "CLINTON", "state": "MS", "street": "100 E LAWSON ST", "postcode": "39056"}}},
{"geometry": {"type": "Point", "coordinates": [-90.3383062463, 32.3365996541]}, "type": "Feature", "properties": {"collection_times": [{"days": "Mon-Fri", "time": "3:00pm"}, {"days": "Sat-Sun", "time": "Closed"}], "id": "3905600031", "name": "USPS COLLECTION BOX - BLUE BOX", "address": {"city": "CLINTON", "state": "MS", "street": "606 HIGHWAY 80 W", "postcode": "39056"}}},
{"geometry": {"type": "Point", "coordinates": [-89.2781519624, 32.4184872624]}, "type": "Feature", "properties": {"collection_times": [{"days": "Mon-Fri", "time": "4:00pm"}, {"days": "Sat-Sun", "time": "Closed"}], "id": "3905700001", "name": "USPS COLLECTION BOX - BLUE BOX", "address": {"city": "CONEHATTA", "state": "MS", "street": "8396 HIGHWAY 489", "postcode": "39057"}}},
{"geometry": {"type": "Point", "coordinates": [-89.2781519624, 32.4184872624]}, "type": "Feature", "properties": {"collection_times": [{"days": "Mon-Fri", "time": "11:30am"}, {"days": "Sat", "time": "8:00am"}, {"days": "Sun", "time": "Closed"}], "id": "3905700002", "name": "USPS COLLECTION BOX - PO LOBBY", "address": {"city": "CONEHATTA", "state": "MS", "street": "8396 HIGHWAY 489", "postcode": "39057"}}},
{"geometry": {"type": "Point", "coordinates": [-90.3572186802, 31.9860348239]}, "type": "Feature", "properties": {"collection_times": [{"days": "Mon-Fri", "time": "4:30pm"}, {"days": "Sat", "time": "10:30am"}, {"days": "Sun", "time": "Closed"}], "id": "3905900009", "name": "USPS COLLECTION BOX - BLUE BOX", "address": {"city": "CRYSTAL SPRINGS", "state": "MS", "street": "301 E MARION AVE", "postcode": "39059"}}},
{"geometry": {"type": "Point", "coordinates": [-90.3572186802, 31.9860348239]}, "type": "Feature", "properties": {"collection_times": [{"days": "Mon-Fri", "time": "4:30pm"}, {"days": "Sat", "time": "10:30am"}, {"days": "Sun", "time": "Closed"}], "id": "3905900015", "name": "USPS COLLECTION BOX - BLUE BOX", "address": {"city": "CRYSTAL SPRINGS", "state": "MS", "street": "301 E MARION AVE", "postcode": "39059"}}},
{"geometry": {"type": "Point", "coordinates": [-90.3572186802, 31.9860348239]}, "type": "Feature", "properties": {"collection_times": [{"days": "Mon-Fri", "time": "4:30pm"}, {"days": "Sat", "time": "10:30am"}, {"days": "Sun", "time": "Closed"}], "id": "3905900016", "name": "USPS COLLECTION BOX - PO LOBBY", "address": {"city": "CRYSTAL SPRINGS", "state": "MS", "street": "301 E MARION AVE", "postcode": "39059"}}},
{"geometry": {"type": "Point", "coordinates": [-89.894462428, 31.981004753]}, "type": "Feature", "properties": {"collection_times": [{"days": "Mon-Fri", "time": "4:00pm"}, {"days": "Sat-Sun", "time": "Closed"}], "id": "3906200001", "name": "USPS COLLECTION BOX - BLUE BOX", "address": {"city": "D'LO", "state": "MS", "street": "2135 SIMPSON HIGHWAY 149", "postcode": "39062"}}},
{"geometry": {"type": "Point", "coordinates": [-89.8553172836, 33.0738378784]}, "type": "Feature", "properties": {"collection_times": [{"days": "Mon-Fri", "time": "4:30pm"}, {"days": "Sat", "time": "10:00am"}, {"days": "Sun", "time": "Closed"}], "id": "3906300001", "name": "USPS COLLECTION BOX - BLUE BOX", "address": {"city": "DURANT", "state": "MS", "street": "15243 S JACKSON ST", "postcode": "39063"}}},
{"geometry": {"type": "Point", "coordinates": [-89.8553172836, 33.0738378784]}, "type": "Feature", "properties": {"collection_times": [{"days": "Mon-Fri", "time": "4:30pm"}, {"days": "Sat", "time": "10:00am"}, {"days": "Sun", "time": "Closed"}], "id": "3906300003", "name": "USPS COLLECTION BOX - PO LOBBY", "address": {"city": "DURANT", "state": "MS", "street": "15243 S JACKSON ST", "postcode": "39063"}}},
{"geometry": {"type": "Point", "coordinates": [-89.8553172836, 33.0738378784]}, "type": "Feature", "properties": {"collection_times": [{"days": "Mon-Fri", "time": "4:30pm"}, {"days": "Sat", "time": "10:00am"}, {"days": "Sun", "time": "Closed"}], "id": "3906300005", "name": "USPS COLLECTION BOX - BLUE BOX", "address": {"city": "DURANT", "state": "MS", "street": "15243 S JACKSON ST", "postcode": "39063"}}},
{"geometry": {"type": "Point", "coordinates": [-90.6044316472, 32.3304506604]}, "type": "Feature", "properties": {"collection_times": [{"days": "Mon-Fri", "time": "4:00pm"}, {"days": "Sat", "time": "10:00am"}, {"days": "Sun", "time": "Closed"}], "id": "3906600002", "name": "USPS COLLECTION BOX - PO LOBBY", "address": {"city": "EDWARDS", "state": "MS", "street": "100 WITHERS ST", "postcode": "39066"}}},
{"geometry": {"type": "Point", "coordinates": [-90.6044316472, 32.3304506604]}, "type": "Feature", "properties": {"collection_times": [{"days": "Mon-Fri", "time": "4:00pm"}, {"days": "Sat", "time": "10:00am"}, {"days": "Sun", "time": "Closed"}], "id": "3906600004", "name": "USPS COLLECTION BOX - BLUE BOX", "address": {"city": "EDWARDS", "state": "MS", "street": "100 WITHERS ST", "postcode": "39066"}}},
{"geometry": {"type": "Point", "coordinates": [-90.6044316472, 32.3304506604]}, "type": "Feature", "properties": {"collection_times": [{"days": "Mon-Fri", "time": "4:00pm"}, {"days": "Sat", "time": "10:00am"}, {"days": "Sun", "time": "Closed"}], "id": "3906600005", "name": "USPS COLLECTION BOX - PO LOBBY", "address": {"city": "EDWARDS", "state": "MS", "street": "100 WITHERS ST", "postcode": "39066"}}},
{"geometry": {"type": "Point", "coordinates": [-89.4641259159, 33.1224763706]}, "type": "Feature", "properties": {"collection_times": [{"days": "Mon-Fri", "time": "3:50pm"}, {"days": "Sat-Sun", "time": "Closed"}], "id": "3906700001", "name": "USPS COLLECTION BOX - BLUE BOX", "address": {"city": "ETHEL", "state": "MS", "street": "2112 MAIN ST", "postcode": "39067"}}},
{"geometry": {"type": "Point", "coordinates": [-89.4641259159, 33.1224763706]}, "type": "Feature", "properties": {"collection_times": [{"days": "Mon-Fri", "time": "2:30pm"}, {"days": "Sat", "time": "8:00am"}, {"days": "Sun", "time": "Closed"}], "id": "3906700002", "name": "USPS COLLECTION BOX - PO LOBBY", "address": {"city": "ETHEL", "state": "MS", "street": "2112 MAIN ST", "postcode": "39067"}}},
{"geometry": {"type": "Point", "coordinates": [-91.0610887548, 31.7132977424]}, "type": "Feature", "properties": {"collection_times": [{"days": "Mon-Fri", "time": "4:30pm"}, {"days": "Sat", "time": "10:30am"}, {"days": "Sun", "time": "Closed"}], "id": "3906900001", "name": "USPS COLLECTION BOX - BLUE BOX", "address": {"city": "FAYETTE", "state": "MS", "street": "215 E MEAD ST", "postcode": "39069"}}},
{"geometry": {"type": "Point", "coordinates": [-91.0610887548, 31.7132977424]}, "type": "Feature", "properties": {"collection_times": [{"days": "Mon-Fri", "time": "4:30pm"}, {"days": "Sat", "time": "10:30am"}, {"days": "Sun", "time": "Closed"}], "id": "3906900003", "name": "USPS COLLECTION BOX - PO LOBBY", "address": {"city": "FAYETTE", "state": "MS", "street": "215 E MEAD ST", "postcode": "39069"}}},
{"geometry": {"type": "Point", "coordinates": [-91.0610887548, 31.7132977424]}, "type": "Feature", "properties": {"collection_times": [{"days": "Mon-Fri", "time": "4:30pm"}, {"days": "Sat", "time": "10:30am"}, {"days": "Sun", "time": "Closed"}], "id": "3906900004", "name": "USPS COLLECTION BOX - BLUE BOX", "address": {"city": "FAYETTE", "state": "MS", "street": "215 E MEAD ST", "postcode": "39069"}}},
{"geometry": {"type": "Point", "coordinates": [-90.310762951, 32.5428762115]}, "type": "Feature", "properties": {"collection_times": [{"days": "Mon-Fri", "time": "4:00pm"}, {"days": "Sat", "time": "10:30am"}, {"days": "Sun", "time": "Closed"}], "id": "3907100001", "name": "USPS COLLECTION BOX - BLUE BOX", "address": {"city": "FLORA", "state": "MS", "street": "4852 MAIN ST", "postcode": "39071"}}},
{"geometry": {"type": "Point", "coordinates": [-90.310762951, 32.5428762115]}, "type": "Feature", "properties": {"collection_times": [{"days": "Mon-Fri", "time": "4:00pm"}, {"days": "Sat", "time": "10:30am"}, {"days": "Sun", "time": "Closed"}], "id": "3907100002", "name": "USPS COLLECTION BOX - PO LOBBY", "address": {"city": "FLORA", "state": "MS", "street": "4852 MAIN ST", "postcode": "39071"}}},
{"geometry": {"type": "Point", "coordinates": [-90.1319552894, 32.1472890225]}, "type": "Feature", "properties": {"collection_times": [{"days": "Mon-Fri", "time": "5:00pm"}, {"days": "Sat", "time": "10:30am"}, {"days": "Sun", "time": "Closed"}], "id": "3907300002", "name": "USPS COLLECTION BOX - BLUE BOX", "address": {"city": "FLORENCE", "state": "MS", "street": "250 S CHURCH ST", "postcode": "39073"}}},
{"geometry": {"type": "Point", "coordinates": [-90.1319552894, 32.1472890225]}, "type": "Feature", "properties": {"collection_times": [{"days": "Mon-Fri", "time": "5:00pm"}, {"days": "Sat", "time": "10:30am"}, {"days": "Sun", "time": "Closed"}], "id": "3907300003", "name": "USPS COLLECTION BOX - BLUE BOX", "address": {"city": "FLORENCE", "state": "MS", "street": "250 S CHURCH ST", "postcode": "39073"}}},
{"geometry": {"type": "Point", "coordinates": [-90.1319552894, 32.1472890225]}, "type": "Feature", "properties": {"collection_times": [{"days": "Mon-Fri", "time": "5:00pm"}, {"days": "Sat", "time": "10:30am"}, {"days": "Sun", "time": "Closed"}], "id": "3907300006", "name": "USPS COLLECTION BOX - PO LOBBY", "address": {"city": "FLORENCE", "state": "MS", "street": "250 S CHURCH ST", "postcode": "39073"}}},
{"geometry": {"type": "Point", "coordinates": [-90.085067157, 32.1314250831]}, "type": "Feature", "properties": {"collection_times": [{"days": "Mon-Fri", "time": "8:30am"}, {"days": "Sat-Sun", "time": "Closed"}], "id": "3907300010", "name": "USPS COLLECTION BOX - BLUE BOX", "address": {"city": "FLORENCE", "state": "MS", "street": "3091 HIGHWAY 49 S", "postcode": "39073"}}},
{"geometry": {"type": "Point", "coordinates": [-90.1319552894, 32.1472890225]}, "type": "Feature", "properties": {"collection_times": [{"days": "Mon-Fri", "time": "5:00pm"}, {"days": "Sat", "time": "10:30am"}, {"days": "Sun", "time": "Closed"}], "id": "3907300017", "name": "USPS COLLECTION BOX - BLUE BOX", "address": {"city": "FLORENCE", "state": "MS", "street": "250 S CHURCH ST", "postcode": "39073"}}},
{"geometry": {"type": "Point", "coordinates": [-90.1319552894, 32.1472890225]}, "type": "Feature", "properties": {"collection_times": [{"days": "Mon-Fri", "time": "5:00pm"}, {"days": "Sat", "time": "10:30am"}, {"days": "Sun", "time": "Closed"}], "id": "3907300018", "name": "USPS COLLECTION BOX - PO LOBBY", "address": {"city": "FLORENCE", "state": "MS", "street": "250 S CHURCH ST", "postcode": "39073"}}},
{"geometry": {"type": "Point", "coordinates": [-89.4729917076, 32.3628836716]}, "type": "Feature", "properties": {"collection_times": [{"days": "Mon-Fri", "time": "4:00pm"}, {"days": "Sat", "time": "10:00am"}, {"days": "Sun", "time": "Closed"}], "id": "3907400004", "name": "USPS COLLECTION BOX - BLUE BOX", "address": {"city": "FOREST", "state": "MS", "street": "224 S DAVIS AVE", "postcode": "39074"}}},
{"geometry": {"type": "Point", "coordinates": [-89.4729917076, 32.3628836716]}, "type": "Feature", "properties": {"collection_times": [{"days": "Mon-Fri", "time": "4:00pm"}, {"days": "Sat", "time": "10:00am"}, {"days": "Sun", "time": "Closed"}], "id": "3907400005", "name": "USPS COLLECTION BOX - BLUE BOX", "address": {"city": "FOREST", "state": "MS", "street": "224 S DAVIS AVE", "postcode": "39074"}}},
{"geometry": {"type": "Point", "coordinates": [-89.4722612577, 32.3629515569]}, "type": "Feature", "properties": {"collection_times": [{"days": "Mon-Fri", "time": "4:00pm"}, {"days": "Sat", "time": "10:00am"}, {"days": "Sun", "time": "Closed"}], "id": "3907400016", "name": "USPS COLLECTION BOX - PO LOBBY", "address": {"city": "FOREST", "state": "MS", "street": "313 E SECOND ST", "postcode": "39074"}}},
{"geometry": {"type": "Point", "coordinates": [-90.3784583073, 31.9471814128]}, "type": "Feature", "properties": {"collection_times": [{"days": "Mon-Fri", "time": "4:00pm"}, {"days": "Sat-Sun", "time": "Closed"}], "id": "3907700001", "name": "USPS COLLECTION BOX - BLUE BOX", "address": {"city": "GALLMAN", "state": "MS", "street": "20140 S HIGHWAY 51", "postcode": "39077"}}},
{"geometry": {"type": "Point", "coordinates": [-90.3784583073, 31.9471814128]}, "type": "Feature", "properties": {"collection_times": [{"days": "Mon-Fri", "time": "11:30am"}, {"days": "Sat", "time": "8:00am"}, {"days": "Sun", "time": "Closed"}], "id": "3907700002", "name": "USPS COLLECTION BOX - PO LOBBY", "address": {"city": "GALLMAN", "state": "MS", "street": "20140 S HIGHWAY 51", "postcode": "39077"}}},
{"geometry": {"type": "Point", "coordinates": [-90.1977131419, 31.8729468167]}, "type": "Feature", "properties": {"collection_times": [{"days": "Mon-Fri", "time": "4:00pm"}, {"days": "Sat-Sun", "time": "Closed"}], "id": "3907800001", "name": "USPS COLLECTION BOX - BLUE BOX", "address": {"city": "GEORGETOWN", "state": "MS", "street": "1052 BROAD ST", "postcode": "39078"}}},
{"geometry": {"type": "Point", "coordinates": [-90.1977131419, 31.8729468167]}, "type": "Feature", "properties": {"collection_times": [{"days": "Mon-Fri", "time": "12:00pm"}, {"days": "Sat", "time": "8:00am"}, {"days": "Sun", "time": "Closed"}], "id": "3907800002", "name": "USPS COLLECTION BOX - PO LOBBY", "address": {"city": "GEORGETOWN", "state": "MS", "street": "1052 BROAD ST", "postcode": "39078"}}},
{"geometry": {"type": "Point", "coordinates": [-89.9055940228, 32.967578892]}, "type": "Feature", "properties": {"collection_times": [{"days": "Mon-Fri", "time": "4:00pm"}, {"days": "Sat-Sun", "time": "Closed"}], "id": "3907900001", "name": "USPS COLLECTION BOX - BLUE BOX", "address": {"city": "GOODMAN", "state": "MS", "street": "9897 MAIN ST", "postcode": "39079"}}},
{"geometry": {"type": "Point", "coordinates": [-89.4866173471, 32.4958942678]}, "type": "Feature", "properties": {"collection_times": [{"days": "Mon-Fri", "time": "4:05pm"}, {"days": "Sat-Sun", "time": "Closed"}], "id": "3908000001", "name": "USPS COLLECTION BOX - BLUE BOX", "address": {"city": "HARPERVILLE", "state": "MS", "street": "INT OF MADDEN & MAIN ST", "postcode": "39080"}}},
{"geometry": {"type": "Point", "coordinates": [-90.0793878658, 31.9724797058]}, "type": "Feature", "properties": {"collection_times": [{"days": "Mon-Fri", "time": "4:30pm"}, {"days": "Sat-Sun", "time": "Closed"}], "id": "3908200001", "name": "USPS COLLECTION BOX - BLUE BOX", "address": {"city": "HARRISVILLE", "state": "MS", "street": "1569 SIMPSON HIGHWAY 469", "postcode": "39082"}}},
{"geometry": {"type": "Point", "coordinates": [-90.0793878658, 31.9724797058]}, "type": "Feature", "properties": {"collection_times": [{"days": "Mon-Fri", "time": "10:00am"}, {"days": "Sat", "time": "8:00am"}, {"days": "Sun", "time": "Closed"}], "id": "3908200002", "name": "USPS COLLECTION BOX - PO LOBBY", "address": {"city": "HARRISVILLE", "state": "MS", "street": "1569 SIMPSON HIGHWAY 469", "postcode": "39082"}}},
{"geometry": {"type": "Point", "coordinates": [-90.3960486346, 31.860557415]}, "type": "Feature", "properties": {"collection_times": [{"days": "Mon-Fri", "time": "4:30pm"}, {"days": "Sat", "time": "11:00am"}, {"days": "Sun", "time": "Closed"}], "id": "3908300003", "name": "USPS COLLECTION BOX - BLUE BOX", "address": {"city": "HAZLEHURST", "state": "MS", "street": "130 CALDWELL DR", "postcode": "39083"}}},
{"geometry": {"type": "Point", "coordinates": [-90.4031791564, 31.8747216244]}, "type": "Feature", "properties": {"collection_times": [{"days": "Mon-Fri", "time": "11:00am"}, {"days": "Sat-Sun", "time": "Closed"}], "id": "3908300005", "name": "USPS COLLECTION BOX - BLUE BOX", "address": {"city": "HAZLEHURST", "state": "MS", "street": "28060 HIGHWAY 28", "postcode": "39083"}}},
{"geometry": {"type": "Point", "coordinates": [-90.4031791564, 31.8747216244]}, "type": "Feature", "properties": {"collection_times": [{"days": "Mon-Fri", "time": "11:00am"}, {"days": "Sat-Sun", "time": "Closed"}], "id": "3908300009", "name": "USPS COLLECTION BOX - BLUE BOX", "address": {"city": "HAZLEHURST", "state": "MS", "street": "28060 HIGHWAY 28", "postcode": "39083"}}},
{"geometry": {"type": "Point", "coordinates": [-90.3960486346, 31.860557415]}, "type": "Feature", "properties": {"collection_times": [{"days": "Mon-Fri", "time": "4:30pm"}, {"days": "Sat", "time": "11:00am"}, {"days": "Sun", "time": "Closed"}], "id": "3908300010", "name": "USPS COLLECTION BOX - BLUE BOX", "address": {"city": "HAZLEHURST", "state": "MS", "street": "130 CALDWELL DR", "postcode": "39083"}}},
{"geometry": {"type": "Point", "coordinates": [-90.3960486346, 31.860557415]}, "type": "Feature", "properties": {"collection_times": [{"days": "Mon-Fri", "time": "4:30pm"}, {"days": "Sat", "time": "11:00am"}, {"days": "Sun", "time": "Closed"}], "id": "3908300012", "name": "USPS COLLECTION BOX - PO LOBBY", "address": {"city": "HAZLEHURST", "state": "MS", "street": "130 CALDWELL DR", "postcode": "39083"}}},
{"geometry": {"type": "Point", "coordinates": [-90.84025845, 31.9575716593]}, "type": "Feature", "properties": {"collection_times": [{"days": "Mon-Fri", "time": "4:00pm"}, {"days": "Sat", "time": "8:00am"}, {"days": "Sun", "time": "Closed"}], "id": "3908600001", "name": "USPS COLLECTION BOX - BLUE BOX", "address": {"city": "HERMANVILLE", "state": "MS", "street": "13071 PATTISON HERMANVILLE RD", "postcode": "39086"}}},
{"geometry": {"type": "Point", "coordinates": [-89.6528150947, 32.35121573]}, "type": "Feature", "properties": {"collection_times": [{"days": "Mon-Fri", "time": "3:45pm"}, {"days": "Sat-Sun", "time": "Closed"}], "id": "3908700001", "name": "USPS COLLECTION BOX - BLUE BOX", "address": {"city": "HILLSBORO", "state": "MS", "street": "61 HILLSBORO LUDLOW RD", "postcode": "39087"}}},
{"geometry": {"type": "Point", "coordinates": [-90.708264065, 32.8215272635]}, "type": "Feature", "properties": {"collection_times": [{"days": "Mon-Fri", "time": "3:45pm"}, {"days": "Sat-Sun", "time": "Closed"}], "id": "3908800001", "name": "USPS COLLECTION BOX - BLUE BOX", "address": {"city": "HOLLY BLUFF", "state": "MS", "street": "939 HIGHWAY 16 W", "postcode": "39088"}}},
{"geometry": {"type": "Point", "coordinates": [-89.5785177798, 33.0401760327]}, "type": "Feature", "properties": {"collection_times": [{"days": "Mon-Fri", "time": "4:30pm"}, {"days": "Sat", "time": "10:30am"}, {"days": "Sun", "time": "Closed"}], "id": "3909000010", "name": "USPS COLLECTION BOX - BLUE BOX", "address": {"city": "KOSCIUSKO", "state": "MS", "street": "65 VETERANS MEMORIAL DR", "postcode": "39090"}}},
{"geometry": {"type": "Point", "coordinates": [-89.5785177798, 33.0401760327]}, "type": "Feature", "properties": {"collection_times": [{"days": "Mon-Fri", "time": "4:30pm"}, {"days": "Sat", "time": "10:30am"}, {"days": "Sun", "time": "Closed"}], "id": "3909000011", "name": "USPS COLLECTION BOX - BLUE BOX", "address": {"city": "KOSCIUSKO", "state": "MS", "street": "65 VETERANS MEMORIAL DR", "postcode": "39090"}}},
{"geometry": {"type": "Point", "coordinates": [-89.5785177798, 33.0401760327]}, "type": "Feature", "properties": {"collection_times": [{"days": "Mon-Fri", "time": "4:30pm"}, {"days": "Sat", "time": "10:30am"}, {"days": "Sun", "time": "Closed"}], "id": "3909000012", "name": "USPS COLLECTION BOX - BLUE BOX", "address": {"city": "KOSCIUSKO", "state": "MS", "street": "65 VETERANS MEMORIAL DR", "postcode": "39090"}}},
{"geometry": {"type": "Point", "coordinates": [-89.5785177798, 33.0401760327]}, "type": "Feature", "properties": {"collection_times": [{"days": "Mon-Fri", "time": "4:30pm"}, {"days": "Sat", "time": "10:30am"}, {"days": "Sun", "time": "Closed"}], "id": "3909000013", "name": "USPS COLLECTION BOX - PO LOBBY", "address": {"city": "KOSCIUSKO", "state": "MS", "street": "65 VETERANS MEMORIAL DR", "postcode": "39090"}}},
{"geometry": {"type": "Point", "coordinates": [-89.3310377782, 32.3414783026]}, "type": "Feature", "properties": {"collection_times": [{"days": "Mon-Fri", "time": "3:45pm"}, {"days": "Sat-Sun", "time": "Closed"}], "id": "3909200001", "name": "USPS COLLECTION BOX - BLUE BOX", "address": {"city": "LAKE", "state": "MS", "street": "7621 LAKE NORRIS RD", "postcode": "39092"}}},
{"geometry": {"type": "Point", "coordinates": [-89.6011441436, 32.5881001157]}, "type": "Feature", "properties": {"collection_times": [{"days": "Mon-Fri", "time": "4:15pm"}, {"days": "Sat-Sun", "time": "Closed"}], "id": "3909400001", "name": "USPS COLLECTION BOX - BLUE BOX", "address": {"city": "LENA", "state": "MS", "street": "51 SUNNYSIDE DR", "postcode": "39094"}}},
{"geometry": {"type": "Point", "coordinates": [-90.0540603473, 33.117931065]}, "type": "Feature", "properties": {"collection_times": [{"days": "Mon-Fri", "time": "4:00pm"}, {"days": "Sat", "time": "10:00am"}, {"days": "Sun", "time": "Closed"}], "id": "3909500004", "name": "USPS COLLECTION BOX - BLUE BOX", "address": {"city": "LEXINGTON", "state": "MS", "street": "107 TCHULA ST", "postcode": "39095"}}},
{"geometry": {"type": "Point", "coordinates": [-90.0540603473, 33.117931065]}, "type": "Feature", "properties": {"collection_times": [{"days": "Mon-Fri", "time": "4:00pm"}, {"days": "Sat", "time": "10:00am"}, {"days": "Sun", "time": "Closed"}], "id": "3909500005", "name": "USPS COLLECTION BOX - PO LOBBY", "address": {"city": "LEXINGTON", "state": "MS", "street": "107 TCHULA ST", "postcode": "39095"}}},
{"geometry": {"type": "Point", "coordinates": [-90.0540603473, 33.117931065]}, "type": "Feature", "properties": {"collection_times": [{"days": "Mon-Fri", "time": "4:00pm"}, {"days": "Sat", "time": "10:00am"}, {"days": "Sun", "time": "Closed"}], "id": "3909500006", "name": "USPS COLLECTION BOX - BLUE BOX", "address": {"city": "LEXINGTON", "state": "MS", "street": "107 TCHULA ST", "postcode": "39095"}}},
{"geometry": {"type": "Point", "coordinates": [-91.0484396012, 31.8245473824]}, "type": "Feature", "properties": {"collection_times": [{"days": "Mon-Fri", "time": "4:00pm"}, {"days": "Sat-Sun", "time": "Closed"}], "id": "3909600001", "name": "USPS COLLECTION BOX - BLUE BOX", "address": {"city": "LORMAN", "state": "MS", "street": "18933 HIGHWAY 61", "postcode": "39096"}}},
{"geometry": {"type": "Point", "coordinates": [-91.0484396012, 31.8245473824]}, "type": "Feature", "properties": {"collection_times": [{"days": "Mon-Fri", "time": "3:30pm"}, {"days": "Sat", "time": "8:00am"}, {"days": "Sun", "time": "Closed"}], "id": "3909600002", "name": "USPS COLLECTION BOX - PO LOBBY", "address": {"city": "LORMAN", "state": "MS", "street": "18933 HIGHWAY 61", "postcode": "39096"}}},
{"geometry": {"type": "Point", "coordinates": [-90.5921855759, 33.0039570428]}, "type": "Feature", "properties": {"collection_times": [{"days": "Mon-Fri", "time": "3:15pm"}, {"days": "Sat-Sun", "time": "Closed"}], "id": "3909700001", "name": "USPS COLLECTION BOX - BLUE BOX", "address": {"city": "LOUISE", "state": "MS", "street": "1348 MAIN ST", "postcode": "39097"}}},
{"geometry": {"type": "Point", "coordinates": [-89.6639242127, 32.3540672455]}, "type": "Feature", "properties": {"collection_times": [{"days": "Mon-Fri", "time": "4:15pm"}, {"days": "Sat-Sun", "time": "Closed"}], "id": "3909800001", "name": "USPS COLLECTION BOX - BLUE BOX", "address": {"city": "LUDLOW", "state": "MS", "street": "18 LEE RD", "postcode": "39098"}}},
{"geometry": {"type": "Point", "coordinates": [-89.6639242127, 32.3540672455]}, "type": "Feature", "properties": {"collection_times": [{"days": "Mon-Fri", "time": "10:50am"}, {"days": "Sat", "time": "8:00am"}, {"days": "Sun", "time": "Closed"}], "id": "3909800002", "name": "USPS COLLECTION BOX - PO LOBBY", "address": {"city": "LUDLOW", "state": "MS", "street": "18 LEE RD", "postcode": "39098"}}}
]}
