{"type": "FeatureCollection", "features": [
{"geometry": {"type": "Point", "coordinates": [-89.3904657213, 33.2118775631]}, "type": "Feature", "properties": {"collection_times": [{"days": "Mon-Fri", "time": "3:45pm"}, {"days": "Sat-Sun", "time": "Closed"}], "id": "3910800001", "name": "USPS COLLECTION BOX - BLUE BOX", "address": {"city": "MCCOOL", "state": "MS", "street": "HWY 407", "postcode": "39108"}}},
{"geometry": {"type": "Point", "coordinates": [-89.3904657213, 33.2118775631]}, "type": "Feature", "properties": {"collection_times": [{"days": "Mon-Fri", "time": "3:00pm"}, {"days": "Sat", "time": "8:00am"}, {"days": "Sun", "time": "Closed"}], "id": "3910800002", "name": "USPS COLLECTION BOX - PO LOBBY", "address": {"city": "MCCOOL", "state": "MS", "street": "HWY 407", "postcode": "39108"}}},
{"geometry": {"type": "Point", "coordinates": [-89.4382325135, 32.7126662787]}, "type": "Feature", "properties": {"collection_times": [{"days": "Mon-Fri", "time": "3:30pm"}, {"days": "Sat-Sun", "time": "Closed"}], "id": "3910900001", "name": "USPS COLLECTION BOX - BLUE BOX", "address": {"city": "MADDEN", "state": "MS", "street": "HWY 488", "postcode": "39109"}}},
{"geometry": {"type": "Point", "coordinates": [-89.4382325135, 32.7126662787]}, "type": "Feature", "properties": {"collection_times": [{"days": "Mon-Fri", "time": "11:00am"}, {"days": "Sat", "time": "8:00am"}, {"days": "Sun", "time": "Closed"}], "id": "3910900003", "name": "USPS COLLECTION BOX - PO LOBBY", "address": {"city": "MADDEN", "state": "MS", "street": "HWY 488", "postcode": "39109"}}},
{"geometry": {"type": "Point", "coordinates": [-90.1135826323, 32.4569830875]}, "type": "Feature", "properties": {"collection_times": [{"days": "Mon-Fri", "time": "5:45pm"}, {"days": "Sat", "time": "1:00pm"}, {"days": "Sun", "time": "Closed"}], "id": "3911000002", "name": "USPS COLLECTION BOX - BLUE BOX", "address": {"city": "MADISON", "state": "MS", "street": "990 HIGHWAY 51", "postcode": "39110"}}},
{"geometry": {"type": "Point", "coordinates": [-90.1135826323, 32.4569830875]}, "type": "Feature", "properties": {"collection_times": [{"days": "Mon-Fri", "time": "5:45pm"}, {"days": "Sat", "time": "1:00pm"}, {"days": "Sun", "time": "Closed"}], "id": "3911000006", "name": "USPS COLLECTION BOX - BLUE BOX", "address": {"city": "MADISON", "state": "MS", "street": "990 HIGHWAY 51", "postcode": "39110"}}},
{"geometry": {"type": "Point", "coordinates": [-90.1135826323, 32.4569830875]}, "type": "Feature", "properties": {"collection_times": [{"days": "Mon-Fri", "time": "5:45pm"}, {"days": "Sat", "time": "1:00pm"}, {"days": "Sun", "time": "Closed"}], "id": "3911000011", "name": "USPS COLLECTION BOX - PO LOBBY", "address": {"city": "MADISON", "state": "MS", "street": "990 HIGHWAY 51", "postcode": "39110"}}},
{"geometry": {"type": "Point", "coordinates": [-90.1186730803, 32.4452704941]}, "type": "Feature", "properties": {"collection_times": [{"days": "Mon-Fri", "time": "10:30am"}, {"days": "Sat-Sun", "time": "Closed"}], "id": "3911000014", "name": "USPS COLLECTION BOX - BLUE BOX", "address": {"city": "MADISON", "state": "MS", "street": "105 EXECUTIVE DR", "postcode": "39110"}}},
{"geometry": {"type": "Point", "coordinates": [-90.1432556192, 32.4723365823]}, "type": "Feature", "properties": {"collection_times": [{"days": "Mon-Fri", "time": "10:00am"}, {"days": "Sat-Sun", "time": "Closed"}], "id": "3911000015", "name": "USPS COLLECTION BOX - BLUE BOX", "address": {"city": "MADISON", "state": "MS", "street": "208 KEY DR", "postcode": "39110"}}},
{"geometry": {"type": "Point", "coordinates": [-90.1135826323, 32.4569830875]}, "type": "Feature", "properties": {"collection_times": [{"days": "Mon-Fri", "time": "5:45pm"}, {"days": "Sat", "time": "1:00pm"}, {"days": "Sun", "time": "Closed"}], "id": "3911000017", "name": "USPS COLLECTION BOX - APC", "address": {"city": "MADISON", "state": "MS", "street": "990 HIGHWAY 51", "postcode": "39110"}}},
{"geometry": {"type": "Point", "coordinates": [-89.7394579349, 31.8704515326]}, "type": "Feature", "properties": {"collection_times": [{"days": "Mon-Fri", "time": "4:30pm"}, {"days": "Sat", "time": "10:30am"}, {"days": "Sun", "time": "Closed"}], "id": "3911100005", "name": "USPS COLLECTION BOX - BLUE BOX", "address": {"city": "MAGEE", "state": "MS", "street": "701 3RD ST SW", "postcode": "39111"}}},
{"geometry": {"type": "Point", "coordinates": [-89.7394579349, 31.8704515326]}, "type": "Feature", "properties": {"collection_times": [{"days": "Mon-Fri", "time": "4:30pm"}, {"days": "Sat", "time": "10:30am"}, {"days": "Sun", "time": "Closed"}], "id": "3911100009", "name": "USPS COLLECTION BOX - PO LOBBY", "address": {"city": "MAGEE", "state": "MS", "street": "701 3RD ST SW", "postcode": "39111"}}},
{"geometry": {"type": "Point", "coordinates": [-89.7394579349, 31.8704515326]}, "type": "Feature", "properties": {"collection_times": [{"days": "Mon-Fri", "time": "4:30pm"}, {"days": "Sat", "time": "10:30am"}, {"days": "Sun", "time": "Closed"}], "id": "3911100013", "name": "USPS COLLECTION BOX - PO LOBBY", "address": {"city": "MAGEE", "state": "MS", "street": "701 3RD ST SW", "postcode": "39111"}}},
{"geometry": {"type": "Point", "coordinates": [-91.0542194644, 32.9021835843]}, "type": "Feature", "properties": {"collection_times": [{"days": "Mon-Fri", "time": "3:45pm"}, {"days": "Sat-Sun", "time": "Closed"}], "id": "3911300001", "name": "USPS COLLECTION BOX - BLUE BOX", "address": {"city": "MAYERSVILLE", "state": "MS", "street": "113 COURT ST", "postcode": "39113"}}},
{"geometry": {"type": "Point", "coordinates": [-91.0542194644, 32.9021835843]}, "type": "Feature", "properties": {"collection_times": [{"days": "Mon-Fri", "time": "3:45pm"}, {"days": "Sat", "time": "8:00am"}, {"days": "Sun", "time": "Closed"}], "id": "3911300002", "name": "USPS COLLECTION BOX - PO LOBBY", "address": {"city": "MAYERSVILLE", "state": "MS", "street": "113 COURT ST", "postcode": "39113"}}},
{"geometry": {"type": "Point", "coordinates": [-89.9104144338, 31.9968286158]}, "type": "Feature", "properties": {"collection_times": [{"days": "Mon-Fri", "time": "4:30pm"}, {"days": "Sat", "time": "11:30am"}, {"days": "Sun", "time": "Closed"}], "id": "3911400001", "name": "USPS COLLECTION BOX - BLUE BOX", "address": {"city": "MENDENHALL", "state": "MS", "street": "1658 SIMPSON HIGHWAY 149", "postcode": "39114"}}},
{"geometry": {"type": "Point", "coordinates": [-89.9104144338, 31.9968286158]}, "type": "Feature", "properties": {"collection_times": [{"days": "Mon-Fri", "time": "4:30pm"}, {"days": "Sat", "time": "11:30am"}, {"days": "Sun", "time": "Closed"}], "id": "3911400002", "name": "USPS COLLECTION BOX - PO LOBBY", "address": {"city": "MENDENHALL", "state": "MS", "street": "1658 SIMPSON HIGHWAY 149", "postcode": "39114"}}},
{"geometry": {"type": "Point", "coordinates": [-89.8697605487, 31.9623830819]}, "type": "Feature", "properties": {"collection_times": [{"days": "Mon-Fri", "time": "1:00pm"}, {"days": "Sat-Sun", "time": "Closed"}], "id": "3911400005", "name": "USPS COLLECTION BOX - BLUE BOX", "address": {"city": "MENDENHALL", "state": "MS", "street": "101 COURT ST", "postcode": "39114"}}},
{"geometry": {"type": "Point", "coordinates": [-89.5399362864, 31.9003259658]}, "type": "Feature", "properties": {"collection_times": [{"days": "Mon-Fri", "time": "4:15pm"}, {"days": "Sat", "time": "10:30am"}, {"days": "Sun", "time": "Closed"}], "id": "3911600001", "name": "USPS COLLECTION BOX - BLUE BOX", "address": {"city": "MIZE", "state": "MS", "street": "107 N OAK ST", "postcode": "39116"}}},
{"geometry": {"type": "Point", "coordinates": [-89.6559345334, 32.3515505711]}, "type": "Feature", "properties": {"collection_times": [{"days": "Mon-Fri", "time": "4:30pm"}, {"days": "Sat", "time": "12:00pm"}, {"days": "Sun", "time": "Closed"}], "id": "3911700001", "name": "USPS COLLECTION BOX - BLUE BOX", "address": {"city": "MORTON", "state": "MS", "street": "128 HIGHWAY 481 S", "postcode": "39117"}}},
{"geometry": {"type": "Point", "coordinates": [-89.6559345334, 32.3515505711]}, "type": "Feature", "properties": {"collection_times": [{"days": "Mon-Fri", "time": "4:30pm"}, {"days": "Sat", "time": "12:00pm"}, {"days": "Sun", "time": "Closed"}], "id": "3911700002", "name": "USPS COLLECTION BOX - PO LOBBY", "address": {"city": "MORTON", "state": "MS", "street": "128 HIGHWAY 481 S", "postcode": "39117"}}},
{"geometry": {"type": "Point", "coordinates": [-89.6559345334, 32.3515505711]}, "type": "Feature", "properties": {"collection_times": [{"days": "Mon-Fri", "time": "4:30pm"}, {"days": "Sat", "time": "12:00pm"}, {"days": "Sun", "time": "Closed"}], "id": "3911700005", "name": "USPS COLLECTION BOX - BLUE BOX", "address": {"city": "MORTON", "state": "MS", "street": "128 HIGHWAY 481 S", "postcode": "39117"}}},
{"geometry": {"type": "Point", "coordinates": [-89.655985978, 31.7612568991]}, "type": "Feature", "properties": {"collection_times": [{"days": "Mon-Fri", "time": "4:30pm"}, {"days": "Sat", "time": "10:30am"}, {"days": "Sun", "time": "Closed"}], "id": "3911900001", "name": "USPS COLLECTION BOX - BLUE BOX", "address": {"city": "MOUNT OLIVE", "state": "MS", "street": "408 S MAIN ST", "postcode": "39119"}}},
{"geometry": {"type": "Point", "coordinates": [-89.655985978, 31.7612568991]}, "type": "Feature", "properties": {"collection_times": [{"days": "Mon-Fri", "time": "4:30pm"}, {"days": "Sat", "time": "10:30am"}, {"days": "Sun", "time": "Closed"}], "id": "3911900003", "name": "USPS COLLECTION BOX - PO LOBBY", "address": {"city": "MOUNT OLIVE", "state": "MS", "street": "408 S MAIN ST", "postcode": "39119"}}},
{"geometry": {"type": "Point", "coordinates": [-91.3535072145, 31.550913516]}, "type": "Feature", "properties": {"collection_times": [{"days": "Mon-Fri", "time": "1:00pm"}, {"days": "Sat-Sun", "time": "Closed"}], "id": "3912000009", "name": "USPS COLLECTION BOX - BLUE BOX", "address": {"city": "NATCHEZ", "state": "MS", "street": "55 SGT PRENTISS DR", "postcode": "39120"}}},
{"geometry": {"type": "Point", "coordinates": [-91.3535072145, 31.550913516]}, "type": "Feature", "properties": {"collection_times": [{"days": "Mon-Fri", "time": "1:00pm"}, {"days": "Sat-Sun", "time": "Closed"}], "id": "3912000010", "name": "USPS COLLECTION BOX - BLUE BOX", "address": {"city": "NATCHEZ", "state": "MS", "street": "55 SGT PRENTISS DR", "postcode": "39120"}}},
{"geometry": {"type": "Point", "coordinates": [-91.397459282, 31.5384007182]}, "type": "Feature", "properties": {"collection_times": [{"days": "Mon-Fri", "time": "1:30pm"}, {"days": "Sat-Sun", "time": "Closed"}], "id": "3912000014", "name": "USPS COLLECTION BOX - BLUE BOX", "address": {"city": "NATCHEZ", "state": "MS", "street": "110 LOWER WOODVILLE RD", "postcode": "39120"}}},
{"geometry": {"type": "Point", "coordinates": [-91.4019013883, 31.5593255318]}, "type": "Feature", "properties": {"collection_times": [{"days": "Mon-Fri", "time": "3:00pm"}, {"days": "Sat-Sun", "time": "Closed"}], "id": "3912000016", "name": "USPS COLLECTION BOX - BLUE BOX", "address": {"city": "NATCHEZ", "state": "MS", "street": "521 MAIN ST", "postcode": "39120"}}},
{"geometry": {"type": "Point", "coordinates": [-91.4019013883, 31.5593255318]}, "type": "Feature", "properties": {"collection_times": [{"days": "Mon-Fri", "time": "3:00pm"}, {"days": "Sat-Sun", "time": "Closed"}], "id": "3912000017", "name": "USPS COLLECTION BOX - BLUE BOX", "address": {"city": "NATCHEZ", "state": "MS", "street": "521 MAIN ST", "postcode": "39120"}}},
{"geometry": {"type": "Point", "coordinates": [-91.4041791788, 31.5610387004]}, "type": "Feature", "properties": {"collection_times": [{"days": "Mon-Fri", "time": "3:00pm"}, {"days": "Sat-Sun", "time": "Closed"}], "id": "3912000020", "name": "USPS COLLECTION BOX - BLUE BOX", "address": {"city": "NATCHEZ", "state": "MS", "street": "115 WALL ST", "postcode": "39120"}}},
{"geometry": {"type": "Point", "coordinates": [-91.4041791788, 31.5610387004]}, "type": "Feature", "properties": {"collection_times": [{"days": "Mon-Fri", "time": "3:00pm"}, {"days": "Sat-Sun", "time": "Closed"}], "id": "3912000021", "name": "USPS COLLECTION BOX - BLUE BOX", "address": {"city": "NATCHEZ", "state": "MS", "street": "115 WALL ST", "postcode": "39120"}}},
{"geometry": {"type": "Point", "coordinates": [-91.4044797003, 31.5625742374]}, "type": "Feature", "properties": {"collection_times": [{"days": "Mon-Fri", "time": "4:55pm"}, {"days": "Sat", "time": "12:00pm"}, {"days": "Sun", "time": "Closed"}], "id": "3912000027", "name": "USPS COLLECTION BOX - BLUE BOX", "address": {"city": "NATCHEZ", "state": "MS", "street": "214 N CANAL ST", "postcode": "39120"}}},
{"geometry": {"type": "Point", "coordinates": [-91.4044797003, 31.5625742374]}, "type": "Feature", "properties": {"collection_times": [{"days": "Mon-Fri", "time": "4:55pm"}, {"days": "Sat", "time": "12:00pm"}, {"days": "Sun", "time": "Closed"}], "id": "3912000028", "name": "USPS COLLECTION BOX - BLUE BOX", "address": {"city": "NATCHEZ", "state": "MS", "street": "214 N CANAL ST", "postcode": "39120"}}},
{"geometry": {"type": "Point", "coordinates": [-91.4044797003, 31.5625742374]}, "type": "Feature", "properties": {"collection_times": [{"days": "Mon-Fri", "time": "4:55pm"}, {"days": "Sat", "time": "12:00pm"}, {"days": "Sun", "time": "Closed"}], "id": "3912000029", "name": "USPS COLLECTION BOX - BLUE BOX", "address": {"city": "NATCHEZ", "state": "MS", "street": "214 N CANAL ST", "postcode": "39120"}}},
{"geometry": {"type": "Point", "coordinates": [-91.3726255168, 31.5583433535]}, "type": "Feature", "properties": {"collection_times": [{"days": "Mon-Fri", "time": "2:00pm"}, {"days": "Sat-Sun", "time": "Closed"}], "id": "3912000032", "name": "USPS COLLECTION BOX - BLUE BOX", "address": {"city": "NATCHEZ", "state": "MS", "street": "261 DEVEREAUX DR", "postcode": "39120"}}},
{"geometry": {"type": "Point", "coordinates": [-91.3264543743, 31.5455880043]}, "type": "Feature", "properties": {"collection_times": [{"days": "Mon-Fri", "time": "10:00am"}, {"days": "Sat-Sun", "time": "Closed"}], "id": "3912000035", "name": "USPS COLLECTION BOX - BLUE BOX", "address": {"city": "NATCHEZ", "state": "MS", "street": "129 JEFF DAVIS BLVD", "postcode": "39120"}}},
{"geometry": {"type": "Point", "coordinates": [-91.4044797003, 31.5625742374]}, "type": "Feature", "properties": {"collection_times": [{"days": "Mon-Fri", "time": "5:00pm"}, {"days": "Sat", "time": "12:00pm"}, {"days": "Sun", "time": "Closed"}], "id": "3912000058", "name": "USPS COLLECTION BOX - PO LOBBY", "address": {"city": "NATCHEZ", "state": "MS", "street": "214 N CANAL ST", "postcode": "39120"}}},
{"geometry": {"type": "Point", "coordinates": [-91.3535072145, 31.550913516]}, "type": "Feature", "properties": {"collection_times": [{"days": "Mon-Fri", "time": "4:00pm"}, {"days": "Sat-Sun", "time": "Closed"}], "id": "3912000059", "name": "USPS COLLECTION BOX - PO LOBBY", "address": {"city": "NATCHEZ", "state": "MS", "street": "55 SGT PRENTISS DR", "postcode": "39120"}}},
{"geometry": {"type": "Point", "coordinates": [-91.3264543743, 31.5455880043]}, "type": "Feature", "properties": {"collection_times": [{"days": "Mon-Fri", "time": "10:00am"}, {"days": "Sat-Sun", "time": "Closed"}], "id": "3912000070", "name": "USPS COLLECTION BOX - BLUE BOX", "address": {"city": "NATCHEZ", "state": "MS", "street": "150 JEFF DAVIS BLVD", "postcode": "39120"}}},
{"geometry": {"type": "Point", "coordinates": [-89.9805274851, 31.7311640736]}, "type": "Feature", "properties": {"collection_times": [{"days": "Mon-Fri", "time": "4:00pm"}, {"days": "Sat-Sun", "time": "Closed"}], "id": "3914000001", "name": "USPS COLLECTION BOX - BLUE BOX", "address": {"city": "NEWHEBRON", "state": "MS", "street": "402 MAIN AVE", "postcode": "39140"}}},
{"geometry": {"type": "Point", "coordinates": [-89.9805274851, 31.7311640736]}, "type": "Feature", "properties": {"collection_times": [{"days": "Mon-Fri", "time": "4:00pm"}, {"days": "Sat", "time": "8:00am"}, {"days": "Sun", "time": "Closed"}], "id": "3914000002", "name": "USPS COLLECTION BOX - PO LOBBY", "address": {"city": "NEWHEBRON", "state": "MS", "street": "402 MAIN AVE", "postcode": "39140"}}},
{"geometry": {"type": "Point", "coordinates": [-90.7858442563, 31.8363871767]}, "type": "Feature", "properties": {"collection_times": [{"days": "Mon-Fri", "time": "3:45pm"}, {"days": "Sat", "time": "10:00am"}, {"days": "Sun", "time": "Closed"}], "id": "3914400001", "name": "USPS COLLECTION BOX - BLUE BOX", "address": {"city": "PATTISON", "state": "MS", "street": "HWY 547", "postcode": "39144"}}},
{"geometry": {"type": "Point", "coordinates": [-90.7858442563, 31.8363871767]}, "type": "Feature", "properties": {"collection_times": [{"days": "Mon-Fri", "time": "12:00pm"}, {"days": "Sat", "time": "10:00am"}, {"days": "Sun", "time": "Closed"}], "id": "3914400002", "name": "USPS COLLECTION BOX - PO LOBBY", "address": {"city": "PATTISON", "state": "MS", "street": "HWY 547", "postcode": "39144"}}},
{"geometry": {"type": "Point", "coordinates": [-89.7926339299, 32.3143961982]}, "type": "Feature", "properties": {"collection_times": [{"days": "Mon-Fri", "time": "4:25pm"}, {"days": "Sat", "time": "9:25am"}, {"days": "Sun", "time": "Closed"}], "id": "3914500001", "name": "USPS COLLECTION BOX - BLUE BOX", "address": {"city": "PELAHATCHIE", "state": "MS", "street": "801 SECOND ST", "postcode": "39145"}}},
{"geometry": {"type": "Point", "coordinates": [-89.7926339299, 32.3143961982]}, "type": "Feature", "properties": {"collection_times": [{"days": "Mon-Fri", "time": "4:25pm"}, {"days": "Sat", "time": "9:25am"}, {"days": "Sun", "time": "Closed"}], "id": "3914500002", "name": "USPS COLLECTION BOX - PO LOBBY", "address": {"city": "PELAHATCHIE", "state": "MS", "street": "801 SECOND ST", "postcode": "39145"}}},
{"geometry": {"type": "Point", "coordinates": [-89.9929453435, 32.0629341886]}, "type": "Feature", "properties": {"collection_times": [{"days": "Mon-Fri", "time": "3:25pm"}, {"days": "Sat-Sun", "time": "Closed"}], "id": "3914800001", "name": "USPS COLLECTION BOX - BLUE BOX", "address": {"city": "PINEY WOODS", "state": "MS", "street": "11 WARD LN", "postcode": "39148"}}},
{"geometry": {"type": "Point", "coordinates": [-89.9929453435, 32.0629341886]}, "type": "Feature", "properties": {"collection_times": [{"days": "Mon-Fri", "time": "3:25pm"}, {"days": "Sat", "time": "8:00am"}, {"days": "Sun", "time": "Closed"}], "id": "3914800003", "name": "USPS COLLECTION BOX - PO LOBBY", "address": {"city": "PINEY WOODS", "state": "MS", "street": "11 WARD LN", "postcode": "39148"}}},
{"geometry": {"type": "Point", "coordinates": [-89.9658452902, 31.8226425025]}, "type": "Feature", "properties": {"collection_times": [{"days": "Mon-Fri", "time": "4:00pm"}, {"days": "Sat", "time": "9:45am"}, {"days": "Sun", "time": "Closed"}], "id": "3914900001", "name": "USPS COLLECTION BOX - BLUE BOX", "address": {"city": "PINOLA", "state": "MS", "street": "HWY 28", "postcode": "39149"}}},
{"geometry": {"type": "Point", "coordinates": [-89.9658452902, 31.8226425025]}, "type": "Feature", "properties": {"collection_times": [{"days": "Mon-Fri", "time": "11:30am"}, {"days": "Sat", "time": "9:45am"}, {"days": "Sun", "time": "Closed"}], "id": "3914900002", "name": "USPS COLLECTION BOX - PO LOBBY", "address": {"city": "PINOLA", "state": "MS", "street": "HWY 28", "postcode": "39149"}}},
{"geometry": {"type": "Point", "coordinates": [-90.9837812775, 31.961777651]}, "type": "Feature", "properties": {"collection_times": [{"days": "Mon-Fri", "time": "4:45pm"}, {"days": "Sat", "time": "11:00am"}, {"days": "Sun", "time": "Closed"}], "id": "3915000002", "name": "USPS COLLECTION BOX - BLUE BOX", "address": {"city": "PORT GIBSON", "state": "MS", "street": "206 ORANGE ST", "postcode": "39150"}}},
{"geometry": {"type": "Point", "coordinates": [-90.9837812775, 31.961777651]}, "type": "Feature", "properties": {"collection_times": [{"days": "Mon-Fri", "time": "4:45pm"}, {"days": "Sat", "time": "11:00am"}, {"days": "Sun", "time": "Closed"}], "id": "3915000003", "name": "USPS COLLECTION BOX - BLUE BOX", "address": {"city": "PORT GIBSON", "state": "MS", "street": "206 ORANGE ST", "postcode": "39150"}}},
{"geometry": {"type": "Point", "coordinates": [-90.9837812775, 31.961777651]}, "type": "Feature", "properties": {"collection_times": [{"days": "Mon-Fri", "time": "4:45pm"}, {"days": "Sat", "time": "11:00am"}, {"days": "Sun", "time": "Closed"}], "id": "3915000004", "name": "USPS COLLECTION BOX - BLUE BOX", "address": {"city": "PORT GIBSON", "state": "MS", "street": "206 ORANGE ST", "postcode": "39150"}}},
{"geometry": {"type": "Point", "coordinates": [-90.9831562811, 31.9634250289]}, "type": "Feature", "properties": {"collection_times": [{"days": "Mon-Fri", "time": "4:45pm"}, {"days": "Sat", "time": "11:00am"}, {"days": "Sun", "time": "Closed"}], "id": "3915000005", "name": "USPS COLLECTION BOX - PO LOBBY", "address": {"city": "PORT GIBSON", "state": "MS", "street": "501 MARKET ST", "postcode": "39150"}}},
{"geometry": {"type": "Point", "coordinates": [-89.7816166078, 32.0754209329]}, "type": "Feature", "properties": {"collection_times": [{"days": "Mon-Fri", "time": "3:25pm"}, {"days": "Sat-Sun", "time": "Closed"}], "id": "3915100001", "name": "USPS COLLECTION BOX - BLUE BOX", "address": {"city": "PUCKETT", "state": "MS", "street": "1086 HIGHWAY 13 N", "postcode": "39151"}}},
{"geometry": {"type": "Point", "coordinates": [-89.7816166078, 32.0754209329]}, "type": "Feature", "properties": {"collection_times": [{"days": "Mon-Fri", "time": "11:50am"}, {"days": "Sat", "time": "8:00am"}, {"days": "Sun", "time": "Closed"}], "id": "3915100002", "name": "USPS COLLECTION BOX - PO LOBBY", "address": {"city": "PUCKETT", "state": "MS", "street": "1086 HIGHWAY 13 N", "postcode": "39151"}}},
{"geometry": {"type": "Point", "coordinates": [-89.6029815897, 32.2720488634]}, "type": "Feature", "properties": {"collection_times": [{"days": "Mon-Fri", "time": "3:50pm"}, {"days": "Sat-Sun", "time": "Closed"}], "id": "3915200001", "name": "USPS COLLECTION BOX - BLUE BOX", "address": {"city": "PULASKI", "state": "MS", "street": "7052 HIGHWAY 481 S", "postcode": "39152"}}},
{"geometry": {"type": "Point", "coordinates": [-89.50128269, 32.068317543]}, "type": "Feature", "properties": {"collection_times": [{"days": "Mon-Fri", "time": "4:00pm"}, {"days": "Sat", "time": "10:30am"}, {"days": "Sun", "time": "Closed"}], "id": "3915300001", "name": "USPS COLLECTION BOX - BLUE BOX", "address": {"city": "RALEIGH", "state": "MS", "street": "111 MAIN ST", "postcode": "39153"}}},
{"geometry": {"type": "Point", "coordinates": [-89.50128269, 32.068317543]}, "type": "Feature", "properties": {"collection_times": [{"days": "Mon-Fri", "time": "4:00pm"}, {"days": "Sat", "time": "10:30am"}, {"days": "Sun", "time": "Closed"}], "id": "3915300002", "name": "USPS COLLECTION BOX - PO LOBBY", "address": {"city": "RALEIGH", "state": "MS", "street": "111 MAIN ST", "postcode": "39153"}}},
{"geometry": {"type": "Point", "coordinates": [-89.50128269, 32.068317543]}, "type": "Feature", "properties": {"collection_times": [{"days": "Mon-Fri", "time": "4:00pm"}, {"days": "Sat", "time": "10:30am"}, {"days": "Sun", "time": "Closed"}], "id": "3915300003", "name": "USPS COLLECTION BOX - BLUE BOX", "address": {"city": "RALEIGH", "state": "MS", "street": "111 MAIN ST", "postcode": "39153"}}},
{"geometry": {"type": "Point", "coordinates": [-90.4233388397, 32.2590752259]}, "type": "Feature", "properties": {"collection_times": [{"days": "Mon-Fri", "time": "4:30pm"}, {"days": "Sat", "time": "10:00am"}, {"days": "Sun", "time": "Closed"}], "id": "3915400001", "name": "USPS COLLECTION BOX - BLUE BOX", "address": {"city": "RAYMOND", "state": "MS", "street": "115 PORT GIBSON ST", "postcode": "39154"}}},
{"geometry": {"type": "Point", "coordinates": [-90.4233388397, 32.2590752259]}, "type": "Feature", "properties": {"collection_times": [{"days": "Mon-Fri", "time": "4:30pm"}, {"days": "Sat", "time": "10:00am"}, {"days": "Sun", "time": "Closed"}], "id": "3915400002", "name": "USPS COLLECTION BOX - BLUE BOX", "address": {"city": "RAYMOND", "state": "MS", "street": "115 PORT GIBSON ST", "postcode": "39154"}}},
{"geometry": {"type": "Point", "coordinates": [-90.4233388397, 32.2590752259]}, "type": "Feature", "properties": {"collection_times": [{"days": "Mon-Fri", "time": "4:30pm"}, {"days": "Sat", "time": "10:00am"}, {"days": "Sun", "time": "Closed"}], "id": "3915400004", "name": "USPS COLLECTION BOX - PO LOBBY", "address": {"city": "RAYMOND", "state": "MS", "street": "115 PORT GIBSON ST", "postcode": "39154"}}},
{"geometry": {"type": "Point", "coordinates": [-90.8050138276, 32.4797192217]}, "type": "Feature", "properties": {"collection_times": [{"days": "Mon-Fri", "time": "4:00pm"}, {"days": "Sat-Sun", "time": "Closed"}], "id": "3915600001", "name": "USPS COLLECTION BOX - BLUE BOX", "address": {"city": "REDWOOD", "state": "MS", "street": "340 OLD HIGHWAY 3", "postcode": "39156"}}},
{"geometry": {"type": "Point", "coordinates": [-90.8050138276, 32.4797192217]}, "type": "Feature", "properties": {"collection_times": [{"days": "Mon-Fri", "time": "11:30am"}, {"days": "Sat", "time": "8:00am"}, {"days": "Sun", "time": "Closed"}], "id": "3915600002", "name": "USPS COLLECTION BOX - PO LOBBY", "address": {"city": "REDWOOD", "state": "MS", "street": "340 OLD HIGHWAY 3", "postcode": "39156"}}},
{"geometry": {"type": "Point", "coordinates": [-90.1236032843, 32.4106074131]}, "type": "Feature", "properties": {"collection_times": [{"days": "Mon-Fri", "time": "5:45pm"}, {"days": "Sat", "time": "1:00pm"}, {"days": "Sun", "time": "Closed"}], "id": "3915700001", "name": "USPS COLLECTION BOX - BLUE BOX", "address": {"city": "RIDGELAND", "state": "MS", "street": "611 S PEAR ORCHARD RD", "postcode": "39157"}}},
{"geometry": {"type": "Point", "coordinates": [-90.1236032843, 32.4106074131]}, "type": "Feature", "properties": {"collection_times": [{"days": "Mon-Fri", "time": "5:45pm"}, {"days": "Sat", "time": "1:00pm"}, {"days": "Sun", "time": "Closed"}], "id": "3915700003", "name": "USPS COLLECTION BOX - BLUE BOX", "address": {"city": "RIDGELAND", "state": "MS", "street": "611 S PEAR ORCHARD RD", "postcode": "39157"}}},
{"geometry": {"type": "Point", "coordinates": [-90.1063915787, 32.4131906366]}, "type": "Feature", "properties": {"collection_times": [{"days": "Mon-Fri", "time": "10:00am"}, {"days": "Sat-Sun", "time": "Closed"}], "id": "3915700010", "name": "USPS COLLECTION BOX - BLUE BOX", "address": {"city": "RIDGELAND", "state": "MS", "street": "6965 OLD CANTON RD", "postcode": "39157"}}},
{"geometry": {"type": "Point", "coordinates": [-90.115492399, 32.4030543545]}, "type": "Feature", "properties": {"collection_times": [{"days": "Mon-Fri", "time": "10:00am"}, {"days": "Sat-Sun", "time": "Closed"}], "id": "3915700013", "name": "USPS COLLECTION BOX - BLUE BOX", "address": {"city": "RIDGELAND", "state": "MS", "street": "800 AVERY BLVD N", "postcode": "39157"}}},
{"geometry": {"type": "Point", "coordinates": [-90.1310790221, 32.4199928261]}, "type": "Feature", "properties": {"collection_times": [{"days": "Mon-Fri", "time": "12:00pm"}, {"days": "Sat-Sun", "time": "Closed"}], "id": "3915700014", "name": "USPS COLLECTION BOX - BLUE BOX", "address": {"city": "RIDGELAND", "state": "MS", "street": "398 HIGHWAY 51", "postcode": "39157"}}},
{"geometry": {"type": "Point", "coordinates": [-90.1235899072, 32.4061296606]}, "type": "Feature", "properties": {"collection_times": [{"days": "Mon-Fri", "time": "10:00am"}, {"days": "Sat-Sun", "time": "Closed"}], "id": "3915700016", "name": "USPS COLLECTION BOX - BLUE BOX", "address": {"city": "RIDGELAND", "state": "MS", "street": "731 S PEAR ORCHARD RD", "postcode": "39157"}}},
{"geometry": {"type": "Point", "coordinates": [-90.1321445321, 32.4020472086]}, "type": "Feature", "properties": {"collection_times": [{"days": "Mon-Fri", "time": "10:00am"}, {"days": "Sat-Sun", "time": "Closed"}], "id": "3915700017", "name": "USPS COLLECTION BOX - BLUE BOX", "address": {"city": "RIDGELAND", "state": "MS", "street": "805 S WHEATLEY ST", "postcode": "39157"}}},
{"geometry": {"type": "Point", "coordinates": [-90.1365561521, 32.3995646386]}, "type": "Feature", "properties": {"collection_times": [{"days": "Mon-Fri", "time": "10:00am"}, {"days": "Sat-Sun", "time": "Closed"}], "id": "3915700018", "name": "USPS COLLECTION BOX - BLUE BOX", "address": {"city": "RIDGELAND", "state": "MS", "street": "1060 E COUNTY LINE RD", "postcode": "39157"}}},
{"geometry": {"type": "Point", "coordinates": [-90.1235923912, 32.4070027777]}, "type": "Feature", "properties": {"collection_times": [{"days": "Mon-Fri", "time": "10:00am"}, {"days": "Sat-Sun", "time": "Closed"}], "id": "3915700023", "name": "USPS COLLECTION BOX - BLUE BOX", "address": {"city": "RIDGELAND", "state": "MS", "street": "715 S PEAR ORCHARD RD", "postcode": "39157"}}},
{"geometry": {"type": "Point", "coordinates": [-90.1236032843, 32.4106074131]}, "type": "Feature", "properties": {"collection_times": [{"days": "Mon-Fri", "time": "5:45pm"}, {"days": "Sat", "time": "1:00pm"}, {"days": "Sun", "time": "Closed"}], "id": "3915700036", "name": "USPS COLLECTION BOX - BLUE BOX", "address": {"city": "RIDGELAND", "state": "MS", "street": "611 S PEAR ORCHARD RD", "postcode": "39157"}}},
{"geometry": {"type": "Point", "coordinates": [-90.1236032843, 32.4106074131]}, "type": "Feature", "properties": {"collection_times": [{"days": "Mon-Fri", "time": "5:45pm"}, {"days": "Sat", "time": "1:00pm"}, {"days": "Sun", "time": "Closed"}], "id": "3915700037", "name": "USPS COLLECTION BOX - BLUE BOX", "address": {"city": "RIDGELAND", "state": "MS", "street": "611 S PEAR ORCHARD RD", "postcode": "39157"}}},
{"geometry": {"type": "Point", "coordinates": [-90.1127466309, 32.3995665715]}, "type": "Feature", "properties": {"collection_times": [{"days": "Mon-Fri", "time": "10:00am"}, {"days": "Sat-Sun", "time": "Closed"}], "id": "3915700049", "name": "USPS COLLECTION BOX - BLUE BOX", "address": {"city": "RIDGELAND", "state": "MS", "street": "1800 E COUNTY LINE RD", "postcode": "39157"}}},
{"geometry": {"type": "Point", "coordinates": [-90.1481267798, 32.4416765379]}, "type": "Feature", "properties": {"collection_times": [{"days": "Mon-Fri", "time": "12:00pm"}, {"days": "Sat-Sun", "time": "Closed"}], "id": "3915700057", "name": "USPS COLLECTION BOX - BLUE BOX", "address": {"city": "RIDGELAND", "state": "MS", "street": "1052 HIGHLAND COLONY PKWY", "postcode": "39157"}}},
{"geometry": {"type": "Point", "coordinates": [-90.1481267798, 32.4416765379]}, "type": "Feature", "properties": {"collection_times": [{"days": "Mon-Fri", "time": "12:00pm"}, {"days": "Sat-Sun", "time": "Closed"}], "id": "3915700058", "name": "USPS COLLECTION BOX - BLUE BOX", "address": {"city": "RIDGELAND", "state": "MS", "street": "1052 HIGHLAND COLONY PKWY", "postcode": "39157"}}},
{"geometry": {"type": "Point", "coordinates": [-90.1481267798, 32.4416765379]}, "type": "Feature", "properties": {"collection_times": [{"days": "Mon-Fri", "time": "12:00pm"}, {"days": "Sat-Sun", "time": "Closed"}], "id": "3915700059", "name": "USPS COLLECTION BOX - BLUE BOX", "address": {"city": "RIDGELAND", "state": "MS", "street": "1052 HIGHLAND COLONY PKWY", "postcode": "39157"}}},
{"geometry": {"type": "Point", "coordinates": [-90.1236032843, 32.4106074131]}, "type": "Feature", "properties": {"collection_times": [{"days": "Mon-Fri", "time": "5:45pm"}, {"days": "Sat", "time": "1:00pm"}, {"days": "Sun", "time": "Closed"}], "id": "3915700073", "name": "USPS COLLECTION BOX - BLUE BOX", "address": {"city": "RIDGELAND", "state": "MS", "street": "611 S PEAR ORCHARD RD", "postcode": "39157"}}},
{"geometry": {"type": "Point", "coordinates": [-90.1236032843, 32.4106074131]}, "type": "Feature", "properties": {"collection_times": [{"days": "Mon-Fri", "time": "5:45pm"}, {"days": "Sat", "time": "1:00pm"}, {"days": "Sun", "time": "Closed"}], "id": "3915700074", "name": "USPS COLLECTION BOX - PO LOBBY", "address": {"city": "RIDGELAND", "state": "MS", "street": "611 S PEAR ORCHARD RD", "postcode": "39157"}}},
{"geometry": {"type": "Point", "coordinates": [-90.112525235, 32.401601681]}, "type": "Feature", "properties": {"collection_times": [{"days": "Mon-Fri", "time": "10:00am"}, {"days": "Sat-Sun", "time": "Closed"}], "id": "3915700079", "name": "USPS COLLECTION BOX - BLUE BOX", "address": {"city": "RIDGELAND", "state": "MS", "street": "795 WOODLANDS PKWY", "postcode": "39157"}}},
{"geometry": {"type": "Point", "coordinates": [-90.1235899072, 32.4061296606]}, "type": "Feature", "properties": {"collection_times": [{"days": "Mon-Fri", "time": "10:00am"}, {"days": "Sat-Sun", "time": "Closed"}], "id": "3915700080", "name": "USPS COLLECTION BOX - BLUE BOX", "address": {"city": "RIDGELAND", "state": "MS", "street": "731 S PEAR ORCHARD RD", "postcode": "39157"}}},
{"geometry": {"type": "Point", "coordinates": [-90.1421010942, 32.3996909434]}, "type": "Feature", "properties": {"collection_times": [{"days": "Mon-Fri", "time": "10:00am"}, {"days": "Sat-Sun", "time": "Closed"}], "id": "3915700081", "name": "USPS COLLECTION BOX - BLUE BOX", "address": {"city": "RIDGELAND", "state": "MS", "street": "900 E COUNTY LINE RD", "postcode": "39157"}}},
{"geometry": {"type": "Point", "coordinates": [-90.1727640142, 32.4038251667]}, "type": "Feature", "properties": {"collection_times": [{"days": "Mon-Fri", "time": "12:00pm"}, {"days": "Sat-Sun", "time": "Closed"}], "id": "3915700082", "name": "USPS COLLECTION BOX - BLUE BOX", "address": {"city": "RIDGELAND", "state": "MS", "street": "101 BUSINESS PARK DR", "postcode": "39157"}}},
{"geometry": {"type": "Point", "coordinates": [-90.1727640142, 32.4038251667]}, "type": "Feature", "properties": {"collection_times": [{"days": "Mon-Fri", "time": "12:00pm"}, {"days": "Sat-Sun", "time": "Closed"}], "id": "3915700083", "name": "USPS COLLECTION BOX - BLUE BOX", "address": {"city": "RIDGELAND", "state": "MS", "street": "101 BUSINESS PARK DR", "postcode": "39157"}}},
{"geometry": {"type": "Point", "coordinates": [-90.1727640142, 32.4038251667]}, "type": "Feature", "properties": {"collection_times": [{"days": "Mon-Fri", "time": "12:00pm"}, {"days": "Sat-Sun", "time": "Closed"}], "id": "3915700084", "name": "USPS COLLECTION BOX - BLUE BOX", "address": {"city": "RIDGELAND", "state": "MS", "street": "101 BUSINESS PARK DR", "postcode": "39157"}}},
{"geometry": {"type": "Point", "coordinates": [-90.1727640142, 32.4038251667]}, "type": "Feature", "properties": {"collection_times": [{"days": "Mon-Fri", "time": "12:00pm"}, {"days": "Sat-Sun", "time": "Closed"}], "id": "3915700087", "name": "USPS COLLECTION BOX - BLUE BOX", "address": {"city": "RIDGELAND", "state": "MS", "street": "101 BUSINESS PARK DR", "postcode": "39157"}}},
{"geometry": {"type": "Point", "coordinates": [-90.1236032843, 32.4106074131]}, "type": "Feature", "properties": {"collection_times": [{"days": "Mon-Fri", "time": "5:45pm"}, {"days": "Sat", "time": "1:00pm"}, {"days": "Sun", "time": "Closed"}], "id": "3915700090", "name": "USPS COLLECTION BOX - APC", "address": {"city": "RIDGELAND", "state": "MS", "street": "611 S PEAR ORCHARD RD", "postcode": "39157"}}},
{"geometry": {"type": "Point", "coordinates": [-90.1236032843, 32.4106074131]}, "type": "Feature", "properties": {"collection_times": [{"days": "Mon-Fri", "time": "5:45pm"}, {"days": "Sat", "time": "1:00pm"}, {"days": "Sun", "time": "Closed"}], "id": "3915700091", "name": "USPS COLLECTION BOX - PO LOBBY", "address": {"city": "RIDGELAND", "state": "MS", "street": "611 S PEAR ORCHARD RD", "postcode": "39157"}}},
{"geometry": {"type": "Point", "coordinates": [-90.1310790221, 32.4199928261]}, "type": "Feature", "properties": {"collection_times": [{"days": "Mon-Fri", "time": "2:30pm"}, {"days": "Sat-Sun", "time": "Closed"}], "id": "3915700092", "name": "USPS COLLECTION BOX - BLUE BOX", "address": {"city": "RIDGELAND", "state": "MS", "street": "404 W PARKWAY PL", "postcode": "39157"}}},
{"geometry": {"type": "Point", "coordinates": [-90.1310790221, 32.4199928261]}, "type": "Feature", "properties": {"collection_times": [{"days": "Mon-Fri", "time": "2:30pm"}, {"days": "Sat-Sun", "time": "Closed"}], "id": "3915700093", "name": "USPS COLLECTION BOX - BLUE BOX", "address": {"city": "RIDGELAND", "state": "MS", "street": "404 W PARKWAY PL", "postcode": "39157"}}},
{"geometry": {"type": "Point", "coordinates": [-90.1310790221, 32.4199928261]}, "type": "Feature", "properties": {"collection_times": [{"days": "Mon-Fri", "time": "12:00pm"}, {"days": "Sat-Sun", "time": "Closed"}], "id": "3915700094", "name": "USPS COLLECTION BOX - BLUE BOX", "address": {"city": "RIDGELAND", "state": "MS", "street": "398 HIGHWAY 51", "postcode": "39157"}}},
{"geometry": {"type": "Point", "coordinates": [-90.8850471195, 32.9054534253]}, "type": "Feature", "properties": {"collection_times": [{"days": "Mon-Fri", "time": "11:00am"}, {"days": "Sat-Sun", "time": "Closed"}], "id": "3915900003", "name": "USPS COLLECTION BOX - BLUE BOX", "address": {"city": "ROLLING FORK", "state": "MS", "street": "29 S FOURTH ST", "postcode": "39159"}}},
{"geometry": {"type": "Point", "coordinates": [-90.8780900777, 32.9083114485]}, "type": "Feature", "properties": {"collection_times": [{"days": "Mon-Fri", "time": "4:15pm"}, {"days": "Sat", "time": "11:00am"}, {"days": "Sun", "time": "Closed"}], "id": "3915900004", "name": "USPS COLLECTION BOX - PO LOBBY", "address": {"city": "ROLLING FORK", "state": "MS", "street": "138 WALNUT ST", "postcode": "39159"}}},
{"geometry": {"type": "Point", "coordinates": [-90.8780900777, 32.9083114485]}, "type": "Feature", "properties": {"collection_times": [{"days": "Mon-Fri", "time": "3:00pm"}, {"days": "Sat", "time": "11:00am"}, {"days": "Sun", "time": "Closed"}], "id": "3915900006", "name": "USPS COLLECTION BOX - BLUE BOX", "address": {"city": "ROLLING FORK", "state": "MS", "street": "138 WALNUT ST", "postcode": "39159"}}},
{"geometry": {"type": "Point", "coordinates": [-89.780499623, 32.9808025094]}, "type": "Feature", "properties": {"collection_times": [{"days": "Mon-Fri", "time": "4:00pm"}, {"days": "Sat-Sun", "time": "Closed"}], "id": "3916000001", "name": "USPS COLLECTION BOX - BLUE BOX", "address": {"city": "SALLIS", "state": "MS", "street": "MAIN ST ST", "postcode": "39160"}}},
{"geometry": {"type": "Point", "coordinates": [-89.8762093846, 32.4872786275]}, "type": "Feature", "properties": {"collection_times": [{"days": "Mon-Fri", "time": "4:15pm"}, {"days": "Sat-Sun", "time": "Closed"}], "id": "3916100001", "name": "USPS COLLECTION BOX - BLUE BOX", "address": {"city": "SANDHILL", "state": "MS", "street": "189 CARTER STORE RD", "postcode": "39161"}}},
{"geometry": {"type": "Point", "coordinates": [-90.694200082, 32.5739562665]}, "type": "Feature", "properties": {"collection_times": [{"days": "Mon-Fri", "time": "3:30pm"}, {"days": "Sat-Sun", "time": "Closed"}], "id": "3916200001", "name": "USPS COLLECTION BOX - BLUE BOX", "address": {"city": "SATARTIA", "state": "MS", "street": "9334 HIGHWAY 3", "postcode": "39162"}}},
{"geometry": {"type": "Point", "coordinates": [-91.39947562, 31.3909696545]}, "type": "Feature", "properties": {"collection_times": [{"days": "Mon-Fri", "time": "11:50am"}, {"days": "Sat-Sun", "time": "Closed"}], "id": "3916500001", "name": "USPS COLLECTION BOX - BLUE BOX", "address": {"city": "SIBLEY", "state": "MS", "street": "1258 HIGHWAY 61 S", "postcode": "39165"}}},
{"geometry": {"type": "Point", "coordinates": [-91.39947562, 31.3909696545]}, "type": "Feature", "properties": {"collection_times": [{"days": "Mon-Fri", "time": "11:00am"}, {"days": "Sat", "time": "8:00am"}, {"days": "Sun", "time": "Closed"}], "id": "3916500004", "name": "USPS COLLECTION BOX - PO LOBBY", "address": {"city": "SIBLEY", "state": "MS", "street": "1258 HIGHWAY 61 S", "postcode": "39165"}}},
{"geometry": {"type": "Point", "coordinates": [-90.4117856613, 33.0290182696]}, "type": "Feature", "properties": {"collection_times": [{"days": "Mon-Fri", "time": "3:30pm"}, {"days": "Sat", "time": "8:30am"}, {"days": "Sun", "time": "Closed"}], "id": "3916600001", "name": "USPS COLLECTION BOX - BLUE BOX", "address": {"city": "SILVER CITY", "state": "MS", "street": "65 WEST ST", "postcode": "39166"}}},
{"geometry": {"type": "Point", "coordinates": [-90.4117856613, 33.0290182696]}, "type": "Feature", "properties": {"collection_times": [{"days": "Mon-Sat", "time": "11:00am"}, {"days": "Sun", "time": "Closed"}], "id": "3916600004", "name": "USPS COLLECTION BOX - BLUE BOX", "address": {"city": "SILVER CITY", "state": "MS", "street": "105 MAIN ST   MIDNIGHT", "postcode": "39166"}}},
{"geometry": {"type": "Point", "coordinates": [-90.0429157732, 32.0951334393]}, "type": "Feature", "properties": {"collection_times": [{"days": "Mon-Fri", "time": "4:30pm"}, {"days": "Sat", "time": "10:00am"}, {"days": "Sun", "time": "Closed"}], "id": "3916700001", "name": "USPS COLLECTION BOX - BLUE BOX", "address": {"city": "STAR", "state": "MS", "street": "339 MANGUM DR", "postcode": "39167"}}},
{"geometry": {"type": "Point", "coordinates": [-90.0429157732, 32.0951334393]}, "type": "Feature", "properties": {"collection_times": [{"days": "Mon-Fri", "time": "12:00pm"}, {"days": "Sat", "time": "10:00am"}, {"days": "Sun", "time": "Closed"}], "id": "3916700002", "name": "USPS COLLECTION BOX - PO LOBBY", "address": {"city": "STAR", "state": "MS", "street": "339 MANGUM DR", "postcode": "39167"}}},
{"geometry": {"type": "Point", "coordinates": [-89.4194541696, 31.8287847404]}, "type": "Feature", "properties": {"collection_times": [{"days": "Mon-Fri", "time": "4:00pm"}, {"days": "Sat", "time": "10:15am"}, {"days": "Sun", "time": "Closed"}], "id": "3916800001", "name": "USPS COLLECTION BOX - BLUE BOX", "address": {"city": "TAYLORSVILLE", "state": "MS", "street": "750 HIGHWAY 28 E", "postcode": "39168"}}},
{"geometry": {"type": "Point", "coordinates": [-89.4194541696, 31.8287847404]}, "type": "Feature", "properties": {"collection_times": [{"days": "Mon-Fri", "time": "4:00pm"}, {"days": "Sat", "time": "10:15am"}, {"days": "Sun", "time": "Closed"}], "id": "3916800002", "name": "USPS COLLECTION BOX - PO LOBBY", "address": {"city": "TAYLORSVILLE", "state": "MS", "street": "750 HIGHWAY 28 E", "postcode": "39168"}}},
{"geometry": {"type": "Point", "coordinates": [-89.4194541696, 31.8287847404]}, "type": "Feature", "properties": {"collection_times": [{"days": "Mon-Fri", "time": "4:00pm"}, {"days": "Sat", "time": "10:15am"}, {"days": "Sun", "time": "Closed"}], "id": "3916800004", "name": "USPS COLLECTION BOX - BLUE BOX", "address": {"city": "TAYLORSVILLE", "state": "MS", "street": "750 HIGHWAY 28 E", "postcode": "39168"}}},
{"geometry": {"type": "Point", "coordinates": [-90.2230759036, 33.1828798568]}, "type": "Feature", "properties": {"collection_times": [{"days": "Mon-Fri", "time": "4:15pm"}, {"days": "Sat-Sun", "time": "Closed"}], "id": "3916900001", "name": "USPS COLLECTION BOX - BLUE BOX", "address": {"city": "TCHULA", "state": "MS", "street": "142 MERCER ST", "postcode": "39169"}}},
{"geometry": {"type": "Point", "coordinates": [-90.2230759036, 33.1828798568]}, "type": "Feature", "properties": {"collection_times": [{"days": "Mon-Fri", "time": "4:15pm"}, {"days": "Sat", "time": "8:00am"}, {"days": "Sun", "time": "Closed"}], "id": "3916900002", "name": "USPS COLLECTION BOX - PO LOBBY", "address": {"city": "TCHULA", "state": "MS", "street": "142 MERCER ST", "postcode": "39169"}}},
{"geometry": {"type": "Point", "coordinates": [-90.2984390325, 32.0987789136]}, "type": "Feature", "properties": {"collection_times": [{"days": "Mon-Fri", "time": "4:30pm"}, {"days": "Sat", "time": "10:00am"}, {"days": "Sun", "time": "Closed"}], "id": "3917000001", "name": "USPS COLLECTION BOX - BLUE BOX", "address": {"city": "TERRY", "state": "MS", "street": "404 W CUNNINGHAM AVE", "postcode": "39170"}}},
{"geometry": {"type": "Point", "coordinates": [-90.2984390325, 32.0987789136]}, "type": "Feature", "properties": {"collection_times": [{"days": "Mon-Fri", "time": "4:30pm"}, {"days": "Sat", "time": "10:00am"}, {"days": "Sun", "time": "Closed"}], "id": "3917000002", "name": "USPS COLLECTION BOX - PO LOBBY", "address": {"city": "TERRY", "state": "MS", "street": "404 W CUNNINGHAM AVE", "postcode": "39170"}}},
{"geometry": {"type": "Point", "coordinates": [-90.1503583774, 32.3981243679]}, "type": "Feature", "properties": {"collection_times": [{"days": "Mon-Fri", "time": "4:45pm"}, {"days": "Sat", "time": "10:30am"}, {"days": "Sun", "time": "Closed"}], "id": "3917400001", "name": "USPS COLLECTION BOX - BLUE BOX", "address": {"city": "TOUGALOO", "state": "MS", "street": "501 W COUNTY LINE RD", "postcode": "39174"}}},
{"geometry": {"type": "Point", "coordinates": [-90.1503583774, 32.3981243679]}, "type": "Feature", "properties": {"collection_times": [{"days": "Mon-Fri", "time": "4:45pm"}, {"days": "Sat", "time": "10:30am"}, {"days": "Sun", "time": "Closed"}], "id": "3917400002", "name": "USPS COLLECTION BOX - BLUE BOX", "address": {"city": "TOUGALOO", "state": "MS", "street": "501 W COUNTY LINE RD", "postcode": "39174"}}},
{"geometry": {"type": "Point", "coordinates": [-90.1503583774, 32.3981243679]}, "type": "Feature", "properties": {"collection_times": [{"days": "Mon-Fri", "time": "4:00pm"}, {"days": "Sat", "time": "10:30am"}, {"days": "Sun", "time": "Closed"}], "id": "3917400003", "name": "USPS COLLECTION BOX - PO LOBBY", "address": {"city": "TOUGALOO", "state": "MS", "street": "501 W COUNTY LINE RD", "postcode": "39174"}}},
{"geometry": {"type": "Point", "coordinates": [-90.6248181673, 32.106890881]}, "type": "Feature", "properties": {"collection_times": [{"days": "Mon-Fri", "time": "4:00pm"}, {"days": "Sat", "time": "11:00am"}, {"days": "Sun", "time": "Closed"}], "id": "3917500001", "name": "USPS COLLECTION BOX - BLUE BOX", "address": {"city": "UTICA", "state": "MS", "street": "310 DEPOT ST", "postcode": "39175"}}},
{"geometry": {"type": "Point", "coordinates": [-90.8397275279, 32.6187822259]}, "type": "Feature", "properties": {"collection_times": [{"days": "Mon-Fri", "time": "2:00pm"}, {"days": "Sat-Sun", "time": "Closed"}], "id": "3917700001", "name": "USPS COLLECTION BOX - BLUE BOX", "address": {"city": "VALLEY PARK", "state": "MS", "street": "HWY 61", "postcode": "39177"}}},
{"geometry": {"type": "Point", "coordinates": [-90.9011153859, 32.2235169938]}, "type": "Feature", "properties": {"collection_times": [{"days": "Mon-Fri", "time": "4:55pm"}, {"days": "Sat", "time": "12:00pm"}, {"days": "Sun", "time": "Closed"}], "id": "3918000003", "name": "USPS COLLECTION BOX - BLUE BOX", "address": {"city": "VICKSBURG", "state": "MS", "street": "3415 PEMBERTON BLVD", "postcode": "39180"}}},
{"geometry": {"type": "Point", "coordinates": [-90.9011153859, 32.2235169938]}, "type": "Feature", "properties": {"collection_times": [{"days": "Mon-Fri", "time": "4:55pm"}, {"days": "Sat", "time": "12:00pm"}, {"days": "Sun", "time": "Closed"}], "id": "3918000004", "name": "USPS COLLECTION BOX - BLUE BOX", "address": {"city": "VICKSBURG", "state": "MS", "street": "3415 PEMBERTON BLVD", "postcode": "39180"}}},
{"geometry": {"type": "Point", "coordinates": [-90.9011153859, 32.2235169938]}, "type": "Feature", "properties": {"collection_times": [{"days": "Mon-Fri", "time": "4:55pm"}, {"days": "Sat", "time": "12:00pm"}, {"days": "Sun", "time": "Closed"}], "id": "3918000005", "name": "USPS COLLECTION BOX - BLUE BOX", "address": {"city": "VICKSBURG", "state": "MS", "street": "3415 PEMBERTON BLVD", "postcode": "39180"}}},
{"geometry": {"type": "Point", "coordinates": [-90.8733085637, 32.3018772587]}, "type": "Feature", "properties": {"collection_times": [{"days": "Mon-Fri", "time": "2:15pm"}, {"days": "Sat-Sun", "time": "Closed"}], "id": "3918000012", "name": "USPS COLLECTION BOX - BLUE BOX", "address": {"city": "VICKSBURG", "state": "MS", "street": "3909 HALLS FERRY RD", "postcode": "39180"}}},
{"geometry": {"type": "Point", "coordinates": [-90.8678054926, 32.3319654952]}, "type": "Feature", "properties": {"collection_times": [{"days": "Mon-Fri", "time": "12:30pm"}, {"days": "Sat-Sun", "time": "Closed"}], "id": "3918000023", "name": "USPS COLLECTION BOX - BLUE BOX", "address": {"city": "VICKSBURG", "state": "MS", "street": "3046 INDIANA AVE", "postcode": "39180"}}},
{"geometry": {"type": "Point", "coordinates": [-90.8357413308, 32.34402178]}, "type": "Feature", "properties": {"collection_times": [{"days": "Mon-Fri", "time": "12:45pm"}, {"days": "Sat-Sun", "time": "Closed"}], "id": "3918000032", "name": "USPS COLLECTION BOX - BLUE BOX", "address": {"city": "VICKSBURG", "state": "MS", "street": "4155 E CLAY ST", "postcode": "39180"}}},
{"geometry": {"type": "Point", "coordinates": [-90.8422354415, 32.3400516229]}, "type": "Feature", "properties": {"collection_times": [{"days": "Mon-Fri", "time": "12:30pm"}, {"days": "Sat-Sun", "time": "Closed"}], "id": "3918000034", "name": "USPS COLLECTION BOX - BLUE BOX", "address": {"city": "VICKSBURG", "state": "MS", "street": "4000 S FRONTAGE RD", "postcode": "39180"}}},
{"geometry": {"type": "Point", "coordinates": [-90.8767479152, 32.3223497389]}, "type": "Feature", "properties": {"collection_times": [{"days": "Mon-Fri", "time": "2:15pm"}, {"days": "Sat-Sun", "time": "Closed"}], "id": "3918000037", "name": "USPS COLLECTION BOX - BLUE BOX", "address": {"city": "VICKSBURG", "state": "MS", "street": "3427 HALLS FERRY RD", "postcode": "39180"}}},
{"geometry": {"type": "Point", "coordinates": [-90.8768555687, 32.3522989753]}, "type": "Feature", "properties": {"collection_times": [{"days": "Mon-Fri", "time": "2:15pm"}, {"days": "Sat-Sun", "time": "Closed"}], "id": "3918000054", "name": "USPS COLLECTION BOX - BLUE BOX", "address": {"city": "VICKSBURG", "state": "MS", "street": "1019 ADAMS ST", "postcode": "39180"}}},
{"geometry": {"type": "Point", "coordinates": [-90.8768555687, 32.3522989753]}, "type": "Feature", "properties": {"collection_times": [{"days": "Mon-Fri", "time": "2:15pm"}, {"days": "Sat-Sun", "time": "Closed"}], "id": "3918000055", "name": "USPS COLLECTION BOX - BLUE BOX", "address": {"city": "VICKSBURG", "state": "MS", "street": "1019 ADAMS ST", "postcode": "39180"}}},
{"geometry": {"type": "Point", "coordinates": [-90.866466067, 32.3232376596]}, "type": "Feature", "properties": {"collection_times": [{"days": "Mon-Fri", "time": "10:30am"}, {"days": "Sat-Sun", "time": "Closed"}], "id": "3918000060", "name": "USPS COLLECTION BOX - BLUE BOX", "address": {"city": "VICKSBURG", "state": "MS", "street": "2080 S FRONTAGE RD", "postcode": "39180"}}},
{"geometry": {"type": "Point", "coordinates": [-90.9011153859, 32.2235169938]}, "type": "Feature", "properties": {"collection_times": [{"days": "Mon-Fri", "time": "4:55pm"}, {"days": "Sat", "time": "12:00pm"}, {"days": "Sun", "time": "Closed"}], "id": "3918000061", "name": "USPS COLLECTION BOX - BLUE BOX", "address": {"city": "VICKSBURG", "state": "MS", "street": "3415 PEMBERTON BLVD", "postcode": "39180"}}},
{"geometry": {"type": "Point", "coordinates": [-90.9011153859, 32.2235169938]}, "type": "Feature", "properties": {"collection_times": [{"days": "Mon-Fri", "time": "4:55pm"}, {"days": "Sat", "time": "12:00pm"}, {"days": "Sun", "time": "Closed"}], "id": "3918000062", "name": "USPS COLLECTION BOX - BLUE BOX", "address": {"city": "VICKSBURG", "state": "MS", "street": "3415 PEMBERTON BLVD", "postcode": "39180"}}},
{"geometry": {"type": "Point", "coordinates": [-90.8298717283, 32.3608224615]}, "type": "Feature", "properties": {"collection_times": [{"days": "Mon-Fri", "time": "12:00pm"}, {"days": "Sat-Sun", "time": "Closed"}], "id": "3918000064", "name": "USPS COLLECTION BOX - BLUE BOX", "address": {"city": "VICKSBURG", "state": "MS", "street": "120 HOLT COLLIER DR", "postcode": "39180"}}},
{"geometry": {"type": "Point", "coordinates": [-90.8804705926, 32.3488669976]}, "type": "Feature", "properties": {"collection_times": [{"days": "Mon-Fri", "time": "3:00pm"}, {"days": "Sat-Sun", "time": "Closed"}], "id": "3918000065", "name": "USPS COLLECTION BOX - BLUE BOX", "address": {"city": "VICKSBURG", "state": "MS", "street": "820 CRAWFORD ST", "postcode": "39180"}}},
{"geometry": {"type": "Point", "coordinates": [-90.8804705926, 32.3488669976]}, "type": "Feature", "properties": {"collection_times": [{"days": "Mon-Fri", "time": "3:00pm"}, {"days": "Sat-Sun", "time": "Closed"}], "id": "3918000066", "name": "USPS COLLECTION BOX - BLUE BOX", "address": {"city": "VICKSBURG", "state": "MS", "street": "820 CRAWFORD ST", "postcode": "39180"}}},
{"geometry": {"type": "Point", "coordinates": [-90.8822926798, 32.3494065763]}, "type": "Feature", "properties": {"collection_times": [{"days": "Mon-Fri", "time": "3:00pm"}, {"days": "Sat-Sun", "time": "Closed"}], "id": "3918000067", "name": "USPS COLLECTION BOX - BLUE BOX", "address": {"city": "VICKSBURG", "state": "MS", "street": "1318 WASHINGTON ST", "postcode": "39180"}}},
{"geometry": {"type": "Point", "coordinates": [-90.9011153859, 32.2235169938]}, "type": "Feature", "properties": {"collection_times": [{"days": "Mon-Fri", "time": "5:15pm"}, {"days": "Sat", "time": "12:00pm"}, {"days": "Sun", "time": "Closed"}], "id": "3918000080", "name": "USPS COLLECTION BOX - PO LOBBY", "address": {"city": "VICKSBURG", "state": "MS", "street": "3415 PEMBERTON BLVD", "postcode": "39180"}}},
{"geometry": {"type": "Point", "coordinates": [-90.9011153859, 32.2235169938]}, "type": "Feature", "properties": {"collection_times": [{"days": "Mon-Fri", "time": "5:15pm"}, {"days": "Sat", "time": "12:00pm"}, {"days": "Sun", "time": "Closed"}], "id": "3918000081", "name": "USPS COLLECTION BOX - PO LOBBY", "address": {"city": "VICKSBURG", "state": "MS", "street": "3415 PEMBERTON BLVD", "postcode": "39180"}}},
{"geometry": {"type": "Point", "coordinates": [-90.8357413308, 32.34402178]}, "type": "Feature", "properties": {"collection_times": [{"days": "Mon-Fri", "time": "12:45pm"}, {"days": "Sat-Sun", "time": "Closed"}], "id": "3918000082", "name": "USPS COLLECTION BOX - BLUE BOX", "address": {"city": "VICKSBURG", "state": "MS", "street": "4155 E CLAY ST", "postcode": "39180"}}},
{"geometry": {"type": "Point", "coordinates": [-90.8705309861, 32.3486033243]}, "type": "Feature", "properties": {"collection_times": [{"days": "Mon-Fri", "time": "12:30pm"}, {"days": "Sat-Sun", "time": "Closed"}], "id": "3918000085", "name": "USPS COLLECTION BOX - BLUE BOX", "address": {"city": "VICKSBURG", "state": "MS", "street": "1713 CLAY ST.", "postcode": "39180"}}},
{"geometry": {"type": "Point", "coordinates": [-90.8803793554, 32.3451326097]}, "type": "Feature", "properties": {"collection_times": [{"days": "Mon-Fri", "time": "2:15pm"}, {"days": "Sat-Sun", "time": "Closed"}], "id": "3918000086", "name": "USPS COLLECTION BOX - BLUE BOX", "address": {"city": "VICKSBURG", "state": "MS", "street": "920 SHANNON ALY", "postcode": "39180"}}},
{"geometry": {"type": "Point", "coordinates": [-90.8768555687, 32.3522989753]}, "type": "Feature", "properties": {"collection_times": [{"days": "Mon-Fri", "time": "2:15pm"}, {"days": "Sat-Sun", "time": "Closed"}], "id": "3918000088", "name": "USPS COLLECTION BOX - BLUE BOX", "address": {"city": "VICKSBURG", "state": "MS", "street": "1019 ADAMS ST", "postcode": "39180"}}},
{"geometry": {"type": "Point", "coordinates": [-89.4592981865, 32.5940289643]}, "type": "Feature", "properties": {"collection_times": [{"days": "Mon-Fri", "time": "3:50pm"}, {"days": "Sat-Sun", "time": "Closed"}], "id": "3918900001", "name": "USPS COLLECTION BOX - BLUE BOX", "address": {"city": "WALNUT GROVE", "state": "MS", "street": "143 MAIN ST", "postcode": "39189"}}},
{"geometry": {"type": "Point", "coordinates": [-89.4592981865, 32.5940289643]}, "type": "Feature", "properties": {"collection_times": [{"days": "Mon-Fri", "time": "3:50pm"}, {"days": "Sat", "time": "8:00am"}, {"days": "Sun", "time": "Closed"}], "id": "3918900002", "name": "USPS COLLECTION BOX - PO LOBBY", "address": {"city": "WALNUT GROVE", "state": "MS", "street": "143 MAIN ST", "postcode": "39189"}}},
{"geometry": {"type": "Point", "coordinates": [-91.2994309686, 31.5792825762]}, "type": "Feature", "properties": {"collection_times": [{"days": "Mon-Fri", "time": "4:45pm"}, {"days": "Sat", "time": "8:00am"}, {"days": "Sun", "time": "Closed"}], "id": "3919000001", "name": "USPS COLLECTION BOX - BLUE BOX", "address": {"city": "WASHINGTON", "state": "MS", "street": "820 HIGHWAY 61 N", "postcode": "39190"}}},
{"geometry": {"type": "Point", "coordinates": [-91.2994309686, 31.5792825762]}, "type": "Feature", "properties": {"collection_times": [{"days": "Mon-Fri", "time": "4:45pm"}, {"days": "Sat", "time": "8:00am"}, {"days": "Sun", "time": "Closed"}], "id": "3919000002", "name": "USPS COLLECTION BOX - BLUE BOX", "address": {"city": "WASHINGTON", "state": "MS", "street": "820 HIGHWAY 61 N", "postcode": "39190"}}},
{"geometry": {"type": "Point", "coordinates": [-91.2994309686, 31.5792825762]}, "type": "Feature", "properties": {"collection_times": [{"days": "Mon-Fri", "time": "4:45pm"}, {"days": "Sat", "time": "8:00am"}, {"days": "Sun", "time": "Closed"}], "id": "3919000003", "name": "USPS COLLECTION BOX - PO LOBBY", "address": {"city": "WASHINGTON", "state": "MS", "street": "820 HIGHWAY 61 N", "postcode": "39190"}}},
{"geometry": {"type": "Point", "coordinates": [-90.4014925711, 31.6972559111]}, "type": "Feature", "properties": {"collection_times": [{"days": "Mon-Fri", "time": "4:30pm"}, {"days": "Sat", "time": "10:00am"}, {"days": "Sun", "time": "Closed"}], "id": "3919100001", "name": "USPS COLLECTION BOX - BLUE BOX", "address": {"city": "WESSON", "state": "MS", "street": "2072 HIGHWAY 51", "postcode": "39191"}}},
{"geometry": {"type": "Point", "coordinates": [-90.4014925711, 31.6972559111]}, "type": "Feature", "properties": {"collection_times": [{"days": "Mon-Fri", "time": "4:30pm"}, {"days": "Sat", "time": "10:00am"}, {"days": "Sun", "time": "Closed"}], "id": "3919100002", "name": "USPS COLLECTION BOX - PO LOBBY", "address": {"city": "WESSON", "state": "MS", "street": "2072 HIGHWAY 51", "postcode": "39191"}}},
{"geometry": {"type": "Point", "coordinates": [-89.85267266, 33.2492939364]}, "type": "Feature", "properties": {"collection_times": [{"days": "Mon-Fri", "time": "3:45pm"}, {"days": "Sat-Sun", "time": "Closed"}], "id": "3919200001", "name": "USPS COLLECTION BOX - BLUE BOX", "address": {"city": "WEST", "state": "MS", "street": "540 CARROLLTON ST", "postcode": "39192"}}},
{"geometry": {"type": "Point", "coordinates": [-89.85267266, 33.2492939364]}, "type": "Feature", "properties": {"collection_times": [{"days": "Mon-Fri", "time": "2:30pm"}, {"days": "Sat", "time": "8:00am"}, {"days": "Sun", "time": "Closed"}], "id": "3919200002", "name": "USPS COLLECTION BOX - PO LOBBY", "address": {"city": "WEST", "state": "MS", "street": "540 CARROLLTON ST", "postcode": "39192"}}},
{"geometry": {"type": "Point", "coordinates": [-90.4034836271, 32.8583189644]}, "type": "Feature", "properties": {"collection_times": [{"days": "Mon-Fri", "time": "11:30am"}, {"days": "Sat-Sun", "time": "Closed"}], "id": "3919400010", "name": "USPS COLLECTION BOX - BLUE BOX", "address": {"city": "YAZOO CITY", "state": "MS", "street": "838 GRAND AVE", "postcode": "39194"}}},
{"geometry": {"type": "Point", "coordinates": [-90.4005072033, 32.8663303742]}, "type": "Feature", "properties": {"collection_times": [{"days": "Mon-Fri", "time": "11:30am"}, {"days": "Sat-Sun", "time": "Closed"}], "id": "3919400012", "name": "USPS COLLECTION BOX - BLUE BOX", "address": {"city": "YAZOO CITY", "state": "MS", "street": "400 E FIFTEENTH ST", "postcode": "39194"}}},
{"geometry": {"type": "Point", "coordinates": [-90.4123537644, 32.8497112818]}, "type": "Feature", "properties": {"collection_times": [{"days": "Mon-Fri", "time": "4:30pm"}, {"days": "Sat", "time": "10:00am"}, {"days": "Sun", "time": "Closed"}], "id": "3919400013", "name": "USPS COLLECTION BOX - BLUE BOX", "address": {"city": "YAZOO CITY", "state": "MS", "street": "341 N MAIN ST", "postcode": "39194"}}},
{"geometry": {"type": "Point", "coordinates": [-90.412600512, 32.8467361304]}, "type": "Feature", "properties": {"collection_times": [{"days": "Mon-Fri", "time": "11:30am"}, {"days": "Sat-Sun", "time": "Closed"}], "id": "3919400015", "name": "USPS COLLECTION BOX - BLUE BOX", "address": {"city": "YAZOO CITY", "state": "MS", "street": "200 E BROADWAY ST", "postcode": "39194"}}},
{"geometry": {"type": "Point", "coordinates": [-90.4123537644, 32.8497112818]}, "type": "Feature", "properties": {"collection_times": [{"days": "Mon-Fri", "time": "4:30pm"}, {"days": "Sat", "time": "10:00am"}, {"days": "Sun", "time": "Closed"}], "id": "3919400019", "name": "USPS COLLECTION BOX - BLUE BOX", "address": {"city": "YAZOO CITY", "state": "MS", "street": "341 N MAIN ST", "postcode": "39194"}}},
{"geometry": {"type": "Point", "coordinates": [-90.4123537644, 32.8497112818]}, "type": "Feature", "properties": {"collection_times": [{"days": "Mon-Fri", "time": "4:30pm"}, {"days": "Sat", "time": "10:00am"}, {"days": "Sun", "time": "Closed"}], "id": "3919400021", "name": "USPS COLLECTION BOX - PO LOBBY", "address": {"city": "YAZOO CITY", "state": "MS", "street": "341 N MAIN ST", "postcode": "39194"}}},
{"geometry": {"type": "Point", "coordinates": [-90.4123537644, 32.8497112818]}, "type": "Feature", "properties": {"collection_times": [{"days": "Mon-Fri", "time": "4:30pm"}, {"days": "Sat", "time": "10:00am"}, {"days": "Sun", "time": "Closed"}], "id": "3919400023", "name": "USPS COLLECTION BOX - PO LOBBY", "address": {"city": "YAZOO CITY", "state": "MS", "street": "341 N MAIN ST", "postcode": "39194"}}}
]}
