{"type": "FeatureCollection", "features": [
{"geometry": {"type": "Point", "coordinates": [-90.1867366421, 32.3014745848]}, "type": "Feature", "properties": {"collection_times": [{"days": "Mon-Fri", "time": "2:30pm"}, {"days": "Sat-Sun", "time": "Closed"}], "id": "3920100004", "name": "USPS COLLECTION BOX - BLUE BOX", "address": {"city": "JACKSON", "state": "MS", "street": "162 E AMITE ST", "postcode": "39201"}}},
{"geometry": {"type": "Point", "coordinates": [-90.18494557, 32.2986665224]}, "type": "Feature", "properties": {"collection_times": [{"days": "Mon-Fri", "time": "12:30pm"}, {"days": "Sat-Sun", "time": "Closed"}], "id": "3920100014", "name": "USPS COLLECTION BOX - BLUE BOX", "address": {"city": "JACKSON", "state": "MS", "street": "269 E PEARL ST", "postcode": "39201"}}},
{"geometry": {"type": "Point", "coordinates": [-90.1816502858, 32.2993420035]}, "type": "Feature", "properties": {"collection_times": [{"days": "Mon-Fri", "time": "12:00pm"}, {"days": "Sat-Sun", "time": "Closed"}], "id": "3920100017", "name": "USPS COLLECTION BOX - BLUE BOX", "address": {"city": "JACKSON", "state": "MS", "street": "501 E CAPITOL ST", "postcode": "39201"}}},
{"geometry": {"type": "Point", "coordinates": [-90.1860867917, 32.2957300138]}, "type": "Feature", "properties": {"collection_times": [{"days": "Mon-Fri", "time": "12:00pm"}, {"days": "Sat-Sun", "time": "Closed"}], "id": "3920100021", "name": "USPS COLLECTION BOX - EXPRESS", "address": {"city": "JACKSON", "state": "MS", "street": "248 E CAPITOL ST", "postcode": "39201"}}},
{"geometry": {"type": "Point", "coordinates": [-90.1850688691, 32.2999171969]}, "type": "Feature", "properties": {"collection_times": [{"days": "Mon-Fri", "time": "12:00pm"}, {"days": "Sat-Sun", "time": "Closed"}], "id": "3920100023", "name": "USPS COLLECTION BOX - BLUE BOX", "address": {"city": "JACKSON", "state": "MS", "street": "248 E CAPITOL ST", "postcode": "39201"}}},
{"geometry": {"type": "Point", "coordinates": [-90.1851621344, 32.2998188827]}, "type": "Feature", "properties": {"collection_times": [{"days": "Mon-Fri", "time": "12:00pm"}, {"days": "Sat-Sun", "time": "Closed"}], "id": "3920100025", "name": "USPS COLLECTION BOX - BLUE BOX", "address": {"city": "JACKSON", "state": "MS", "street": "245 E CAPITOL ST", "postcode": "39201"}}},
{"geometry": {"type": "Point", "coordinates": [-90.1851621344, 32.2998188827]}, "type": "Feature", "properties": {"collection_times": [{"days": "Mon-Fri", "time": "12:00pm"}, {"days": "Sat-Sun", "time": "Closed"}], "id": "3920100027", "name": "USPS COLLECTION BOX - BLUE BOX", "address": {"city": "JACKSON", "state": "MS", "street": "245 E CAPITOL ST", "postcode": "39201"}}},
{"geometry": {"type": "Point", "coordinates": [-90.1853004908, 32.3026907368]}, "type": "Feature", "properties": {"collection_times": [{"days": "Mon-Fri", "time": "2:30pm"}, {"days": "Sat-Sun", "time": "Closed"}], "id": "3920100049", "name": "USPS COLLECTION BOX - BLUE BOX", "address": {"city": "JACKSON", "state": "MS", "street": "301 N LAMAR ST", "postcode": "39201"}}},
{"geometry": {"type": "Point", "coordinates": [-90.1838893503, 32.2941692745]}, "type": "Feature", "properties": {"collection_times": [{"days": "Mon-Fri", "time": "9:00pm"}, {"days": "Sat", "time": "6:00pm"}, {"days": "Sun", "time": "Closed"}], "id": "3920100065", "name": "USPS COLLECTION BOX - BLUE BOX", "address": {"city": "JACKSON", "state": "MS", "street": "401 E SOUTH ST", "postcode": "39201"}}},
{"geometry": {"type": "Point", "coordinates": [-90.1838893503, 32.2941692745]}, "type": "Feature", "properties": {"collection_times": [{"days": "Mon-Fri", "time": "9:00pm"}, {"days": "Sat", "time": "6:00pm"}, {"days": "Sun", "time": "Closed"}], "id": "3920100066", "name": "USPS COLLECTION BOX - BLUE BOX", "address": {"city": "JACKSON", "state": "MS", "street": "401 E SOUTH ST", "postcode": "39201"}}},
{"geometry": {"type": "Point", "coordinates": [-90.1838893503, 32.2941692745]}, "type": "Feature", "properties": {"collection_times": [{"days": "Mon-Fri", "time": "9:00pm"}, {"days": "Sat", "time": "6:00pm"}, {"days": "Sun", "time": "Closed"}], "id": "3920100067", "name": "USPS COLLECTION BOX - BLUE BOX", "address": {"city": "JACKSON", "state": "MS", "street": "401 E SOUTH ST", "postcode": "39201"}}},
{"geometry": {"type": "Point", "coordinates": [-90.1838893503, 32.2941692745]}, "type": "Feature", "properties": {"collection_times": [{"days": "Mon-Fri", "time": "9:00pm"}, {"days": "Sat", "time": "6:00pm"}, {"days": "Sun", "time": "Closed"}], "id": "3920100068", "name": "USPS COLLECTION BOX - BLUE BOX", "address": {"city": "JACKSON", "state": "MS", "street": "401 E SOUTH ST", "postcode": "39201"}}},
{"geometry": {"type": "Point", "coordinates": [-90.1839585222, 32.2893135477]}, "type": "Feature", "properties": {"collection_times": [{"days": "Mon-Fri", "time": "2:30pm"}, {"days": "Sat-Sun", "time": "Closed"}], "id": "3920100099", "name": "USPS COLLECTION BOX - BLUE BOX", "address": {"city": "JACKSON", "state": "MS", "street": "970 W NORTH FRONTAGE RD", "postcode": "39201"}}},
{"geometry": {"type": "Point", "coordinates": [-90.1853004908, 32.3026907368]}, "type": "Feature", "properties": {"collection_times": [{"days": "Mon-Fri", "time": "2:30pm"}, {"days": "Sat-Sun", "time": "Closed"}], "id": "3920100104", "name": "USPS COLLECTION BOX - BLUE BOX", "address": {"city": "JACKSON", "state": "MS", "street": "301 N LAMAR ST", "postcode": "39201"}}},
{"geometry": {"type": "Point", "coordinates": [-90.1853004908, 32.3026907368]}, "type": "Feature", "properties": {"collection_times": [{"days": "Mon-Fri", "time": "2:30pm"}, {"days": "Sat-Sun", "time": "Closed"}], "id": "3920100105", "name": "USPS COLLECTION BOX - BLUE BOX", "address": {"city": "JACKSON", "state": "MS", "street": "301 N LAMAR ST", "postcode": "39201"}}},
{"geometry": {"type": "Point", "coordinates": [-90.1884357202, 32.3003443178]}, "type": "Feature", "properties": {"collection_times": [{"days": "Mon-Fri", "time": "3:00pm"}, {"days": "Sat-Sun", "time": "Closed"}], "id": "3920100106", "name": "USPS COLLECTION BOX - BLUE BOX", "address": {"city": "JACKSON", "state": "MS", "street": "100 E CAPITOL ST", "postcode": "39201"}}},
{"geometry": {"type": "Point", "coordinates": [-90.1850688691, 32.2999171969]}, "type": "Feature", "properties": {"collection_times": [{"days": "Mon-Fri", "time": "12:00pm"}, {"days": "Sat-Sun", "time": "Closed"}], "id": "3920100110", "name": "USPS COLLECTION BOX - BLUE BOX", "address": {"city": "JACKSON", "state": "MS", "street": "248 E CAPITOL ST", "postcode": "39201"}}},
{"geometry": {"type": "Point", "coordinates": [-90.1838893503, 32.2941692745]}, "type": "Feature", "properties": {"collection_times": [{"days": "Mon-Fri", "time": "9:00pm"}, {"days": "Sat", "time": "6:00pm"}, {"days": "Sun", "time": "Closed"}], "id": "3920100112", "name": "USPS COLLECTION BOX - APC", "address": {"city": "JACKSON", "state": "MS", "street": "401 E SOUTH ST", "postcode": "39201"}}},
{"geometry": {"type": "Point", "coordinates": [-90.1838893503, 32.2941692745]}, "type": "Feature", "properties": {"collection_times": [{"days": "Mon-Fri", "time": "9:00pm"}, {"days": "Sat", "time": "6:00pm"}, {"days": "Sun", "time": "Closed"}], "id": "3920100113", "name": "USPS COLLECTION BOX - PO LOBBY", "address": {"city": "JACKSON", "state": "MS", "street": "401 E SOUTH ST", "postcode": "39201"}}},
{"geometry": {"type": "Point", "coordinates": [-90.1838893503, 32.2941692745]}, "type": "Feature", "properties": {"collection_times": [{"days": "Mon-Fri", "time": "9:00pm"}, {"days": "Sat", "time": "6:00pm"}, {"days": "Sun", "time": "Closed"}], "id": "3920100114", "name": "USPS COLLECTION BOX - PO LOBBY", "address": {"city": "JACKSON", "state": "MS", "street": "401 E SOUTH ST", "postcode": "39201"}}},
{"geometry": {"type": "Point", "coordinates": [-90.1838893503, 32.2941692745]}, "type": "Feature", "properties": {"collection_times": [{"days": "Mon-Fri", "time": "9:00pm"}, {"days": "Sat", "time": "6:00pm"}, {"days": "Sun", "time": "Closed"}], "id": "3920100115", "name": "USPS COLLECTION BOX - PO LOBBY", "address": {"city": "JACKSON", "state": "MS", "street": "401 E SOUTH ST", "postcode": "39201"}}},
{"geometry": {"type": "Point", "coordinates": [-90.1882147842, 32.300209029]}, "type": "Feature", "properties": {"collection_times": [{"days": "Mon-Fri", "time": "11:30am"}, {"days": "Sat-Sun", "time": "Closed"}], "id": "3920100117", "name": "USPS COLLECTION BOX - BLUE BOX", "address": {"city": "JACKSON", "state": "MS", "street": "111 E CAPITOL ST", "postcode": "39201"}}},
{"geometry": {"type": "Point", "coordinates": [-90.1882147842, 32.300209029]}, "type": "Feature", "properties": {"collection_times": [{"days": "Mon-Fri", "time": "11:30am"}, {"days": "Sat-Sun", "time": "Closed"}], "id": "3920100118", "name": "USPS COLLECTION BOX - BLUE BOX", "address": {"city": "JACKSON", "state": "MS", "street": "111 E CAPITOL ST", "postcode": "39201"}}},
{"geometry": {"type": "Point", "coordinates": [-90.1816502858, 32.2993420035]}, "type": "Feature", "properties": {"collection_times": [{"days": "Mon-Fri", "time": "12:00pm"}, {"days": "Sat-Sun", "time": "Closed"}], "id": "3920100119", "name": "USPS COLLECTION BOX - BLUE BOX", "address": {"city": "JACKSON", "state": "MS", "street": "501 E CAPITOL ST", "postcode": "39201"}}},
{"geometry": {"type": "Point", "coordinates": [-90.1800809319, 32.3072298326]}, "type": "Feature", "properties": {"collection_times": [{"days": "Mon-Fri", "time": "1:30pm"}, {"days": "Sat-Sun", "time": "Closed"}], "id": "3920200001", "name": "USPS COLLECTION BOX - BLUE BOX", "address": {"city": "JACKSON", "state": "MS", "street": "720 N PRESIDENT ST", "postcode": "39202"}}},
{"geometry": {"type": "Point", "coordinates": [-90.1800809319, 32.3072298326]}, "type": "Feature", "properties": {"collection_times": [{"days": "Mon-Fri", "time": "1:30pm"}, {"days": "Sat-Sun", "time": "Closed"}], "id": "3920200003", "name": "USPS COLLECTION BOX - BLUE BOX", "address": {"city": "JACKSON", "state": "MS", "street": "720 N PRESIDENT ST", "postcode": "39202"}}},
{"geometry": {"type": "Point", "coordinates": [-90.1708972456, 32.309725966]}, "type": "Feature", "properties": {"collection_times": [{"days": "Mon-Fri", "time": "2:30pm"}, {"days": "Sat-Sun", "time": "Closed"}], "id": "3920200010", "name": "USPS COLLECTION BOX - BLUE BOX", "address": {"city": "JACKSON", "state": "MS", "street": "202 HIGH ST", "postcode": "39202"}}},
{"geometry": {"type": "Point", "coordinates": [-90.1709140041, 32.318434114]}, "type": "Feature", "properties": {"collection_times": [{"days": "Mon-Fri", "time": "2:30pm"}, {"days": "Sat-Sun", "time": "Closed"}], "id": "3920200029", "name": "USPS COLLECTION BOX - BLUE BOX", "address": {"city": "JACKSON", "state": "MS", "street": "1500 PEACHTREE ST", "postcode": "39202"}}},
{"geometry": {"type": "Point", "coordinates": [-90.1783920093, 32.3184690109]}, "type": "Feature", "properties": {"collection_times": [{"days": "Mon-Fri", "time": "2:30pm"}, {"days": "Sat-Sun", "time": "Closed"}], "id": "3920200035", "name": "USPS COLLECTION BOX - BLUE BOX", "address": {"city": "JACKSON", "state": "MS", "street": "1405 N STATE ST", "postcode": "39202"}}},
{"geometry": {"type": "Point", "coordinates": [-90.1783920093, 32.3184690109]}, "type": "Feature", "properties": {"collection_times": [{"days": "Mon-Fri", "time": "2:30pm"}, {"days": "Sat-Sun", "time": "Closed"}], "id": "3920200036", "name": "USPS COLLECTION BOX - BLUE BOX", "address": {"city": "JACKSON", "state": "MS", "street": "1405 N STATE ST", "postcode": "39202"}}},
{"geometry": {"type": "Point", "coordinates": [-90.1775967294, 32.3060870086]}, "type": "Feature", "properties": {"collection_times": [{"days": "Mon-Fri", "time": "2:30pm"}, {"days": "Sat-Sun", "time": "Closed"}], "id": "3920200048", "name": "USPS COLLECTION BOX - BLUE BOX", "address": {"city": "JACKSON", "state": "MS", "street": "620 NORTH ST", "postcode": "39202"}}},
{"geometry": {"type": "Point", "coordinates": [-90.1791859488, 32.3049666083]}, "type": "Feature", "properties": {"collection_times": [{"days": "Mon-Fri", "time": "2:30pm"}, {"days": "Sat-Sun", "time": "Closed"}], "id": "3920200057", "name": "USPS COLLECTION BOX - BLUE BOX", "address": {"city": "JACKSON", "state": "MS", "street": "620 N STATE ST", "postcode": "39202"}}},
{"geometry": {"type": "Point", "coordinates": [-90.1736847302, 32.323454796]}, "type": "Feature", "properties": {"collection_times": [{"days": "Mon-Fri", "time": "2:30pm"}, {"days": "Sat-Sun", "time": "Closed"}], "id": "3920200059", "name": "USPS COLLECTION BOX - BLUE BOX", "address": {"city": "JACKSON", "state": "MS", "street": "860 RIVERSIDE DR", "postcode": "39202"}}},
{"geometry": {"type": "Point", "coordinates": [-90.1708972456, 32.309725966]}, "type": "Feature", "properties": {"collection_times": [{"days": "Mon-Fri", "time": "2:30pm"}, {"days": "Sat-Sun", "time": "Closed"}], "id": "3920200070", "name": "USPS COLLECTION BOX - BLUE BOX", "address": {"city": "JACKSON", "state": "MS", "street": "202 HIGH ST", "postcode": "39202"}}},
{"geometry": {"type": "Point", "coordinates": [-90.1608676023, 32.3084949147]}, "type": "Feature", "properties": {"collection_times": [{"days": "Mon-Fri", "time": "2:30pm"}, {"days": "Sat-Sun", "time": "Closed"}], "id": "3920200071", "name": "USPS COLLECTION BOX - BLUE BOX", "address": {"city": "JACKSON", "state": "MS", "street": "5 OLD RIVER PL", "postcode": "39202"}}},
{"geometry": {"type": "Point", "coordinates": [-90.1608676023, 32.3084949147]}, "type": "Feature", "properties": {"collection_times": [{"days": "Mon-Fri", "time": "2:30pm"}, {"days": "Sat-Sun", "time": "Closed"}], "id": "3920200072", "name": "USPS COLLECTION BOX - BLUE BOX", "address": {"city": "JACKSON", "state": "MS", "street": "5 OLD RIVER PL", "postcode": "39202"}}},
{"geometry": {"type": "Point", "coordinates": [-90.1608676023, 32.3084949147]}, "type": "Feature", "properties": {"collection_times": [{"days": "Mon-Fri", "time": "2:30pm"}, {"days": "Sat-Sun", "time": "Closed"}], "id": "3920200073", "name": "USPS COLLECTION BOX - BLUE BOX", "address": {"city": "JACKSON", "state": "MS", "street": "5 OLD RIVER PL", "postcode": "39202"}}},
{"geometry": {"type": "Point", "coordinates": [-90.1608676023, 32.3084949147]}, "type": "Feature", "properties": {"collection_times": [{"days": "Mon-Fri", "time": "2:30pm"}, {"days": "Sat-Sun", "time": "Closed"}], "id": "3920200074", "name": "USPS COLLECTION BOX - BLUE BOX", "address": {"city": "JACKSON", "state": "MS", "street": "5 OLD RIVER PL", "postcode": "39202"}}},
{"geometry": {"type": "Point", "coordinates": [-90.1608676023, 32.3084949147]}, "type": "Feature", "properties": {"collection_times": [{"days": "Mon-Fri", "time": "2:30pm"}, {"days": "Sat-Sun", "time": "Closed"}], "id": "3920200075", "name": "USPS COLLECTION BOX - BLUE BOX", "address": {"city": "JACKSON", "state": "MS", "street": "5 OLD RIVER PL", "postcode": "39202"}}},
{"geometry": {"type": "Point", "coordinates": [-90.2069640341, 32.2849685578]}, "type": "Feature", "properties": {"collection_times": [{"days": "Mon-Fri", "time": "10:30am"}, {"days": "Sat-Sun", "time": "Closed"}], "id": "3920400005", "name": "USPS COLLECTION BOX - BLUE BOX", "address": {"city": "JACKSON", "state": "MS", "street": "1700 TERRY RD", "postcode": "39204"}}},
{"geometry": {"type": "Point", "coordinates": [-90.2627564711, 32.2695717359]}, "type": "Feature", "properties": {"collection_times": [{"days": "Mon-Fri", "time": "11:30am"}, {"days": "Sat-Sun", "time": "Closed"}], "id": "3920400010", "name": "USPS COLLECTION BOX - BLUE BOX", "address": {"city": "JACKSON", "state": "MS", "street": "2895 MCDOWELL ROAD EXT", "postcode": "39204"}}},
{"geometry": {"type": "Point", "coordinates": [-90.2537398736, 32.2853498012]}, "type": "Feature", "properties": {"collection_times": [{"days": "Mon-Fri", "time": "12:00pm"}, {"days": "Sat-Sun", "time": "Closed"}], "id": "3920400013", "name": "USPS COLLECTION BOX - BLUE BOX", "address": {"city": "JACKSON", "state": "MS", "street": "1815 HOSPITAL DR", "postcode": "39204"}}},
{"geometry": {"type": "Point", "coordinates": [-90.2537398736, 32.2853498012]}, "type": "Feature", "properties": {"collection_times": [{"days": "Mon-Fri", "time": "12:00pm"}, {"days": "Sat-Sun", "time": "Closed"}], "id": "3920400016", "name": "USPS COLLECTION BOX - BLUE BOX", "address": {"city": "JACKSON", "state": "MS", "street": "1815 HOSPITAL DR", "postcode": "39204"}}},
{"geometry": {"type": "Point", "coordinates": [-90.2165186596, 32.2874008353]}, "type": "Feature", "properties": {"collection_times": [{"days": "Mon-Fri", "time": "1:15pm"}, {"days": "Sat-Sun", "time": "Closed"}], "id": "3920400020", "name": "USPS COLLECTION BOX - BLUE BOX", "address": {"city": "JACKSON", "state": "MS", "street": "2310 HIGHWAY 80 W", "postcode": "39204"}}},
{"geometry": {"type": "Point", "coordinates": [-90.2696358078, 32.2929833261]}, "type": "Feature", "properties": {"collection_times": [{"days": "Mon-Fri", "time": "10:00am"}, {"days": "Sat-Sun", "time": "Closed"}], "id": "3920400023", "name": "USPS COLLECTION BOX - BLUE BOX", "address": {"city": "JACKSON", "state": "MS", "street": "2189 HENRY HILL DR", "postcode": "39204"}}},
{"geometry": {"type": "Point", "coordinates": [-90.2696358078, 32.2929833261]}, "type": "Feature", "properties": {"collection_times": [{"days": "Mon-Fri", "time": "10:00am"}, {"days": "Sat-Sun", "time": "Closed"}], "id": "3920400024", "name": "USPS COLLECTION BOX - BLUE BOX", "address": {"city": "JACKSON", "state": "MS", "street": "2189 HENRY HILL DR", "postcode": "39204"}}},
{"geometry": {"type": "Point", "coordinates": [-90.2614459214, 32.296864564]}, "type": "Feature", "properties": {"collection_times": [{"days": "Mon-Fri", "time": "5:00pm"}, {"days": "Sat", "time": "1:00pm"}, {"days": "Sun", "time": "Closed"}], "id": "3920400036", "name": "USPS COLLECTION BOX - BLUE BOX", "address": {"city": "JACKSON", "state": "MS", "street": "4542 ROBINSON RD", "postcode": "39204"}}},
{"geometry": {"type": "Point", "coordinates": [-90.2614459214, 32.296864564]}, "type": "Feature", "properties": {"collection_times": [{"days": "Mon-Fri", "time": "5:00pm"}, {"days": "Sat", "time": "1:00pm"}, {"days": "Sun", "time": "Closed"}], "id": "3920400039", "name": "USPS COLLECTION BOX - BLUE BOX", "address": {"city": "JACKSON", "state": "MS", "street": "4542 ROBINSON RD", "postcode": "39204"}}},
{"geometry": {"type": "Point", "coordinates": [-90.2614459214, 32.296864564]}, "type": "Feature", "properties": {"collection_times": [{"days": "Mon-Fri", "time": "5:00pm"}, {"days": "Sat", "time": "1:00pm"}, {"days": "Sun", "time": "Closed"}], "id": "3920400040", "name": "USPS COLLECTION BOX - BLUE BOX", "address": {"city": "JACKSON", "state": "MS", "street": "4542 ROBINSON RD", "postcode": "39204"}}},
{"geometry": {"type": "Point", "coordinates": [-90.2614459214, 32.296864564]}, "type": "Feature", "properties": {"collection_times": [{"days": "Mon-Fri", "time": "4:30pm"}, {"days": "Sat-Sun", "time": "Closed"}], "id": "3920400054", "name": "USPS COLLECTION BOX - PO LOBBY", "address": {"city": "JACKSON", "state": "MS", "street": "4542 ROBINSON RD", "postcode": "39204"}}},
{"geometry": {"type": "Point", "coordinates": [-90.2614459214, 32.296864564]}, "type": "Feature", "properties": {"collection_times": [{"days": "Mon-Fri", "time": "4:30pm"}, {"days": "Sat-Sun", "time": "Closed"}], "id": "3920400055", "name": "USPS COLLECTION BOX - PO LOBBY", "address": {"city": "JACKSON", "state": "MS", "street": "4542 ROBINSON RD", "postcode": "39204"}}},
{"geometry": {"type": "Point", "coordinates": [-90.1702666267, 32.3676441999]}, "type": "Feature", "properties": {"collection_times": [{"days": "Mon-Fri", "time": "11:00am"}, {"days": "Sat-Sun", "time": "Closed"}], "id": "3920600001", "name": "USPS COLLECTION BOX - BLUE BOX", "address": {"city": "JACKSON", "state": "MS", "street": "460 BRIARWOOD DR", "postcode": "39206"}}},
{"geometry": {"type": "Point", "coordinates": [-90.2234416674, 32.2267708508]}, "type": "Feature", "properties": {"collection_times": [{"days": "Mon-Fri", "time": "2:30pm"}, {"days": "Sat-Sun", "time": "Closed"}], "id": "3920600013", "name": "USPS COLLECTION BOX - BLUE BOX", "address": {"city": "JACKSON", "state": "MS", "street": "4785 N INTERSTATE 55", "postcode": "39206"}}},
{"geometry": {"type": "Point", "coordinates": [-90.2234416674, 32.2267708508]}, "type": "Feature", "properties": {"collection_times": [{"days": "Mon-Fri", "time": "2:30pm"}, {"days": "Sat-Sun", "time": "Closed"}], "id": "3920600014", "name": "USPS COLLECTION BOX - BLUE BOX", "address": {"city": "JACKSON", "state": "MS", "street": "4785 N INTERSTATE 55", "postcode": "39206"}}},
{"geometry": {"type": "Point", "coordinates": [-90.1517329026, 32.369171631]}, "type": "Feature", "properties": {"collection_times": [{"days": "Mon-Fri", "time": "12:00pm"}, {"days": "Sat-Sun", "time": "Closed"}], "id": "3920600018", "name": "USPS COLLECTION BOX - BLUE BOX", "address": {"city": "JACKSON", "state": "MS", "street": "5225 GALAXIE DR", "postcode": "39206"}}},
{"geometry": {"type": "Point", "coordinates": [-90.1501213855, 32.3724629645]}, "type": "Feature", "properties": {"collection_times": [{"days": "Mon-Fri", "time": "2:00pm"}, {"days": "Sat-Sun", "time": "Closed"}], "id": "3920600024", "name": "USPS COLLECTION BOX - BLUE BOX", "address": {"city": "JACKSON", "state": "MS", "street": "5450 EXECUTIVE PL", "postcode": "39206"}}},
{"geometry": {"type": "Point", "coordinates": [-90.1518783238, 32.3641176374]}, "type": "Feature", "properties": {"collection_times": [{"days": "Mon-Fri", "time": "10:30am"}, {"days": "Sat-Sun", "time": "Closed"}], "id": "3920600029", "name": "USPS COLLECTION BOX - BLUE BOX", "address": {"city": "JACKSON", "state": "MS", "street": "350 EDGEWOOD TERRACE DR", "postcode": "39206"}}},
{"geometry": {"type": "Point", "coordinates": [-90.1507126335, 32.3802142767]}, "type": "Feature", "properties": {"collection_times": [{"days": "Mon-Fri", "time": "11:00am"}, {"days": "Sat-Sun", "time": "Closed"}], "id": "3920600033", "name": "USPS COLLECTION BOX - BLUE BOX", "address": {"city": "JACKSON", "state": "MS", "street": "405 BRIARWOOD DR", "postcode": "39206"}}},
{"geometry": {"type": "Point", "coordinates": [-90.1507126335, 32.3802142767]}, "type": "Feature", "properties": {"collection_times": [{"days": "Mon-Fri", "time": "11:00am"}, {"days": "Sat-Sun", "time": "Closed"}], "id": "3920600034", "name": "USPS COLLECTION BOX - BLUE BOX", "address": {"city": "JACKSON", "state": "MS", "street": "405 BRIARWOOD DR", "postcode": "39206"}}},
{"geometry": {"type": "Point", "coordinates": [-90.1507126335, 32.3802142767]}, "type": "Feature", "properties": {"collection_times": [{"days": "Mon-Fri", "time": "11:00am"}, {"days": "Sat-Sun", "time": "Closed"}], "id": "3920600036", "name": "USPS COLLECTION BOX - BLUE BOX", "address": {"city": "JACKSON", "state": "MS", "street": "405 BRIARWOOD DR", "postcode": "39206"}}},
{"geometry": {"type": "Point", "coordinates": [-90.1507126335, 32.3802142767]}, "type": "Feature", "properties": {"collection_times": [{"days": "Mon-Fri", "time": "11:00am"}, {"days": "Sat-Sun", "time": "Closed"}], "id": "3920600038", "name": "USPS COLLECTION BOX - BLUE BOX", "address": {"city": "JACKSON", "state": "MS", "street": "405 BRIARWOOD DR", "postcode": "39206"}}},
{"geometry": {"type": "Point", "coordinates": [-90.1776732718, 32.3494047993]}, "type": "Feature", "properties": {"collection_times": [{"days": "Mon-Fri", "time": "5:00pm"}, {"days": "Sat", "time": "1:00pm"}, {"days": "Sun", "time": "Closed"}], "id": "3920600040", "name": "USPS COLLECTION BOX - BLUE BOX", "address": {"city": "JACKSON", "state": "MS", "street": "4040 NORTHVIEW DR", "postcode": "39206"}}},
{"geometry": {"type": "Point", "coordinates": [-90.1776732718, 32.3494047993]}, "type": "Feature", "properties": {"collection_times": [{"days": "Mon-Fri", "time": "5:00pm"}, {"days": "Sat", "time": "1:00pm"}, {"days": "Sun", "time": "Closed"}], "id": "3920600041", "name": "USPS COLLECTION BOX - BLUE BOX", "address": {"city": "JACKSON", "state": "MS", "street": "4040 NORTHVIEW DR", "postcode": "39206"}}},
{"geometry": {"type": "Point", "coordinates": [-90.1776732718, 32.3494047993]}, "type": "Feature", "properties": {"collection_times": [{"days": "Mon-Fri", "time": "5:00pm"}, {"days": "Sat", "time": "1:00pm"}, {"days": "Sun", "time": "Closed"}], "id": "3920600046", "name": "USPS COLLECTION BOX - BLUE BOX", "address": {"city": "JACKSON", "state": "MS", "street": "4040 NORTHVIEW DR", "postcode": "39206"}}},
{"geometry": {"type": "Point", "coordinates": [-90.1776732718, 32.3494047993]}, "type": "Feature", "properties": {"collection_times": [{"days": "Mon-Fri", "time": "5:00pm"}, {"days": "Sat", "time": "1:00pm"}, {"days": "Sun", "time": "Closed"}], "id": "3920600047", "name": "USPS COLLECTION BOX - BLUE BOX", "address": {"city": "JACKSON", "state": "MS", "street": "4040 NORTHVIEW DR", "postcode": "39206"}}},
{"geometry": {"type": "Point", "coordinates": [-90.1776732718, 32.3494047993]}, "type": "Feature", "properties": {"collection_times": [{"days": "Mon-Fri", "time": "4:30pm"}, {"days": "Sat-Sun", "time": "Closed"}], "id": "3920600053", "name": "USPS COLLECTION BOX - PO LOBBY", "address": {"city": "JACKSON", "state": "MS", "street": "4040 NORTHVIEW DR", "postcode": "39206"}}},
{"geometry": {"type": "Point", "coordinates": [-90.1776732718, 32.3494047993]}, "type": "Feature", "properties": {"collection_times": [{"days": "Mon-Fri", "time": "4:30pm"}, {"days": "Sat-Sun", "time": "Closed"}], "id": "3920600054", "name": "USPS COLLECTION BOX - PO LOBBY", "address": {"city": "JACKSON", "state": "MS", "street": "4040 NORTHVIEW DR", "postcode": "39206"}}},
{"geometry": {"type": "Point", "coordinates": [-90.1702666267, 32.3676441999]}, "type": "Feature", "properties": {"collection_times": [{"days": "Mon-Fri", "time": "11:00am"}, {"days": "Sat-Sun", "time": "Closed"}], "id": "3920600055", "name": "USPS COLLECTION BOX - BLUE BOX", "address": {"city": "JACKSON", "state": "MS", "street": "460 BRIARWOOD DR", "postcode": "39206"}}},
{"geometry": {"type": "Point", "coordinates": [-90.1171771946, 32.2827498112]}, "type": "Feature", "properties": {"collection_times": [{"days": "Mon-Fri", "time": "9:00am"}, {"days": "Sat-Sun", "time": "Closed"}], "id": "3920800006", "name": "USPS COLLECTION BOX - BLUE BOX", "address": {"city": "PEARL", "state": "MS", "street": "3101 HIGHWAY 80 E", "postcode": "39208"}}},
{"geometry": {"type": "Point", "coordinates": [-90.1355787197, 32.2802196751]}, "type": "Feature", "properties": {"collection_times": [{"days": "Mon-Fri", "time": "4:55pm"}, {"days": "Sat", "time": "1:00pm"}, {"days": "Sun", "time": "Closed"}], "id": "3920800017", "name": "USPS COLLECTION BOX - BLUE BOX", "address": {"city": "PEARL", "state": "MS", "street": "2300 HIGHWAY 80 E", "postcode": "39208"}}},
{"geometry": {"type": "Point", "coordinates": [-90.1355787197, 32.2802196751]}, "type": "Feature", "properties": {"collection_times": [{"days": "Mon-Fri", "time": "4:55pm"}, {"days": "Sat", "time": "1:00pm"}, {"days": "Sun", "time": "Closed"}], "id": "3920800018", "name": "USPS COLLECTION BOX - BLUE BOX", "address": {"city": "PEARL", "state": "MS", "street": "2300 HIGHWAY 80 E", "postcode": "39208"}}},
{"geometry": {"type": "Point", "coordinates": [-90.1355787197, 32.2802196751]}, "type": "Feature", "properties": {"collection_times": [{"days": "Mon-Fri", "time": "4:55pm"}, {"days": "Sat", "time": "1:00pm"}, {"days": "Sun", "time": "Closed"}], "id": "3920800047", "name": "USPS COLLECTION BOX - BLUE BOX", "address": {"city": "PEARL", "state": "MS", "street": "2300 HIGHWAY 80 E", "postcode": "39208"}}},
{"geometry": {"type": "Point", "coordinates": [-90.1682957513, 32.2797126955]}, "type": "Feature", "properties": {"collection_times": [{"days": "Mon-Fri", "time": "10:00am"}, {"days": "Sat-Sun", "time": "Closed"}], "id": "3920800053", "name": "USPS COLLECTION BOX - BLUE BOX", "address": {"city": "PEARL", "state": "MS", "street": "685 HIGHWAY 80 E", "postcode": "39208"}}},
{"geometry": {"type": "Point", "coordinates": [-90.1355787197, 32.2802196751]}, "type": "Feature", "properties": {"collection_times": [{"days": "Mon-Fri", "time": "4:30pm"}, {"days": "Sat-Sun", "time": "Closed"}], "id": "3920800069", "name": "USPS COLLECTION BOX - PO LOBBY", "address": {"city": "PEARL", "state": "MS", "street": "2300 HIGHWAY 80 E", "postcode": "39208"}}},
{"geometry": {"type": "Point", "coordinates": [-90.1355787197, 32.2802196751]}, "type": "Feature", "properties": {"collection_times": [{"days": "Mon-Fri", "time": "4:30pm"}, {"days": "Sat-Sun", "time": "Closed"}], "id": "3920800070", "name": "USPS COLLECTION BOX - PO LOBBY", "address": {"city": "PEARL", "state": "MS", "street": "2300 HIGHWAY 80 E", "postcode": "39208"}}},
{"geometry": {"type": "Point", "coordinates": [-90.2545262911, 32.3028071655]}, "type": "Feature", "properties": {"collection_times": [{"days": "Mon-Fri", "time": "3:00pm"}, {"days": "Sat-Sun", "time": "Closed"}], "id": "3920900001", "name": "USPS COLLECTION BOX - BLUE BOX", "address": {"city": "JACKSON", "state": "MS", "street": "4060 METRO DR", "postcode": "39209"}}},
{"geometry": {"type": "Point", "coordinates": [-90.2849524279, 32.2738902148]}, "type": "Feature", "properties": {"collection_times": [{"days": "Mon-Fri", "time": "12:30pm"}, {"days": "Sat-Sun", "time": "Closed"}], "id": "3920900014", "name": "USPS COLLECTION BOX - BLUE BOX", "address": {"city": "JACKSON", "state": "MS", "street": "5965 HIGHWAY 18 W", "postcode": "39209"}}},
{"geometry": {"type": "Point", "coordinates": [-90.2557536304, 32.3263647793]}, "type": "Feature", "properties": {"collection_times": [{"days": "Mon-Fri", "time": "10:00am"}, {"days": "Sat-Sun", "time": "Closed"}], "id": "3920900016", "name": "USPS COLLECTION BOX - BLUE BOX", "address": {"city": "JACKSON", "state": "MS", "street": "4299 INDUSTIAL & BOLING", "postcode": "39209"}}},
{"geometry": {"type": "Point", "coordinates": [-90.2849524279, 32.2738902148]}, "type": "Feature", "properties": {"collection_times": [{"days": "Mon-Fri", "time": "12:30pm"}, {"days": "Sat-Sun", "time": "Closed"}], "id": "3920900020", "name": "USPS COLLECTION BOX - BLUE BOX", "address": {"city": "JACKSON", "state": "MS", "street": "5965 HIGHWAY 18 W", "postcode": "39209"}}},
{"geometry": {"type": "Point", "coordinates": [-90.2532140627, 32.3287542034]}, "type": "Feature", "properties": {"collection_times": [{"days": "Mon-Fri", "time": "1:00pm"}, {"days": "Sat-Sun", "time": "Closed"}], "id": "3920900032", "name": "USPS COLLECTION BOX - BLUE BOX", "address": {"city": "JACKSON", "state": "MS", "street": "4775 CLINTON BLVD", "postcode": "39209"}}},
{"geometry": {"type": "Point", "coordinates": [-90.2256939403, 32.3203314713]}, "type": "Feature", "properties": {"collection_times": [{"days": "Mon-Fri", "time": "9:00am"}, {"days": "Sat-Sun", "time": "Closed"}], "id": "3920900035", "name": "USPS COLLECTION BOX - BLUE BOX", "address": {"city": "JACKSON", "state": "MS", "street": "3121 W CAPITOL ST", "postcode": "39209"}}},
{"geometry": {"type": "Point", "coordinates": [-90.2278025387, 32.3066134434]}, "type": "Feature", "properties": {"collection_times": [{"days": "Mon-Fri", "time": "5:00pm"}, {"days": "Sat", "time": "1:00pm"}, {"days": "Sun", "time": "Closed"}], "id": "3920900039", "name": "USPS COLLECTION BOX - BLUE BOX", "address": {"city": "JACKSON", "state": "MS", "street": "905 ELLIS AVE", "postcode": "39209"}}},
{"geometry": {"type": "Point", "coordinates": [-90.2278025387, 32.3066134434]}, "type": "Feature", "properties": {"collection_times": [{"days": "Mon-Fri", "time": "5:00pm"}, {"days": "Sat", "time": "1:00pm"}, {"days": "Sun", "time": "Closed"}], "id": "3920900040", "name": "USPS COLLECTION BOX - BLUE BOX", "address": {"city": "JACKSON", "state": "MS", "street": "905 ELLIS AVE", "postcode": "39209"}}},
{"geometry": {"type": "Point", "coordinates": [-90.2278025387, 32.3066134434]}, "type": "Feature", "properties": {"collection_times": [{"days": "Mon-Fri", "time": "4:30pm"}, {"days": "Sat-Sun", "time": "Closed"}], "id": "3920900043", "name": "USPS COLLECTION BOX - PO LOBBY", "address": {"city": "JACKSON", "state": "MS", "street": "905 ELLIS AVE", "postcode": "39209"}}},
{"geometry": {"type": "Point", "coordinates": [-90.2278025387, 32.3066134434]}, "type": "Feature", "properties": {"collection_times": [{"days": "Mon-Fri", "time": "4:30pm"}, {"days": "Sat-Sun", "time": "Closed"}], "id": "3920900044", "name": "USPS COLLECTION BOX - PO LOBBY", "address": {"city": "JACKSON", "state": "MS", "street": "905 ELLIS AVE", "postcode": "39209"}}},
{"geometry": {"type": "Point", "coordinates": [-90.1206951558, 32.3994390889]}, "type": "Feature", "properties": {"collection_times": [{"days": "Mon-Fri", "time": "2:30pm"}, {"days": "Sat-Sun", "time": "Closed"}], "id": "3921100006", "name": "USPS COLLECTION BOX - BLUE BOX", "address": {"city": "JACKSON", "state": "MS", "street": "1625 E COUNTY LINE RD", "postcode": "39211"}}},
{"geometry": {"type": "Point", "coordinates": [-90.1414250511, 32.3926494718]}, "type": "Feature", "properties": {"collection_times": [{"days": "Mon-Fri", "time": "9:30am"}, {"days": "Sat-Sun", "time": "Closed"}], "id": "3921100008", "name": "USPS COLLECTION BOX - BLUE BOX", "address": {"city": "JACKSON", "state": "MS", "street": "6055 RIDGEWOOD RD", "postcode": "39211"}}},
{"geometry": {"type": "Point", "coordinates": [-90.1124898195, 32.3913465862]}, "type": "Feature", "properties": {"collection_times": [{"days": "Mon-Fri", "time": "2:30pm"}, {"days": "Sat-Sun", "time": "Closed"}], "id": "3921100018", "name": "USPS COLLECTION BOX - BLUE BOX", "address": {"city": "JACKSON", "state": "MS", "street": "6240 OLD CANTON RD", "postcode": "39211"}}},
{"geometry": {"type": "Point", "coordinates": [-90.1124898195, 32.3913465862]}, "type": "Feature", "properties": {"collection_times": [{"days": "Mon-Fri", "time": "2:30pm"}, {"days": "Sat-Sun", "time": "Closed"}], "id": "3921100019", "name": "USPS COLLECTION BOX - BLUE BOX", "address": {"city": "JACKSON", "state": "MS", "street": "6240 OLD CANTON RD", "postcode": "39211"}}},
{"geometry": {"type": "Point", "coordinates": [-90.148197948, 32.3630227931]}, "type": "Feature", "properties": {"collection_times": [{"days": "Mon-Fri", "time": "5:00pm"}, {"days": "Sat", "time": "1:00pm"}, {"days": "Sun", "time": "Closed"}], "id": "3921100023", "name": "USPS COLLECTION BOX - BLUE BOX", "address": {"city": "JACKSON", "state": "MS", "street": "1501 JACKSONIAN PLZ", "postcode": "39211"}}},
{"geometry": {"type": "Point", "coordinates": [-90.148197948, 32.3630227931]}, "type": "Feature", "properties": {"collection_times": [{"days": "Mon-Fri", "time": "5:00pm"}, {"days": "Sat", "time": "1:00pm"}, {"days": "Sun", "time": "Closed"}], "id": "3921100028", "name": "USPS COLLECTION BOX - BLUE BOX", "address": {"city": "JACKSON", "state": "MS", "street": "1501 JACKSONIAN PLZ", "postcode": "39211"}}},
{"geometry": {"type": "Point", "coordinates": [-90.148197948, 32.3630227931]}, "type": "Feature", "properties": {"collection_times": [{"days": "Mon-Fri", "time": "5:00pm"}, {"days": "Sat", "time": "1:00pm"}, {"days": "Sun", "time": "Closed"}], "id": "3921100029", "name": "USPS COLLECTION BOX - BLUE BOX", "address": {"city": "JACKSON", "state": "MS", "street": "1501 JACKSONIAN PLZ", "postcode": "39211"}}},
{"geometry": {"type": "Point", "coordinates": [-90.148197948, 32.3630227931]}, "type": "Feature", "properties": {"collection_times": [{"days": "Mon-Fri", "time": "5:00pm"}, {"days": "Sat", "time": "1:00pm"}, {"days": "Sun", "time": "Closed"}], "id": "3921100030", "name": "USPS COLLECTION BOX - BLUE BOX", "address": {"city": "JACKSON", "state": "MS", "street": "1501 JACKSONIAN PLZ", "postcode": "39211"}}},
{"geometry": {"type": "Point", "coordinates": [-90.148197948, 32.3630227931]}, "type": "Feature", "properties": {"collection_times": [{"days": "Mon-Fri", "time": "5:00pm"}, {"days": "Sat", "time": "1:00pm"}, {"days": "Sun", "time": "Closed"}], "id": "3921100031", "name": "USPS COLLECTION BOX - BLUE BOX", "address": {"city": "JACKSON", "state": "MS", "street": "1501 JACKSONIAN PLZ", "postcode": "39211"}}},
{"geometry": {"type": "Point", "coordinates": [-90.148197948, 32.3630227931]}, "type": "Feature", "properties": {"collection_times": [{"days": "Mon-Fri", "time": "5:00pm"}, {"days": "Sat", "time": "1:00pm"}, {"days": "Sun", "time": "Closed"}], "id": "3921100035", "name": "USPS COLLECTION BOX - BLUE BOX", "address": {"city": "JACKSON", "state": "MS", "street": "1501 JACKSONIAN PLZ", "postcode": "39211"}}},
{"geometry": {"type": "Point", "coordinates": [-90.148197948, 32.3630227931]}, "type": "Feature", "properties": {"collection_times": [{"days": "Mon-Fri", "time": "5:00pm"}, {"days": "Sat", "time": "1:00pm"}, {"days": "Sun", "time": "Closed"}], "id": "3921100036", "name": "USPS COLLECTION BOX - BLUE BOX", "address": {"city": "JACKSON", "state": "MS", "street": "1501 JACKSONIAN PLZ", "postcode": "39211"}}},
{"geometry": {"type": "Point", "coordinates": [-90.148197948, 32.3630227931]}, "type": "Feature", "properties": {"collection_times": [{"days": "Mon-Fri", "time": "5:00pm"}, {"days": "Sat", "time": "1:00pm"}, {"days": "Sun", "time": "Closed"}], "id": "3921100037", "name": "USPS COLLECTION BOX - BLUE BOX", "address": {"city": "JACKSON", "state": "MS", "street": "1501 JACKSONIAN PLZ", "postcode": "39211"}}},
{"geometry": {"type": "Point", "coordinates": [-90.148197948, 32.3630227931]}, "type": "Feature", "properties": {"collection_times": [{"days": "Mon-Fri", "time": "5:00pm"}, {"days": "Sat", "time": "1:00pm"}, {"days": "Sun", "time": "Closed"}], "id": "3921100038", "name": "USPS COLLECTION BOX - BLUE BOX", "address": {"city": "JACKSON", "state": "MS", "street": "1501 JACKSONIAN PLZ", "postcode": "39211"}}},
{"geometry": {"type": "Point", "coordinates": [-90.149034847, 32.3682128547]}, "type": "Feature", "properties": {"collection_times": [{"days": "Mon-Fri", "time": "10:45am"}, {"days": "Sat-Sun", "time": "Closed"}], "id": "3921100042", "name": "USPS COLLECTION BOX - BLUE BOX", "address": {"city": "JACKSON", "state": "MS", "street": "5060 I 55 N", "postcode": "39211"}}},
{"geometry": {"type": "Point", "coordinates": [-90.1445039374, 32.3976493027]}, "type": "Feature", "properties": {"collection_times": [{"days": "Mon-Fri", "time": "2:30pm"}, {"days": "Sat-Sun", "time": "Closed"}], "id": "3921100051", "name": "USPS COLLECTION BOX - BLUE BOX", "address": {"city": "JACKSON", "state": "MS", "street": "6360 I 55 N", "postcode": "39211"}}},
{"geometry": {"type": "Point", "coordinates": [-90.1504800763, 32.3607580075]}, "type": "Feature", "properties": {"collection_times": [{"days": "Mon-Fri", "time": "10:45am"}, {"days": "Sat-Sun", "time": "Closed"}], "id": "3921100054", "name": "USPS COLLECTION BOX - BLUE BOX", "address": {"city": "JACKSON", "state": "MS", "street": "4780 I 55 N", "postcode": "39211"}}},
{"geometry": {"type": "Point", "coordinates": [-90.1445039374, 32.3976493027]}, "type": "Feature", "properties": {"collection_times": [{"days": "Mon-Fri", "time": "2:30pm"}, {"days": "Sat-Sun", "time": "Closed"}], "id": "3921100064", "name": "USPS COLLECTION BOX - BLUE BOX", "address": {"city": "JACKSON", "state": "MS", "street": "6360 I 55 N", "postcode": "39211"}}},
{"geometry": {"type": "Point", "coordinates": [-90.1509090533, 32.358154273]}, "type": "Feature", "properties": {"collection_times": [{"days": "Mon-Fri", "time": "10:45am"}, {"days": "Sat-Sun", "time": "Closed"}], "id": "3921100065", "name": "USPS COLLECTION BOX - BLUE BOX", "address": {"city": "JACKSON", "state": "MS", "street": "4682 I 55 FRONTAGE RD N", "postcode": "39211"}}},
{"geometry": {"type": "Point", "coordinates": [-90.1509090533, 32.358154273]}, "type": "Feature", "properties": {"collection_times": [{"days": "Mon-Fri", "time": "10:45am"}, {"days": "Sat-Sun", "time": "Closed"}], "id": "3921100066", "name": "USPS COLLECTION BOX - BLUE BOX", "address": {"city": "JACKSON", "state": "MS", "street": "4682 I 55 FRONTAGE RD N", "postcode": "39211"}}},
{"geometry": {"type": "Point", "coordinates": [-90.1231602899, 32.3706762223]}, "type": "Feature", "properties": {"collection_times": [{"days": "Mon-Fri", "time": "4:30pm"}, {"days": "Sat-Sun", "time": "Closed"}], "id": "3921100068", "name": "USPS COLLECTION BOX - APC", "address": {"city": "JACKSON", "state": "MS", "street": "1501 JACKSONIAN PLZ", "postcode": "39211"}}},
{"geometry": {"type": "Point", "coordinates": [-90.148197948, 32.3630227931]}, "type": "Feature", "properties": {"collection_times": [{"days": "Mon-Fri", "time": "4:30pm"}, {"days": "Sat-Sun", "time": "Closed"}], "id": "3921100069", "name": "USPS COLLECTION BOX - PO LOBBY", "address": {"city": "JACKSON", "state": "MS", "street": "1501 JACKSONIAN PLZ", "postcode": "39211"}}},
{"geometry": {"type": "Point", "coordinates": [-90.148197948, 32.3630227931]}, "type": "Feature", "properties": {"collection_times": [{"days": "Mon-Fri", "time": "4:30pm"}, {"days": "Sat-Sun", "time": "Closed"}], "id": "3921100070", "name": "USPS COLLECTION BOX - PO LOBBY", "address": {"city": "JACKSON", "state": "MS", "street": "1501 JACKSONIAN PLZ", "postcode": "39211"}}},
{"geometry": {"type": "Point", "coordinates": [-90.1504800763, 32.3607580075]}, "type": "Feature", "properties": {"collection_times": [{"days": "Mon-Fri", "time": "10:45am"}, {"days": "Sat-Sun", "time": "Closed"}], "id": "3921100071", "name": "USPS COLLECTION BOX - BLUE BOX", "address": {"city": "JACKSON", "state": "MS", "street": "4780 I 55 N", "postcode": "39211"}}},
{"geometry": {"type": "Point", "coordinates": [-90.2253141418, 32.2515305321]}, "type": "Feature", "properties": {"collection_times": [{"days": "Mon-Fri", "time": "3:00pm"}, {"days": "Sat-Sun", "time": "Closed"}], "id": "3921200005", "name": "USPS COLLECTION BOX - BLUE BOX", "address": {"city": "JACKSON", "state": "MS", "street": "3520 TERRY RD", "postcode": "39212"}}},
{"geometry": {"type": "Point", "coordinates": [-90.2516733603, 32.2540100646]}, "type": "Feature", "properties": {"collection_times": [{"days": "Mon-Fri", "time": "5:00pm"}, {"days": "Sat", "time": "1:00pm"}, {"days": "Sun", "time": "Closed"}], "id": "3921200017", "name": "USPS COLLECTION BOX - BLUE BOX", "address": {"city": "JACKSON", "state": "MS", "street": "820 COOPER RD", "postcode": "39212"}}},
{"geometry": {"type": "Point", "coordinates": [-90.2516733603, 32.2540100646]}, "type": "Feature", "properties": {"collection_times": [{"days": "Mon-Fri", "time": "5:00pm"}, {"days": "Sat", "time": "1:00pm"}, {"days": "Sun", "time": "Closed"}], "id": "3921200018", "name": "USPS COLLECTION BOX - BLUE BOX", "address": {"city": "JACKSON", "state": "MS", "street": "820 COOPER RD", "postcode": "39212"}}},
{"geometry": {"type": "Point", "coordinates": [-90.2516733603, 32.2540100646]}, "type": "Feature", "properties": {"collection_times": [{"days": "Mon-Fri", "time": "4:30pm"}, {"days": "Sat-Sun", "time": "Closed"}], "id": "3921200042", "name": "USPS COLLECTION BOX - PO LOBBY", "address": {"city": "JACKSON", "state": "MS", "street": "820 COOPER RD", "postcode": "39212"}}},
{"geometry": {"type": "Point", "coordinates": [-90.2516733603, 32.2540100646]}, "type": "Feature", "properties": {"collection_times": [{"days": "Mon-Fri", "time": "4:30pm"}, {"days": "Sat-Sun", "time": "Closed"}], "id": "3921200043", "name": "USPS COLLECTION BOX - PO LOBBY", "address": {"city": "JACKSON", "state": "MS", "street": "820 COOPER RD", "postcode": "39212"}}},
{"geometry": {"type": "Point", "coordinates": [-90.1948677573, 32.3324973155]}, "type": "Feature", "properties": {"collection_times": [{"days": "Mon-Fri", "time": "5:00pm"}, {"days": "Sat", "time": "1:00pm"}, {"days": "Sun", "time": "Closed"}], "id": "3921300007", "name": "USPS COLLECTION BOX - BLUE BOX", "address": {"city": "JACKSON", "state": "MS", "street": "550 NORTH MALL DR", "postcode": "39213"}}},
{"geometry": {"type": "Point", "coordinates": [-90.1948677573, 32.3324973155]}, "type": "Feature", "properties": {"collection_times": [{"days": "Mon-Fri", "time": "5:00pm"}, {"days": "Sat", "time": "1:00pm"}, {"days": "Sun", "time": "Closed"}], "id": "3921300008", "name": "USPS COLLECTION BOX - BLUE BOX", "address": {"city": "JACKSON", "state": "MS", "street": "550 NORTH MALL DR", "postcode": "39213"}}},
{"geometry": {"type": "Point", "coordinates": [-90.1948677573, 32.3324973155]}, "type": "Feature", "properties": {"collection_times": [{"days": "Mon-Fri", "time": "5:00pm"}, {"days": "Sat", "time": "1:00pm"}, {"days": "Sun", "time": "Closed"}], "id": "3921300009", "name": "USPS COLLECTION BOX - BLUE BOX", "address": {"city": "JACKSON", "state": "MS", "street": "550 NORTH MALL DR", "postcode": "39213"}}},
{"geometry": {"type": "Point", "coordinates": [-90.2524218896, 32.4261436692]}, "type": "Feature", "properties": {"collection_times": [{"days": "Mon-Fri", "time": "12:00pm"}, {"days": "Sat-Sun", "time": "Closed"}], "id": "3921300011", "name": "USPS COLLECTION BOX - BLUE BOX", "address": {"city": "JACKSON", "state": "MS", "street": "1400 LAKEOVER & WATKINS", "postcode": "39213"}}},
{"geometry": {"type": "Point", "coordinates": [-90.2524218896, 32.4261436692]}, "type": "Feature", "properties": {"collection_times": [{"days": "Mon-Fri", "time": "12:00pm"}, {"days": "Sat-Sun", "time": "Closed"}], "id": "3921300012", "name": "USPS COLLECTION BOX - BLUE BOX", "address": {"city": "JACKSON", "state": "MS", "street": "1400 LAKEOVER & WATKINS", "postcode": "39213"}}},
{"geometry": {"type": "Point", "coordinates": [-90.2524218896, 32.4261436692]}, "type": "Feature", "properties": {"collection_times": [{"days": "Mon-Fri", "time": "12:00pm"}, {"days": "Sat-Sun", "time": "Closed"}], "id": "3921300013", "name": "USPS COLLECTION BOX - BLUE BOX", "address": {"city": "JACKSON", "state": "MS", "street": "1400 LAKEOVER & WATKINS", "postcode": "39213"}}},
{"geometry": {"type": "Point", "coordinates": [-90.2524218896, 32.4261436692]}, "type": "Feature", "properties": {"collection_times": [{"days": "Mon-Fri", "time": "4:30pm"}, {"days": "Sat-Sun", "time": "Closed"}], "id": "3921300035", "name": "USPS COLLECTION BOX - PO LOBBY", "address": {"city": "JACKSON", "state": "MS", "street": "550 NORTHMALL DR", "postcode": "39213"}}},
{"geometry": {"type": "Point", "coordinates": [-90.2524218896, 32.4261436692]}, "type": "Feature", "properties": {"collection_times": [{"days": "Mon-Fri", "time": "4:30pm"}, {"days": "Sat-Sun", "time": "Closed"}], "id": "3921300036", "name": "USPS COLLECTION BOX - PO LOBBY", "address": {"city": "JACKSON", "state": "MS", "street": "550 NORTHMALL DR", "postcode": "39213"}}},
{"geometry": {"type": "Point", "coordinates": [-90.1727485284, 32.3360999982]}, "type": "Feature", "properties": {"collection_times": [{"days": "Mon-Fri", "time": "1:00pm"}, {"days": "Sat-Sun", "time": "Closed"}], "id": "3921600001", "name": "USPS COLLECTION BOX - BLUE BOX", "address": {"city": "JACKSON", "state": "MS", "street": "INT RIVERRIDGE AND DUNBARTON", "postcode": "39216"}}},
{"geometry": {"type": "Point", "coordinates": [-90.1760585161, 32.3344058647]}, "type": "Feature", "properties": {"collection_times": [{"days": "Mon-Fri", "time": "5:00pm"}, {"days": "Sat", "time": "1:00pm"}, {"days": "Sun", "time": "Closed"}], "id": "3921600003", "name": "USPS COLLECTION BOX - BLUE BOX", "address": {"city": "JACKSON", "state": "MS", "street": "625 FONDREN PL", "postcode": "39216"}}},
{"geometry": {"type": "Point", "coordinates": [-90.1760585161, 32.3344058647]}, "type": "Feature", "properties": {"collection_times": [{"days": "Mon-Fri", "time": "5:00pm"}, {"days": "Sat", "time": "1:00pm"}, {"days": "Sun", "time": "Closed"}], "id": "3921600008", "name": "USPS COLLECTION BOX - BLUE BOX", "address": {"city": "JACKSON", "state": "MS", "street": "625 FONDREN PL", "postcode": "39216"}}},
{"geometry": {"type": "Point", "coordinates": [-90.1760585161, 32.3344058647]}, "type": "Feature", "properties": {"collection_times": [{"days": "Mon-Fri", "time": "5:00pm"}, {"days": "Sat", "time": "1:00pm"}, {"days": "Sun", "time": "Closed"}], "id": "3921600009", "name": "USPS COLLECTION BOX - BLUE BOX", "address": {"city": "JACKSON", "state": "MS", "street": "625 FONDREN PL", "postcode": "39216"}}},
{"geometry": {"type": "Point", "coordinates": [-90.1492998488, 32.3339089523]}, "type": "Feature", "properties": {"collection_times": [{"days": "Mon-Fri", "time": "12:00pm"}, {"days": "Sat-Sun", "time": "Closed"}], "id": "3921600013", "name": "USPS COLLECTION BOX - BLUE BOX", "address": {"city": "JACKSON", "state": "MS", "street": "1501 LAKELAND DR", "postcode": "39216"}}},
{"geometry": {"type": "Point", "coordinates": [-90.1436033265, 32.3330062996]}, "type": "Feature", "properties": {"collection_times": [{"days": "Mon-Fri", "time": "2:00pm"}, {"days": "Sat-Sun", "time": "Closed"}], "id": "3921600018", "name": "USPS COLLECTION BOX - BLUE BOX", "address": {"city": "JACKSON", "state": "MS", "street": "LELIA & SUTHERLAND", "postcode": "39216"}}},
{"geometry": {"type": "Point", "coordinates": [-90.1417839472, 32.3330107589]}, "type": "Feature", "properties": {"collection_times": [{"days": "Mon-Fri", "time": "1:00pm"}, {"days": "Sat-Sun", "time": "Closed"}], "id": "3921600028", "name": "USPS COLLECTION BOX - BLUE BOX", "address": {"city": "JACKSON", "state": "MS", "street": "LELIA & RIDGEWOOD", "postcode": "39216"}}},
{"geometry": {"type": "Point", "coordinates": [-90.1360026398, 32.3331380137]}, "type": "Feature", "properties": {"collection_times": [{"days": "Mon-Fri", "time": "1:00pm"}, {"days": "Sat-Sun", "time": "Closed"}], "id": "3921600033", "name": "USPS COLLECTION BOX - BLUE BOX", "address": {"city": "JACKSON", "state": "MS", "street": "1919 LAKELAND DR", "postcode": "39216"}}},
{"geometry": {"type": "Point", "coordinates": [-90.1436033265, 32.3330062996]}, "type": "Feature", "properties": {"collection_times": [{"days": "Mon-Fri", "time": "2:00pm"}, {"days": "Sat-Sun", "time": "Closed"}], "id": "3921600043", "name": "USPS COLLECTION BOX - BLUE BOX", "address": {"city": "JACKSON", "state": "MS", "street": "LELIA & SUTHERLAND", "postcode": "39216"}}},
{"geometry": {"type": "Point", "coordinates": [-90.1417839472, 32.3330107589]}, "type": "Feature", "properties": {"collection_times": [{"days": "Mon-Fri", "time": "1:00pm"}, {"days": "Sat-Sun", "time": "Closed"}], "id": "3921600046", "name": "USPS COLLECTION BOX - BLUE BOX", "address": {"city": "JACKSON", "state": "MS", "street": "LELIA & RIDGEWOOD", "postcode": "39216"}}},
{"geometry": {"type": "Point", "coordinates": [-90.1417839472, 32.3330107589]}, "type": "Feature", "properties": {"collection_times": [{"days": "Mon-Fri", "time": "1:00pm"}, {"days": "Sat-Sun", "time": "Closed"}], "id": "3921600047", "name": "USPS COLLECTION BOX - BLUE BOX", "address": {"city": "JACKSON", "state": "MS", "street": "LELIA & RIDGEWOOD", "postcode": "39216"}}},
{"geometry": {"type": "Point", "coordinates": [-90.1417839472, 32.3330107589]}, "type": "Feature", "properties": {"collection_times": [{"days": "Mon-Fri", "time": "1:00pm"}, {"days": "Sat-Sun", "time": "Closed"}], "id": "3921600048", "name": "USPS COLLECTION BOX - BLUE BOX", "address": {"city": "JACKSON", "state": "MS", "street": "LELIA & RIDGEWOOD", "postcode": "39216"}}},
{"geometry": {"type": "Point", "coordinates": [-90.1461063525, 32.3330302665]}, "type": "Feature", "properties": {"collection_times": [{"days": "Mon-Fri", "time": "2:50pm"}, {"days": "Sat-Sun", "time": "Closed"}], "id": "3921600049", "name": "USPS COLLECTION BOX - BLUE BOX", "address": {"city": "JACKSON", "state": "MS", "street": "1640 LELIA DR", "postcode": "39216"}}},
{"geometry": {"type": "Point", "coordinates": [-90.1359804059, 32.3334801639]}, "type": "Feature", "properties": {"collection_times": [{"days": "Mon-Fri", "time": "2:00pm"}, {"days": "Sat-Sun", "time": "Closed"}], "id": "3921600053", "name": "USPS COLLECTION BOX - BLUE BOX", "address": {"city": "JACKSON", "state": "MS", "street": "1900 LAKELAND DR", "postcode": "39216"}}},
{"geometry": {"type": "Point", "coordinates": [-90.1359804059, 32.3334801639]}, "type": "Feature", "properties": {"collection_times": [{"days": "Mon-Fri", "time": "2:00pm"}, {"days": "Sat-Sun", "time": "Closed"}], "id": "3921600054", "name": "USPS COLLECTION BOX - BLUE BOX", "address": {"city": "JACKSON", "state": "MS", "street": "1900 LAKELAND DR", "postcode": "39216"}}},
{"geometry": {"type": "Point", "coordinates": [-90.1760585161, 32.3344058647]}, "type": "Feature", "properties": {"collection_times": [{"days": "Mon-Fri", "time": "4:00pm"}, {"days": "Sat-Sun", "time": "Closed"}], "id": "3921600056", "name": "USPS COLLECTION BOX - PO LOBBY", "address": {"city": "JACKSON", "state": "MS", "street": "625 FONDREN PL", "postcode": "39216"}}},
{"geometry": {"type": "Point", "coordinates": [-90.1760585161, 32.3344058647]}, "type": "Feature", "properties": {"collection_times": [{"days": "Mon-Fri", "time": "4:00pm"}, {"days": "Sat-Sun", "time": "Closed"}], "id": "3921600057", "name": "USPS COLLECTION BOX - PO LOBBY", "address": {"city": "JACKSON", "state": "MS", "street": "625 FONDREN PL", "postcode": "39216"}}},
{"geometry": {"type": "Point", "coordinates": [-90.1622361738, 32.2139031345]}, "type": "Feature", "properties": {"collection_times": [{"days": "Mon-Fri", "time": "4:30pm"}, {"days": "Sat", "time": "10:00am"}, {"days": "Sun", "time": "Closed"}], "id": "3921800001", "name": "USPS COLLECTION BOX - BLUE BOX", "address": {"city": "RICHLAND", "state": "MS", "street": "366 SCARBROUGH ST", "postcode": "39218"}}},
{"geometry": {"type": "Point", "coordinates": [-90.1622361738, 32.2139031345]}, "type": "Feature", "properties": {"collection_times": [{"days": "Mon-Fri", "time": "4:30pm"}, {"days": "Sat", "time": "10:00am"}, {"days": "Sun", "time": "Closed"}], "id": "3921800002", "name": "USPS COLLECTION BOX - BLUE BOX", "address": {"city": "RICHLAND", "state": "MS", "street": "366 SCARBROUGH ST", "postcode": "39218"}}},
{"geometry": {"type": "Point", "coordinates": [-90.1622361738, 32.2139031345]}, "type": "Feature", "properties": {"collection_times": [{"days": "Mon-Fri", "time": "4:30pm"}, {"days": "Sat", "time": "10:00am"}, {"days": "Sun", "time": "Closed"}], "id": "3921800004", "name": "USPS COLLECTION BOX - BLUE BOX", "address": {"city": "RICHLAND", "state": "MS", "street": "366 SCARBROUGH ST", "postcode": "39218"}}},
{"geometry": {"type": "Point", "coordinates": [-90.1622361738, 32.2139031345]}, "type": "Feature", "properties": {"collection_times": [{"days": "Mon-Fri", "time": "4:30pm"}, {"days": "Sat-Sun", "time": "Closed"}], "id": "3921800006", "name": "USPS COLLECTION BOX - PO LOBBY", "address": {"city": "RICHLAND", "state": "MS", "street": "366 SCARBROUGH ST", "postcode": "39218"}}},
{"geometry": {"type": "Point", "coordinates": [-90.1622361738, 32.2139031345]}, "type": "Feature", "properties": {"collection_times": [{"days": "Mon-Fri", "time": "4:30pm"}, {"days": "Sat-Sun", "time": "Closed"}], "id": "3921800007", "name": "USPS COLLECTION BOX - PO LOBBY", "address": {"city": "RICHLAND", "state": "MS", "street": "366 SCARBROUGH ST", "postcode": "39218"}}},
{"geometry": {"type": "Point", "coordinates": [-90.0948781435, 32.3220356474]}, "type": "Feature", "properties": {"collection_times": [{"days": "Mon-Fri", "time": "5:05pm"}, {"days": "Sat", "time": "1:00pm"}, {"days": "Sun", "time": "Closed"}], "id": "3923200001", "name": "USPS COLLECTION BOX - BLUE BOX", "address": {"city": "FLOWOOD", "state": "MS", "street": "105 HOGG CREEK DR", "postcode": "39232"}}},
{"geometry": {"type": "Point", "coordinates": [-90.0948781435, 32.3220356474]}, "type": "Feature", "properties": {"collection_times": [{"days": "Mon-Fri", "time": "5:05pm"}, {"days": "Sat", "time": "1:00pm"}, {"days": "Sun", "time": "Closed"}], "id": "3923200002", "name": "USPS COLLECTION BOX - BLUE BOX", "address": {"city": "FLOWOOD", "state": "MS", "street": "105 HOGG CREEK DR", "postcode": "39232"}}},
{"geometry": {"type": "Point", "coordinates": [-90.0948781435, 32.3220356474]}, "type": "Feature", "properties": {"collection_times": [{"days": "Mon-Fri", "time": "5:05pm"}, {"days": "Sat", "time": "1:00pm"}, {"days": "Sun", "time": "Closed"}], "id": "3923200003", "name": "USPS COLLECTION BOX - BLUE BOX", "address": {"city": "FLOWOOD", "state": "MS", "street": "105 HOGG CREEK DR", "postcode": "39232"}}},
{"geometry": {"type": "Point", "coordinates": [-90.0948781435, 32.3220356474]}, "type": "Feature", "properties": {"collection_times": [{"days": "Mon-Fri", "time": "5:05pm"}, {"days": "Sat", "time": "1:00pm"}, {"days": "Sun", "time": "Closed"}], "id": "3923200004", "name": "USPS COLLECTION BOX - BLUE BOX", "address": {"city": "FLOWOOD", "state": "MS", "street": "105 HOGG CREEK DR", "postcode": "39232"}}},
{"geometry": {"type": "Point", "coordinates": [-90.0732933053, 32.3070831865]}, "type": "Feature", "properties": {"collection_times": [{"days": "Mon-Fri", "time": "11:30am"}, {"days": "Sat-Sun", "time": "Closed"}], "id": "3923200005", "name": "USPS COLLECTION BOX - BLUE BOX", "address": {"city": "FLOWOOD", "state": "MS", "street": "2001 AIRPORT RD N", "postcode": "39232"}}},
{"geometry": {"type": "Point", "coordinates": [-90.0732933053, 32.3070831865]}, "type": "Feature", "properties": {"collection_times": [{"days": "Mon-Fri", "time": "11:30am"}, {"days": "Sat-Sun", "time": "Closed"}], "id": "3923200007", "name": "USPS COLLECTION BOX - BLUE BOX", "address": {"city": "FLOWOOD", "state": "MS", "street": "2001 AIRPORT RD N", "postcode": "39232"}}},
{"geometry": {"type": "Point", "coordinates": [-90.0732933053, 32.3070831865]}, "type": "Feature", "properties": {"collection_times": [{"days": "Mon-Fri", "time": "11:30am"}, {"days": "Sat-Sun", "time": "Closed"}], "id": "3923200008", "name": "USPS COLLECTION BOX - BLUE BOX", "address": {"city": "FLOWOOD", "state": "MS", "street": "2001 AIRPORT RD N", "postcode": "39232"}}},
{"geometry": {"type": "Point", "coordinates": [-90.1071272139, 32.3296789577]}, "type": "Feature", "properties": {"collection_times": [{"days": "Mon-Fri", "time": "11:30am"}, {"days": "Sat-Sun", "time": "Closed"}], "id": "3923200009", "name": "USPS COLLECTION BOX - BLUE BOX", "address": {"city": "FLOWOOD", "state": "MS", "street": "1020 RIVER OAKS DR", "postcode": "39232"}}},
{"geometry": {"type": "Point", "coordinates": [-90.1071272139, 32.3296789577]}, "type": "Feature", "properties": {"collection_times": [{"days": "Mon-Fri", "time": "11:30am"}, {"days": "Sat-Sun", "time": "Closed"}], "id": "3923200010", "name": "USPS COLLECTION BOX - BLUE BOX", "address": {"city": "FLOWOOD", "state": "MS", "street": "1020 RIVER OAKS DR", "postcode": "39232"}}},
{"geometry": {"type": "Point", "coordinates": [-90.095437226, 32.3354225759]}, "type": "Feature", "properties": {"collection_times": [{"days": "Mon-Fri", "time": "11:30am"}, {"days": "Sat-Sun", "time": "Closed"}], "id": "3923200011", "name": "USPS COLLECTION BOX - BLUE BOX", "address": {"city": "FLOWOOD", "state": "MS", "street": "660 LAKELAND EAST DR", "postcode": "39232"}}},
{"geometry": {"type": "Point", "coordinates": [-90.095437226, 32.3354225759]}, "type": "Feature", "properties": {"collection_times": [{"days": "Mon-Fri", "time": "11:30am"}, {"days": "Sat-Sun", "time": "Closed"}], "id": "3923200012", "name": "USPS COLLECTION BOX - BLUE BOX", "address": {"city": "FLOWOOD", "state": "MS", "street": "660 LAKELAND EAST DR", "postcode": "39232"}}},
{"geometry": {"type": "Point", "coordinates": [-90.095437226, 32.3354225759]}, "type": "Feature", "properties": {"collection_times": [{"days": "Mon-Fri", "time": "11:30am"}, {"days": "Sat-Sun", "time": "Closed"}], "id": "3923200014", "name": "USPS COLLECTION BOX - BLUE BOX", "address": {"city": "FLOWOOD", "state": "MS", "street": "660 LAKELAND EAST DR", "postcode": "39232"}}},
{"geometry": {"type": "Point", "coordinates": [-90.1071586229, 32.3250752168]}, "type": "Feature", "properties": {"collection_times": [{"days": "Mon-Fri", "time": "11:30am"}, {"days": "Sat-Sun", "time": "Closed"}], "id": "3923200016", "name": "USPS COLLECTION BOX - BLUE BOX", "address": {"city": "FLOWOOD", "state": "MS", "street": "1080 RIVER OAKS DR", "postcode": "39232"}}},
{"geometry": {"type": "Point", "coordinates": [-90.1071586229, 32.3250752168]}, "type": "Feature", "properties": {"collection_times": [{"days": "Mon-Fri", "time": "11:30am"}, {"days": "Sat-Sun", "time": "Closed"}], "id": "3923200017", "name": "USPS COLLECTION BOX - BLUE BOX", "address": {"city": "FLOWOOD", "state": "MS", "street": "1080 RIVER OAKS DR", "postcode": "39232"}}},
{"geometry": {"type": "Point", "coordinates": [-90.121169649, 32.3297147837]}, "type": "Feature", "properties": {"collection_times": [{"days": "Mon-Fri", "time": "11:30am"}, {"days": "Sat-Sun", "time": "Closed"}], "id": "3923200018", "name": "USPS COLLECTION BOX - BLUE BOX", "address": {"city": "FLOWOOD", "state": "MS", "street": "2506 LAKELAND DR", "postcode": "39232"}}},
{"geometry": {"type": "Point", "coordinates": [-90.121169649, 32.3297147837]}, "type": "Feature", "properties": {"collection_times": [{"days": "Mon-Fri", "time": "11:30am"}, {"days": "Sat-Sun", "time": "Closed"}], "id": "3923200020", "name": "USPS COLLECTION BOX - BLUE BOX", "address": {"city": "FLOWOOD", "state": "MS", "street": "2506 LAKELAND DR", "postcode": "39232"}}},
{"geometry": {"type": "Point", "coordinates": [-90.1238647432, 32.3298731044]}, "type": "Feature", "properties": {"collection_times": [{"days": "Mon-Fri", "time": "11:30am"}, {"days": "Sat-Sun", "time": "Closed"}], "id": "3923200022", "name": "USPS COLLECTION BOX - BLUE BOX", "address": {"city": "FLOWOOD", "state": "MS", "street": "3010 LAKELAND CV", "postcode": "39232"}}},
{"geometry": {"type": "Point", "coordinates": [-90.1249424708, 32.3302739104]}, "type": "Feature", "properties": {"collection_times": [{"days": "Mon-Fri", "time": "11:30am"}, {"days": "Sat-Sun", "time": "Closed"}], "id": "3923200023", "name": "USPS COLLECTION BOX - BLUE BOX", "address": {"city": "FLOWOOD", "state": "MS", "street": "4 RIVER BEND PL", "postcode": "39232"}}},
{"geometry": {"type": "Point", "coordinates": [-90.1249424708, 32.3302739104]}, "type": "Feature", "properties": {"collection_times": [{"days": "Mon-Fri", "time": "11:30am"}, {"days": "Sat-Sun", "time": "Closed"}], "id": "3923200024", "name": "USPS COLLECTION BOX - BLUE BOX", "address": {"city": "FLOWOOD", "state": "MS", "street": "4 RIVER BEND PL", "postcode": "39232"}}},
{"geometry": {"type": "Point", "coordinates": [-90.0948781435, 32.3220356474]}, "type": "Feature", "properties": {"collection_times": [{"days": "Mon-Fri", "time": "4:30pm"}, {"days": "Sat-Sun", "time": "Closed"}], "id": "3923200025", "name": "USPS COLLECTION BOX - APC", "address": {"city": "FLOWOOD", "state": "MS", "street": "105 HOGG CREEK DR", "postcode": "39232"}}},
{"geometry": {"type": "Point", "coordinates": [-90.0948781435, 32.3220356474]}, "type": "Feature", "properties": {"collection_times": [{"days": "Mon-Fri", "time": "4:30pm"}, {"days": "Sat-Sun", "time": "Closed"}], "id": "3923200026", "name": "USPS COLLECTION BOX - PO LOBBY", "address": {"city": "FLOWOOD", "state": "MS", "street": "105 HOGG CREEK DR", "postcode": "39232"}}},
{"geometry": {"type": "Point", "coordinates": [-90.2541232961, 32.1922512255]}, "type": "Feature", "properties": {"collection_times": [{"days": "Mon-Fri", "time": "4:55pm"}, {"days": "Sat", "time": "10:00am"}, {"days": "Sun", "time": "Closed"}], "id": "3927200000", "name": "USPS COLLECTION BOX - BLUE BOX", "address": {"city": "BYRAM", "state": "MS", "street": "5654 TERRY RD", "postcode": "39272"}}},
{"geometry": {"type": "Point", "coordinates": [-90.2541232961, 32.1922512255]}, "type": "Feature", "properties": {"collection_times": [{"days": "Mon-Fri", "time": "4:55pm"}, {"days": "Sat", "time": "10:00am"}, {"days": "Sun", "time": "Closed"}], "id": "3927200002", "name": "USPS COLLECTION BOX - BLUE BOX", "address": {"city": "BYRAM", "state": "MS", "street": "5654 TERRY RD", "postcode": "39272"}}},
{"geometry": {"type": "Point", "coordinates": [-90.2541232961, 32.1922512255]}, "type": "Feature", "properties": {"collection_times": [{"days": "Mon-Fri", "time": "4:55pm"}, {"days": "Sat", "time": "10:00am"}, {"days": "Sun", "time": "Closed"}], "id": "3927200003", "name": "USPS COLLECTION BOX - BLUE BOX", "address": {"city": "BYRAM", "state": "MS", "street": "5654 TERRY RD", "postcode": "39272"}}},
{"geometry": {"type": "Point", "coordinates": [-90.2541232961, 32.1922512255]}, "type": "Feature", "properties": {"collection_times": [{"days": "Mon-Fri", "time": "4:55pm"}, {"days": "Sat", "time": "10:00am"}, {"days": "Sun", "time": "Closed"}], "id": "3927200004", "name": "USPS COLLECTION BOX - BLUE BOX", "address": {"city": "BYRAM", "state": "MS", "street": "5654 TERRY RD", "postcode": "39272"}}},
{"geometry": {"type": "Point", "coordinates": [-90.2541232961, 32.1922512255]}, "type": "Feature", "properties": {"collection_times": [{"days": "Mon-Fri", "time": "4:30pm"}, {"days": "Sat-Sun", "time": "Closed"}], "id": "3927200006", "name": "USPS COLLECTION BOX - PO LOBBY", "address": {"city": "BYRAM", "state": "MS", "street": "5654 TERRY RD", "postcode": "39272"}}},
{"geometry": {"type": "Point", "coordinates": [-90.2541232961, 32.1922512255]}, "type": "Feature", "properties": {"collection_times": [{"days": "Mon-Fri", "time": "4:30pm"}, {"days": "Sat-Sun", "time": "Closed"}], "id": "3927200007", "name": "USPS COLLECTION BOX - PO LOBBY", "address": {"city": "BYRAM", "state": "MS", "street": "5654 TERRY RD", "postcode": "39272"}}}
]}
