{"type": "FeatureCollection", "features": [
{"geometry": {"type": "Point", "coordinates": [-88.6987212786, 32.3720159591]}, "type": "Feature", "properties": {"collection_times": [{"days": "Mon-Fri", "time": "9:00am"}, {"days": "Sat-Sun", "time": "Closed"}], "id": "3930100003", "name": "USPS COLLECTION BOX - BLUE BOX", "address": {"city": "MERIDIAN", "state": "MS", "street": "2024 15TH ST", "postcode": "39301"}}},
{"geometry": {"type": "Point", "coordinates": [-88.6987212786, 32.3720159591]}, "type": "Feature", "properties": {"collection_times": [{"days": "Mon-Fri", "time": "9:00am"}, {"days": "Sat-Sun", "time": "Closed"}], "id": "3930100004", "name": "USPS COLLECTION BOX - BLUE BOX", "address": {"city": "MERIDIAN", "state": "MS", "street": "2024 15TH ST", "postcode": "39301"}}},
{"geometry": {"type": "Point", "coordinates": [-88.6987212786, 32.3720159591]}, "type": "Feature", "properties": {"collection_times": [{"days": "Mon-Fri", "time": "9:00am"}, {"days": "Sat-Sun", "time": "Closed"}], "id": "3930100005", "name": "USPS COLLECTION BOX - BLUE BOX", "address": {"city": "MERIDIAN", "state": "MS", "street": "2024 15TH ST", "postcode": "39301"}}},
{"geometry": {"type": "Point", "coordinates": [-88.7086888564, 32.3609836469]}, "type": "Feature", "properties": {"collection_times": [{"days": "Mon-Fri", "time": "9:00am"}, {"days": "Sat-Sun", "time": "Closed"}], "id": "3930100021", "name": "USPS COLLECTION BOX - BLUE BOX", "address": {"city": "MERIDIAN", "state": "MS", "street": "3000 5TH ST", "postcode": "39301"}}},
{"geometry": {"type": "Point", "coordinates": [-88.7025576397, 32.3651010605]}, "type": "Feature", "properties": {"collection_times": [{"days": "Mon-Fri", "time": "9:00am"}, {"days": "Sat-Sun", "time": "Closed"}], "id": "3930100022", "name": "USPS COLLECTION BOX - BLUE BOX", "address": {"city": "MERIDIAN", "state": "MS", "street": "2400 8TH ST", "postcode": "39301"}}},
{"geometry": {"type": "Point", "coordinates": [-88.6993565791, 32.3660058876]}, "type": "Feature", "properties": {"collection_times": [{"days": "Mon-Fri", "time": "5:30pm"}, {"days": "Sat", "time": "5:00pm"}, {"days": "Sun", "time": "Closed"}], "id": "3930100025", "name": "USPS COLLECTION BOX - BLUE BOX", "address": {"city": "MERIDIAN", "state": "MS", "street": "2100 9TH ST", "postcode": "39301"}}},
{"geometry": {"type": "Point", "coordinates": [-88.6993565791, 32.3660058876]}, "type": "Feature", "properties": {"collection_times": [{"days": "Mon-Fri", "time": "5:30pm"}, {"days": "Sat", "time": "5:00pm"}, {"days": "Sun", "time": "Closed"}], "id": "3930100026", "name": "USPS COLLECTION BOX - BLUE BOX", "address": {"city": "MERIDIAN", "state": "MS", "street": "2100 9TH ST", "postcode": "39301"}}},
{"geometry": {"type": "Point", "coordinates": [-88.6993565791, 32.3660058876]}, "type": "Feature", "properties": {"collection_times": [{"days": "Mon-Fri", "time": "5:30pm"}, {"days": "Sat", "time": "5:00pm"}, {"days": "Sun", "time": "Closed"}], "id": "3930100027", "name": "USPS COLLECTION BOX - BLUE BOX", "address": {"city": "MERIDIAN", "state": "MS", "street": "2100 9TH ST", "postcode": "39301"}}},
{"geometry": {"type": "Point", "coordinates": [-88.6801756374, 32.3607338366]}, "type": "Feature", "properties": {"collection_times": [{"days": "Mon-Fri", "time": "11:00am"}, {"days": "Sat-Sun", "time": "Closed"}], "id": "3930100032", "name": "USPS COLLECTION BOX - BLUE BOX", "address": {"city": "MERIDIAN", "state": "MS", "street": "1000 N FRONTAGE RD", "postcode": "39301"}}},
{"geometry": {"type": "Point", "coordinates": [-88.698781371, 32.3646683513]}, "type": "Feature", "properties": {"collection_times": [{"days": "Mon-Fri", "time": "3:00pm"}, {"days": "Sat-Sun", "time": "Closed"}], "id": "3930100041", "name": "USPS COLLECTION BOX - BLUE BOX", "address": {"city": "MERIDIAN", "state": "MS", "street": "510 21ST AVE", "postcode": "39301"}}},
{"geometry": {"type": "Point", "coordinates": [-88.698781371, 32.3646683513]}, "type": "Feature", "properties": {"collection_times": [{"days": "Mon-Fri", "time": "3:00pm"}, {"days": "Sat-Sun", "time": "Closed"}], "id": "3930100042", "name": "USPS COLLECTION BOX - BLUE BOX", "address": {"city": "MERIDIAN", "state": "MS", "street": "510 21ST AVE", "postcode": "39301"}}},
{"geometry": {"type": "Point", "coordinates": [-88.6860263926, 32.3709688275]}, "type": "Feature", "properties": {"collection_times": [{"days": "Mon-Fri", "time": "12:00pm"}, {"days": "Sat-Sun", "time": "Closed"}], "id": "3930100048", "name": "USPS COLLECTION BOX - BLUE BOX", "address": {"city": "MERIDIAN", "state": "MS", "street": "721 FRONT STREET EXT", "postcode": "39301"}}},
{"geometry": {"type": "Point", "coordinates": [-88.702563369, 32.3660057506]}, "type": "Feature", "properties": {"collection_times": [{"days": "Mon-Fri", "time": "11:00am"}, {"days": "Sat-Sun", "time": "Closed"}], "id": "3930100051", "name": "USPS COLLECTION BOX - BLUE BOX", "address": {"city": "MERIDIAN", "state": "MS", "street": "2400 9TH ST", "postcode": "39301"}}},
{"geometry": {"type": "Point", "coordinates": [-88.7015158065, 32.3651970825]}, "type": "Feature", "properties": {"collection_times": [{"days": "Mon-Fri", "time": "9:30am"}, {"days": "Sat-Sun", "time": "Closed"}], "id": "3930100074", "name": "USPS COLLECTION BOX - BLUE BOX", "address": {"city": "MERIDIAN", "state": "MS", "street": "815 23RD AVE", "postcode": "39301"}}},
{"geometry": {"type": "Point", "coordinates": [-88.7064966717, 32.3689127825]}, "type": "Feature", "properties": {"collection_times": [{"days": "Mon-Fri", "time": "1:00pm"}, {"days": "Sat-Sun", "time": "Closed"}], "id": "3930100082", "name": "USPS COLLECTION BOX - BLUE BOX", "address": {"city": "MERIDIAN", "state": "MS", "street": "1201 28TH AVE", "postcode": "39301"}}},
{"geometry": {"type": "Point", "coordinates": [-88.6938452076, 32.3569318506]}, "type": "Feature", "properties": {"collection_times": [{"days": "Mon-Fri", "time": "9:15am"}, {"days": "Sat-Sun", "time": "Closed"}], "id": "3930100083", "name": "USPS COLLECTION BOX - BLUE BOX", "address": {"city": "MERIDIAN", "state": "MS", "street": "610 22ND AVE S", "postcode": "39301"}}},
{"geometry": {"type": "Point", "coordinates": [-88.6954417329, 32.3650096872]}, "type": "Feature", "properties": {"collection_times": [{"days": "Mon-Fri", "time": "12:45pm"}, {"days": "Sat-Sun", "time": "Closed"}], "id": "3930100094", "name": "USPS COLLECTION BOX - BLUE BOX", "address": {"city": "MERIDIAN", "state": "MS", "street": "1810 FRONT ST", "postcode": "39301"}}},
{"geometry": {"type": "Point", "coordinates": [-88.6993565791, 32.3660058876]}, "type": "Feature", "properties": {"collection_times": [{"days": "Mon-Sat", "time": "5:00pm"}, {"days": "Sun", "time": "Closed"}], "id": "3930100100", "name": "USPS COLLECTION BOX - PO LOBBY", "address": {"city": "MERIDIAN", "state": "MS", "street": "2100 9TH ST", "postcode": "39301"}}},
{"geometry": {"type": "Point", "coordinates": [-88.6993565791, 32.3660058876]}, "type": "Feature", "properties": {"collection_times": [{"days": "Mon-Sat", "time": "5:00pm"}, {"days": "Sun", "time": "Closed"}], "id": "3930100101", "name": "USPS COLLECTION BOX - PO LOBBY", "address": {"city": "MERIDIAN", "state": "MS", "street": "2100 9TH ST", "postcode": "39301"}}},
{"geometry": {"type": "Point", "coordinates": [-88.6788071618, 32.4115746281]}, "type": "Feature", "properties": {"collection_times": [{"days": "Mon-Fri", "time": "2:00pm"}, {"days": "Sat-Sun", "time": "Closed"}], "id": "3930100102", "name": "USPS COLLECTION BOX - BLUE BOX", "address": {"city": "MERIDIAN", "state": "MS", "street": "5000 HIGHWAY 39 N", "postcode": "39301"}}},
{"geometry": {"type": "Point", "coordinates": [-88.6993327583, 32.3634213705]}, "type": "Feature", "properties": {"collection_times": [{"days": "Mon-Fri", "time": "2:00pm"}, {"days": "Sat-Sun", "time": "Closed"}], "id": "3930100105", "name": "USPS COLLECTION BOX - BLUE BOX", "address": {"city": "MERIDIAN", "state": "MS", "street": "400 22ND AVE", "postcode": "39301"}}},
{"geometry": {"type": "Point", "coordinates": [-88.7077336942, 32.410015827]}, "type": "Feature", "properties": {"collection_times": [{"days": "Mon-Fri", "time": "4:30pm"}, {"days": "Sat", "time": "12:00pm"}, {"days": "Sun", "time": "Closed"}], "id": "3930500030", "name": "USPS COLLECTION BOX - PO LOBBY", "address": {"city": "MERIDIAN", "state": "MS", "street": "5008 GREAT RIVER DR", "postcode": "39305"}}},
{"geometry": {"type": "Point", "coordinates": [-88.7077336942, 32.410015827]}, "type": "Feature", "properties": {"collection_times": [{"days": "Mon-Fri", "time": "4:30pm"}, {"days": "Sat", "time": "12:00pm"}, {"days": "Sun", "time": "Closed"}], "id": "3930500031", "name": "USPS COLLECTION BOX - PO LOBBY", "address": {"city": "MERIDIAN", "state": "MS", "street": "5008 GREAT RIVER DR", "postcode": "39305"}}},
{"geometry": {"type": "Point", "coordinates": [-88.7077336942, 32.410015827]}, "type": "Feature", "properties": {"collection_times": [{"days": "Mon-Fri", "time": "4:30pm"}, {"days": "Sat", "time": "12:00pm"}, {"days": "Sun", "time": "Closed"}], "id": "3930500033", "name": "USPS COLLECTION BOX - PO LOBBY", "address": {"city": "MERIDIAN", "state": "MS", "street": "5008 GREAT RIVER DR", "postcode": "39305"}}},
{"geometry": {"type": "Point", "coordinates": [-88.7077336942, 32.410015827]}, "type": "Feature", "properties": {"collection_times": [{"days": "Mon-Fri", "time": "4:30pm"}, {"days": "Sat", "time": "12:00pm"}, {"days": "Sun", "time": "Closed"}], "id": "3930500034", "name": "USPS COLLECTION BOX - PO LOBBY", "address": {"city": "MERIDIAN", "state": "MS", "street": "5008 GREAT RIVER DR", "postcode": "39305"}}},
{"geometry": {"type": "Point", "coordinates": [-88.7077336942, 32.410015827]}, "type": "Feature", "properties": {"collection_times": [{"days": "Mon-Fri", "time": "4:45pm"}, {"days": "Sat", "time": "2:45pm"}, {"days": "Sun", "time": "Closed"}], "id": "3930500035", "name": "USPS COLLECTION BOX - BLUE BOX", "address": {"city": "MERIDIAN", "state": "MS", "street": "5008 GREAT RIVER DR", "postcode": "39305"}}},
{"geometry": {"type": "Point", "coordinates": [-88.7077336942, 32.410015827]}, "type": "Feature", "properties": {"collection_times": [{"days": "Mon-Fri", "time": "4:45pm"}, {"days": "Sat", "time": "2:45pm"}, {"days": "Sun", "time": "Closed"}], "id": "3930500036", "name": "USPS COLLECTION BOX - BLUE BOX", "address": {"city": "MERIDIAN", "state": "MS", "street": "5008 GREAT RIVER DR", "postcode": "39305"}}},
{"geometry": {"type": "Point", "coordinates": [-88.7077336942, 32.410015827]}, "type": "Feature", "properties": {"collection_times": [{"days": "Mon-Fri", "time": "4:45pm"}, {"days": "Sat", "time": "2:45pm"}, {"days": "Sun", "time": "Closed"}], "id": "3930500037", "name": "USPS COLLECTION BOX - BLUE BOX", "address": {"city": "MERIDIAN", "state": "MS", "street": "5008 GREAT RIVER DR", "postcode": "39305"}}},
{"geometry": {"type": "Point", "coordinates": [-88.7077336942, 32.410015827]}, "type": "Feature", "properties": {"collection_times": [{"days": "Mon-Fri", "time": "4:45pm"}, {"days": "Sat", "time": "2:45pm"}, {"days": "Sun", "time": "Closed"}], "id": "3930500038", "name": "USPS COLLECTION BOX - BLUE BOX", "address": {"city": "MERIDIAN", "state": "MS", "street": "5008 GREAT RIVER DR", "postcode": "39305"}}},
{"geometry": {"type": "Point", "coordinates": [-88.6136730257, 32.5517278604]}, "type": "Feature", "properties": {"collection_times": [{"days": "Mon-Fri", "time": "9:00am"}, {"days": "Sat-Sun", "time": "Closed"}], "id": "3930500039", "name": "USPS COLLECTION BOX - BLUE BOX", "address": {"city": "MERIDIAN", "state": "MS", "street": "220 FULLER RD", "postcode": "39305"}}},
{"geometry": {"type": "Point", "coordinates": [-88.6452995019, 32.4937744565]}, "type": "Feature", "properties": {"collection_times": [{"days": "Mon-Fri", "time": "9:00am"}, {"days": "Sat-Sun", "time": "Closed"}], "id": "3930500040", "name": "USPS COLLECTION BOX - BLUE BOX", "address": {"city": "MERIDIAN", "state": "MS", "street": "255 ROSENBAUM", "postcode": "39305"}}},
{"geometry": {"type": "Point", "coordinates": [-88.7289144761, 32.3615363664]}, "type": "Feature", "properties": {"collection_times": [{"days": "Mon-Fri", "time": "2:00pm"}, {"days": "Sat-Sun", "time": "Closed"}], "id": "3930700002", "name": "USPS COLLECTION BOX - BLUE BOX", "address": {"city": "MERIDIAN", "state": "MS", "street": "800 HIGHWAY 19 N", "postcode": "39307"}}},
{"geometry": {"type": "Point", "coordinates": [-88.7289144761, 32.3615363664]}, "type": "Feature", "properties": {"collection_times": [{"days": "Mon-Fri", "time": "2:00pm"}, {"days": "Sat-Sun", "time": "Closed"}], "id": "3930700003", "name": "USPS COLLECTION BOX - BLUE BOX", "address": {"city": "MERIDIAN", "state": "MS", "street": "800 HIGHWAY 19 N", "postcode": "39307"}}},
{"geometry": {"type": "Point", "coordinates": [-88.722876616, 32.36360321]}, "type": "Feature", "properties": {"collection_times": [{"days": "Mon-Fri", "time": "5:00pm"}, {"days": "Sat", "time": "1:00pm"}, {"days": "Sun", "time": "Closed"}], "id": "3930700009", "name": "USPS COLLECTION BOX - BLUE BOX", "address": {"city": "MERIDIAN", "state": "MS", "street": "708 45TH AVE", "postcode": "39307"}}},
{"geometry": {"type": "Point", "coordinates": [-88.722876616, 32.36360321]}, "type": "Feature", "properties": {"collection_times": [{"days": "Mon-Fri", "time": "5:00pm"}, {"days": "Sat", "time": "1:00pm"}, {"days": "Sun", "time": "Closed"}], "id": "3930700011", "name": "USPS COLLECTION BOX - BLUE BOX", "address": {"city": "MERIDIAN", "state": "MS", "street": "708 45TH AVE", "postcode": "39307"}}},
{"geometry": {"type": "Point", "coordinates": [-88.722876616, 32.36360321]}, "type": "Feature", "properties": {"collection_times": [{"days": "Mon-Fri", "time": "5:00pm"}, {"days": "Sat", "time": "1:00pm"}, {"days": "Sun", "time": "Closed"}], "id": "3930700013", "name": "USPS COLLECTION BOX - BLUE BOX", "address": {"city": "MERIDIAN", "state": "MS", "street": "708 45TH AVE", "postcode": "39307"}}},
{"geometry": {"type": "Point", "coordinates": [-88.722876616, 32.36360321]}, "type": "Feature", "properties": {"collection_times": [{"days": "Mon-Fri", "time": "4:30pm"}, {"days": "Sat-Sun", "time": "Closed"}], "id": "3930700014", "name": "USPS COLLECTION BOX - PO LOBBY", "address": {"city": "MERIDIAN", "state": "MS", "street": "708 45TH AVE", "postcode": "39307"}}},
{"geometry": {"type": "Point", "coordinates": [-88.722876616, 32.36360321]}, "type": "Feature", "properties": {"collection_times": [{"days": "Mon-Fri", "time": "4:30pm"}, {"days": "Sat-Sun", "time": "Closed"}], "id": "3930700015", "name": "USPS COLLECTION BOX - PO LOBBY", "address": {"city": "MERIDIAN", "state": "MS", "street": "708 45TH AVE", "postcode": "39307"}}},
{"geometry": {"type": "Point", "coordinates": [-88.7274987963, 32.370672383]}, "type": "Feature", "properties": {"collection_times": [{"days": "Mon-Fri", "time": "10:00am"}, {"days": "Sat-Sun", "time": "Closed"}], "id": "3930700017", "name": "USPS COLLECTION BOX - BLUE BOX", "address": {"city": "MERIDIAN", "state": "MS", "street": "4901 14TH ST", "postcode": "39307"}}},
{"geometry": {"type": "Point", "coordinates": [-88.7266298456, 32.4946623887]}, "type": "Feature", "properties": {"collection_times": [{"days": "Mon-Fri", "time": "4:00pm"}, {"days": "Sat", "time": "10:30am"}, {"days": "Sun", "time": "Closed"}], "id": "3932000000", "name": "USPS COLLECTION BOX - BLUE BOX", "address": {"city": "BAILEY", "state": "MS", "street": "9032 HIGHWAY 493", "postcode": "39320"}}},
{"geometry": {"type": "Point", "coordinates": [-88.7266229721, 32.4944352586]}, "type": "Feature", "properties": {"collection_times": [{"days": "Mon-Fri", "time": "3:00pm"}, {"days": "Sat", "time": "10:30am"}, {"days": "Sun", "time": "Closed"}], "id": "3932000001", "name": "USPS COLLECTION BOX - PO LOBBY", "address": {"city": "BAILEY", "state": "MS", "street": "9032 HIGHWAY 493", "postcode": "39320"}}},
{"geometry": {"type": "Point", "coordinates": [-88.5347291727, 31.5443808758]}, "type": "Feature", "properties": {"collection_times": [{"days": "Mon-Fri", "time": "3:45pm"}, {"days": "Sat", "time": "10:30am"}, {"days": "Sun", "time": "Closed"}], "id": "3932200001", "name": "USPS COLLECTION BOX - BLUE BOX", "address": {"city": "BUCKATUNNA", "state": "MS", "street": "2360 BUCKATUNNA CHICORA CLARA RD", "postcode": "39322"}}},
{"geometry": {"type": "Point", "coordinates": [-88.5302518411, 31.5406636275]}, "type": "Feature", "properties": {"collection_times": [{"days": "Mon-Fri", "time": "3:00pm"}, {"days": "Sat", "time": "10:30am"}, {"days": "Sun", "time": "Closed"}], "id": "3932200002", "name": "USPS COLLECTION BOX - PO LOBBY", "address": {"city": "BUCKATUNNA", "state": "MS", "street": "2360 BUCKATUNNA CHICORA CLARA RD", "postcode": "39322"}}},
{"geometry": {"type": "Point", "coordinates": [-88.933767782, 32.3260836081]}, "type": "Feature", "properties": {"collection_times": [{"days": "Mon-Fri", "time": "3:50pm"}, {"days": "Sat", "time": "8:30am"}, {"days": "Sun", "time": "Closed"}], "id": "3932300000", "name": "USPS COLLECTION BOX - BLUE BOX", "address": {"city": "CHUNKY", "state": "MS", "street": "23926 HIGHWAY 80", "postcode": "39323"}}},
{"geometry": {"type": "Point", "coordinates": [-88.933767782, 32.3260836081]}, "type": "Feature", "properties": {"collection_times": [{"days": "Mon-Fri", "time": "11:50am"}, {"days": "Sat", "time": "8:30am"}, {"days": "Sun", "time": "Closed"}], "id": "3932300001", "name": "USPS COLLECTION BOX - PO LOBBY", "address": {"city": "CHUNKY", "state": "MS", "street": "23926 HIGHWAY 80", "postcode": "39323"}}},
{"geometry": {"type": "Point", "coordinates": [-88.6975768727, 31.57800624]}, "type": "Feature", "properties": {"collection_times": [{"days": "Mon-Fri", "time": "3:45pm"}, {"days": "Sat", "time": "8:30am"}, {"days": "Sun", "time": "Closed"}], "id": "3932400000", "name": "USPS COLLECTION BOX - BLUE BOX", "address": {"city": "CLARA", "state": "MS", "street": "21 CLARA SCHOOL RD", "postcode": "39324"}}},
{"geometry": {"type": "Point", "coordinates": [-88.8558957053, 32.4830882449]}, "type": "Feature", "properties": {"collection_times": [{"days": "Mon-Fri", "time": "4:30pm"}, {"days": "Sat", "time": "10:00am"}, {"days": "Sun", "time": "Closed"}], "id": "3932500000", "name": "USPS COLLECTION BOX - PO LOBBY", "address": {"city": "COLLINSVILLE", "state": "MS", "street": "9061 COLLINSVILLE RD", "postcode": "39325"}}},
{"geometry": {"type": "Point", "coordinates": [-88.8558957053, 32.4830882449]}, "type": "Feature", "properties": {"collection_times": [{"days": "Mon-Fri", "time": "4:15pm"}, {"days": "Sat", "time": "9:30am"}, {"days": "Sun", "time": "Closed"}], "id": "3932500001", "name": "USPS COLLECTION BOX - BLUE BOX", "address": {"city": "COLLINSVILLE", "state": "MS", "street": "9061 COLLINSVILLE RD", "postcode": "39325"}}},
{"geometry": {"type": "Point", "coordinates": [-88.6778280106, 32.5729965394]}, "type": "Feature", "properties": {"collection_times": [{"days": "Mon-Fri", "time": "3:45pm"}, {"days": "Sat", "time": "10:00am"}, {"days": "Sun", "time": "Closed"}], "id": "3932600000", "name": "USPS COLLECTION BOX - BLUE BOX", "address": {"city": "DALEVILLE", "state": "MS", "street": "11039 HIGHWAY 39 N", "postcode": "39326"}}},
{"geometry": {"type": "Point", "coordinates": [-88.6778280106, 32.5729965394]}, "type": "Feature", "properties": {"collection_times": [{"days": "Mon-Sat", "time": "10:00am"}, {"days": "Sun", "time": "Closed"}], "id": "3932600001", "name": "USPS COLLECTION BOX - PO LOBBY", "address": {"city": "DALEVILLE", "state": "MS", "street": "11039 HIGHWAY 39 N", "postcode": "39326"}}},
{"geometry": {"type": "Point", "coordinates": [-89.1079116081, 32.4413881015]}, "type": "Feature", "properties": {"collection_times": [{"days": "Mon-Fri", "time": "4:30pm"}, {"days": "Sat", "time": "10:30am"}, {"days": "Sun", "time": "Closed"}], "id": "3932700000", "name": "USPS COLLECTION BOX - BLUE BOX", "address": {"city": "DECATUR", "state": "MS", "street": "75 FOURTH AVE", "postcode": "39327"}}},
{"geometry": {"type": "Point", "coordinates": [-89.1079116081, 32.4413881015]}, "type": "Feature", "properties": {"collection_times": [{"days": "Mon-Fri", "time": "4:30pm"}, {"days": "Sat", "time": "10:30am"}, {"days": "Sun", "time": "Closed"}], "id": "3932700001", "name": "USPS COLLECTION BOX - PO LOBBY", "address": {"city": "DECATUR", "state": "MS", "street": "75 FOURTH AVE", "postcode": "39327"}}},
{"geometry": {"type": "Point", "coordinates": [-88.7534212414, 32.6784125728]}, "type": "Feature", "properties": {"collection_times": [{"days": "Mon-Fri", "time": "4:00pm"}, {"days": "Sat", "time": "11:00am"}, {"days": "Sun", "time": "Closed"}], "id": "3932800000", "name": "USPS COLLECTION BOX - BLUE BOX", "address": {"city": "DEKALB", "state": "MS", "street": "147 VETERAN ST", "postcode": "39328"}}},
{"geometry": {"type": "Point", "coordinates": [-88.7534212414, 32.6784125728]}, "type": "Feature", "properties": {"collection_times": [{"days": "Mon-Fri", "time": "4:30pm"}, {"days": "Sat", "time": "11:00am"}, {"days": "Sun", "time": "Closed"}], "id": "3932800001", "name": "USPS COLLECTION BOX - PO LOBBY", "address": {"city": "DEKALB", "state": "MS", "street": "147 VETERAN ST", "postcode": "39328"}}},
{"geometry": {"type": "Point", "coordinates": [-88.8283170429, 32.1779620878]}, "type": "Feature", "properties": {"collection_times": [{"days": "Mon-Fri", "time": "4:00pm"}, {"days": "Sat", "time": "9:30am"}, {"days": "Sun", "time": "Closed"}], "id": "3933000000", "name": "USPS COLLECTION BOX - BLUE BOX", "address": {"city": "ENTERPRISE", "state": "MS", "street": "77 OLD MILL CREEK RD", "postcode": "39330"}}},
{"geometry": {"type": "Point", "coordinates": [-88.8283170429, 32.1779620878]}, "type": "Feature", "properties": {"collection_times": [{"days": "Mon-Fri", "time": "1:00pm"}, {"days": "Sat", "time": "9:30am"}, {"days": "Sun", "time": "Closed"}], "id": "3933000001", "name": "USPS COLLECTION BOX - PO LOBBY", "address": {"city": "ENTERPRISE", "state": "MS", "street": "77 OLD MILL CREEK RD", "postcode": "39330"}}},
{"geometry": {"type": "Point", "coordinates": [-89.0269942187, 32.3187091049]}, "type": "Feature", "properties": {"collection_times": [{"days": "Mon-Fri", "time": "4:00pm"}, {"days": "Sat", "time": "8:15am"}, {"days": "Sun", "time": "Closed"}], "id": "3933200000", "name": "USPS COLLECTION BOX - BLUE BOX", "address": {"city": "HICKORY", "state": "MS", "street": "7464 HIGHWAY 503", "postcode": "39332"}}},
{"geometry": {"type": "Point", "coordinates": [-89.0269942187, 32.3187091049]}, "type": "Feature", "properties": {"collection_times": [{"days": "Mon-Fri", "time": "3:00pm"}, {"days": "Sat", "time": "8:15am"}, {"days": "Sun", "time": "Closed"}], "id": "3933200001", "name": "USPS COLLECTION BOX - PO LOBBY", "address": {"city": "HICKORY", "state": "MS", "street": "7464 HIGHWAY 503", "postcode": "39332"}}},
{"geometry": {"type": "Point", "coordinates": [-88.5126042815, 32.5242277222]}, "type": "Feature", "properties": {"collection_times": [{"days": "Mon-Fri", "time": "4:00pm"}, {"days": "Sat", "time": "9:30am"}, {"days": "Sun", "time": "Closed"}], "id": "3933500000", "name": "USPS COLLECTION BOX - BLUE BOX", "address": {"city": "LAUDERDALE", "state": "MS", "street": "9779 OLD HIGHWAY 45 N", "postcode": "39335"}}},
{"geometry": {"type": "Point", "coordinates": [-89.2886892078, 32.2621737124]}, "type": "Feature", "properties": {"collection_times": [{"days": "Mon-Fri", "time": "3:30pm"}, {"days": "Sat", "time": "9:30am"}, {"days": "Sun", "time": "Closed"}], "id": "3933600000", "name": "USPS COLLECTION BOX - BLUE BOX", "address": {"city": "LAWRENCE", "state": "MS", "street": "5444 HIGHWAY 80", "postcode": "39336"}}},
{"geometry": {"type": "Point", "coordinates": [-89.2886892078, 32.2621737124]}, "type": "Feature", "properties": {"collection_times": [{"days": "Mon-Fri", "time": "11:15am"}, {"days": "Sat", "time": "9:30am"}, {"days": "Sun", "time": "Closed"}], "id": "3933600001", "name": "USPS COLLECTION BOX - PO LOBBY", "address": {"city": "LAWRENCE", "state": "MS", "street": "5444 HIGHWAY 80", "postcode": "39336"}}},
{"geometry": {"type": "Point", "coordinates": [-88.9808988674, 32.5025705365]}, "type": "Feature", "properties": {"collection_times": [{"days": "Mon-Fri", "time": "4:15pm"}, {"days": "Sat", "time": "10:45am"}, {"days": "Sun", "time": "Closed"}], "id": "3933700000", "name": "USPS COLLECTION BOX - BLUE BOX", "address": {"city": "LITTLE ROCK", "state": "MS", "street": "45 LITTLE ROCK COUNTY LINE RD", "postcode": "39337"}}},
{"geometry": {"type": "Point", "coordinates": [-89.2175661308, 32.1271465672]}, "type": "Feature", "properties": {"collection_times": [{"days": "Mon-Fri", "time": "3:45pm"}, {"days": "Sat", "time": "9:45am"}, {"days": "Sun", "time": "Closed"}], "id": "3933800000", "name": "USPS COLLECTION BOX - BLUE BOX", "address": {"city": "LOUIN", "state": "MS", "street": "HWY 15 S", "postcode": "39338"}}},
{"geometry": {"type": "Point", "coordinates": [-89.2175661308, 32.1271465672]}, "type": "Feature", "properties": {"collection_times": [{"days": "Mon-Fri", "time": "3:30pm"}, {"days": "Sat", "time": "9:45am"}, {"days": "Sun", "time": "Closed"}], "id": "3933800001", "name": "USPS COLLECTION BOX - PO LOBBY", "address": {"city": "LOUIN", "state": "MS", "street": "HWY 15 S", "postcode": "39338"}}},
{"geometry": {"type": "Point", "coordinates": [-89.053213355, 33.123581572]}, "type": "Feature", "properties": {"collection_times": [{"days": "Mon-Sat", "time": "4:30pm"}, {"days": "Sun", "time": "Closed"}], "id": "3933900004", "name": "USPS COLLECTION BOX - PO LOBBY", "address": {"city": "LOUISVILLE", "state": "MS", "street": "101 E MAIN ST", "postcode": "39339"}}},
{"geometry": {"type": "Point", "coordinates": [-89.053213355, 33.123581572]}, "type": "Feature", "properties": {"collection_times": [{"days": "Mon-Sat", "time": "4:30pm"}, {"days": "Sun", "time": "Closed"}], "id": "3933900005", "name": "USPS COLLECTION BOX - BLUE BOX", "address": {"city": "LOUISVILLE", "state": "MS", "street": "101 E MAIN ST", "postcode": "39339"}}},
{"geometry": {"type": "Point", "coordinates": [-89.053213355, 33.123581572]}, "type": "Feature", "properties": {"collection_times": [{"days": "Mon-Sat", "time": "4:30pm"}, {"days": "Sun", "time": "Closed"}], "id": "3933900006", "name": "USPS COLLECTION BOX - PO LOBBY", "address": {"city": "LOUISVILLE", "state": "MS", "street": "101 E MAIN ST", "postcode": "39339"}}},
{"geometry": {"type": "Point", "coordinates": [-88.560148911, 33.1152288397]}, "type": "Feature", "properties": {"collection_times": [{"days": "Mon-Fri", "time": "4:15pm"}, {"days": "Sat", "time": "11:20am"}, {"days": "Sun", "time": "Closed"}], "id": "3934100002", "name": "USPS COLLECTION BOX - BLUE BOX", "address": {"city": "MACON", "state": "MS", "street": "201 JEFFERSON ST", "postcode": "39341"}}},
{"geometry": {"type": "Point", "coordinates": [-88.560148911, 33.1152288397]}, "type": "Feature", "properties": {"collection_times": [{"days": "Mon-Fri", "time": "4:15pm"}, {"days": "Sat", "time": "10:45am"}, {"days": "Sun", "time": "Closed"}], "id": "3934100004", "name": "USPS COLLECTION BOX - PO LOBBY", "address": {"city": "MACON", "state": "MS", "street": "201 JEFFERSON ST", "postcode": "39341"}}},
{"geometry": {"type": "Point", "coordinates": [-88.6503756006, 32.4210438477]}, "type": "Feature", "properties": {"collection_times": [{"days": "Mon-Fri", "time": "4:15pm"}, {"days": "Sat", "time": "10:15am"}, {"days": "Sun", "time": "Closed"}], "id": "3934200000", "name": "USPS COLLECTION BOX - BLUE BOX", "address": {"city": "MARION", "state": "MS", "street": "5744 DALE DR", "postcode": "39342"}}},
{"geometry": {"type": "Point", "coordinates": [-88.6503756006, 32.4210438477]}, "type": "Feature", "properties": {"collection_times": [{"days": "Mon-Fri", "time": "4:15pm"}, {"days": "Sat", "time": "10:15am"}, {"days": "Sun", "time": "Closed"}], "id": "3934200001", "name": "USPS COLLECTION BOX - PO LOBBY", "address": {"city": "MARION", "state": "MS", "street": "5744 DALE DR", "postcode": "39342"}}},
{"geometry": {"type": "Point", "coordinates": [-89.1629276764, 32.3216470406]}, "type": "Feature", "properties": {"collection_times": [{"days": "Mon-Fri", "time": "4:40pm"}, {"days": "Sat", "time": "10:30am"}, {"days": "Sun", "time": "Closed"}], "id": "3934500005", "name": "USPS COLLECTION BOX - PO LOBBY", "address": {"city": "NEWTON", "state": "MS", "street": "111 E CHURCH ST", "postcode": "39345"}}},
{"geometry": {"type": "Point", "coordinates": [-89.1618254418, 32.3214089846]}, "type": "Feature", "properties": {"collection_times": [{"days": "Mon-Fri", "time": "4:30pm"}, {"days": "Sat", "time": "10:00am"}, {"days": "Sun", "time": "Closed"}], "id": "3934500006", "name": "USPS COLLECTION BOX - BLUE BOX", "address": {"city": "NEWTON", "state": "MS", "street": "201 E CHURCH ST", "postcode": "39345"}}},
{"geometry": {"type": "Point", "coordinates": [-89.0652093513, 32.9804896288]}, "type": "Feature", "properties": {"collection_times": [{"days": "Mon-Fri", "time": "4:00pm"}, {"days": "Sat", "time": "10:30am"}, {"days": "Sun", "time": "Closed"}], "id": "3934600000", "name": "USPS COLLECTION BOX - PO LOBBY", "address": {"city": "NOXAPATER", "state": "MS", "street": "9530 KILPATRICK ST", "postcode": "39346"}}},
{"geometry": {"type": "Point", "coordinates": [-89.0652093513, 32.9804896288]}, "type": "Feature", "properties": {"collection_times": [{"days": "Mon-Fri", "time": "4:00pm"}, {"days": "Sat", "time": "10:30am"}, {"days": "Sun", "time": "Closed"}], "id": "3934600001", "name": "USPS COLLECTION BOX - BLUE BOX", "address": {"city": "NOXAPATER", "state": "MS", "street": "9530 KILPATRICK ST", "postcode": "39346"}}},
{"geometry": {"type": "Point", "coordinates": [-88.8947566721, 32.030297336]}, "type": "Feature", "properties": {"collection_times": [{"days": "Mon-Fri", "time": "4:00pm"}, {"days": "Sat", "time": "10:00am"}, {"days": "Sun", "time": "Closed"}], "id": "3934700000", "name": "USPS COLLECTION BOX - BLUE BOX", "address": {"city": "PACHUTA", "state": "MS", "street": "201 E MAIN ST", "postcode": "39347"}}},
{"geometry": {"type": "Point", "coordinates": [-88.8947566721, 32.030297336]}, "type": "Feature", "properties": {"collection_times": [{"days": "Mon-Fri", "time": "11:50am"}, {"days": "Sat", "time": "10:00am"}, {"days": "Sun", "time": "Closed"}], "id": "3934700001", "name": "USPS COLLECTION BOX - PO LOBBY", "address": {"city": "PACHUTA", "state": "MS", "street": "201 E MAIN ST", "postcode": "39347"}}},
{"geometry": {"type": "Point", "coordinates": [-89.0360044721, 32.0311317325]}, "type": "Feature", "properties": {"collection_times": [{"days": "Mon-Fri", "time": "1:00pm"}, {"days": "Sat", "time": "10:30am"}, {"days": "Sun", "time": "Closed"}], "id": "3934800000", "name": "USPS COLLECTION BOX - BLUE BOX", "address": {"city": "PAULDING", "state": "MS", "street": "1783 HIGHWAY 503", "postcode": "39348"}}},
{"geometry": {"type": "Point", "coordinates": [-89.0360044721, 32.0311317325]}, "type": "Feature", "properties": {"collection_times": [{"days": "Mon-Fri", "time": "1:00pm"}, {"days": "Sat-Sun", "time": "Closed"}], "id": "3934800001", "name": "USPS COLLECTION BOX - PO LOBBY", "address": {"city": "PAULDING", "state": "MS", "street": "1783 HIGHWAY 503", "postcode": "39348"}}},
{"geometry": {"type": "Point", "coordinates": [-89.1090850075, 32.7710189869]}, "type": "Feature", "properties": {"collection_times": [{"days": "Mon-Fri", "time": "11:00am"}, {"days": "Sat-Sun", "time": "Closed"}], "id": "3935000001", "name": "USPS COLLECTION BOX - BLUE BOX", "address": {"city": "PHILADELPHIA", "state": "MS", "street": "523 W MAIN ST", "postcode": "39350"}}},
{"geometry": {"type": "Point", "coordinates": [-89.1090850075, 32.7710189869]}, "type": "Feature", "properties": {"collection_times": [{"days": "Mon-Fri", "time": "11:00am"}, {"days": "Sat-Sun", "time": "Closed"}], "id": "3935000002", "name": "USPS COLLECTION BOX - BLUE BOX", "address": {"city": "PHILADELPHIA", "state": "MS", "street": "523 W MAIN ST", "postcode": "39350"}}},
{"geometry": {"type": "Point", "coordinates": [-89.1028002777, 32.756271027]}, "type": "Feature", "properties": {"collection_times": [{"days": "Mon-Fri", "time": "4:45pm"}, {"days": "Sat", "time": "4:00pm"}, {"days": "Sun", "time": "Closed"}], "id": "3935000003", "name": "USPS COLLECTION BOX - BLUE BOX", "address": {"city": "PHILADELPHIA", "state": "MS", "street": "1 GOVERNMENT ST", "postcode": "39350"}}},
{"geometry": {"type": "Point", "coordinates": [-89.1028002777, 32.756271027]}, "type": "Feature", "properties": {"collection_times": [{"days": "Mon-Fri", "time": "4:45pm"}, {"days": "Sat", "time": "4:00pm"}, {"days": "Sun", "time": "Closed"}], "id": "3935000004", "name": "USPS COLLECTION BOX - BLUE BOX", "address": {"city": "PHILADELPHIA", "state": "MS", "street": "1 GOVERNMENT ST", "postcode": "39350"}}},
{"geometry": {"type": "Point", "coordinates": [-89.1098494651, 32.7716341272]}, "type": "Feature", "properties": {"collection_times": [{"days": "Mon-Fri", "time": "10:00am"}, {"days": "Sat-Sun", "time": "Closed"}], "id": "3935000006", "name": "USPS COLLECTION BOX - BLUE BOX", "address": {"city": "PHILADELPHIA", "state": "MS", "street": "422 E BEACON ST", "postcode": "39350"}}},
{"geometry": {"type": "Point", "coordinates": [-89.0994336957, 32.7709210888]}, "type": "Feature", "properties": {"collection_times": [{"days": "Mon-Fri", "time": "8:00am"}, {"days": "Sat-Sun", "time": "Closed"}], "id": "3935000007", "name": "USPS COLLECTION BOX - BLUE BOX", "address": {"city": "PHILADELPHIA", "state": "MS", "street": "584 E MAIN ST", "postcode": "39350"}}},
{"geometry": {"type": "Point", "coordinates": [-89.1028002777, 32.756271027]}, "type": "Feature", "properties": {"collection_times": [{"days": "Mon-Fri", "time": "4:45pm"}, {"days": "Sat", "time": "4:00pm"}, {"days": "Sun", "time": "Closed"}], "id": "3935000011", "name": "USPS COLLECTION BOX - PO LOBBY", "address": {"city": "PHILADELPHIA", "state": "MS", "street": "1 GOVERNMENT ST", "postcode": "39350"}}},
{"geometry": {"type": "Point", "coordinates": [-89.1028002777, 32.756271027]}, "type": "Feature", "properties": {"collection_times": [{"days": "Mon-Fri", "time": "4:45pm"}, {"days": "Sat", "time": "4:00pm"}, {"days": "Sun", "time": "Closed"}], "id": "3935000012", "name": "USPS COLLECTION BOX - PO LOBBY", "address": {"city": "PHILADELPHIA", "state": "MS", "street": "1 GOVERNMENT ST", "postcode": "39350"}}},
{"geometry": {"type": "Point", "coordinates": [-89.1252263219, 32.7705801848]}, "type": "Feature", "properties": {"collection_times": [{"days": "Mon-Fri", "time": "8:00am"}, {"days": "Sat-Sun", "time": "Closed"}], "id": "3935000016", "name": "USPS COLLECTION BOX - BLUE BOX", "address": {"city": "PHILADELPHIA", "state": "MS", "street": "394 MAIN ST", "postcode": "39350"}}},
{"geometry": {"type": "Point", "coordinates": [-89.1113619982, 32.7806390823]}, "type": "Feature", "properties": {"collection_times": [{"days": "Mon-Fri", "time": "11:00am"}, {"days": "Sat-Sun", "time": "Closed"}], "id": "3935000017", "name": "USPS COLLECTION BOX - BLUE BOX", "address": {"city": "PHILADELPHIA", "state": "MS", "street": "714 PECAN AVE", "postcode": "39350"}}},
{"geometry": {"type": "Point", "coordinates": [-89.116987339, 32.7522948143]}, "type": "Feature", "properties": {"collection_times": [{"days": "Mon-Fri", "time": "8:00am"}, {"days": "Sat-Sun", "time": "Closed"}], "id": "3935000019", "name": "USPS COLLECTION BOX - BLUE BOX", "address": {"city": "PHILADELPHIA", "state": "MS", "street": "200 CANAL PL", "postcode": "39350"}}},
{"geometry": {"type": "Point", "coordinates": [-89.0925650023, 32.7706735517]}, "type": "Feature", "properties": {"collection_times": [{"days": "Mon-Fri", "time": "8:30am"}, {"days": "Sat-Sun", "time": "Closed"}], "id": "3935000020", "name": "USPS COLLECTION BOX - BLUE BOX", "address": {"city": "PHILADELPHIA", "state": "MS", "street": "1120 E MAIN ST", "postcode": "39350"}}},
{"geometry": {"type": "Point", "coordinates": [-88.4811732588, 32.6635696318]}, "type": "Feature", "properties": {"collection_times": [{"days": "Mon-Fri", "time": "3:45pm"}, {"days": "Sat", "time": "8:15am"}, {"days": "Sun", "time": "Closed"}], "id": "3935200000", "name": "USPS COLLECTION BOX - BLUE BOX", "address": {"city": "PORTERVILLE", "state": "MS", "street": "54 PORTERVILLE RD", "postcode": "39352"}}},
{"geometry": {"type": "Point", "coordinates": [-88.4811732588, 32.6635696318]}, "type": "Feature", "properties": {"collection_times": [{"days": "Mon-Fri", "time": "9:30am"}, {"days": "Sat", "time": "8:15am"}, {"days": "Sun", "time": "Closed"}], "id": "3935200001", "name": "USPS COLLECTION BOX - PO LOBBY", "address": {"city": "PORTERVILLE", "state": "MS", "street": "54 PORTERVILLE RD", "postcode": "39352"}}},
{"geometry": {"type": "Point", "coordinates": [-88.8096814863, 32.8606609287]}, "type": "Feature", "properties": {"collection_times": [{"days": "Mon-Fri", "time": "3:30pm"}, {"days": "Sat", "time": "11:00am"}, {"days": "Sun", "time": "Closed"}], "id": "3935400000", "name": "USPS COLLECTION BOX - BLUE BOX", "address": {"city": "PRESTON", "state": "MS", "street": "10816 HIGHWAY 397", "postcode": "39354"}}},
{"geometry": {"type": "Point", "coordinates": [-88.8096814863, 32.8606609287]}, "type": "Feature", "properties": {"collection_times": [{"days": "Mon-Fri", "time": "11:30am"}, {"days": "Sat", "time": "11:00am"}, {"days": "Sun", "time": "Closed"}], "id": "3935400001", "name": "USPS COLLECTION BOX - PO LOBBY", "address": {"city": "PRESTON", "state": "MS", "street": "10816 HIGHWAY 397", "postcode": "39354"}}},
{"geometry": {"type": "Point", "coordinates": [-88.7279732588, 32.0401774677]}, "type": "Feature", "properties": {"collection_times": [{"days": "Mon-Fri", "time": "4:40pm"}, {"days": "Sat", "time": "10:25am"}, {"days": "Sun", "time": "Closed"}], "id": "3935500001", "name": "USPS COLLECTION BOX - BLUE BOX", "address": {"city": "QUITMAN", "state": "MS", "street": "103 S ARCHUSA AVE", "postcode": "39355"}}},
{"geometry": {"type": "Point", "coordinates": [-88.7279732588, 32.0401774677]}, "type": "Feature", "properties": {"collection_times": [{"days": "Mon-Fri", "time": "4:50pm"}, {"days": "Sat", "time": "10:25am"}, {"days": "Sun", "time": "Closed"}], "id": "3935500003", "name": "USPS COLLECTION BOX - PO LOBBY", "address": {"city": "QUITMAN", "state": "MS", "street": "103 S ARCHUSA AVE", "postcode": "39355"}}},
{"geometry": {"type": "Point", "coordinates": [-89.0252472507, 32.1378038756]}, "type": "Feature", "properties": {"collection_times": [{"days": "Mon-Fri", "time": "4:00pm"}, {"days": "Sat", "time": "8:30am"}, {"days": "Sun", "time": "Closed"}], "id": "3935600000", "name": "USPS COLLECTION BOX - BLUE BOX", "address": {"city": "ROSE HILL", "state": "MS", "street": "HWY 18", "postcode": "39356"}}},
{"geometry": {"type": "Point", "coordinates": [-88.4750757394, 32.8310018893]}, "type": "Feature", "properties": {"collection_times": [{"days": "Mon-Fri", "time": "3:45pm"}, {"days": "Sat", "time": "10:15am"}, {"days": "Sun", "time": "Closed"}], "id": "3935800000", "name": "USPS COLLECTION BOX - BLUE BOX", "address": {"city": "SCOOBA", "state": "MS", "street": "868 KEMPER ST", "postcode": "39358"}}},
{"geometry": {"type": "Point", "coordinates": [-88.5163618412, 32.8406235977]}, "type": "Feature", "properties": {"collection_times": [{"days": "Mon-Fri", "time": "2:30pm"}, {"days": "Sat", "time": "10:15am"}, {"days": "Sun", "time": "Closed"}], "id": "3935800001", "name": "USPS COLLECTION BOX - PO LOBBY", "address": {"city": "SCOOBA", "state": "MS", "street": "868 KEMPER ST", "postcode": "39358"}}},
{"geometry": {"type": "Point", "coordinates": [-89.3410544947, 32.5676559033]}, "type": "Feature", "properties": {"collection_times": [{"days": "Mon-Fri", "time": "2:50pm"}, {"days": "Sat", "time": "9:50am"}, {"days": "Sun", "time": "Closed"}], "id": "3935900001", "name": "USPS COLLECTION BOX - PO LOBBY", "address": {"city": "SEBASTOPOL", "state": "MS", "street": "16811 HIGHWAY 21 N", "postcode": "39359"}}},
{"geometry": {"type": "Point", "coordinates": [-89.3410544947, 32.5676559033]}, "type": "Feature", "properties": {"collection_times": [{"days": "Mon-Fri", "time": "3:50pm"}, {"days": "Sat", "time": "9:50am"}, {"days": "Sun", "time": "Closed"}], "id": "3935900002", "name": "USPS COLLECTION BOX - BLUE BOX", "address": {"city": "SEBASTOPOL", "state": "MS", "street": "16811 HIGHWAY 21 N", "postcode": "39359"}}},
{"geometry": {"type": "Point", "coordinates": [-88.699356069, 31.8592836199]}, "type": "Feature", "properties": {"collection_times": [{"days": "Mon-Fri", "time": "3:30pm"}, {"days": "Sat", "time": "10:00am"}, {"days": "Sun", "time": "Closed"}], "id": "3936000000", "name": "USPS COLLECTION BOX - BLUE BOX", "address": {"city": "SHUBUTA", "state": "MS", "street": "160 S HIGH ST", "postcode": "39360"}}},
{"geometry": {"type": "Point", "coordinates": [-88.695464421, 31.8540841314]}, "type": "Feature", "properties": {"collection_times": [{"days": "Mon-Fri", "time": "2:30pm"}, {"days": "Sat", "time": "10:00am"}, {"days": "Sun", "time": "Closed"}], "id": "3936000001", "name": "USPS COLLECTION BOX - PO LOBBY", "address": {"city": "SHUBUTA", "state": "MS", "street": "160 S HIGH ST", "postcode": "39360"}}},
{"geometry": {"type": "Point", "coordinates": [-88.5664277608, 32.9792463319]}, "type": "Feature", "properties": {"collection_times": [{"days": "Mon-Fri", "time": "3:45pm"}, {"days": "Sat", "time": "10:00am"}, {"days": "Sun", "time": "Closed"}], "id": "3936100000", "name": "USPS COLLECTION BOX - BLUE BOX", "address": {"city": "SHUQUALAK", "state": "MS", "street": "135 PINE ST", "postcode": "39361"}}},
{"geometry": {"type": "Point", "coordinates": [-88.4753845845, 31.4376766639]}, "type": "Feature", "properties": {"collection_times": [{"days": "Mon-Fri", "time": "4:05pm"}, {"days": "Sat", "time": "10:35am"}, {"days": "Sun", "time": "Closed"}], "id": "3936200000", "name": "USPS COLLECTION BOX - BLUE BOX", "address": {"city": "STATE LINE", "state": "MS", "street": "240 MAIN ST", "postcode": "39362"}}},
{"geometry": {"type": "Point", "coordinates": [-88.4776869519, 31.442094874]}, "type": "Feature", "properties": {"collection_times": [{"days": "Mon-Fri", "time": "3:00pm"}, {"days": "Sat", "time": "10:35am"}, {"days": "Sun", "time": "Closed"}], "id": "3936200001", "name": "USPS COLLECTION BOX - PO LOBBY", "address": {"city": "STATE LINE", "state": "MS", "street": "240 MAIN ST", "postcode": "39362"}}},
{"geometry": {"type": "Point", "coordinates": [-88.7831957931, 32.1338346411]}, "type": "Feature", "properties": {"collection_times": [{"days": "Mon-Fri", "time": "4:00pm"}, {"days": "Sat", "time": "10:30am"}, {"days": "Sun", "time": "Closed"}], "id": "3936300000", "name": "USPS COLLECTION BOX - BLUE BOX", "address": {"city": "STONEWALL", "state": "MS", "street": "748 ERWIN RD", "postcode": "39363"}}},
{"geometry": {"type": "Point", "coordinates": [-88.7831957931, 32.1338346411]}, "type": "Feature", "properties": {"collection_times": [{"days": "Mon-Fri", "time": "3:30pm"}, {"days": "Sat", "time": "10:30am"}, {"days": "Sun", "time": "Closed"}], "id": "3936300002", "name": "USPS COLLECTION BOX - PO LOBBY", "address": {"city": "STONEWALL", "state": "MS", "street": "748 ERWIN RD", "postcode": "39363"}}},
{"geometry": {"type": "Point", "coordinates": [-88.5058699336, 32.4172336599]}, "type": "Feature", "properties": {"collection_times": [{"days": "Mon-Fri", "time": "4:15pm"}, {"days": "Sat", "time": "10:00am"}, {"days": "Sun", "time": "Closed"}], "id": "3936400000", "name": "USPS COLLECTION BOX - BLUE BOX", "address": {"city": "TOOMSUBA", "state": "MS", "street": "3936 MELVIN SWAIN RD", "postcode": "39364"}}},
{"geometry": {"type": "Point", "coordinates": [-88.5058699336, 32.4172336599]}, "type": "Feature", "properties": {"collection_times": [{"days": "Mon-Fri", "time": "2:45pm"}, {"days": "Sat", "time": "10:00am"}, {"days": "Sun", "time": "Closed"}], "id": "3936400001", "name": "USPS COLLECTION BOX - PO LOBBY", "address": {"city": "TOOMSUBA", "state": "MS", "street": "3936 MELVIN SWAIN RD", "postcode": "39364"}}},
{"geometry": {"type": "Point", "coordinates": [-89.1216575537, 32.5715340318]}, "type": "Feature", "properties": {"collection_times": [{"days": "Mon-Fri", "time": "4:30pm"}, {"days": "Sat", "time": "10:30am"}, {"days": "Sun", "time": "Closed"}], "id": "3936500003", "name": "USPS COLLECTION BOX - BLUE BOX", "address": {"city": "UNION", "state": "MS", "street": "501 BANK ST", "postcode": "39365"}}},
{"geometry": {"type": "Point", "coordinates": [-89.1216575537, 32.5715340318]}, "type": "Feature", "properties": {"collection_times": [{"days": "Mon-Fri", "time": "4:30pm"}, {"days": "Sat", "time": "10:30am"}, {"days": "Sun", "time": "Closed"}], "id": "3936500007", "name": "USPS COLLECTION BOX - PO LOBBY", "address": {"city": "UNION", "state": "MS", "street": "501 BANK ST", "postcode": "39365"}}},
{"geometry": {"type": "Point", "coordinates": [-89.1216575537, 32.5715340318]}, "type": "Feature", "properties": {"collection_times": [{"days": "Mon-Fri", "time": "4:30pm"}, {"days": "Sat", "time": "10:30am"}, {"days": "Sun", "time": "Closed"}], "id": "3936500008", "name": "USPS COLLECTION BOX - PO LOBBY", "address": {"city": "UNION", "state": "MS", "street": "501 BANK ST", "postcode": "39365"}}},
{"geometry": {"type": "Point", "coordinates": [-88.9580270702, 31.9691780064]}, "type": "Feature", "properties": {"collection_times": [{"days": "Mon-Fri", "time": "3:45pm"}, {"days": "Sat", "time": "8:45am"}, {"days": "Sun", "time": "Closed"}], "id": "3936600000", "name": "USPS COLLECTION BOX - BLUE BOX", "address": {"city": "VOSSBURG", "state": "MS", "street": "FRONT OF POST OFFICE-VOSSBURG RD", "postcode": "39366"}}},
{"geometry": {"type": "Point", "coordinates": [-88.6479525204, 31.6738147516]}, "type": "Feature", "properties": {"collection_times": [{"days": "Mon-Fri", "time": "4:45pm"}, {"days": "Sat", "time": "10:45am"}, {"days": "Sun", "time": "Closed"}], "id": "3936700004", "name": "USPS COLLECTION BOX - BLUE BOX", "address": {"city": "WAYNESBORO", "state": "MS", "street": "704 AZALEA DR", "postcode": "39367"}}},
{"geometry": {"type": "Point", "coordinates": [-88.6479525204, 31.6738147516]}, "type": "Feature", "properties": {"collection_times": [{"days": "Mon-Fri", "time": "4:45pm"}, {"days": "Sat", "time": "10:45am"}, {"days": "Sun", "time": "Closed"}], "id": "3936700005", "name": "USPS COLLECTION BOX - PO LOBBY", "address": {"city": "WAYNESBORO", "state": "MS", "street": "704 AZALEA DR", "postcode": "39367"}}}
]}
