{"type": "FeatureCollection", "features": [
{"geometry": {"type": "Point", "coordinates": [-89.2992881626, 31.3247080807]}, "type": "Feature", "properties": {"collection_times": [{"days": "Mon-Fri", "time": "2:15pm"}, {"days": "Sat-Sun", "time": "Closed"}], "id": "3940100018", "name": "USPS COLLECTION BOX - BLUE BOX", "address": {"city": "HATTIESBURG", "state": "MS", "street": "700 HARDY ST", "postcode": "39401"}}},
{"geometry": {"type": "Point", "coordinates": [-89.3289251588, 31.3399509107]}, "type": "Feature", "properties": {"collection_times": [{"days": "Mon-Fri", "time": "2:15pm"}, {"days": "Sat-Sun", "time": "Closed"}], "id": "3940100021", "name": "USPS COLLECTION BOX - BLUE BOX", "address": {"city": "HATTIESBURG", "state": "MS", "street": "6388 US HIGHWAY 49", "postcode": "39401"}}},
{"geometry": {"type": "Point", "coordinates": [-89.3437831983, 31.3542996247]}, "type": "Feature", "properties": {"collection_times": [{"days": "Mon-Fri", "time": "2:15pm"}, {"days": "Sat-Sun", "time": "Closed"}], "id": "3940100024", "name": "USPS COLLECTION BOX - BLUE BOX", "address": {"city": "HATTIESBURG", "state": "MS", "street": "6635 US HIGHWAY 49", "postcode": "39401"}}},
{"geometry": {"type": "Point", "coordinates": [-89.2928762663, 31.3247085455]}, "type": "Feature", "properties": {"collection_times": [{"days": "Mon-Fri", "time": "2:15pm"}, {"days": "Sat-Sun", "time": "Closed"}], "id": "3940100029", "name": "USPS COLLECTION BOX - BLUE BOX", "address": {"city": "HATTIESBURG", "state": "MS", "street": "100 HARDY ST", "postcode": "39401"}}},
{"geometry": {"type": "Point", "coordinates": [-89.2903366737, 31.3271143406]}, "type": "Feature", "properties": {"collection_times": [{"days": "Mon-Fri", "time": "2:15pm"}, {"days": "Sat-Sun", "time": "Closed"}], "id": "3940100031", "name": "USPS COLLECTION BOX - BLUE BOX", "address": {"city": "HATTIESBURG", "state": "MS", "street": "100 E PINE ST", "postcode": "39401"}}},
{"geometry": {"type": "Point", "coordinates": [-89.2921990311, 31.3279858705]}, "type": "Feature", "properties": {"collection_times": [{"days": "Mon-Fri", "time": "2:15pm"}, {"days": "Sat-Sun", "time": "Closed"}], "id": "3940100035", "name": "USPS COLLECTION BOX - BLUE BOX", "address": {"city": "HATTIESBURG", "state": "MS", "street": "701 N MAIN ST", "postcode": "39401"}}},
{"geometry": {"type": "Point", "coordinates": [-89.3210466948, 31.3117534977]}, "type": "Feature", "properties": {"collection_times": [{"days": "Mon-Fri", "time": "2:15pm"}, {"days": "Sat-Sun", "time": "Closed"}], "id": "3940100044", "name": "USPS COLLECTION BOX - BLUE BOX", "address": {"city": "HATTIESBURG", "state": "MS", "street": "5912 US HIGHWAY 49", "postcode": "39401"}}},
{"geometry": {"type": "Point", "coordinates": [-89.3047893261, 31.3082101988]}, "type": "Feature", "properties": {"collection_times": [{"days": "Mon-Fri", "time": "2:15pm"}, {"days": "Sat-Sun", "time": "Closed"}], "id": "3940100047", "name": "USPS COLLECTION BOX - BLUE BOX", "address": {"city": "HATTIESBURG", "state": "MS", "street": "5912 U S HIGHWAY 49", "postcode": "39401"}}},
{"geometry": {"type": "Point", "coordinates": [-89.2905076578, 31.3269673873]}, "type": "Feature", "properties": {"collection_times": [{"days": "Mon-Fri", "time": "4:00pm"}, {"days": "Sat", "time": "3:30pm"}, {"days": "Sun", "time": "Closed"}], "id": "3940100060", "name": "USPS COLLECTION BOX - PO LOBBY", "address": {"city": "HATTIESBURG", "state": "MS", "street": "115 W PINE ST", "postcode": "39401"}}},
{"geometry": {"type": "Point", "coordinates": [-89.2905076578, 31.3269673873]}, "type": "Feature", "properties": {"collection_times": [{"days": "Mon-Fri", "time": "4:00pm"}, {"days": "Sat", "time": "3:30pm"}, {"days": "Sun", "time": "Closed"}], "id": "3940100061", "name": "USPS COLLECTION BOX - PO LOBBY", "address": {"city": "HATTIESBURG", "state": "MS", "street": "115 W PINE ST", "postcode": "39401"}}},
{"geometry": {"type": "Point", "coordinates": [-89.3267888516, 31.3169915247]}, "type": "Feature", "properties": {"collection_times": [{"days": "Mon-Fri", "time": "2:15pm"}, {"days": "Sat-Sun", "time": "Closed"}], "id": "3940100062", "name": "USPS COLLECTION BOX - BLUE BOX", "address": {"city": "HATTIESBURG", "state": "MS", "street": "6071 US HIGHWAY 49", "postcode": "39401"}}},
{"geometry": {"type": "Point", "coordinates": [-89.319251384, 31.3246585901]}, "type": "Feature", "properties": {"collection_times": [{"days": "Mon-Fri", "time": "2:15pm"}, {"days": "Sat-Sun", "time": "Closed"}], "id": "3940100067", "name": "USPS COLLECTION BOX - BLUE BOX", "address": {"city": "HATTIESBURG", "state": "MS", "street": "1900 HARDY ST", "postcode": "39401"}}},
{"geometry": {"type": "Point", "coordinates": [-89.3437703369, 31.3248285891]}, "type": "Feature", "properties": {"collection_times": [{"days": "Mon-Fri", "time": "3:00pm"}, {"days": "Sat-Sun", "time": "Closed"}], "id": "3940200000", "name": "USPS COLLECTION BOX - BLUE BOX", "address": {"city": "HATTIESBURG", "state": "MS", "street": "3700 HARDY ST", "postcode": "39402"}}},
{"geometry": {"type": "Point", "coordinates": [-89.3478104153, 31.3227668046]}, "type": "Feature", "properties": {"collection_times": [{"days": "Mon-Fri", "time": "6:00pm"}, {"days": "Sat", "time": "4:00pm"}, {"days": "Sun", "time": "Closed"}], "id": "3940200003", "name": "USPS COLLECTION BOX - BLUE BOX", "address": {"city": "HATTIESBURG", "state": "MS", "street": "220 S 40TH AVE", "postcode": "39402"}}},
{"geometry": {"type": "Point", "coordinates": [-89.347848018, 31.3217512724]}, "type": "Feature", "properties": {"collection_times": [{"days": "Mon-Fri", "time": "6:00pm"}, {"days": "Sat", "time": "4:00pm"}, {"days": "Sun", "time": "Closed"}], "id": "3940200004", "name": "USPS COLLECTION BOX - BLUE BOX", "address": {"city": "HATTIESBURG", "state": "MS", "street": "220 S 40TH AVE", "postcode": "39402"}}},
{"geometry": {"type": "Point", "coordinates": [-89.4204897502, 31.3428348791]}, "type": "Feature", "properties": {"collection_times": [{"days": "Mon-Fri", "time": "3:00pm"}, {"days": "Sat-Sun", "time": "Closed"}], "id": "3940200009", "name": "USPS COLLECTION BOX - BLUE BOX", "address": {"city": "HATTIESBURG", "state": "MS", "street": "201 METHODIST BLVD", "postcode": "39402"}}},
{"geometry": {"type": "Point", "coordinates": [-89.4204897502, 31.3428348791]}, "type": "Feature", "properties": {"collection_times": [{"days": "Mon-Fri", "time": "3:00pm"}, {"days": "Sat-Sun", "time": "Closed"}], "id": "3940200010", "name": "USPS COLLECTION BOX - BLUE BOX", "address": {"city": "HATTIESBURG", "state": "MS", "street": "201 METHODIST BLVD", "postcode": "39402"}}},
{"geometry": {"type": "Point", "coordinates": [-89.3478104153, 31.3227668046]}, "type": "Feature", "properties": {"collection_times": [{"days": "Mon-Fri", "time": "6:00pm"}, {"days": "Sat", "time": "4:00pm"}, {"days": "Sun", "time": "Closed"}], "id": "3940200011", "name": "USPS COLLECTION BOX - PO LOBBY", "address": {"city": "HATTIESBURG", "state": "MS", "street": "220 S 40TH AVE", "postcode": "39402"}}},
{"geometry": {"type": "Point", "coordinates": [-89.3478104153, 31.3227668046]}, "type": "Feature", "properties": {"collection_times": [{"days": "Mon-Fri", "time": "6:00pm"}, {"days": "Sat", "time": "4:00pm"}, {"days": "Sun", "time": "Closed"}], "id": "3940200012", "name": "USPS COLLECTION BOX - PO LOBBY", "address": {"city": "HATTIESBURG", "state": "MS", "street": "220 S 40TH AVE", "postcode": "39402"}}},
{"geometry": {"type": "Point", "coordinates": [-89.3478104153, 31.3227668046]}, "type": "Feature", "properties": {"collection_times": [{"days": "Mon-Fri", "time": "6:00pm"}, {"days": "Sat", "time": "4:00pm"}, {"days": "Sun", "time": "Closed"}], "id": "3940200013", "name": "USPS COLLECTION BOX - PO LOBBY", "address": {"city": "HATTIESBURG", "state": "MS", "street": "220 S 40TH AVE", "postcode": "39402"}}},
{"geometry": {"type": "Point", "coordinates": [-89.4142550008, 31.3172701034]}, "type": "Feature", "properties": {"collection_times": [{"days": "Mon-Fri", "time": "12:00pm"}, {"days": "Sat-Sun", "time": "Closed"}], "id": "3940200015", "name": "USPS COLLECTION BOX - BLUE BOX", "address": {"city": "HATTIESBURG", "state": "MS", "street": "6480 US HIGHWAY 98", "postcode": "39402"}}},
{"geometry": {"type": "Point", "coordinates": [-89.3788266479, 31.321655857]}, "type": "Feature", "properties": {"collection_times": [{"days": "Mon-Fri", "time": "3:00pm"}, {"days": "Sat-Sun", "time": "Closed"}], "id": "3940200017", "name": "USPS COLLECTION BOX - BLUE BOX", "address": {"city": "HATTIESBURG", "state": "MS", "street": "6068 US HIGHWAY 98", "postcode": "39402"}}},
{"geometry": {"type": "Point", "coordinates": [-89.3478104153, 31.3227668046]}, "type": "Feature", "properties": {"collection_times": [{"days": "Mon-Fri", "time": "6:00pm"}, {"days": "Sat", "time": "4:00pm"}, {"days": "Sun", "time": "Closed"}], "id": "3940200021", "name": "USPS COLLECTION BOX - APC", "address": {"city": "HATTIESBURG", "state": "MS", "street": "220 S 40TH AVE", "postcode": "39402"}}},
{"geometry": {"type": "Point", "coordinates": [-89.4106684106, 31.3116703311]}, "type": "Feature", "properties": {"collection_times": [{"days": "Mon-Sat", "time": "10:00am"}, {"days": "Sun", "time": "Closed"}], "id": "3940200025", "name": "USPS COLLECTION BOX - BLUE BOX", "address": {"city": "HATTIESBURG", "state": "MS", "street": "5297 OLD HIGHWAY 11", "postcode": "39402"}}},
{"geometry": {"type": "Point", "coordinates": [-89.6899771475, 31.4864918725]}, "type": "Feature", "properties": {"collection_times": [{"days": "Mon-Fri", "time": "4:00pm"}, {"days": "Sat", "time": "11:00am"}, {"days": "Sun", "time": "Closed"}], "id": "3942100000", "name": "USPS COLLECTION BOX - BLUE BOX", "address": {"city": "BASSFIELD", "state": "MS", "street": "HAWKIN S AVE", "postcode": "39421"}}},
{"geometry": {"type": "Point", "coordinates": [-89.6899771475, 31.4864918725]}, "type": "Feature", "properties": {"collection_times": [{"days": "Mon-Fri", "time": "4:00pm"}, {"days": "Sat", "time": "11:00am"}, {"days": "Sun", "time": "Closed"}], "id": "3942100001", "name": "USPS COLLECTION BOX - PO LOBBY", "address": {"city": "BASSFIELD", "state": "MS", "street": "HAWKIN S AVE", "postcode": "39421"}}},
{"geometry": {"type": "Point", "coordinates": [-89.2126601602, 31.9515631138]}, "type": "Feature", "properties": {"collection_times": [{"days": "Mon-Fri", "time": "4:10pm"}, {"days": "Sat", "time": "11:15am"}, {"days": "Sun", "time": "Closed"}], "id": "3942200000", "name": "USPS COLLECTION BOX - BLUE BOX", "address": {"city": "BAY SPRINGS", "state": "MS", "street": "4TH AVE AVE", "postcode": "39422"}}},
{"geometry": {"type": "Point", "coordinates": [-89.2126601602, 31.9515631138]}, "type": "Feature", "properties": {"collection_times": [{"days": "Mon-Fri", "time": "4:20pm"}, {"days": "Sat", "time": "11:15am"}, {"days": "Sun", "time": "Closed"}], "id": "3942200001", "name": "USPS COLLECTION BOX - PO LOBBY", "address": {"city": "BAY SPRINGS", "state": "MS", "street": "4TH AVE AVE", "postcode": "39422"}}},
{"geometry": {"type": "Point", "coordinates": [-88.9231001859, 31.1712381349]}, "type": "Feature", "properties": {"collection_times": [{"days": "Mon-Fri", "time": "4:00pm"}, {"days": "Sat", "time": "11:00am"}, {"days": "Sun", "time": "Closed"}], "id": "3942300000", "name": "USPS COLLECTION BOX - BLUE BOX", "address": {"city": "BEAUMONT", "state": "MS", "street": "825 HIGHWAY 198", "postcode": "39423"}}},
{"geometry": {"type": "Point", "coordinates": [-88.8990673338, 31.1745286865]}, "type": "Feature", "properties": {"collection_times": [{"days": "Mon-Fri", "time": "3:30pm"}, {"days": "Sat", "time": "11:00am"}, {"days": "Sun", "time": "Closed"}], "id": "3942300001", "name": "USPS COLLECTION BOX - PO LOBBY", "address": {"city": "BEAUMONT", "state": "MS", "street": "825 HIGHWAY 198", "postcode": "39423"}}},
{"geometry": {"type": "Point", "coordinates": [-89.1927462758, 31.0574581543]}, "type": "Feature", "properties": {"collection_times": [{"days": "Mon-Fri", "time": "3:30pm"}, {"days": "Sat", "time": "11:45am"}, {"days": "Sun", "time": "Closed"}], "id": "3942500000", "name": "USPS COLLECTION BOX - BLUE BOX", "address": {"city": "BROOKLYN", "state": "MS", "street": "132 MAIN AVE", "postcode": "39425"}}},
{"geometry": {"type": "Point", "coordinates": [-89.6386812525, 30.6574446779]}, "type": "Feature", "properties": {"collection_times": [{"days": "Mon-Fri", "time": "4:00pm"}, {"days": "Sat", "time": "11:00am"}, {"days": "Sun", "time": "Closed"}], "id": "3942600000", "name": "USPS COLLECTION BOX - BLUE BOX", "address": {"city": "CARRIERE", "state": "MS", "street": "7390 HIGHWAY 11", "postcode": "39426"}}},
{"geometry": {"type": "Point", "coordinates": [-89.6386812525, 30.6574446779]}, "type": "Feature", "properties": {"collection_times": [{"days": "Mon-Fri", "time": "4:10pm"}, {"days": "Sat", "time": "11:00am"}, {"days": "Sun", "time": "Closed"}], "id": "3942600001", "name": "USPS COLLECTION BOX - PO LOBBY", "address": {"city": "CARRIERE", "state": "MS", "street": "7390 HIGHWAY 11", "postcode": "39426"}}},
{"geometry": {"type": "Point", "coordinates": [-89.7886123054, 31.5562254217]}, "type": "Feature", "properties": {"collection_times": [{"days": "Mon-Fri", "time": "3:55pm"}, {"days": "Sat", "time": "8:00am"}, {"days": "Sun", "time": "Closed"}], "id": "3942700000", "name": "USPS COLLECTION BOX - BLUE BOX", "address": {"city": "CARSON", "state": "MS", "street": "HWY 42", "postcode": "39427"}}},
{"geometry": {"type": "Point", "coordinates": [-89.7886123054, 31.5562254217]}, "type": "Feature", "properties": {"collection_times": [{"days": "Mon-Fri", "time": "1:00pm"}, {"days": "Sat", "time": "8:00am"}, {"days": "Sun", "time": "Closed"}], "id": "3942700001", "name": "USPS COLLECTION BOX - PO LOBBY", "address": {"city": "CARSON", "state": "MS", "street": "HWY 42", "postcode": "39427"}}},
{"geometry": {"type": "Point", "coordinates": [-89.5545337691, 31.6428861028]}, "type": "Feature", "properties": {"collection_times": [{"days": "Mon-Fri", "time": "4:30pm"}, {"days": "Sat", "time": "12:00pm"}, {"days": "Sun", "time": "Closed"}], "id": "3942800000", "name": "USPS COLLECTION BOX - BLUE BOX", "address": {"city": "COLLINS", "state": "MS", "street": "304 S DOGWOOD AVE", "postcode": "39428"}}},
{"geometry": {"type": "Point", "coordinates": [-89.5545337691, 31.6428861028]}, "type": "Feature", "properties": {"collection_times": [{"days": "Mon-Fri", "time": "4:30pm"}, {"days": "Sat", "time": "12:00pm"}, {"days": "Sun", "time": "Closed"}], "id": "3942800001", "name": "USPS COLLECTION BOX - PO LOBBY", "address": {"city": "COLLINS", "state": "MS", "street": "304 S DOGWOOD AVE", "postcode": "39428"}}},
{"geometry": {"type": "Point", "coordinates": [-89.8352192216, 31.2534371867]}, "type": "Feature", "properties": {"collection_times": [{"days": "Mon-Fri", "time": "3:00pm"}, {"days": "Sat", "time": "12:00pm"}, {"days": "Sun", "time": "Closed"}], "id": "3942900001", "name": "USPS COLLECTION BOX - BLUE BOX", "address": {"city": "COLUMBIA", "state": "MS", "street": "814 MAIN ST", "postcode": "39429"}}},
{"geometry": {"type": "Point", "coordinates": [-89.8353473594, 31.2534324251]}, "type": "Feature", "properties": {"collection_times": [{"days": "Mon-Fri", "time": "4:30pm"}, {"days": "Sat", "time": "12:00pm"}, {"days": "Sun", "time": "Closed"}], "id": "3942900002", "name": "USPS COLLECTION BOX - PO LOBBY", "address": {"city": "COLUMBIA", "state": "MS", "street": "815 MAIN ST", "postcode": "39429"}}},
{"geometry": {"type": "Point", "coordinates": [-89.8353473594, 31.2534324251]}, "type": "Feature", "properties": {"collection_times": [{"days": "Mon-Fri", "time": "4:30pm"}, {"days": "Sat", "time": "12:00pm"}, {"days": "Sun", "time": "Closed"}], "id": "3942900003", "name": "USPS COLLECTION BOX - PO LOBBY", "address": {"city": "COLUMBIA", "state": "MS", "street": "815 MAIN ST", "postcode": "39429"}}},
{"geometry": {"type": "Point", "coordinates": [-89.8354988345, 31.2632451685]}, "type": "Feature", "properties": {"collection_times": [{"days": "Mon-Sat", "time": "11:30am"}, {"days": "Sun", "time": "Closed"}], "id": "3942900008", "name": "USPS COLLECTION BOX - BLUE BOX", "address": {"city": "COLUMBIA", "state": "MS", "street": "1100 HIGHWAY 13 N", "postcode": "39429"}}},
{"geometry": {"type": "Point", "coordinates": [-89.7641279173, 31.2422575081]}, "type": "Feature", "properties": {"collection_times": [{"days": "Mon-Sat", "time": "11:30am"}, {"days": "Sun", "time": "Closed"}], "id": "3942900009", "name": "USPS COLLECTION BOX - BLUE BOX", "address": {"city": "COLUMBIA", "state": "MS", "street": "1071/2 WALTER PAYTON DR", "postcode": "39429"}}},
{"geometry": {"type": "Point", "coordinates": [-89.2850051122, 31.4365441754]}, "type": "Feature", "properties": {"collection_times": [{"days": "Mon-Fri", "time": "3:40pm"}, {"days": "Sat", "time": "9:50am"}, {"days": "Sun", "time": "Closed"}], "id": "3943600000", "name": "USPS COLLECTION BOX - BLUE BOX", "address": {"city": "EASTABUCHIE", "state": "MS", "street": "423 CHURCH ST", "postcode": "39436"}}},
{"geometry": {"type": "Point", "coordinates": [-89.2850051122, 31.4365441754]}, "type": "Feature", "properties": {"collection_times": [{"days": "Mon-Fri", "time": "10:00am"}, {"days": "Sat", "time": "9:45am"}, {"days": "Sun", "time": "Closed"}], "id": "3943600001", "name": "USPS COLLECTION BOX - PO LOBBY", "address": {"city": "EASTABUCHIE", "state": "MS", "street": "423 CHURCH ST", "postcode": "39436"}}},
{"geometry": {"type": "Point", "coordinates": [-89.1970506913, 31.6025422025]}, "type": "Feature", "properties": {"collection_times": [{"days": "Mon-Fri", "time": "4:15pm"}, {"days": "Sat", "time": "12:00pm"}, {"days": "Sun", "time": "Closed"}], "id": "3943700000", "name": "USPS COLLECTION BOX - BLUE BOX", "address": {"city": "ELLISVILLE", "state": "MS", "street": "303 S COURT ST", "postcode": "39437"}}},
{"geometry": {"type": "Point", "coordinates": [-89.1970506913, 31.6025422025]}, "type": "Feature", "properties": {"collection_times": [{"days": "Mon-Fri", "time": "5:00pm"}, {"days": "Sat", "time": "2:00pm"}, {"days": "Sun", "time": "Closed"}], "id": "3943700001", "name": "USPS COLLECTION BOX - PO LOBBY", "address": {"city": "ELLISVILLE", "state": "MS", "street": "303 S COURT ST", "postcode": "39437"}}},
{"geometry": {"type": "Point", "coordinates": [-89.2014656782, 31.6081371988]}, "type": "Feature", "properties": {"collection_times": [{"days": "Mon-Fri", "time": "11:15am"}, {"days": "Sat", "time": "10:15am"}, {"days": "Sun", "time": "Closed"}], "id": "3943700002", "name": "USPS COLLECTION BOX - BLUE BOX", "address": {"city": "ELLISVILLE", "state": "MS", "street": "623 HILL ST", "postcode": "39437"}}},
{"geometry": {"type": "Point", "coordinates": [-89.2043292981, 31.6098120389]}, "type": "Feature", "properties": {"collection_times": [{"days": "Mon-Fri", "time": "12:40pm"}, {"days": "Sat", "time": "11:40am"}, {"days": "Sun", "time": "Closed"}], "id": "3943700003", "name": "USPS COLLECTION BOX - BLUE BOX", "address": {"city": "ELLISVILLE", "state": "MS", "street": "200 ADAMS ST", "postcode": "39437"}}},
{"geometry": {"type": "Point", "coordinates": [-89.0318795906, 31.7875780725]}, "type": "Feature", "properties": {"collection_times": [{"days": "Mon-Fri", "time": "4:00pm"}, {"days": "Sat", "time": "10:30am"}, {"days": "Sun", "time": "Closed"}], "id": "3943900000", "name": "USPS COLLECTION BOX - BLUE BOX", "address": {"city": "HEIDELBERG", "state": "MS", "street": "105 N OAK ST", "postcode": "39439"}}},
{"geometry": {"type": "Point", "coordinates": [-89.1491781614, 31.7121663581]}, "type": "Feature", "properties": {"collection_times": [{"days": "Mon-Fri", "time": "2:30pm"}, {"days": "Sat", "time": "2:00pm"}, {"days": "Sun", "time": "Closed"}], "id": "3944000009", "name": "USPS COLLECTION BOX - BLUE BOX", "address": {"city": "LAUREL", "state": "MS", "street": "2300 HIGHWAY 15 N", "postcode": "39440"}}},
{"geometry": {"type": "Point", "coordinates": [-89.1468703154, 31.6994034717]}, "type": "Feature", "properties": {"collection_times": [{"days": "Mon-Fri", "time": "2:30pm"}, {"days": "Sat", "time": "2:00pm"}, {"days": "Sun", "time": "Closed"}], "id": "3944000010", "name": "USPS COLLECTION BOX - BLUE BOX", "address": {"city": "LAUREL", "state": "MS", "street": "900 N 16TH AVE", "postcode": "39440"}}},
{"geometry": {"type": "Point", "coordinates": [-89.1468703154, 31.6994034717]}, "type": "Feature", "properties": {"collection_times": [{"days": "Mon-Fri", "time": "2:30pm"}, {"days": "Sat", "time": "2:00pm"}, {"days": "Sun", "time": "Closed"}], "id": "3944000012", "name": "USPS COLLECTION BOX - BLUE BOX", "address": {"city": "LAUREL", "state": "MS", "street": "900 N 16TH AVE", "postcode": "39440"}}},
{"geometry": {"type": "Point", "coordinates": [-89.1303806676, 31.6920610486]}, "type": "Feature", "properties": {"collection_times": [{"days": "Mon-Fri", "time": "2:30pm"}, {"days": "Sat-Sun", "time": "Closed"}], "id": "3944000024", "name": "USPS COLLECTION BOX - BLUE BOX", "address": {"city": "LAUREL", "state": "MS", "street": "400 CENTRAL AVE", "postcode": "39440"}}},
{"geometry": {"type": "Point", "coordinates": [-89.1319318964, 31.6925704249]}, "type": "Feature", "properties": {"collection_times": [{"days": "Mon-Fri", "time": "2:30pm"}, {"days": "Sat-Sun", "time": "Closed"}], "id": "3944000026", "name": "USPS COLLECTION BOX - BLUE BOX", "address": {"city": "LAUREL", "state": "MS", "street": "530 COMMERCE ST", "postcode": "39440"}}},
{"geometry": {"type": "Point", "coordinates": [-89.1397425115, 31.7305042968]}, "type": "Feature", "properties": {"collection_times": [{"days": "Mon-Fri", "time": "2:30pm"}, {"days": "Sat", "time": "2:00pm"}, {"days": "Sun", "time": "Closed"}], "id": "3944000033", "name": "USPS COLLECTION BOX - BLUE BOX", "address": {"city": "LAUREL", "state": "MS", "street": "3200 AUDUBON DR", "postcode": "39440"}}},
{"geometry": {"type": "Point", "coordinates": [-89.1334065764, 31.6911463738]}, "type": "Feature", "properties": {"collection_times": [{"days": "Mon-Fri", "time": "4:15pm"}, {"days": "Sat", "time": "2:00pm"}, {"days": "Sun", "time": "Closed"}], "id": "3944000036", "name": "USPS COLLECTION BOX - BLUE BOX", "address": {"city": "LAUREL", "state": "MS", "street": "140 BEACON ST", "postcode": "39440"}}},
{"geometry": {"type": "Point", "coordinates": [-89.1334065764, 31.6911463738]}, "type": "Feature", "properties": {"collection_times": [{"days": "Mon-Fri", "time": "4:15pm"}, {"days": "Sat", "time": "2:00pm"}, {"days": "Sun", "time": "Closed"}], "id": "3944000037", "name": "USPS COLLECTION BOX - BLUE BOX", "address": {"city": "LAUREL", "state": "MS", "street": "140 BEACON ST", "postcode": "39440"}}},
{"geometry": {"type": "Point", "coordinates": [-89.1301125931, 31.6945725673]}, "type": "Feature", "properties": {"collection_times": [{"days": "Mon-Fri", "time": "4:00pm"}, {"days": "Sat", "time": "12:00pm"}, {"days": "Sun", "time": "Closed"}], "id": "3944000042", "name": "USPS COLLECTION BOX - BLUE BOX", "address": {"city": "LAUREL", "state": "MS", "street": "400 SAWMILL RD", "postcode": "39440"}}},
{"geometry": {"type": "Point", "coordinates": [-89.1301125931, 31.6945725673]}, "type": "Feature", "properties": {"collection_times": [{"days": "Mon-Fri", "time": "4:00pm"}, {"days": "Sat", "time": "12:00pm"}, {"days": "Sun", "time": "Closed"}], "id": "3944000043", "name": "USPS COLLECTION BOX - BLUE BOX", "address": {"city": "LAUREL", "state": "MS", "street": "400 SAWMILL RD", "postcode": "39440"}}},
{"geometry": {"type": "Point", "coordinates": [-89.1301125931, 31.6945725673]}, "type": "Feature", "properties": {"collection_times": [{"days": "Mon-Fri", "time": "4:00pm"}, {"days": "Sat", "time": "12:00pm"}, {"days": "Sun", "time": "Closed"}], "id": "3944000044", "name": "USPS COLLECTION BOX - BLUE BOX", "address": {"city": "LAUREL", "state": "MS", "street": "400 SAWMILL RD", "postcode": "39440"}}},
{"geometry": {"type": "Point", "coordinates": [-89.1301125931, 31.6945725673]}, "type": "Feature", "properties": {"collection_times": [{"days": "Mon-Fri", "time": "4:00pm"}, {"days": "Sat", "time": "12:00pm"}, {"days": "Sun", "time": "Closed"}], "id": "3944000045", "name": "USPS COLLECTION BOX - BLUE BOX", "address": {"city": "LAUREL", "state": "MS", "street": "400 SAWMILL RD", "postcode": "39440"}}},
{"geometry": {"type": "Point", "coordinates": [-89.1301125931, 31.6945725673]}, "type": "Feature", "properties": {"collection_times": [{"days": "Mon-Fri", "time": "4:00pm"}, {"days": "Sat", "time": "12:00pm"}, {"days": "Sun", "time": "Closed"}], "id": "3944000046", "name": "USPS COLLECTION BOX - BLUE BOX", "address": {"city": "LAUREL", "state": "MS", "street": "400 SAWMILL RD", "postcode": "39440"}}},
{"geometry": {"type": "Point", "coordinates": [-89.1293570095, 31.6946147292]}, "type": "Feature", "properties": {"collection_times": [{"days": "Mon-Fri", "time": "5:00pm"}, {"days": "Sat", "time": "2:30pm"}, {"days": "Sun", "time": "Closed"}], "id": "3944000047", "name": "USPS COLLECTION BOX - PO LOBBY", "address": {"city": "LAUREL", "state": "MS", "street": "315 SAWMILL RD", "postcode": "39440"}}},
{"geometry": {"type": "Point", "coordinates": [-89.1293570095, 31.6946147292]}, "type": "Feature", "properties": {"collection_times": [{"days": "Mon-Fri", "time": "5:00pm"}, {"days": "Sat", "time": "2:30pm"}, {"days": "Sun", "time": "Closed"}], "id": "3944000048", "name": "USPS COLLECTION BOX - PO LOBBY", "address": {"city": "LAUREL", "state": "MS", "street": "315 SAWMILL RD", "postcode": "39440"}}},
{"geometry": {"type": "Point", "coordinates": [-89.146777867, 31.6920937037]}, "type": "Feature", "properties": {"collection_times": [{"days": "Mon-Fri", "time": "3:00pm"}, {"days": "Sat", "time": "2:00pm"}, {"days": "Sun", "time": "Closed"}], "id": "3944000056", "name": "USPS COLLECTION BOX - BLUE BOX", "address": {"city": "LAUREL", "state": "MS", "street": "300 N 16TH AVE", "postcode": "39440"}}},
{"geometry": {"type": "Point", "coordinates": [-88.5555521986, 31.1558470996]}, "type": "Feature", "properties": {"collection_times": [{"days": "Mon-Fri", "time": "4:00pm"}, {"days": "Sat", "time": "11:00am"}, {"days": "Sun", "time": "Closed"}], "id": "3945100000", "name": "USPS COLLECTION BOX - BLUE BOX", "address": {"city": "LEAKESVILLE", "state": "MS", "street": "621 GRAND AVE", "postcode": "39451"}}},
{"geometry": {"type": "Point", "coordinates": [-88.5895070264, 30.9237034775]}, "type": "Feature", "properties": {"collection_times": [{"days": "Mon-Fri", "time": "4:30pm"}, {"days": "Sat", "time": "4:00pm"}, {"days": "Sun", "time": "Closed"}], "id": "3945200001", "name": "USPS COLLECTION BOX - BLUE BOX", "address": {"city": "LUCEDALE", "state": "MS", "street": "209 COX ST", "postcode": "39452"}}},
{"geometry": {"type": "Point", "coordinates": [-88.5895070264, 30.9237034775]}, "type": "Feature", "properties": {"collection_times": [{"days": "Mon-Fri", "time": "4:30pm"}, {"days": "Sat", "time": "4:00pm"}, {"days": "Sun", "time": "Closed"}], "id": "3945200004", "name": "USPS COLLECTION BOX - PO LOBBY", "address": {"city": "LUCEDALE", "state": "MS", "street": "209 COX ST", "postcode": "39452"}}},
{"geometry": {"type": "Point", "coordinates": [-89.453218607, 30.9995846129]}, "type": "Feature", "properties": {"collection_times": [{"days": "Mon-Fri", "time": "4:30pm"}, {"days": "Sat", "time": "12:00pm"}, {"days": "Sun", "time": "Closed"}], "id": "3945500000", "name": "USPS COLLECTION BOX - BLUE BOX", "address": {"city": "LUMBERTON", "state": "MS", "street": "7877 U S HIGHWAY 11", "postcode": "39455"}}},
{"geometry": {"type": "Point", "coordinates": [-88.8274002574, 31.10858593]}, "type": "Feature", "properties": {"collection_times": [{"days": "Mon-Fri", "time": "3:55pm"}, {"days": "Sat", "time": "10:55am"}, {"days": "Sun", "time": "Closed"}], "id": "3945600000", "name": "USPS COLLECTION BOX - BLUE BOX", "address": {"city": "MCLAIN", "state": "MS", "street": "103 W MAIN ST", "postcode": "39456"}}},
{"geometry": {"type": "Point", "coordinates": [-89.6368085767, 30.6665119566]}, "type": "Feature", "properties": {"collection_times": [{"days": "Mon-Fri", "time": "3:30pm"}, {"days": "Sat", "time": "10:45am"}, {"days": "Sun", "time": "Closed"}], "id": "3945700000", "name": "USPS COLLECTION BOX - BLUE BOX", "address": {"city": "MCNEILL", "state": "MS", "street": "8032 HIGHWAY 11", "postcode": "39457"}}},
{"geometry": {"type": "Point", "coordinates": [-89.637388211, 30.665531035]}, "type": "Feature", "properties": {"collection_times": [{"days": "Mon-Fri", "time": "3:45pm"}, {"days": "Sat", "time": "10:55am"}, {"days": "Sun", "time": "Closed"}], "id": "3945700001", "name": "USPS COLLECTION BOX - PO LOBBY", "address": {"city": "MCNEILL", "state": "MS", "street": "8032 HIGHWAY 11", "postcode": "39457"}}},
{"geometry": {"type": "Point", "coordinates": [-89.2801110284, 31.5103638845]}, "type": "Feature", "properties": {"collection_times": [{"days": "Mon-Fri", "time": "4:00pm"}, {"days": "Sat", "time": "10:30am"}, {"days": "Sun", "time": "Closed"}], "id": "3945900000", "name": "USPS COLLECTION BOX - BLUE BOX", "address": {"city": "MOSELLE", "state": "MS", "street": "1260 MOSELLE RD", "postcode": "39459"}}},
{"geometry": {"type": "Point", "coordinates": [-88.7372968478, 31.1951227407]}, "type": "Feature", "properties": {"collection_times": [{"days": "Mon-Fri", "time": "10:10am"}, {"days": "Sat", "time": "9:00am"}, {"days": "Sun", "time": "Closed"}], "id": "3946100000", "name": "USPS COLLECTION BOX - PO LOBBY", "address": {"city": "NEELY", "state": "MS", "street": "OLD HWY 24", "postcode": "39461"}}},
{"geometry": {"type": "Point", "coordinates": [-88.7246418201, 31.1897907591]}, "type": "Feature", "properties": {"collection_times": [{"days": "Mon-Fri", "time": "10:10am"}, {"days": "Sat", "time": "9:00am"}, {"days": "Sun", "time": "Closed"}], "id": "3946100001", "name": "USPS COLLECTION BOX - BLUE BOX", "address": {"city": "NEELY", "state": "MS", "street": "OLD HWY 24", "postcode": "39461"}}},
{"geometry": {"type": "Point", "coordinates": [-89.0405803626, 31.1531401889]}, "type": "Feature", "properties": {"collection_times": [{"days": "Mon-Fri", "time": "3:45pm"}, {"days": "Sat", "time": "10:45am"}, {"days": "Sun", "time": "Closed"}], "id": "3946200000", "name": "USPS COLLECTION BOX - BLUE BOX", "address": {"city": "NEW AUGUSTA", "state": "MS", "street": "103 FIRST ST E", "postcode": "39462"}}},
{"geometry": {"type": "Point", "coordinates": [-89.6833989129, 30.5183547571]}, "type": "Feature", "properties": {"collection_times": [{"days": "Mon-Fri", "time": "3:45pm"}, {"days": "Sat", "time": "10:55am"}, {"days": "Sun", "time": "Closed"}], "id": "3946300000", "name": "USPS COLLECTION BOX - BLUE BOX", "address": {"city": "NICHOLSON", "state": "MS", "street": "3353 JACKSON LANDING RD", "postcode": "39463"}}},
{"geometry": {"type": "Point", "coordinates": [-89.6833989129, 30.5183547571]}, "type": "Feature", "properties": {"collection_times": [{"days": "Mon-Fri", "time": "2:00pm"}, {"days": "Sat", "time": "10:55am"}, {"days": "Sun", "time": "Closed"}], "id": "3946300001", "name": "USPS COLLECTION BOX - PO LOBBY", "address": {"city": "NICHOLSON", "state": "MS", "street": "3353 JACKSON LANDING RD", "postcode": "39463"}}},
{"geometry": {"type": "Point", "coordinates": [-89.0413192298, 31.4809861639]}, "type": "Feature", "properties": {"collection_times": [{"days": "Mon-Fri", "time": "4:00pm"}, {"days": "Sat", "time": "10:55am"}, {"days": "Sun", "time": "Closed"}], "id": "3946400000", "name": "USPS COLLECTION BOX - BLUE BOX", "address": {"city": "OVETT", "state": "MS", "street": "3227 OVETT MOSELLE RD", "postcode": "39464"}}},
{"geometry": {"type": "Point", "coordinates": [-89.0413192298, 31.4809861639]}, "type": "Feature", "properties": {"collection_times": [{"days": "Mon-Fri", "time": "11:30am"}, {"days": "Sat", "time": "10:55am"}, {"days": "Sun", "time": "Closed"}], "id": "3946400001", "name": "USPS COLLECTION BOX - PO LOBBY", "address": {"city": "OVETT", "state": "MS", "street": "3227 OVETT MOSELLE RD", "postcode": "39464"}}},
{"geometry": {"type": "Point", "coordinates": [-89.2610939622, 31.3456990206]}, "type": "Feature", "properties": {"collection_times": [{"days": "Mon-Fri", "time": "4:00pm"}, {"days": "Sat", "time": "12:00pm"}, {"days": "Sun", "time": "Closed"}], "id": "3946500000", "name": "USPS COLLECTION BOX - BLUE BOX", "address": {"city": "PETAL", "state": "MS", "street": "121 MORRIS ST", "postcode": "39465"}}},
{"geometry": {"type": "Point", "coordinates": [-89.2610939622, 31.3456990206]}, "type": "Feature", "properties": {"collection_times": [{"days": "Mon-Fri", "time": "4:00pm"}, {"days": "Sat", "time": "12:00pm"}, {"days": "Sun", "time": "Closed"}], "id": "3946500007", "name": "USPS COLLECTION BOX - BLUE BOX", "address": {"city": "PETAL", "state": "MS", "street": "121 MORRIS ST", "postcode": "39465"}}},
{"geometry": {"type": "Point", "coordinates": [-89.6797314624, 30.5259962278]}, "type": "Feature", "properties": {"collection_times": [{"days": "Mon-Fri", "time": "4:30pm"}, {"days": "Sat", "time": "12:00pm"}, {"days": "Sun", "time": "Closed"}], "id": "3946600000", "name": "USPS COLLECTION BOX - BLUE BOX", "address": {"city": "PICAYUNE", "state": "MS", "street": "120 HIGHWAY 11 N", "postcode": "39466"}}},
{"geometry": {"type": "Point", "coordinates": [-89.7023833824, 30.5598370076]}, "type": "Feature", "properties": {"collection_times": [{"days": "Mon-Sat", "time": "10:15am"}, {"days": "Sun", "time": "Closed"}], "id": "3946600004", "name": "USPS COLLECTION BOX - BLUE BOX", "address": {"city": "PICAYUNE", "state": "MS", "street": "1701 HIGHWAY 43 N", "postcode": "39466"}}},
{"geometry": {"type": "Point", "coordinates": [-89.6797314624, 30.5259962278]}, "type": "Feature", "properties": {"collection_times": [{"days": "Mon-Fri", "time": "4:30pm"}, {"days": "Sat", "time": "12:00pm"}, {"days": "Sun", "time": "Closed"}], "id": "3946600012", "name": "USPS COLLECTION BOX - BLUE BOX", "address": {"city": "PICAYUNE", "state": "MS", "street": "120 HIGHWAY 11 N", "postcode": "39466"}}},
{"geometry": {"type": "Point", "coordinates": [-89.6798444548, 30.518291634]}, "type": "Feature", "properties": {"collection_times": [{"days": "Mon-Sat", "time": "10:45am"}, {"days": "Sun", "time": "Closed"}], "id": "3946600013", "name": "USPS COLLECTION BOX - BLUE BOX", "address": {"city": "PICAYUNE", "state": "MS", "street": "313 TELLY RD", "postcode": "39466"}}},
{"geometry": {"type": "Point", "coordinates": [-89.6647180754, 30.5124132406]}, "type": "Feature", "properties": {"collection_times": [{"days": "Mon-Sat", "time": "10:45am"}, {"days": "Sun", "time": "Closed"}], "id": "3946600015", "name": "USPS COLLECTION BOX - BLUE BOX", "address": {"city": "PICAYUNE", "state": "MS", "street": "235 FRONTAGE RD", "postcode": "39466"}}},
{"geometry": {"type": "Point", "coordinates": [-89.6807635308, 30.5271630495]}, "type": "Feature", "properties": {"collection_times": [{"days": "Mon-Sat", "time": "2:30pm"}, {"days": "Sun", "time": "Closed"}], "id": "3946600016", "name": "USPS COLLECTION BOX - BLUE BOX", "address": {"city": "PICAYUNE", "state": "MS", "street": "101 WILLIAMS AVE", "postcode": "39466"}}},
{"geometry": {"type": "Point", "coordinates": [-89.664594794, 30.5612038119]}, "type": "Feature", "properties": {"collection_times": [{"days": "Mon-Fri", "time": "4:30pm"}, {"days": "Sat", "time": "3:30pm"}, {"days": "Sun", "time": "Closed"}], "id": "3946600017", "name": "USPS COLLECTION BOX - BLUE BOX", "address": {"city": "PICAYUNE", "state": "MS", "street": "6342 HIGHWAY 11 N", "postcode": "39466"}}},
{"geometry": {"type": "Point", "coordinates": [-89.664594794, 30.5612038119]}, "type": "Feature", "properties": {"collection_times": [{"days": "Mon-Fri", "time": "4:30pm"}, {"days": "Sat", "time": "3:30pm"}, {"days": "Sun", "time": "Closed"}], "id": "3946600018", "name": "USPS COLLECTION BOX - BLUE BOX", "address": {"city": "PICAYUNE", "state": "MS", "street": "6342 HIGHWAY 11 N", "postcode": "39466"}}},
{"geometry": {"type": "Point", "coordinates": [-89.664594794, 30.5612038119]}, "type": "Feature", "properties": {"collection_times": [{"days": "Mon-Fri", "time": "4:30pm"}, {"days": "Sat", "time": "3:30pm"}, {"days": "Sun", "time": "Closed"}], "id": "3946600020", "name": "USPS COLLECTION BOX - PO LOBBY", "address": {"city": "PICAYUNE", "state": "MS", "street": "6342 HIGHWAY 11 N", "postcode": "39466"}}},
{"geometry": {"type": "Point", "coordinates": [-89.5352300431, 30.8430835099]}, "type": "Feature", "properties": {"collection_times": [{"days": "Mon-Fri", "time": "4:30pm"}, {"days": "Sat", "time": "11:00am"}, {"days": "Sun", "time": "Closed"}], "id": "3947000000", "name": "USPS COLLECTION BOX - BLUE BOX", "address": {"city": "POPLARVILLE", "state": "MS", "street": "301 S MAIN ST", "postcode": "39470"}}},
{"geometry": {"type": "Point", "coordinates": [-89.5352300431, 30.8430835099]}, "type": "Feature", "properties": {"collection_times": [{"days": "Mon-Fri", "time": "4:30pm"}, {"days": "Sat", "time": "11:00am"}, {"days": "Sun", "time": "Closed"}], "id": "3947000002", "name": "USPS COLLECTION BOX - PO LOBBY", "address": {"city": "POPLARVILLE", "state": "MS", "street": "301 S MAIN ST", "postcode": "39470"}}},
{"geometry": {"type": "Point", "coordinates": [-89.8748951584, 31.5968612938]}, "type": "Feature", "properties": {"collection_times": [{"days": "Mon-Fri", "time": "4:30pm"}, {"days": "Sat", "time": "11:45am"}, {"days": "Sun", "time": "Closed"}], "id": "3947400000", "name": "USPS COLLECTION BOX - BLUE BOX", "address": {"city": "PRENTISS", "state": "MS", "street": "2112 MOUNT CARMEL AVE", "postcode": "39474"}}},
{"geometry": {"type": "Point", "coordinates": [-89.8748951584, 31.5968612938]}, "type": "Feature", "properties": {"collection_times": [{"days": "Mon-Fri", "time": "4:30pm"}, {"days": "Sat", "time": "11:45am"}, {"days": "Sun", "time": "Closed"}], "id": "3947400001", "name": "USPS COLLECTION BOX - PO LOBBY", "address": {"city": "PRENTISS", "state": "MS", "street": "2112 MOUNT CARMEL AVE", "postcode": "39474"}}},
{"geometry": {"type": "Point", "coordinates": [-89.405153443, 31.1433034967]}, "type": "Feature", "properties": {"collection_times": [{"days": "Mon-Fri", "time": "4:30pm"}, {"days": "Sat", "time": "12:00pm"}, {"days": "Sun", "time": "Closed"}], "id": "3947500000", "name": "USPS COLLECTION BOX - BLUE BOX", "address": {"city": "PURVIS", "state": "MS", "street": "5851 US HIGHWAY 11", "postcode": "39475"}}},
{"geometry": {"type": "Point", "coordinates": [-89.405153443, 31.1433034967]}, "type": "Feature", "properties": {"collection_times": [{"days": "Mon-Fri", "time": "4:45pm"}, {"days": "Sat", "time": "12:00pm"}, {"days": "Sun", "time": "Closed"}], "id": "3947500001", "name": "USPS COLLECTION BOX - PO LOBBY", "address": {"city": "PURVIS", "state": "MS", "street": "5851 US HIGHWAY 11", "postcode": "39475"}}},
{"geometry": {"type": "Point", "coordinates": [-89.405153443, 31.1433034967]}, "type": "Feature", "properties": {"collection_times": [{"days": "Mon-Fri", "time": "4:30pm"}, {"days": "Sat", "time": "12:00pm"}, {"days": "Sun", "time": "Closed"}], "id": "3947500002", "name": "USPS COLLECTION BOX - BLUE BOX", "address": {"city": "PURVIS", "state": "MS", "street": "5851 US HIGHWAY 11", "postcode": "39475"}}},
{"geometry": {"type": "Point", "coordinates": [-88.9358248331, 31.3499196029]}, "type": "Feature", "properties": {"collection_times": [{"days": "Mon-Fri", "time": "4:30pm"}, {"days": "Sat", "time": "11:00am"}, {"days": "Sun", "time": "Closed"}], "id": "3947600001", "name": "USPS COLLECTION BOX - PO LOBBY", "address": {"city": "RICHTON", "state": "MS", "street": "201 N FRONT ST", "postcode": "39476"}}},
{"geometry": {"type": "Point", "coordinates": [-88.9358248331, 31.3499196029]}, "type": "Feature", "properties": {"collection_times": [{"days": "Mon-Fri", "time": "4:00pm"}, {"days": "Sat-Sun", "time": "Closed"}], "id": "3947600002", "name": "USPS COLLECTION BOX - BLUE BOX", "address": {"city": "RICHTON", "state": "MS", "street": "201 N FRONT ST", "postcode": "39476"}}},
{"geometry": {"type": "Point", "coordinates": [-89.0333838113, 31.7867792747]}, "type": "Feature", "properties": {"collection_times": [{"days": "Mon-Fri", "time": "4:15pm"}, {"days": "Sat", "time": "11:30am"}, {"days": "Sun", "time": "Closed"}], "id": "3947700000", "name": "USPS COLLECTION BOX - BLUE BOX", "address": {"city": "SANDERSVILLE", "state": "MS", "street": "201 N FRONT ST", "postcode": "39477"}}},
{"geometry": {"type": "Point", "coordinates": [-89.0333838113, 31.7867792747]}, "type": "Feature", "properties": {"collection_times": [{"days": "Mon-Fri", "time": "4:00pm"}, {"days": "Sat", "time": "11:30am"}, {"days": "Sun", "time": "Closed"}], "id": "3947700001", "name": "USPS COLLECTION BOX - PO LOBBY", "address": {"city": "SANDERSVILLE", "state": "MS", "street": "201 N FRONT ST", "postcode": "39477"}}},
{"geometry": {"type": "Point", "coordinates": [-89.8017642182, 31.0333121145]}, "type": "Feature", "properties": {"collection_times": [{"days": "Mon-Fri", "time": "3:30pm"}, {"days": "Sat", "time": "10:00am"}, {"days": "Sun", "time": "Closed"}], "id": "3947800000", "name": "USPS COLLECTION BOX - BLUE BOX", "address": {"city": "SANDY HOOK", "state": "MS", "street": "480 JOHN FORD HOME RD", "postcode": "39478"}}},
{"geometry": {"type": "Point", "coordinates": [-89.8017642182, 31.0333121145]}, "type": "Feature", "properties": {"collection_times": [{"days": "Mon-Fri", "time": "12:00pm"}, {"days": "Sat", "time": "10:15am"}, {"days": "Sun", "time": "Closed"}], "id": "3947800001", "name": "USPS COLLECTION BOX - PO LOBBY", "address": {"city": "SANDY HOOK", "state": "MS", "street": "480 JOHN FORD HOME RD", "postcode": "39478"}}},
{"geometry": {"type": "Point", "coordinates": [-89.4986306122, 31.5618877677]}, "type": "Feature", "properties": {"collection_times": [{"days": "Mon-Fri", "time": "3:30pm"}, {"days": "Sat", "time": "11:00am"}, {"days": "Sun", "time": "Closed"}], "id": "3947900000", "name": "USPS COLLECTION BOX - BLUE BOX", "address": {"city": "SEMINARY", "state": "MS", "street": "205 N OAK ST", "postcode": "39479"}}},
{"geometry": {"type": "Point", "coordinates": [-89.4986306122, 31.5618877677]}, "type": "Feature", "properties": {"collection_times": [{"days": "Mon-Fri", "time": "4:00pm"}, {"days": "Sat", "time": "11:00am"}, {"days": "Sun", "time": "Closed"}], "id": "3947900001", "name": "USPS COLLECTION BOX - PO LOBBY", "address": {"city": "SEMINARY", "state": "MS", "street": "205 N OAK ST", "postcode": "39479"}}},
{"geometry": {"type": "Point", "coordinates": [-89.2720297507, 31.7536167218]}, "type": "Feature", "properties": {"collection_times": [{"days": "Mon-Fri", "time": "3:45pm"}, {"days": "Sat", "time": "10:00am"}, {"days": "Sun", "time": "Closed"}], "id": "3948000000", "name": "USPS COLLECTION BOX - BLUE BOX", "address": {"city": "SOSO", "state": "MS", "street": "1036 HIGHWAY 28 W", "postcode": "39480"}}},
{"geometry": {"type": "Point", "coordinates": [-89.2720297507, 31.7536167218]}, "type": "Feature", "properties": {"collection_times": [{"days": "Mon-Fri", "time": "4:00pm"}, {"days": "Sat", "time": "10:00am"}, {"days": "Sun", "time": "Closed"}], "id": "3948000001", "name": "USPS COLLECTION BOX - PO LOBBY", "address": {"city": "SOSO", "state": "MS", "street": "1036 HIGHWAY 28 W", "postcode": "39480"}}},
{"geometry": {"type": "Point", "coordinates": [-89.2631679791, 31.8656697714]}, "type": "Feature", "properties": {"collection_times": [{"days": "Mon-Fri", "time": "11:20am"}, {"days": "Sat", "time": "10:45am"}, {"days": "Sun", "time": "Closed"}], "id": "3948100001", "name": "USPS COLLECTION BOX - PO LOBBY", "address": {"city": "STRINGER", "state": "MS", "street": "36 COUNTY ROAD 17", "postcode": "39481"}}},
{"geometry": {"type": "Point", "coordinates": [-89.2631679791, 31.8656697714]}, "type": "Feature", "properties": {"collection_times": [{"days": "Mon-Fri", "time": "3:45pm"}, {"days": "Sat", "time": "10:45am"}, {"days": "Sun", "time": "Closed"}], "id": "3948100002", "name": "USPS COLLECTION BOX - BLUE BOX", "address": {"city": "STRINGER", "state": "MS", "street": "36 COUNTY ROAD 17", "postcode": "39481"}}},
{"geometry": {"type": "Point", "coordinates": [-89.5457040731, 31.4153844754]}, "type": "Feature", "properties": {"collection_times": [{"days": "Mon-Fri", "time": "4:30pm"}, {"days": "Sat", "time": "11:20am"}, {"days": "Sun", "time": "Closed"}], "id": "3948200000", "name": "USPS COLLECTION BOX - BLUE BOX", "address": {"city": "SUMRALL", "state": "MS", "street": "4862 HIGHWAY 589", "postcode": "39482"}}},
{"geometry": {"type": "Point", "coordinates": [-89.8716993784, 31.233845409]}, "type": "Feature", "properties": {"collection_times": [{"days": "Mon-Fri", "time": "4:00pm"}, {"days": "Sat", "time": "10:00am"}, {"days": "Sun", "time": "Closed"}], "id": "3948300000", "name": "USPS COLLECTION BOX - BLUE BOX", "address": {"city": "FOXWORTH", "state": "MS", "street": "72 HIGHWAY 587", "postcode": "39483"}}}
]}
