{"type": "FeatureCollection", "features": [
{"geometry": {"type": "Point", "coordinates": [-89.0917761249, 30.3669763621]}, "type": "Feature", "properties": {"collection_times": [{"days": "Mon-Fri", "time": "4:30pm"}, {"days": "Sat", "time": "11:45am"}, {"days": "Sun", "time": "Closed"}], "id": "3950100007", "name": "USPS COLLECTION BOX - PO LOBBY", "address": {"city": "GULFPORT", "state": "MS", "street": "2421 13TH ST", "postcode": "39501"}}},
{"geometry": {"type": "Point", "coordinates": [-89.0917761249, 30.3669763621]}, "type": "Feature", "properties": {"collection_times": [{"days": "Mon-Fri", "time": "4:30pm"}, {"days": "Sat", "time": "11:45am"}, {"days": "Sun", "time": "Closed"}], "id": "3950100008", "name": "USPS COLLECTION BOX - PO LOBBY", "address": {"city": "GULFPORT", "state": "MS", "street": "2421 13TH ST", "postcode": "39501"}}},
{"geometry": {"type": "Point", "coordinates": [-89.0917761249, 30.3669763621]}, "type": "Feature", "properties": {"collection_times": [{"days": "Mon-Fri", "time": "4:30pm"}, {"days": "Sat", "time": "11:45am"}, {"days": "Sun", "time": "Closed"}], "id": "3950100065", "name": "USPS COLLECTION BOX - BLUE BOX", "address": {"city": "GULFPORT", "state": "MS", "street": "2421 13TH ST", "postcode": "39501"}}},
{"geometry": {"type": "Point", "coordinates": [-89.0917761249, 30.3669763621]}, "type": "Feature", "properties": {"collection_times": [{"days": "Mon-Fri", "time": "4:30pm"}, {"days": "Sat", "time": "11:45am"}, {"days": "Sun", "time": "Closed"}], "id": "3950100066", "name": "USPS COLLECTION BOX - BLUE BOX", "address": {"city": "GULFPORT", "state": "MS", "street": "2421 13TH ST", "postcode": "39501"}}},
{"geometry": {"type": "Point", "coordinates": [-89.0917761249, 30.3669763621]}, "type": "Feature", "properties": {"collection_times": [{"days": "Mon-Fri", "time": "4:30pm"}, {"days": "Sat", "time": "11:45am"}, {"days": "Sun", "time": "Closed"}], "id": "3950100067", "name": "USPS COLLECTION BOX - BLUE BOX", "address": {"city": "GULFPORT", "state": "MS", "street": "2421 13TH ST", "postcode": "39501"}}},
{"geometry": {"type": "Point", "coordinates": [-89.0917761249, 30.3669763621]}, "type": "Feature", "properties": {"collection_times": [{"days": "Mon-Fri", "time": "4:30pm"}, {"days": "Sat", "time": "11:45am"}, {"days": "Sun", "time": "Closed"}], "id": "3950100068", "name": "USPS COLLECTION BOX - BLUE BOX", "address": {"city": "GULFPORT", "state": "MS", "street": "2421 13TH ST", "postcode": "39501"}}},
{"geometry": {"type": "Point", "coordinates": [-89.0989541151, 30.4470332876]}, "type": "Feature", "properties": {"collection_times": [{"days": "Mon-Fri", "time": "4:30pm"}, {"days": "Sat", "time": "2:30pm"}, {"days": "Sun", "time": "Closed"}], "id": "3950300000", "name": "USPS COLLECTION BOX - BLUE BOX", "address": {"city": "GULFPORT", "state": "MS", "street": "11110 HIGHWAY 49", "postcode": "39503"}}},
{"geometry": {"type": "Point", "coordinates": [-89.0989541151, 30.4470332876]}, "type": "Feature", "properties": {"collection_times": [{"days": "Mon-Fri", "time": "4:30pm"}, {"days": "Sat", "time": "2:30pm"}, {"days": "Sun", "time": "Closed"}], "id": "3950300001", "name": "USPS COLLECTION BOX - BLUE BOX", "address": {"city": "GULFPORT", "state": "MS", "street": "11110 HIGHWAY 49", "postcode": "39503"}}},
{"geometry": {"type": "Point", "coordinates": [-89.0989541151, 30.4470332876]}, "type": "Feature", "properties": {"collection_times": [{"days": "Mon-Fri", "time": "4:30pm"}, {"days": "Sat", "time": "2:30pm"}, {"days": "Sun", "time": "Closed"}], "id": "3950300002", "name": "USPS COLLECTION BOX - BLUE BOX", "address": {"city": "GULFPORT", "state": "MS", "street": "11110 HIGHWAY 49", "postcode": "39503"}}},
{"geometry": {"type": "Point", "coordinates": [-89.0424600451, 30.43654513]}, "type": "Feature", "properties": {"collection_times": [{"days": "Mon-Sat", "time": "7:30pm"}, {"days": "Sun", "time": "Closed"}], "id": "3950300019", "name": "USPS COLLECTION BOX - BLUE BOX", "address": {"city": "GULFPORT", "state": "MS", "street": "10285 CORPORATE DR", "postcode": "39503"}}},
{"geometry": {"type": "Point", "coordinates": [-89.0424600451, 30.43654513]}, "type": "Feature", "properties": {"collection_times": [{"days": "Mon-Sat", "time": "7:30pm"}, {"days": "Sun", "time": "Closed"}], "id": "3950300020", "name": "USPS COLLECTION BOX - BLUE BOX", "address": {"city": "GULFPORT", "state": "MS", "street": "10285 CORPORATE DR", "postcode": "39503"}}},
{"geometry": {"type": "Point", "coordinates": [-89.0424600451, 30.43654513]}, "type": "Feature", "properties": {"collection_times": [{"days": "Mon-Sat", "time": "7:30pm"}, {"days": "Sun", "time": "Closed"}], "id": "3950300021", "name": "USPS COLLECTION BOX - BLUE BOX", "address": {"city": "GULFPORT", "state": "MS", "street": "10285 CORPORATE DR", "postcode": "39503"}}},
{"geometry": {"type": "Point", "coordinates": [-89.0989541151, 30.4470332876]}, "type": "Feature", "properties": {"collection_times": [{"days": "Mon-Fri", "time": "4:30pm"}, {"days": "Sat", "time": "2:30pm"}, {"days": "Sun", "time": "Closed"}], "id": "3950300023", "name": "USPS COLLECTION BOX - BLUE BOX", "address": {"city": "GULFPORT", "state": "MS", "street": "11110 HIGHWAY 49", "postcode": "39503"}}},
{"geometry": {"type": "Point", "coordinates": [-89.0989541151, 30.4470332876]}, "type": "Feature", "properties": {"collection_times": [{"days": "Mon-Fri", "time": "4:30pm"}, {"days": "Sat", "time": "2:30pm"}, {"days": "Sun", "time": "Closed"}], "id": "3950300029", "name": "USPS COLLECTION BOX - APC", "address": {"city": "GULFPORT", "state": "MS", "street": "11110 HIGHWAY 49", "postcode": "39503"}}},
{"geometry": {"type": "Point", "coordinates": [-89.0989541151, 30.4470332876]}, "type": "Feature", "properties": {"collection_times": [{"days": "Mon-Fri", "time": "4:30pm"}, {"days": "Sat", "time": "2:30pm"}, {"days": "Sun", "time": "Closed"}], "id": "3950300030", "name": "USPS COLLECTION BOX - PO LOBBY", "address": {"city": "GULFPORT", "state": "MS", "street": "11110 HIGHWAY 49", "postcode": "39503"}}},
{"geometry": {"type": "Point", "coordinates": [-89.0441385097, 30.3842465833]}, "type": "Feature", "properties": {"collection_times": [{"days": "Mon-Fri", "time": "4:50pm"}, {"days": "Sat", "time": "11:50am"}, {"days": "Sun", "time": "Closed"}], "id": "3950700026", "name": "USPS COLLECTION BOX - BLUE BOX", "address": {"city": "GULFPORT", "state": "MS", "street": "363 COURTHOUSE RD", "postcode": "39507"}}},
{"geometry": {"type": "Point", "coordinates": [-89.0441385097, 30.3842465833]}, "type": "Feature", "properties": {"collection_times": [{"days": "Mon-Fri", "time": "4:50pm"}, {"days": "Sat", "time": "11:50am"}, {"days": "Sun", "time": "Closed"}], "id": "3950700027", "name": "USPS COLLECTION BOX - BLUE BOX", "address": {"city": "GULFPORT", "state": "MS", "street": "363 COURTHOUSE RD", "postcode": "39507"}}},
{"geometry": {"type": "Point", "coordinates": [-89.0441385097, 30.3842465833]}, "type": "Feature", "properties": {"collection_times": [{"days": "Mon-Fri", "time": "4:50pm"}, {"days": "Sat", "time": "11:50am"}, {"days": "Sun", "time": "Closed"}], "id": "3950700028", "name": "USPS COLLECTION BOX - PO LOBBY", "address": {"city": "GULFPORT", "state": "MS", "street": "363 COURTHOUSE RD", "postcode": "39507"}}},
{"geometry": {"type": "Point", "coordinates": [-89.0441385097, 30.3842465833]}, "type": "Feature", "properties": {"collection_times": [{"days": "Mon-Fri", "time": "4:50pm"}, {"days": "Sat", "time": "11:50am"}, {"days": "Sun", "time": "Closed"}], "id": "3950700029", "name": "USPS COLLECTION BOX - PO LOBBY", "address": {"city": "GULFPORT", "state": "MS", "street": "363 COURTHOUSE RD", "postcode": "39507"}}},
{"geometry": {"type": "Point", "coordinates": [-89.3634002514, 30.3110178202]}, "type": "Feature", "properties": {"collection_times": [{"days": "Mon-Fri", "time": "5:00pm"}, {"days": "Sat", "time": "12:00pm"}, {"days": "Sun", "time": "Closed"}], "id": "3952000000", "name": "USPS COLLECTION BOX - BLUE BOX", "address": {"city": "BAY ST LOUIS", "state": "MS", "street": "1200 HIGHWAY 90", "postcode": "39520"}}},
{"geometry": {"type": "Point", "coordinates": [-89.4977023117, 30.3126350328]}, "type": "Feature", "properties": {"collection_times": [{"days": "Mon-Sat", "time": "12:00pm"}, {"days": "Sun", "time": "Closed"}], "id": "3952000006", "name": "USPS COLLECTION BOX - BLUE BOX", "address": {"city": "BAY ST LOUIS", "state": "MS", "street": "5300 DIAMONDHEAD CIR", "postcode": "39520"}}},
{"geometry": {"type": "Point", "coordinates": [-89.3634002514, 30.3110178202]}, "type": "Feature", "properties": {"collection_times": [{"days": "Mon-Fri", "time": "5:00pm"}, {"days": "Sat", "time": "12:00pm"}, {"days": "Sun", "time": "Closed"}], "id": "3952000016", "name": "USPS COLLECTION BOX - BLUE BOX", "address": {"city": "BAY ST LOUIS", "state": "MS", "street": "1200 HIGHWAY 90", "postcode": "39520"}}},
{"geometry": {"type": "Point", "coordinates": [-89.4977023117, 30.3126350328]}, "type": "Feature", "properties": {"collection_times": [{"days": "Mon-Sat", "time": "12:30pm"}, {"days": "Sun", "time": "Closed"}], "id": "3952000019", "name": "USPS COLLECTION BOX - BLUE BOX", "address": {"city": "BAY ST LOUIS", "state": "MS", "street": "4401 KALANI DR", "postcode": "39520"}}},
{"geometry": {"type": "Point", "coordinates": [-89.3634002514, 30.3110178202]}, "type": "Feature", "properties": {"collection_times": [{"days": "Mon-Fri", "time": "5:00pm"}, {"days": "Sat", "time": "12:00pm"}, {"days": "Sun", "time": "Closed"}], "id": "3952000022", "name": "USPS COLLECTION BOX - PO LOBBY", "address": {"city": "BAY ST LOUIS", "state": "MS", "street": "1200 HIGHWAY 90", "postcode": "39520"}}},
{"geometry": {"type": "Point", "coordinates": [-89.3634002514, 30.3110178202]}, "type": "Feature", "properties": {"collection_times": [{"days": "Mon-Fri", "time": "5:00pm"}, {"days": "Sat", "time": "12:00pm"}, {"days": "Sun", "time": "Closed"}], "id": "3952000023", "name": "USPS COLLECTION BOX - PO LOBBY", "address": {"city": "BAY ST LOUIS", "state": "MS", "street": "1200 HIGHWAY 90", "postcode": "39520"}}},
{"geometry": {"type": "Point", "coordinates": [-89.4977023117, 30.3126350328]}, "type": "Feature", "properties": {"collection_times": [{"days": "Mon-Fri", "time": "4:00pm"}, {"days": "Sat", "time": "12:00pm"}, {"days": "Sun", "time": "Closed"}], "id": "3952000025", "name": "USPS COLLECTION BOX - PO LOBBY", "address": {"city": "BAY ST LOUIS", "state": "MS", "street": "4402 E ALOHA DR", "postcode": "39520"}}},
{"geometry": {"type": "Point", "coordinates": [-88.8909049239, 30.4057419163]}, "type": "Feature", "properties": {"collection_times": [{"days": "Mon-Fri", "time": "4:00pm"}, {"days": "Sat-Sun", "time": "Closed"}], "id": "3953000021", "name": "USPS COLLECTION BOX - BLUE BOX", "address": {"city": "BILOXI", "state": "MS", "street": "201 MEADOWS DR", "postcode": "39530"}}},
{"geometry": {"type": "Point", "coordinates": [-88.885674904, 30.395104334]}, "type": "Feature", "properties": {"collection_times": [{"days": "Mon-Fri", "time": "4:30pm"}, {"days": "Sat", "time": "12:00pm"}, {"days": "Sun", "time": "Closed"}], "id": "3953000039", "name": "USPS COLLECTION BOX - BLUE BOX", "address": {"city": "BILOXI", "state": "MS", "street": "135 MAIN ST", "postcode": "39530"}}},
{"geometry": {"type": "Point", "coordinates": [-88.885674904, 30.395104334]}, "type": "Feature", "properties": {"collection_times": [{"days": "Mon-Fri", "time": "4:30pm"}, {"days": "Sat", "time": "12:00pm"}, {"days": "Sun", "time": "Closed"}], "id": "3953000040", "name": "USPS COLLECTION BOX - BLUE BOX", "address": {"city": "BILOXI", "state": "MS", "street": "135 MAIN ST", "postcode": "39530"}}},
{"geometry": {"type": "Point", "coordinates": [-88.8857263832, 30.3935320914]}, "type": "Feature", "properties": {"collection_times": [{"days": "Mon-Fri", "time": "4:30pm"}, {"days": "Sat", "time": "12:00pm"}, {"days": "Sun", "time": "Closed"}], "id": "3953000045", "name": "USPS COLLECTION BOX - PO LOBBY", "address": {"city": "BILOXI", "state": "MS", "street": "135 MAIN ST", "postcode": "39530"}}},
{"geometry": {"type": "Point", "coordinates": [-88.8857263832, 30.3935320914]}, "type": "Feature", "properties": {"collection_times": [{"days": "Mon-Fri", "time": "4:30pm"}, {"days": "Sat", "time": "12:00pm"}, {"days": "Sun", "time": "Closed"}], "id": "3953000046", "name": "USPS COLLECTION BOX - PO LOBBY", "address": {"city": "BILOXI", "state": "MS", "street": "135 MAIN ST", "postcode": "39530"}}},
{"geometry": {"type": "Point", "coordinates": [-88.9471462387, 30.408107835]}, "type": "Feature", "properties": {"collection_times": [{"days": "Mon-Fri", "time": "9:00am"}, {"days": "Sat-Sun", "time": "Closed"}], "id": "3953100003", "name": "USPS COLLECTION BOX - BLUE BOX", "address": {"city": "BILOXI", "state": "MS", "street": "400 VETERANS AVE", "postcode": "39531"}}},
{"geometry": {"type": "Point", "coordinates": [-88.9958789584, 30.3999167296]}, "type": "Feature", "properties": {"collection_times": [{"days": "Mon-Fri", "time": "11:00am"}, {"days": "Sat-Sun", "time": "Closed"}], "id": "3953100009", "name": "USPS COLLECTION BOX - BLUE BOX", "address": {"city": "BILOXI", "state": "MS", "street": "300 FAULKNER DR", "postcode": "39531"}}},
{"geometry": {"type": "Point", "coordinates": [-88.9619305292, 30.4025838555]}, "type": "Feature", "properties": {"collection_times": [{"days": "Mon-Fri", "time": "5:00pm"}, {"days": "Sat", "time": "12:00pm"}, {"days": "Sun", "time": "Closed"}], "id": "3953100025", "name": "USPS COLLECTION BOX - BLUE BOX", "address": {"city": "BILOXI", "state": "MS", "street": "2110 PASS RD", "postcode": "39531"}}},
{"geometry": {"type": "Point", "coordinates": [-88.9619305292, 30.4025838555]}, "type": "Feature", "properties": {"collection_times": [{"days": "Mon-Fri", "time": "5:00pm"}, {"days": "Sat", "time": "12:00pm"}, {"days": "Sun", "time": "Closed"}], "id": "3953100026", "name": "USPS COLLECTION BOX - BLUE BOX", "address": {"city": "BILOXI", "state": "MS", "street": "2110 PASS RD", "postcode": "39531"}}},
{"geometry": {"type": "Point", "coordinates": [-88.9653995237, 30.4048667127]}, "type": "Feature", "properties": {"collection_times": [{"days": "Mon-Fri", "time": "10:00am"}, {"days": "Sat-Sun", "time": "Closed"}], "id": "3953100028", "name": "USPS COLLECTION BOX - BLUE BOX", "address": {"city": "BILOXI", "state": "MS", "street": "2781 C T SWITZER SR DR", "postcode": "39531"}}},
{"geometry": {"type": "Point", "coordinates": [-88.9619305292, 30.4025838555]}, "type": "Feature", "properties": {"collection_times": [{"days": "Mon-Fri", "time": "5:00pm"}, {"days": "Sat", "time": "12:00pm"}, {"days": "Sun", "time": "Closed"}], "id": "3953100029", "name": "USPS COLLECTION BOX - PO LOBBY", "address": {"city": "BILOXI", "state": "MS", "street": "2110 PASS RD", "postcode": "39531"}}},
{"geometry": {"type": "Point", "coordinates": [-88.9619305292, 30.4025838555]}, "type": "Feature", "properties": {"collection_times": [{"days": "Mon-Fri", "time": "5:00pm"}, {"days": "Sat", "time": "12:00pm"}, {"days": "Sun", "time": "Closed"}], "id": "3953100030", "name": "USPS COLLECTION BOX - PO LOBBY", "address": {"city": "BILOXI", "state": "MS", "street": "2110 PASS RD", "postcode": "39531"}}},
{"geometry": {"type": "Point", "coordinates": [-88.9619305292, 30.4025838555]}, "type": "Feature", "properties": {"collection_times": [{"days": "Mon-Fri", "time": "5:00pm"}, {"days": "Sat", "time": "12:00pm"}, {"days": "Sun", "time": "Closed"}], "id": "3953100031", "name": "USPS COLLECTION BOX - PO LOBBY", "address": {"city": "BILOXI", "state": "MS", "street": "2110 PASS RD", "postcode": "39531"}}},
{"geometry": {"type": "Point", "coordinates": [-88.9585243447, 30.4952130107]}, "type": "Feature", "properties": {"collection_times": [{"days": "Mon-Fri", "time": "10:00am"}, {"days": "Sat-Sun", "time": "Closed"}], "id": "3953200005", "name": "USPS COLLECTION BOX - BLUE BOX", "address": {"city": "BILOXI", "state": "MS", "street": "1720A MEDICAL PARK DR", "postcode": "39532"}}},
{"geometry": {"type": "Point", "coordinates": [-88.958524345, 30.4952130108]}, "type": "Feature", "properties": {"collection_times": [{"days": "Mon-Fri", "time": "4:30pm"}, {"days": "Sat", "time": "12:00pm"}, {"days": "Sun", "time": "Closed"}], "id": "3953200010", "name": "USPS COLLECTION BOX - BLUE BOX", "address": {"city": "BILOXI", "state": "MS", "street": "356 GINGER DR", "postcode": "39532"}}},
{"geometry": {"type": "Point", "coordinates": [-88.958524345, 30.4952130108]}, "type": "Feature", "properties": {"collection_times": [{"days": "Mon-Fri", "time": "4:30pm"}, {"days": "Sat", "time": "12:00pm"}, {"days": "Sun", "time": "Closed"}], "id": "3953200011", "name": "USPS COLLECTION BOX - BLUE BOX", "address": {"city": "BILOXI", "state": "MS", "street": "356 GINGER DR", "postcode": "39532"}}},
{"geometry": {"type": "Point", "coordinates": [-88.958524345, 30.4952130108]}, "type": "Feature", "properties": {"collection_times": [{"days": "Mon-Fri", "time": "4:30pm"}, {"days": "Sat", "time": "12:00pm"}, {"days": "Sun", "time": "Closed"}], "id": "3953200012", "name": "USPS COLLECTION BOX - BLUE BOX", "address": {"city": "BILOXI", "state": "MS", "street": "356 GINGER DR", "postcode": "39532"}}},
{"geometry": {"type": "Point", "coordinates": [-88.958524345, 30.4952130108]}, "type": "Feature", "properties": {"collection_times": [{"days": "Mon-Fri", "time": "4:30pm"}, {"days": "Sat", "time": "12:00pm"}, {"days": "Sun", "time": "Closed"}], "id": "3953200016", "name": "USPS COLLECTION BOX - PO LOBBY", "address": {"city": "BILOXI", "state": "MS", "street": "356 GINGER DR", "postcode": "39532"}}},
{"geometry": {"type": "Point", "coordinates": [-88.958524345, 30.4952130108]}, "type": "Feature", "properties": {"collection_times": [{"days": "Mon-Fri", "time": "4:30pm"}, {"days": "Sat", "time": "12:00pm"}, {"days": "Sun", "time": "Closed"}], "id": "3953200017", "name": "USPS COLLECTION BOX - PO LOBBY", "address": {"city": "BILOXI", "state": "MS", "street": "356 GINGER DR", "postcode": "39532"}}},
{"geometry": {"type": "Point", "coordinates": [-88.958524345, 30.4952130108]}, "type": "Feature", "properties": {"collection_times": [{"days": "Mon-Fri", "time": "4:30pm"}, {"days": "Sat", "time": "12:00pm"}, {"days": "Sun", "time": "Closed"}], "id": "3953200018", "name": "USPS COLLECTION BOX - PO LOBBY", "address": {"city": "BILOXI", "state": "MS", "street": "356 GINGER DR", "postcode": "39532"}}},
{"geometry": {"type": "Point", "coordinates": [-88.992250393, 30.471783267]}, "type": "Feature", "properties": {"collection_times": [{"days": "Mon-Fri", "time": "9:00am"}, {"days": "Sat-Sun", "time": "Closed"}], "id": "3953200019", "name": "USPS COLLECTION BOX - BLUE BOX", "address": {"city": "BILOXI", "state": "MS", "street": "9221 WOOLMARKET RD", "postcode": "39532"}}},
{"geometry": {"type": "Point", "coordinates": [-88.5401230498, 30.4454770107]}, "type": "Feature", "properties": {"collection_times": [{"days": "Mon-Fri", "time": "4:00pm"}, {"days": "Sat", "time": "12:00pm"}, {"days": "Sun", "time": "Closed"}], "id": "3955200000", "name": "USPS COLLECTION BOX - BLUE BOX", "address": {"city": "ESCATAWPA", "state": "MS", "street": "4100 RABBY ST", "postcode": "39552"}}},
{"geometry": {"type": "Point", "coordinates": [-88.5401230498, 30.4454770107]}, "type": "Feature", "properties": {"collection_times": [{"days": "Mon-Fri", "time": "4:15pm"}, {"days": "Sat", "time": "12:00pm"}, {"days": "Sun", "time": "Closed"}], "id": "3955200001", "name": "USPS COLLECTION BOX - PO LOBBY", "address": {"city": "ESCATAWPA", "state": "MS", "street": "4100 RABBY ST", "postcode": "39552"}}},
{"geometry": {"type": "Point", "coordinates": [-88.6316686658, 30.3883784114]}, "type": "Feature", "properties": {"collection_times": [{"days": "Mon-Fri", "time": "4:45pm"}, {"days": "Sat", "time": "12:00pm"}, {"days": "Sun", "time": "Closed"}], "id": "3955300007", "name": "USPS COLLECTION BOX - BLUE BOX", "address": {"city": "GAUTIER", "state": "MS", "street": "1800 HIGHWAY 90", "postcode": "39553"}}},
{"geometry": {"type": "Point", "coordinates": [-88.6316686658, 30.3883784114]}, "type": "Feature", "properties": {"collection_times": [{"days": "Mon-Fri", "time": "4:45pm"}, {"days": "Sat", "time": "12:00pm"}, {"days": "Sun", "time": "Closed"}], "id": "3955300008", "name": "USPS COLLECTION BOX - BLUE BOX", "address": {"city": "GAUTIER", "state": "MS", "street": "1800 HIGHWAY 90", "postcode": "39553"}}},
{"geometry": {"type": "Point", "coordinates": [-88.6316686658, 30.3883784114]}, "type": "Feature", "properties": {"collection_times": [{"days": "Mon-Fri", "time": "5:00pm"}, {"days": "Sat", "time": "12:00pm"}, {"days": "Sun", "time": "Closed"}], "id": "3955300009", "name": "USPS COLLECTION BOX - PO LOBBY", "address": {"city": "GAUTIER", "state": "MS", "street": "1800 HIGHWAY 90", "postcode": "39553"}}},
{"geometry": {"type": "Point", "coordinates": [-88.6316686658, 30.3883784114]}, "type": "Feature", "properties": {"collection_times": [{"days": "Mon-Fri", "time": "5:00pm"}, {"days": "Sat", "time": "12:00pm"}, {"days": "Sun", "time": "Closed"}], "id": "3955300010", "name": "USPS COLLECTION BOX - PO LOBBY", "address": {"city": "GAUTIER", "state": "MS", "street": "1800 HIGHWAY 90", "postcode": "39553"}}},
{"geometry": {"type": "Point", "coordinates": [-88.4918348296, 30.6567520044]}, "type": "Feature", "properties": {"collection_times": [{"days": "Mon-Fri", "time": "4:00pm"}, {"days": "Sat", "time": "11:00am"}, {"days": "Sun", "time": "Closed"}], "id": "3955500001", "name": "USPS COLLECTION BOX - PO LOBBY", "address": {"city": "HURLEY", "state": "MS", "street": "7020 HIGHWAY 614", "postcode": "39555"}}},
{"geometry": {"type": "Point", "coordinates": [-88.4918348296, 30.6567520044]}, "type": "Feature", "properties": {"collection_times": [{"days": "Mon-Fri", "time": "4:00pm"}, {"days": "Sat", "time": "11:00am"}, {"days": "Sun", "time": "Closed"}], "id": "3955500002", "name": "USPS COLLECTION BOX - BLUE BOX", "address": {"city": "HURLEY", "state": "MS", "street": "7020 HIGHWAY 614", "postcode": "39555"}}},
{"geometry": {"type": "Point", "coordinates": [-89.4447794523, 30.392854929]}, "type": "Feature", "properties": {"collection_times": [{"days": "Mon-Fri", "time": "4:00pm"}, {"days": "Sat", "time": "11:25am"}, {"days": "Sun", "time": "Closed"}], "id": "3955600001", "name": "USPS COLLECTION BOX - PO LOBBY", "address": {"city": "KILN", "state": "MS", "street": "16250 HIGHWAY 603", "postcode": "39556"}}},
{"geometry": {"type": "Point", "coordinates": [-89.4447794523, 30.392854929]}, "type": "Feature", "properties": {"collection_times": [{"days": "Mon-Fri", "time": "4:00pm"}, {"days": "Sat", "time": "11:25am"}, {"days": "Sun", "time": "Closed"}], "id": "3955600004", "name": "USPS COLLECTION BOX - BLUE BOX", "address": {"city": "KILN", "state": "MS", "street": "16250 HIGHWAY 603", "postcode": "39556"}}},
{"geometry": {"type": "Point", "coordinates": [-89.153173317, 30.3545952737]}, "type": "Feature", "properties": {"collection_times": [{"days": "Mon-Fri", "time": "5:00pm"}, {"days": "Sat", "time": "12:30pm"}, {"days": "Sun", "time": "Closed"}], "id": "3956000000", "name": "USPS COLLECTION BOX - BLUE BOX", "address": {"city": "LONG BEACH", "state": "MS", "street": "200 KLONDYKE RD", "postcode": "39560"}}},
{"geometry": {"type": "Point", "coordinates": [-89.153173317, 30.3545952737]}, "type": "Feature", "properties": {"collection_times": [{"days": "Mon-Fri", "time": "5:00pm"}, {"days": "Sat", "time": "12:30pm"}, {"days": "Sun", "time": "Closed"}], "id": "3956000002", "name": "USPS COLLECTION BOX - BLUE BOX", "address": {"city": "LONG BEACH", "state": "MS", "street": "200 KLONDYKE RD", "postcode": "39560"}}},
{"geometry": {"type": "Point", "coordinates": [-89.153173317, 30.3545952737]}, "type": "Feature", "properties": {"collection_times": [{"days": "Mon-Fri", "time": "5:00pm"}, {"days": "Sat", "time": "12:30pm"}, {"days": "Sun", "time": "Closed"}], "id": "3956000009", "name": "USPS COLLECTION BOX - PO LOBBY", "address": {"city": "LONG BEACH", "state": "MS", "street": "200 KLONDYKE RD", "postcode": "39560"}}},
{"geometry": {"type": "Point", "coordinates": [-89.1885565799, 30.4007531593]}, "type": "Feature", "properties": {"collection_times": [{"days": "Mon-Sat", "time": "11:00am"}, {"days": "Sun", "time": "Closed"}], "id": "3956000013", "name": "USPS COLLECTION BOX - BLUE BOX", "address": {"city": "LONG BEACH", "state": "MS", "street": "8102 RED CREEK RD", "postcode": "39560"}}},
{"geometry": {"type": "Point", "coordinates": [-89.1356203531, 30.7121531244]}, "type": "Feature", "properties": {"collection_times": [{"days": "Mon-Fri", "time": "4:10pm"}, {"days": "Sat", "time": "10:10am"}, {"days": "Sun", "time": "Closed"}], "id": "3956100000", "name": "USPS COLLECTION BOX - BLUE BOX", "address": {"city": "MCHENRY", "state": "MS", "street": "16 N MCHENRY AVE", "postcode": "39561"}}},
{"geometry": {"type": "Point", "coordinates": [-89.1356203531, 30.7121531244]}, "type": "Feature", "properties": {"collection_times": [{"days": "Mon-Fri", "time": "11:00am"}, {"days": "Sat", "time": "10:10am"}, {"days": "Sun", "time": "Closed"}], "id": "3956100001", "name": "USPS COLLECTION BOX - PO LOBBY", "address": {"city": "MCHENRY", "state": "MS", "street": "16 N MCHENRY AVE", "postcode": "39561"}}},
{"geometry": {"type": "Point", "coordinates": [-88.5401398192, 30.4063094768]}, "type": "Feature", "properties": {"collection_times": [{"days": "Mon-Fri", "time": "4:30pm"}, {"days": "Sat", "time": "12:30pm"}, {"days": "Sun", "time": "Closed"}], "id": "3956300009", "name": "USPS COLLECTION BOX - PO LOBBY", "address": {"city": "PASCAGOULA", "state": "MS", "street": "4537 BOWEN ST", "postcode": "39563"}}},
{"geometry": {"type": "Point", "coordinates": [-88.5401398192, 30.4063094768]}, "type": "Feature", "properties": {"collection_times": [{"days": "Mon-Fri", "time": "4:30pm"}, {"days": "Sat", "time": "12:30pm"}, {"days": "Sun", "time": "Closed"}], "id": "3956300010", "name": "USPS COLLECTION BOX - PO LOBBY", "address": {"city": "PASCAGOULA", "state": "MS", "street": "4537 BOWEN ST", "postcode": "39563"}}},
{"geometry": {"type": "Point", "coordinates": [-88.5401398192, 30.4063094768]}, "type": "Feature", "properties": {"collection_times": [{"days": "Mon-Fri", "time": "4:30pm"}, {"days": "Sat", "time": "12:30pm"}, {"days": "Sun", "time": "Closed"}], "id": "3956300012", "name": "USPS COLLECTION BOX - BLUE BOX", "address": {"city": "PASCAGOULA", "state": "MS", "street": "4537 BOWEN ST", "postcode": "39563"}}},
{"geometry": {"type": "Point", "coordinates": [-88.8172213013, 30.4165056921]}, "type": "Feature", "properties": {"collection_times": [{"days": "Mon-Fri", "time": "5:00pm"}, {"days": "Sat", "time": "1:00pm"}, {"days": "Sun", "time": "Closed"}], "id": "3956400000", "name": "USPS COLLECTION BOX - BLUE BOX", "address": {"city": "OCEAN SPRINGS", "state": "MS", "street": "1581 BIENVILLE BLVD", "postcode": "39564"}}},
{"geometry": {"type": "Point", "coordinates": [-88.8172213013, 30.4165056921]}, "type": "Feature", "properties": {"collection_times": [{"days": "Mon-Fri", "time": "5:00pm"}, {"days": "Sat", "time": "1:00pm"}, {"days": "Sun", "time": "Closed"}], "id": "3956400001", "name": "USPS COLLECTION BOX - BLUE BOX", "address": {"city": "OCEAN SPRINGS", "state": "MS", "street": "1581 BIENVILLE BLVD", "postcode": "39564"}}},
{"geometry": {"type": "Point", "coordinates": [-88.8172213013, 30.4165056921]}, "type": "Feature", "properties": {"collection_times": [{"days": "Mon-Fri", "time": "5:00pm"}, {"days": "Sat", "time": "1:00pm"}, {"days": "Sun", "time": "Closed"}], "id": "3956400002", "name": "USPS COLLECTION BOX - BLUE BOX", "address": {"city": "OCEAN SPRINGS", "state": "MS", "street": "1581 BIENVILLE BLVD", "postcode": "39564"}}},
{"geometry": {"type": "Point", "coordinates": [-88.8172213013, 30.4165056921]}, "type": "Feature", "properties": {"collection_times": [{"days": "Mon-Fri", "time": "5:00pm"}, {"days": "Sat", "time": "1:00pm"}, {"days": "Sun", "time": "Closed"}], "id": "3956400012", "name": "USPS COLLECTION BOX - PO LOBBY", "address": {"city": "OCEAN SPRINGS", "state": "MS", "street": "1581 BIENVILLE BLVD", "postcode": "39564"}}},
{"geometry": {"type": "Point", "coordinates": [-88.8172213013, 30.4165056921]}, "type": "Feature", "properties": {"collection_times": [{"days": "Mon-Fri", "time": "5:00pm"}, {"days": "Sat", "time": "1:00pm"}, {"days": "Sun", "time": "Closed"}], "id": "3956400014", "name": "USPS COLLECTION BOX - APC", "address": {"city": "OCEAN SPRINGS", "state": "MS", "street": "1581 BIENVILLE BLVD", "postcode": "39564"}}},
{"geometry": {"type": "Point", "coordinates": [-88.8278316108, 30.4139940939]}, "type": "Feature", "properties": {"collection_times": [{"days": "Mon-Fri", "time": "1:30pm"}, {"days": "Sat-Sun", "time": "Closed"}], "id": "3956400015", "name": "USPS COLLECTION BOX - BLUE BOX", "address": {"city": "OCEAN SPRINGS", "state": "MS", "street": "901 WASHINGTON AVE", "postcode": "39564"}}},
{"geometry": {"type": "Point", "coordinates": [-88.6877978202, 30.5391037117]}, "type": "Feature", "properties": {"collection_times": [{"days": "Mon-Fri", "time": "4:30pm"}, {"days": "Sat", "time": "10:30am"}, {"days": "Sun", "time": "Closed"}], "id": "3956500001", "name": "USPS COLLECTION BOX - BLUE BOX", "address": {"city": "VANCLEAVE", "state": "MS", "street": "12401 HIGHWAY 57", "postcode": "39565"}}},
{"geometry": {"type": "Point", "coordinates": [-88.6877978202, 30.5391037117]}, "type": "Feature", "properties": {"collection_times": [{"days": "Mon-Fri", "time": "4:15pm"}, {"days": "Sat", "time": "10:30am"}, {"days": "Sun", "time": "Closed"}], "id": "3956500002", "name": "USPS COLLECTION BOX - PO LOBBY", "address": {"city": "VANCLEAVE", "state": "MS", "street": "12401 HIGHWAY 57", "postcode": "39565"}}},
{"geometry": {"type": "Point", "coordinates": [-88.6877978202, 30.5391037117]}, "type": "Feature", "properties": {"collection_times": [{"days": "Mon-Fri", "time": "4:15pm"}, {"days": "Sat", "time": "10:30am"}, {"days": "Sun", "time": "Closed"}], "id": "3956500003", "name": "USPS COLLECTION BOX - PO LOBBY", "address": {"city": "VANCLEAVE", "state": "MS", "street": "12401 HIGHWAY 57", "postcode": "39565"}}},
{"geometry": {"type": "Point", "coordinates": [-88.554725291, 30.3658372526]}, "type": "Feature", "properties": {"collection_times": [{"days": "Mon-Fri", "time": "4:30pm"}, {"days": "Sat", "time": "12:00pm"}, {"days": "Sun", "time": "Closed"}], "id": "3956700000", "name": "USPS COLLECTION BOX - BLUE BOX", "address": {"city": "PASCAGOULA", "state": "MS", "street": "911 JACKSON AVE", "postcode": "39567"}}},
{"geometry": {"type": "Point", "coordinates": [-88.554725291, 30.3658372526]}, "type": "Feature", "properties": {"collection_times": [{"days": "Mon-Fri", "time": "4:30pm"}, {"days": "Sat", "time": "12:00pm"}, {"days": "Sun", "time": "Closed"}], "id": "3956700001", "name": "USPS COLLECTION BOX - BLUE BOX", "address": {"city": "PASCAGOULA", "state": "MS", "street": "911 JACKSON AVE", "postcode": "39567"}}},
{"geometry": {"type": "Point", "coordinates": [-88.5459058449, 30.354773336]}, "type": "Feature", "properties": {"collection_times": [{"days": "Mon-Fri", "time": "11:00am"}, {"days": "Sat-Sun", "time": "Closed"}], "id": "3956700012", "name": "USPS COLLECTION BOX - BLUE BOX", "address": {"city": "PASCAGOULA", "state": "MS", "street": "1804 INGALLS AVE", "postcode": "39567"}}},
{"geometry": {"type": "Point", "coordinates": [-88.5346089053, 30.3735383914]}, "type": "Feature", "properties": {"collection_times": [{"days": "Mon-Fri", "time": "3:25pm"}, {"days": "Sat-Sun", "time": "Closed"}], "id": "3956700022", "name": "USPS COLLECTION BOX - BLUE BOX", "address": {"city": "PASCAGOULA", "state": "MS", "street": "2809 DENNY AVE", "postcode": "39567"}}},
{"geometry": {"type": "Point", "coordinates": [-88.5346871985, 30.3732548249]}, "type": "Feature", "properties": {"collection_times": [{"days": "Mon-Fri", "time": "2:30pm"}, {"days": "Sat-Sun", "time": "Closed"}], "id": "3956700032", "name": "USPS COLLECTION BOX - BLUE BOX", "address": {"city": "PASCAGOULA", "state": "MS", "street": "4105 HOSPITAL ST", "postcode": "39567"}}},
{"geometry": {"type": "Point", "coordinates": [-88.554725291, 30.3658372526]}, "type": "Feature", "properties": {"collection_times": [{"days": "Mon-Fri", "time": "4:30pm"}, {"days": "Sat", "time": "12:00pm"}, {"days": "Sun", "time": "Closed"}], "id": "3956700035", "name": "USPS COLLECTION BOX - PO LOBBY", "address": {"city": "PASCAGOULA", "state": "MS", "street": "911 JACKSON AVE", "postcode": "39567"}}},
{"geometry": {"type": "Point", "coordinates": [-88.554725291, 30.3658372526]}, "type": "Feature", "properties": {"collection_times": [{"days": "Mon-Fri", "time": "4:30pm"}, {"days": "Sat", "time": "12:00pm"}, {"days": "Sun", "time": "Closed"}], "id": "3956700036", "name": "USPS COLLECTION BOX - PO LOBBY", "address": {"city": "PASCAGOULA", "state": "MS", "street": "911 JACKSON AVE", "postcode": "39567"}}},
{"geometry": {"type": "Point", "coordinates": [-89.2438857987, 30.3208732452]}, "type": "Feature", "properties": {"collection_times": [{"days": "Mon-Fri", "time": "2:30pm"}, {"days": "Sat", "time": "11:00am"}, {"days": "Sun", "time": "Closed"}], "id": "3957100009", "name": "USPS COLLECTION BOX - BLUE BOX", "address": {"city": "PASS CHRISTIAN", "state": "MS", "street": "300 LADNIER ST", "postcode": "39571"}}},
{"geometry": {"type": "Point", "coordinates": [-89.2438857987, 30.3208732452]}, "type": "Feature", "properties": {"collection_times": [{"days": "Mon-Fri", "time": "2:30pm"}, {"days": "Sat", "time": "11:00am"}, {"days": "Sun", "time": "Closed"}], "id": "3957100010", "name": "USPS COLLECTION BOX - BLUE BOX", "address": {"city": "PASS CHRISTIAN", "state": "MS", "street": "300 LADNIER ST", "postcode": "39571"}}},
{"geometry": {"type": "Point", "coordinates": [-89.2438857987, 30.3208732452]}, "type": "Feature", "properties": {"collection_times": [{"days": "Mon-Fri", "time": "2:30pm"}, {"days": "Sat", "time": "11:00am"}, {"days": "Sun", "time": "Closed"}], "id": "3957100011", "name": "USPS COLLECTION BOX - PO LOBBY", "address": {"city": "PASS CHRISTIAN", "state": "MS", "street": "300 LADNIER ST", "postcode": "39571"}}},
{"geometry": {"type": "Point", "coordinates": [-89.1364913876, 30.7851506749]}, "type": "Feature", "properties": {"collection_times": [{"days": "Mon-Fri", "time": "4:10pm"}, {"days": "Sat", "time": "10:00am"}, {"days": "Sun", "time": "Closed"}], "id": "3957300000", "name": "USPS COLLECTION BOX - BLUE BOX", "address": {"city": "PERKINSTON", "state": "MS", "street": "145 MAIN ST", "postcode": "39573"}}},
{"geometry": {"type": "Point", "coordinates": [-89.0537695668, 30.8115784994]}, "type": "Feature", "properties": {"collection_times": [{"days": "Mon-Sat", "time": "12:30pm"}, {"days": "Sun", "time": "Closed"}], "id": "3957300002", "name": "USPS COLLECTION BOX - BLUE BOX", "address": {"city": "PERKINSTON", "state": "MS", "street": "1023 KING BEE RD", "postcode": "39573"}}},
{"geometry": {"type": "Point", "coordinates": [-89.1322833026, 30.6355266094]}, "type": "Feature", "properties": {"collection_times": [{"days": "Mon-Fri", "time": "4:00pm"}, {"days": "Sat", "time": "11:00am"}, {"days": "Sun", "time": "Closed"}], "id": "3957400000", "name": "USPS COLLECTION BOX - BLUE BOX", "address": {"city": "SAUCIER", "state": "MS", "street": "17690 2ND ST", "postcode": "39574"}}},
{"geometry": {"type": "Point", "coordinates": [-89.1322833026, 30.6355266094]}, "type": "Feature", "properties": {"collection_times": [{"days": "Mon-Fri", "time": "4:30pm"}, {"days": "Sat", "time": "11:00am"}, {"days": "Sun", "time": "Closed"}], "id": "3957400001", "name": "USPS COLLECTION BOX - PO LOBBY", "address": {"city": "SAUCIER", "state": "MS", "street": "17690 2ND ST", "postcode": "39574"}}},
{"geometry": {"type": "Point", "coordinates": [-89.1387008844, 30.8553211832]}, "type": "Feature", "properties": {"collection_times": [{"days": "Mon-Fri", "time": "5:00pm"}, {"days": "Sat", "time": "11:00am"}, {"days": "Sun", "time": "Closed"}], "id": "3957700002", "name": "USPS COLLECTION BOX - PO LOBBY", "address": {"city": "WIGGINS", "state": "MS", "street": "125 BORDER AVE W", "postcode": "39577"}}},
{"geometry": {"type": "Point", "coordinates": [-89.1387008844, 30.8553211832]}, "type": "Feature", "properties": {"collection_times": [{"days": "Mon-Fri", "time": "4:30pm"}, {"days": "Sat", "time": "11:00am"}, {"days": "Sun", "time": "Closed"}], "id": "3957700003", "name": "USPS COLLECTION BOX - BLUE BOX", "address": {"city": "WIGGINS", "state": "MS", "street": "125 BORDER AVE W", "postcode": "39577"}}},
{"geometry": {"type": "Point", "coordinates": [-89.1387008844, 30.8553211832]}, "type": "Feature", "properties": {"collection_times": [{"days": "Mon-Fri", "time": "4:30pm"}, {"days": "Sat", "time": "11:00am"}, {"days": "Sun", "time": "Closed"}], "id": "3957700004", "name": "USPS COLLECTION BOX - BLUE BOX", "address": {"city": "WIGGINS", "state": "MS", "street": "125 BORDER AVE W", "postcode": "39577"}}}
]}
