{"type": "FeatureCollection", "features": [
{"geometry": {"type": "Point", "coordinates": [-90.4599764253, 31.5794856095]}, "type": "Feature", "properties": {"collection_times": [{"days": "Mon-Fri", "time": "2:00pm"}, {"days": "Sat-Sun", "time": "Closed"}], "id": "3960100001", "name": "USPS COLLECTION BOX - BLUE BOX", "address": {"city": "BROOKHAVEN", "state": "MS", "street": "820 BROOKWAY BLVD", "postcode": "39601"}}},
{"geometry": {"type": "Point", "coordinates": [-90.4566806333, 31.5830405023]}, "type": "Feature", "properties": {"collection_times": [{"days": "Mon-Fri", "time": "9:30am"}, {"days": "Sat-Sun", "time": "Closed"}], "id": "3960100004", "name": "USPS COLLECTION BOX - BLUE BOX", "address": {"city": "BROOKHAVEN", "state": "MS", "street": "200 HIGHWAY 51 N", "postcode": "39601"}}},
{"geometry": {"type": "Point", "coordinates": [-90.4416045608, 31.5765935458]}, "type": "Feature", "properties": {"collection_times": [{"days": "Mon-Fri", "time": "1:00pm"}, {"days": "Sat-Sun", "time": "Closed"}], "id": "3960100007", "name": "USPS COLLECTION BOX - BLUE BOX", "address": {"city": "BROOKHAVEN", "state": "MS", "street": "301 S FIRST ST", "postcode": "39601"}}},
{"geometry": {"type": "Point", "coordinates": [-90.4416045608, 31.5765935458]}, "type": "Feature", "properties": {"collection_times": [{"days": "Mon-Fri", "time": "1:00pm"}, {"days": "Sat-Sun", "time": "Closed"}], "id": "3960100008", "name": "USPS COLLECTION BOX - BLUE BOX", "address": {"city": "BROOKHAVEN", "state": "MS", "street": "301 S FIRST ST", "postcode": "39601"}}},
{"geometry": {"type": "Point", "coordinates": [-90.4448319682, 31.5789061278]}, "type": "Feature", "properties": {"collection_times": [{"days": "Mon-Fri", "time": "4:25pm"}, {"days": "Sat-Sun", "time": "Closed"}], "id": "3960100010", "name": "USPS COLLECTION BOX - BLUE BOX", "address": {"city": "BROOKHAVEN", "state": "MS", "street": "200 W CHEROKEE ST", "postcode": "39601"}}},
{"geometry": {"type": "Point", "coordinates": [-90.4448319682, 31.5789061278]}, "type": "Feature", "properties": {"collection_times": [{"days": "Mon-Fri", "time": "4:25pm"}, {"days": "Sat-Sun", "time": "Closed"}], "id": "3960100011", "name": "USPS COLLECTION BOX - BLUE BOX", "address": {"city": "BROOKHAVEN", "state": "MS", "street": "200 W CHEROKEE ST", "postcode": "39601"}}},
{"geometry": {"type": "Point", "coordinates": [-90.4448707991, 31.5788015916]}, "type": "Feature", "properties": {"collection_times": [{"days": "Mon-Fri", "time": "4:25pm"}, {"days": "Sat-Sun", "time": "Closed"}], "id": "3960100012", "name": "USPS COLLECTION BOX - BLUE BOX", "address": {"city": "BROOKHAVEN", "state": "MS", "street": "201 W CHEROKEE ST", "postcode": "39601"}}},
{"geometry": {"type": "Point", "coordinates": [-90.4448707991, 31.5788015916]}, "type": "Feature", "properties": {"collection_times": [{"days": "Mon-Fri", "time": "4:25pm"}, {"days": "Sat-Sun", "time": "Closed"}], "id": "3960100013", "name": "USPS COLLECTION BOX - PO LOBBY", "address": {"city": "BROOKHAVEN", "state": "MS", "street": "201 W CHEROKEE ST", "postcode": "39601"}}},
{"geometry": {"type": "Point", "coordinates": [-90.4448707991, 31.5788015916]}, "type": "Feature", "properties": {"collection_times": [{"days": "Mon-Fri", "time": "4:25pm"}, {"days": "Sat-Sun", "time": "Closed"}], "id": "3960100014", "name": "USPS COLLECTION BOX - PO LOBBY", "address": {"city": "BROOKHAVEN", "state": "MS", "street": "201 W CHEROKEE ST", "postcode": "39601"}}},
{"geometry": {"type": "Point", "coordinates": [-90.4605441419, 31.5793260522]}, "type": "Feature", "properties": {"collection_times": [{"days": "Mon-Fri", "time": "4:15pm"}, {"days": "Sat", "time": "11:00am"}, {"days": "Sun", "time": "Closed"}], "id": "3960100034", "name": "USPS COLLECTION BOX - BLUE BOX", "address": {"city": "BROOKHAVEN", "state": "MS", "street": "407 BROOKHAVEN ST", "postcode": "39601"}}},
{"geometry": {"type": "Point", "coordinates": [-90.4605441419, 31.5793260522]}, "type": "Feature", "properties": {"collection_times": [{"days": "Mon-Fri", "time": "4:15pm"}, {"days": "Sat", "time": "11:00am"}, {"days": "Sun", "time": "Closed"}], "id": "3960100035", "name": "USPS COLLECTION BOX - BLUE BOX", "address": {"city": "BROOKHAVEN", "state": "MS", "street": "407 BROOKHAVEN ST", "postcode": "39601"}}},
{"geometry": {"type": "Point", "coordinates": [-90.4605441419, 31.5793260522]}, "type": "Feature", "properties": {"collection_times": [{"days": "Mon-Fri", "time": "4:30pm"}, {"days": "Sat", "time": "11:00am"}, {"days": "Sun", "time": "Closed"}], "id": "3960100036", "name": "USPS COLLECTION BOX - PO LOBBY", "address": {"city": "BROOKHAVEN", "state": "MS", "street": "407 BROOKHAVEN ST", "postcode": "39601"}}},
{"geometry": {"type": "Point", "coordinates": [-90.4544986801, 31.4391641742]}, "type": "Feature", "properties": {"collection_times": [{"days": "Mon-Fri", "time": "3:45pm"}, {"days": "Sat", "time": "10:00am"}, {"days": "Sun", "time": "Closed"}], "id": "3962900000", "name": "USPS COLLECTION BOX - BLUE BOX", "address": {"city": "BOGUE CHITTO", "state": "MS", "street": "409 MONTICELLO ST", "postcode": "39629"}}},
{"geometry": {"type": "Point", "coordinates": [-90.4544986801, 31.4391641742]}, "type": "Feature", "properties": {"collection_times": [{"days": "Mon-Fri", "time": "4:00pm"}, {"days": "Sat", "time": "10:00am"}, {"days": "Sun", "time": "Closed"}], "id": "3962900001", "name": "USPS COLLECTION BOX - PO LOBBY", "address": {"city": "BOGUE CHITTO", "state": "MS", "street": "409 MONTICELLO ST", "postcode": "39629"}}},
{"geometry": {"type": "Point", "coordinates": [-90.8434107534, 31.4638005399]}, "type": "Feature", "properties": {"collection_times": [{"days": "Mon-Fri", "time": "4:00pm"}, {"days": "Sat", "time": "10:00am"}, {"days": "Sun", "time": "Closed"}], "id": "3963000000", "name": "USPS COLLECTION BOX - BLUE BOX", "address": {"city": "BUDE", "state": "MS", "street": "126 MAIN ST N", "postcode": "39630"}}},
{"geometry": {"type": "Point", "coordinates": [-90.8434107534, 31.4638005399]}, "type": "Feature", "properties": {"collection_times": [{"days": "Mon-Fri", "time": "12:00pm"}, {"days": "Sat", "time": "10:00am"}, {"days": "Sun", "time": "Closed"}], "id": "3963000001", "name": "USPS COLLECTION BOX - PO LOBBY", "address": {"city": "BUDE", "state": "MS", "street": "126 MAIN ST N", "postcode": "39630"}}},
{"geometry": {"type": "Point", "coordinates": [-91.0657869319, 31.0883533003]}, "type": "Feature", "properties": {"collection_times": [{"days": "Mon-Fri", "time": "3:45pm"}, {"days": "Sat", "time": "11:00am"}, {"days": "Sun", "time": "Closed"}], "id": "3963100000", "name": "USPS COLLECTION BOX - BLUE BOX", "address": {"city": "CENTREVILLE", "state": "MS", "street": "210 E MAIN ST", "postcode": "39631"}}},
{"geometry": {"type": "Point", "coordinates": [-91.0657869319, 31.0883533003]}, "type": "Feature", "properties": {"collection_times": [{"days": "Mon-Fri", "time": "4:00pm"}, {"days": "Sat", "time": "11:00am"}, {"days": "Sun", "time": "Closed"}], "id": "3963100001", "name": "USPS COLLECTION BOX - PO LOBBY", "address": {"city": "CENTREVILLE", "state": "MS", "street": "210 E MAIN ST", "postcode": "39631"}}},
{"geometry": {"type": "Point", "coordinates": [-91.1772023295, 31.2971765319]}, "type": "Feature", "properties": {"collection_times": [{"days": "Mon-Fri", "time": "1:30pm"}, {"days": "Sat", "time": "9:30am"}, {"days": "Sun", "time": "Closed"}], "id": "3963300000", "name": "USPS COLLECTION BOX - BLUE BOX", "address": {"city": "CROSBY", "state": "MS", "street": "136 W PINE ST", "postcode": "39633"}}},
{"geometry": {"type": "Point", "coordinates": [-90.4500115306, 31.1854721343]}, "type": "Feature", "properties": {"collection_times": [{"days": "Mon-Fri", "time": "3:50pm"}, {"days": "Sat", "time": "8:00am"}, {"days": "Sun", "time": "Closed"}], "id": "3963500000", "name": "USPS COLLECTION BOX - BLUE BOX", "address": {"city": "FERNWOOD", "state": "MS", "street": "1007 CHERRY DR", "postcode": "39635"}}},
{"geometry": {"type": "Point", "coordinates": [-90.4500115306, 31.1854721343]}, "type": "Feature", "properties": {"collection_times": [{"days": "Mon-Fri", "time": "11:00am"}, {"days": "Sat", "time": "8:00am"}, {"days": "Sun", "time": "Closed"}], "id": "3963500001", "name": "USPS COLLECTION BOX - PO LOBBY", "address": {"city": "FERNWOOD", "state": "MS", "street": "1007 CHERRY DR", "postcode": "39635"}}},
{"geometry": {"type": "Point", "coordinates": [-91.0187689674, 31.1972777674]}, "type": "Feature", "properties": {"collection_times": [{"days": "Mon-Fri", "time": "4:00pm"}, {"days": "Sat", "time": "11:00am"}, {"days": "Sun", "time": "Closed"}], "id": "3963800000", "name": "USPS COLLECTION BOX - BLUE BOX", "address": {"city": "GLOSTER", "state": "MS", "street": "200 E MAIN ST", "postcode": "39638"}}},
{"geometry": {"type": "Point", "coordinates": [-91.0187689674, 31.1972777674]}, "type": "Feature", "properties": {"collection_times": [{"days": "Mon-Fri", "time": "4:00pm"}, {"days": "Sat", "time": "11:00am"}, {"days": "Sun", "time": "Closed"}], "id": "3963800001", "name": "USPS COLLECTION BOX - PO LOBBY", "address": {"city": "GLOSTER", "state": "MS", "street": "200 E MAIN ST", "postcode": "39638"}}},
{"geometry": {"type": "Point", "coordinates": [-90.1658388056, 31.394014774]}, "type": "Feature", "properties": {"collection_times": [{"days": "Mon-Fri", "time": "3:45pm"}, {"days": "Sat", "time": "10:00am"}, {"days": "Sun", "time": "Closed"}], "id": "3964100000", "name": "USPS COLLECTION BOX - BLUE BOX", "address": {"city": "JAYESS", "state": "MS", "street": "624 HIGHWAY 44", "postcode": "39641"}}},
{"geometry": {"type": "Point", "coordinates": [-90.1658388056, 31.394014774]}, "type": "Feature", "properties": {"collection_times": [{"days": "Mon-Fri", "time": "3:45pm"}, {"days": "Sat", "time": "10:00am"}, {"days": "Sun", "time": "Closed"}], "id": "3964100001", "name": "USPS COLLECTION BOX - PO LOBBY", "address": {"city": "JAYESS", "state": "MS", "street": "624 HIGHWAY 44", "postcode": "39641"}}},
{"geometry": {"type": "Point", "coordinates": [-90.1658388056, 31.394014774]}, "type": "Feature", "properties": {"collection_times": [{"days": "Mon-Fri", "time": "3:45pm"}, {"days": "Sat", "time": "10:00am"}, {"days": "Sun", "time": "Closed"}], "id": "3964100002", "name": "USPS COLLECTION BOX - PO LOBBY", "address": {"city": "JAYESS", "state": "MS", "street": "624 HIGHWAY 44", "postcode": "39641"}}},
{"geometry": {"type": "Point", "coordinates": [-90.0032379639, 31.1953340921]}, "type": "Feature", "properties": {"collection_times": [{"days": "Mon-Fri", "time": "4:00pm"}, {"days": "Sat", "time": "8:00am"}, {"days": "Sun", "time": "Closed"}], "id": "3964300001", "name": "USPS COLLECTION BOX - BLUE BOX", "address": {"city": "KOKOMO", "state": "MS", "street": "364 OLD HIGHWAY 24 W", "postcode": "39643"}}},
{"geometry": {"type": "Point", "coordinates": [-90.0032379639, 31.1953340921]}, "type": "Feature", "properties": {"collection_times": [{"days": "Mon-Fri", "time": "12:00pm"}, {"days": "Sat", "time": "8:00am"}, {"days": "Sun", "time": "Closed"}], "id": "3964300002", "name": "USPS COLLECTION BOX - PO LOBBY", "address": {"city": "KOKOMO", "state": "MS", "street": "364 OLD HIGHWAY 24 W", "postcode": "39643"}}},
{"geometry": {"type": "Point", "coordinates": [-90.7963992557, 31.1602692401]}, "type": "Feature", "properties": {"collection_times": [{"days": "Mon-Fri", "time": "4:15pm"}, {"days": "Sat", "time": "10:50am"}, {"days": "Sun", "time": "Closed"}], "id": "3964500000", "name": "USPS COLLECTION BOX - BLUE BOX", "address": {"city": "LIBERTY", "state": "MS", "street": "1010 E MAIN ST", "postcode": "39645"}}},
{"geometry": {"type": "Point", "coordinates": [-90.7963992557, 31.1602692401]}, "type": "Feature", "properties": {"collection_times": [{"days": "Mon-Fri", "time": "4:25pm"}, {"days": "Sat", "time": "10:55am"}, {"days": "Sun", "time": "Closed"}], "id": "3964500001", "name": "USPS COLLECTION BOX - PO LOBBY", "address": {"city": "LIBERTY", "state": "MS", "street": "1010 E MAIN ST", "postcode": "39645"}}},
{"geometry": {"type": "Point", "coordinates": [-90.7568758706, 31.5302534717]}, "type": "Feature", "properties": {"collection_times": [{"days": "Mon-Fri", "time": "11:00am"}, {"days": "Sat", "time": "8:00am"}, {"days": "Sun", "time": "Closed"}], "id": "3964700000", "name": "USPS COLLECTION BOX - PO LOBBY", "address": {"city": "MCCALL CREEK", "state": "MS", "street": "HWY 84 W", "postcode": "39647"}}},
{"geometry": {"type": "Point", "coordinates": [-90.7568758706, 31.5302534717]}, "type": "Feature", "properties": {"collection_times": [{"days": "Mon-Fri", "time": "3:45pm"}, {"days": "Sat", "time": "8:00am"}, {"days": "Sun", "time": "Closed"}], "id": "3964700001", "name": "USPS COLLECTION BOX - BLUE BOX", "address": {"city": "MCCALL CREEK", "state": "MS", "street": "HWY 84 W", "postcode": "39647"}}},
{"geometry": {"type": "Point", "coordinates": [-90.4729790097, 31.2474196948]}, "type": "Feature", "properties": {"collection_times": [{"days": "Mon-Sat", "time": "10:00am"}, {"days": "Sun", "time": "Closed"}], "id": "3964800004", "name": "USPS COLLECTION BOX - BLUE BOX", "address": {"city": "MCCOMB", "state": "MS", "street": "1623 DELAWARE AVE", "postcode": "39648"}}},
{"geometry": {"type": "Point", "coordinates": [-90.4665254106, 31.2474955023]}, "type": "Feature", "properties": {"collection_times": [{"days": "Mon-Sat", "time": "10:00am"}, {"days": "Sun", "time": "Closed"}], "id": "3964800005", "name": "USPS COLLECTION BOX - BLUE BOX", "address": {"city": "MCCOMB", "state": "MS", "street": "1209 DELAWARE AVE", "postcode": "39648"}}},
{"geometry": {"type": "Point", "coordinates": [-90.4522961256, 31.2437840792]}, "type": "Feature", "properties": {"collection_times": [{"days": "Mon-Sat", "time": "10:00am"}, {"days": "Sun", "time": "Closed"}], "id": "3964800007", "name": "USPS COLLECTION BOX - BLUE BOX", "address": {"city": "MCCOMB", "state": "MS", "street": "215 MAIN ST", "postcode": "39648"}}},
{"geometry": {"type": "Point", "coordinates": [-90.4759871236, 31.2498799067]}, "type": "Feature", "properties": {"collection_times": [{"days": "Mon-Sat", "time": "10:00am"}, {"days": "Sun", "time": "Closed"}], "id": "3964800011", "name": "USPS COLLECTION BOX - BLUE BOX", "address": {"city": "MCCOMB", "state": "MS", "street": "211 LLEWELLYN AVE", "postcode": "39648"}}},
{"geometry": {"type": "Point", "coordinates": [-90.4565850346, 31.2451331505]}, "type": "Feature", "properties": {"collection_times": [{"days": "Mon-Fri", "time": "5:10pm"}, {"days": "Sat", "time": "10:30am"}, {"days": "Sun", "time": "Closed"}], "id": "3964800013", "name": "USPS COLLECTION BOX - PO LOBBY", "address": {"city": "MCCOMB", "state": "MS", "street": "530 DELAWARE AVE", "postcode": "39648"}}},
{"geometry": {"type": "Point", "coordinates": [-90.4565850346, 31.2451331505]}, "type": "Feature", "properties": {"collection_times": [{"days": "Mon-Fri", "time": "5:10pm"}, {"days": "Sat", "time": "10:30am"}, {"days": "Sun", "time": "Closed"}], "id": "3964800014", "name": "USPS COLLECTION BOX - BLUE BOX", "address": {"city": "MCCOMB", "state": "MS", "street": "530 DELAWARE AVE", "postcode": "39648"}}},
{"geometry": {"type": "Point", "coordinates": [-90.4565850346, 31.2451331505]}, "type": "Feature", "properties": {"collection_times": [{"days": "Mon-Fri", "time": "5:10pm"}, {"days": "Sat", "time": "10:30am"}, {"days": "Sun", "time": "Closed"}], "id": "3964800015", "name": "USPS COLLECTION BOX - PO LOBBY", "address": {"city": "MCCOMB", "state": "MS", "street": "530 DELAWARE AVE", "postcode": "39648"}}},
{"geometry": {"type": "Point", "coordinates": [-90.4719776092, 31.2606707757]}, "type": "Feature", "properties": {"collection_times": [{"days": "Mon-Sat", "time": "10:00am"}, {"days": "Sun", "time": "Closed"}], "id": "3964800027", "name": "USPS COLLECTION BOX - BLUE BOX", "address": {"city": "MCCOMB", "state": "MS", "street": "1608 VETERANS BLVD", "postcode": "39648"}}},
{"geometry": {"type": "Point", "coordinates": [-90.4709791017, 31.2506432149]}, "type": "Feature", "properties": {"collection_times": [{"days": "Mon-Fri", "time": "10:00am"}, {"days": "Sat-Sun", "time": "Closed"}], "id": "3964800030", "name": "USPS COLLECTION BOX - BLUE BOX", "address": {"city": "MCCOMB", "state": "MS", "street": "300 RAWLS DR", "postcode": "39648"}}},
{"geometry": {"type": "Point", "coordinates": [-90.4709791017, 31.2506432149]}, "type": "Feature", "properties": {"collection_times": [{"days": "Mon-Fri", "time": "10:00am"}, {"days": "Sat-Sun", "time": "Closed"}], "id": "3964800031", "name": "USPS COLLECTION BOX - BLUE BOX", "address": {"city": "MCCOMB", "state": "MS", "street": "300 RAWLS DR", "postcode": "39648"}}},
{"geometry": {"type": "Point", "coordinates": [-90.4565850346, 31.2451331505]}, "type": "Feature", "properties": {"collection_times": [{"days": "Mon-Fri", "time": "5:10pm"}, {"days": "Sat", "time": "10:30am"}, {"days": "Sun", "time": "Closed"}], "id": "3964800036", "name": "USPS COLLECTION BOX - BLUE BOX", "address": {"city": "MCCOMB", "state": "MS", "street": "530 DELAWARE AVE", "postcode": "39648"}}},
{"geometry": {"type": "Point", "coordinates": [-90.4565850346, 31.2451331505]}, "type": "Feature", "properties": {"collection_times": [{"days": "Mon-Fri", "time": "5:10pm"}, {"days": "Sat", "time": "10:30am"}, {"days": "Sun", "time": "Closed"}], "id": "3964800037", "name": "USPS COLLECTION BOX - BLUE BOX", "address": {"city": "MCCOMB", "state": "MS", "street": "530 DELAWARE AVE", "postcode": "39648"}}},
{"geometry": {"type": "Point", "coordinates": [-90.4594465105, 31.145098383]}, "type": "Feature", "properties": {"collection_times": [{"days": "Mon-Fri", "time": "4:00pm"}, {"days": "Sat", "time": "10:45am"}, {"days": "Sun", "time": "Closed"}], "id": "3965200000", "name": "USPS COLLECTION BOX - BLUE BOX", "address": {"city": "MAGNOLIA", "state": "MS", "street": "205 MAGNOLIA ST", "postcode": "39652"}}},
{"geometry": {"type": "Point", "coordinates": [-90.4594465105, 31.145098383]}, "type": "Feature", "properties": {"collection_times": [{"days": "Mon-Fri", "time": "4:00pm"}, {"days": "Sat", "time": "10:45am"}, {"days": "Sun", "time": "Closed"}], "id": "3965200001", "name": "USPS COLLECTION BOX - PO LOBBY", "address": {"city": "MAGNOLIA", "state": "MS", "street": "205 MAGNOLIA ST", "postcode": "39652"}}},
{"geometry": {"type": "Point", "coordinates": [-90.8410985854, 31.4063766472]}, "type": "Feature", "properties": {"collection_times": [{"days": "Mon-Fri", "time": "4:00pm"}, {"days": "Sat", "time": "8:45am"}, {"days": "Sun", "time": "Closed"}], "id": "3965300000", "name": "USPS COLLECTION BOX - BLUE BOX", "address": {"city": "MEADVILLE", "state": "MS", "street": "10 FIRST ST", "postcode": "39653"}}},
{"geometry": {"type": "Point", "coordinates": [-90.8410985854, 31.4063766472]}, "type": "Feature", "properties": {"collection_times": [{"days": "Mon-Fri", "time": "4:00pm"}, {"days": "Sat", "time": "8:45am"}, {"days": "Sun", "time": "Closed"}], "id": "3965300001", "name": "USPS COLLECTION BOX - PO LOBBY", "address": {"city": "MEADVILLE", "state": "MS", "street": "10 FIRST ST", "postcode": "39653"}}},
{"geometry": {"type": "Point", "coordinates": [-90.1225671366, 31.5599794287]}, "type": "Feature", "properties": {"collection_times": [{"days": "Mon-Fri", "time": "4:00pm"}, {"days": "Sat", "time": "12:00pm"}, {"days": "Sun", "time": "Closed"}], "id": "3965400000", "name": "USPS COLLECTION BOX - BLUE BOX", "address": {"city": "MONTICELLO", "state": "MS", "street": "1141 W BROAD ST", "postcode": "39654"}}},
{"geometry": {"type": "Point", "coordinates": [-90.1225671366, 31.5599794287]}, "type": "Feature", "properties": {"collection_times": [{"days": "Mon-Fri", "time": "4:00pm"}, {"days": "Sat", "time": "12:00pm"}, {"days": "Sun", "time": "Closed"}], "id": "3965400001", "name": "USPS COLLECTION BOX - PO LOBBY", "address": {"city": "MONTICELLO", "state": "MS", "street": "1141 W BROAD ST", "postcode": "39654"}}},
{"geometry": {"type": "Point", "coordinates": [-90.1064907724, 31.5537995888]}, "type": "Feature", "properties": {"collection_times": [{"days": "Mon-Fri", "time": "12:00pm"}, {"days": "Sat-Sun", "time": "Closed"}], "id": "3965400004", "name": "USPS COLLECTION BOX - BLUE BOX", "address": {"city": "MONTICELLO", "state": "MS", "street": "321 E BROAD ST", "postcode": "39654"}}},
{"geometry": {"type": "Point", "coordinates": [-90.1225671366, 31.5599794287]}, "type": "Feature", "properties": {"collection_times": [{"days": "Mon-Fri", "time": "4:00pm"}, {"days": "Sat", "time": "12:00pm"}, {"days": "Sun", "time": "Closed"}], "id": "3965400005", "name": "USPS COLLECTION BOX - PO LOBBY", "address": {"city": "MONTICELLO", "state": "MS", "street": "1141 W BROAD ST", "postcode": "39654"}}},
{"geometry": {"type": "Point", "coordinates": [-89.9865248161, 31.428239687]}, "type": "Feature", "properties": {"collection_times": [{"days": "Mon-Fri", "time": "3:10pm"}, {"days": "Sat", "time": "8:00am"}, {"days": "Sun", "time": "Closed"}], "id": "3965600001", "name": "USPS COLLECTION BOX - BLUE BOX", "address": {"city": "OAK VALE", "state": "MS", "street": "3RD AVE AVE", "postcode": "39656"}}},
{"geometry": {"type": "Point", "coordinates": [-90.474913859, 31.0081213891]}, "type": "Feature", "properties": {"collection_times": [{"days": "Mon-Fri", "time": "3:20pm"}, {"days": "Sat", "time": "10:00am"}, {"days": "Sun", "time": "Closed"}], "id": "3965700000", "name": "USPS COLLECTION BOX - BLUE BOX", "address": {"city": "OSYKA", "state": "MS", "street": "500 W LIBERTY ST", "postcode": "39657"}}},
{"geometry": {"type": "Point", "coordinates": [-90.474913859, 31.0081213891]}, "type": "Feature", "properties": {"collection_times": [{"days": "Mon-Fri", "time": "2:00pm"}, {"days": "Sat", "time": "10:00am"}, {"days": "Sun", "time": "Closed"}], "id": "3965700001", "name": "USPS COLLECTION BOX - PO LOBBY", "address": {"city": "OSYKA", "state": "MS", "street": "500 W LIBERTY ST", "postcode": "39657"}}},
{"geometry": {"type": "Point", "coordinates": [-91.0626387508, 31.4785070607]}, "type": "Feature", "properties": {"collection_times": [{"days": "Mon-Fri", "time": "3:30pm"}, {"days": "Sat", "time": "9:30am"}, {"days": "Sun", "time": "Closed"}], "id": "3966100001", "name": "USPS COLLECTION BOX - BLUE BOX", "address": {"city": "ROXIE", "state": "MS", "street": "83 EAST BLVD", "postcode": "39661"}}},
{"geometry": {"type": "Point", "coordinates": [-91.0669029643, 31.5060089112]}, "type": "Feature", "properties": {"collection_times": [{"days": "Mon-Fri", "time": "11:00am"}, {"days": "Sat", "time": "9:30am"}, {"days": "Sun", "time": "Closed"}], "id": "3966100002", "name": "USPS COLLECTION BOX - PO LOBBY", "address": {"city": "ROXIE", "state": "MS", "street": "83 EAST BLVD", "postcode": "39661"}}},
{"geometry": {"type": "Point", "coordinates": [-90.3056815111, 31.3732339943]}, "type": "Feature", "properties": {"collection_times": [{"days": "Mon-Fri", "time": "3:10pm"}, {"days": "Sat", "time": "5:00pm"}, {"days": "Sun", "time": "Closed"}], "id": "3966200000", "name": "USPS COLLECTION BOX - BLUE BOX", "address": {"city": "RUTH", "state": "MS", "street": "3663 HIGHWAY 583 SE", "postcode": "39662"}}},
{"geometry": {"type": "Point", "coordinates": [-90.3056815111, 31.3732339943]}, "type": "Feature", "properties": {"collection_times": [{"days": "Mon-Fri", "time": "11:00am"}, {"days": "Sat", "time": "10:00am"}, {"days": "Sun", "time": "Closed"}], "id": "3966200001", "name": "USPS COLLECTION BOX - PO LOBBY", "address": {"city": "RUTH", "state": "MS", "street": "3663 HIGHWAY 583 SE", "postcode": "39662"}}},
{"geometry": {"type": "Point", "coordinates": [-90.00148, 31.605854]}, "type": "Feature", "properties": {"collection_times": [{"days": "Mon-Fri", "time": "3:45pm"}, {"days": "Sat", "time": "10:00am"}, {"days": "Sun", "time": "Closed"}], "id": "3966300000", "name": "USPS COLLECTION BOX - BLUE BOX", "address": {"city": "SILVER CREEK", "state": "MS", "street": "56 MAIN AVE", "postcode": "39663"}}},
{"geometry": {"type": "Point", "coordinates": [-90.00148, 31.605854]}, "type": "Feature", "properties": {"collection_times": [{"days": "Mon-Fri", "time": "2:30pm"}, {"days": "Sat", "time": "10:00am"}, {"days": "Sun", "time": "Closed"}], "id": "3966300001", "name": "USPS COLLECTION BOX - PO LOBBY", "address": {"city": "SILVER CREEK", "state": "MS", "street": "56 MAIN AVE", "postcode": "39663"}}},
{"geometry": {"type": "Point", "coordinates": [-90.6757242617, 31.3337228032]}, "type": "Feature", "properties": {"collection_times": [{"days": "Mon-Fri", "time": "3:30pm"}, {"days": "Sat", "time": "9:10am"}, {"days": "Sun", "time": "Closed"}], "id": "3966400000", "name": "USPS COLLECTION BOX - BLUE BOX", "address": {"city": "SMITHDALE", "state": "MS", "street": "6005 MS HIGHWAY 570", "postcode": "39664"}}},
{"geometry": {"type": "Point", "coordinates": [-90.6757242617, 31.3337228032]}, "type": "Feature", "properties": {"collection_times": [{"days": "Mon-Fri", "time": "12:00pm"}, {"days": "Sat", "time": "9:10am"}, {"days": "Sun", "time": "Closed"}], "id": "3966400001", "name": "USPS COLLECTION BOX - PO LOBBY", "address": {"city": "SMITHDALE", "state": "MS", "street": "6005 MS HIGHWAY 570", "postcode": "39664"}}},
{"geometry": {"type": "Point", "coordinates": [-90.2035391916, 31.6511247171]}, "type": "Feature", "properties": {"collection_times": [{"days": "Mon-Fri", "time": "4:00pm"}, {"days": "Sat", "time": "8:00am"}, {"days": "Sun", "time": "Closed"}], "id": "3966500000", "name": "USPS COLLECTION BOX - BLUE BOX", "address": {"city": "SONTAG", "state": "MS", "street": "936 SONTAG NOLA RD", "postcode": "39665"}}},
{"geometry": {"type": "Point", "coordinates": [-90.4728109645, 31.2840648428]}, "type": "Feature", "properties": {"collection_times": [{"days": "Mon-Fri", "time": "4:00pm"}, {"days": "Sat", "time": "9:55am"}, {"days": "Sun", "time": "Closed"}], "id": "3966600000", "name": "USPS COLLECTION BOX - BLUE BOX", "address": {"city": "SUMMIT", "state": "MS", "street": "501 W ROBB ST", "postcode": "39666"}}},
{"geometry": {"type": "Point", "coordinates": [-90.4728109645, 31.2840648428]}, "type": "Feature", "properties": {"collection_times": [{"days": "Mon-Fri", "time": "4:00pm"}, {"days": "Sat", "time": "9:55am"}, {"days": "Sun", "time": "Closed"}], "id": "3966600001", "name": "USPS COLLECTION BOX - PO LOBBY", "address": {"city": "SUMMIT", "state": "MS", "street": "501 W ROBB ST", "postcode": "39666"}}},
{"geometry": {"type": "Point", "coordinates": [-90.1505368723, 31.116027297]}, "type": "Feature", "properties": {"collection_times": [{"days": "Mon-Fri", "time": "4:00pm"}, {"days": "Sat", "time": "12:00pm"}, {"days": "Sun", "time": "Closed"}], "id": "3966700003", "name": "USPS COLLECTION BOX - PO LOBBY", "address": {"city": "TYLERTOWN", "state": "MS", "street": "622 BEULAH AVE", "postcode": "39667"}}},
{"geometry": {"type": "Point", "coordinates": [-90.1505368723, 31.116027297]}, "type": "Feature", "properties": {"collection_times": [{"days": "Mon-Fri", "time": "4:00pm"}, {"days": "Sat", "time": "12:00pm"}, {"days": "Sun", "time": "Closed"}], "id": "3966700004", "name": "USPS COLLECTION BOX - BLUE BOX", "address": {"city": "TYLERTOWN", "state": "MS", "street": "622 BEULAH AVE", "postcode": "39667"}}},
{"geometry": {"type": "Point", "coordinates": [-90.7870909164, 31.683072808]}, "type": "Feature", "properties": {"collection_times": [{"days": "Mon-Fri", "time": "3:40pm"}, {"days": "Sat", "time": "12:45pm"}, {"days": "Sun", "time": "Closed"}], "id": "3966800000", "name": "USPS COLLECTION BOX - BLUE BOX", "address": {"city": "UNION CHURCH", "state": "MS", "street": "65 HIGHWAY 550", "postcode": "39668"}}},
{"geometry": {"type": "Point", "coordinates": [-90.7870909164, 31.683072808]}, "type": "Feature", "properties": {"collection_times": [{"days": "Mon-Fri", "time": "11:30am"}, {"days": "Sat", "time": "12:45pm"}, {"days": "Sun", "time": "Closed"}], "id": "3966800001", "name": "USPS COLLECTION BOX - PO LOBBY", "address": {"city": "UNION CHURCH", "state": "MS", "street": "65 HIGHWAY 550", "postcode": "39668"}}},
{"geometry": {"type": "Point", "coordinates": [-91.2966970017, 31.1040365507]}, "type": "Feature", "properties": {"collection_times": [{"days": "Mon-Fri", "time": "3:35pm"}, {"days": "Sat", "time": "12:00pm"}, {"days": "Sun", "time": "Closed"}], "id": "3966900000", "name": "USPS COLLECTION BOX - BLUE BOX", "address": {"city": "WOODVILLE", "state": "MS", "street": "381 MAIN ST", "postcode": "39669"}}},
{"geometry": {"type": "Point", "coordinates": [-91.2966970017, 31.1040365507]}, "type": "Feature", "properties": {"collection_times": [{"days": "Mon-Fri", "time": "3:45pm"}, {"days": "Sat", "time": "12:00pm"}, {"days": "Sun", "time": "Closed"}], "id": "3966900001", "name": "USPS COLLECTION BOX - PO LOBBY", "address": {"city": "WOODVILLE", "state": "MS", "street": "381 MAIN ST", "postcode": "39669"}}},
{"geometry": {"type": "Point", "coordinates": [-91.2966970017, 31.1040365507]}, "type": "Feature", "properties": {"collection_times": [{"days": "Mon-Fri", "time": "3:35pm"}, {"days": "Sat", "time": "12:00pm"}, {"days": "Sun", "time": "Closed"}], "id": "3966900002", "name": "USPS COLLECTION BOX - BLUE BOX", "address": {"city": "WOODVILLE", "state": "MS", "street": "381 MAIN ST", "postcode": "39669"}}}
]}
