{"type": "FeatureCollection", "features": [
{"geometry": {"type": "Point", "coordinates": [-88.4376668262, 33.541264327]}, "type": "Feature", "properties": {"collection_times": [{"days": "Mon-Sat", "time": "9:00am"}, {"days": "Sun", "time": "Closed"}], "id": "3970100000", "name": "USPS COLLECTION BOX - BLUE BOX", "address": {"city": "COLUMBUS", "state": "MS", "street": "102 NEWBELL RD", "postcode": "39701"}}},
{"geometry": {"type": "Point", "coordinates": [-88.4523799952, 33.551503772]}, "type": "Feature", "properties": {"collection_times": [{"days": "Mon-Sat", "time": "9:15am"}, {"days": "Sun", "time": "Closed"}], "id": "3970100001", "name": "USPS COLLECTION BOX - BLUE BOX", "address": {"city": "COLUMBUS", "state": "MS", "street": "300 HOLLY HILLS RD", "postcode": "39701"}}},
{"geometry": {"type": "Point", "coordinates": [-88.4977849639, 33.4639870415]}, "type": "Feature", "properties": {"collection_times": [{"days": "Mon-Fri", "time": "1:00pm"}, {"days": "Sat-Sun", "time": "Closed"}], "id": "3970100006", "name": "USPS COLLECTION BOX - BLUE BOX", "address": {"city": "COLUMBUS", "state": "MS", "street": "1920 HWY 45 N", "postcode": "39701"}}},
{"geometry": {"type": "Point", "coordinates": [-88.4307426293, 33.5284974289]}, "type": "Feature", "properties": {"collection_times": [{"days": "Mon-Sat", "time": "11:00am"}, {"days": "Sun", "time": "Closed"}], "id": "3970100008", "name": "USPS COLLECTION BOX - BLUE BOX", "address": {"city": "COLUMBUS", "state": "MS", "street": "625 31ST AVE N", "postcode": "39701"}}},
{"geometry": {"type": "Point", "coordinates": [-88.4304289724, 33.5284019424]}, "type": "Feature", "properties": {"collection_times": [{"days": "Mon-Sat", "time": "10:50am"}, {"days": "Sun", "time": "Closed"}], "id": "3970100009", "name": "USPS COLLECTION BOX - BLUE BOX", "address": {"city": "COLUMBUS", "state": "MS", "street": "634 31ST AVE N", "postcode": "39701"}}},
{"geometry": {"type": "Point", "coordinates": [-88.5093033813, 33.4196190644]}, "type": "Feature", "properties": {"collection_times": [{"days": "Mon-Fri", "time": "1:00pm"}, {"days": "Sat", "time": "10:00am"}, {"days": "Sun", "time": "Closed"}], "id": "3970100020", "name": "USPS COLLECTION BOX - BLUE BOX", "address": {"city": "COLUMBUS", "state": "MS", "street": "7TH AVE & HWY 45 NORTH", "postcode": "39701"}}},
{"geometry": {"type": "Point", "coordinates": [-88.4260043005, 33.496899447]}, "type": "Feature", "properties": {"collection_times": [{"days": "Mon-Fri", "time": "1:00pm"}, {"days": "Sat-Sun", "time": "Closed"}], "id": "3970100022", "name": "USPS COLLECTION BOX - BLUE BOX", "address": {"city": "COLUMBUS", "state": "MS", "street": "221 7TH ST N", "postcode": "39701"}}},
{"geometry": {"type": "Point", "coordinates": [-88.4271259563, 33.4964815405]}, "type": "Feature", "properties": {"collection_times": [{"days": "Mon-Fri", "time": "1:00pm"}, {"days": "Sat-Sun", "time": "Closed"}], "id": "3970100023", "name": "USPS COLLECTION BOX - BLUE BOX", "address": {"city": "COLUMBUS", "state": "MS", "street": "6TH ST & 2ND AVE N", "postcode": "39701"}}},
{"geometry": {"type": "Point", "coordinates": [-88.4271259563, 33.4964815405]}, "type": "Feature", "properties": {"collection_times": [{"days": "Mon-Fri", "time": "1:00pm"}, {"days": "Sat-Sun", "time": "Closed"}], "id": "3970100024", "name": "USPS COLLECTION BOX - BLUE BOX", "address": {"city": "COLUMBUS", "state": "MS", "street": "6TH ST & 2ND AVE N", "postcode": "39701"}}},
{"geometry": {"type": "Point", "coordinates": [-88.4171060339, 33.5141196914]}, "type": "Feature", "properties": {"collection_times": [{"days": "Mon-Fri", "time": "1:00pm"}, {"days": "Sat-Sun", "time": "Closed"}], "id": "3970100053", "name": "USPS COLLECTION BOX - BLUE BOX", "address": {"city": "COLUMBUS", "state": "MS", "street": "1802 MILITARY RD", "postcode": "39701"}}},
{"geometry": {"type": "Point", "coordinates": [-88.5093033813, 33.4196190644]}, "type": "Feature", "properties": {"collection_times": [{"days": "Mon-Fri", "time": "1:00pm"}, {"days": "Sat-Sun", "time": "Closed"}], "id": "3970100057", "name": "USPS COLLECTION BOX - BLUE BOX", "address": {"city": "COLUMBUS", "state": "MS", "street": "5TH ST & 4TH AVE S", "postcode": "39701"}}},
{"geometry": {"type": "Point", "coordinates": [-88.4322167618, 33.5373458674]}, "type": "Feature", "properties": {"collection_times": [{"days": "Mon-Sat", "time": "5:00pm"}, {"days": "Sun", "time": "Closed"}], "id": "3970100060", "name": "USPS COLLECTION BOX - BLUE BOX", "address": {"city": "COLUMBUS", "state": "MS", "street": "3202 BLUECUTT RD", "postcode": "39701"}}},
{"geometry": {"type": "Point", "coordinates": [-88.4322167618, 33.5373458674]}, "type": "Feature", "properties": {"collection_times": [{"days": "Mon-Sat", "time": "5:00pm"}, {"days": "Sun", "time": "Closed"}], "id": "3970100061", "name": "USPS COLLECTION BOX - BLUE BOX", "address": {"city": "COLUMBUS", "state": "MS", "street": "3202 BLUECUTT RD", "postcode": "39701"}}},
{"geometry": {"type": "Point", "coordinates": [-88.4322167618, 33.5373458674]}, "type": "Feature", "properties": {"collection_times": [{"days": "Mon-Sat", "time": "5:00pm"}, {"days": "Sun", "time": "Closed"}], "id": "3970100062", "name": "USPS COLLECTION BOX - BLUE BOX", "address": {"city": "COLUMBUS", "state": "MS", "street": "3202 BLUECUTT RD", "postcode": "39701"}}},
{"geometry": {"type": "Point", "coordinates": [-88.4322167618, 33.5373458674]}, "type": "Feature", "properties": {"collection_times": [{"days": "Mon-Sat", "time": "5:00pm"}, {"days": "Sun", "time": "Closed"}], "id": "3970100063", "name": "USPS COLLECTION BOX - BLUE BOX", "address": {"city": "COLUMBUS", "state": "MS", "street": "3202 BLUECUTT RD", "postcode": "39701"}}},
{"geometry": {"type": "Point", "coordinates": [-88.4322167618, 33.5373458674]}, "type": "Feature", "properties": {"collection_times": [{"days": "Mon-Sat", "time": "5:00pm"}, {"days": "Sun", "time": "Closed"}], "id": "3970100064", "name": "USPS COLLECTION BOX - BLUE BOX", "address": {"city": "COLUMBUS", "state": "MS", "street": "3202 BLUECUTT RD", "postcode": "39701"}}},
{"geometry": {"type": "Point", "coordinates": [-88.4517808958, 33.6193208836]}, "type": "Feature", "properties": {"collection_times": [{"days": "Mon-Sat", "time": "9:00am"}, {"days": "Sun", "time": "Closed"}], "id": "3970100068", "name": "USPS COLLECTION BOX - BLUE BOX", "address": {"city": "COLUMBUS", "state": "MS", "street": "4180 HWY 373", "postcode": "39701"}}},
{"geometry": {"type": "Point", "coordinates": [-88.5093033813, 33.4196190644]}, "type": "Feature", "properties": {"collection_times": [{"days": "Mon-Fri", "time": "10:30am"}, {"days": "Sat-Sun", "time": "Closed"}], "id": "3970100072", "name": "USPS COLLECTION BOX - BLUE BOX", "address": {"city": "COLUMBUS", "state": "MS", "street": "GTR AIRPORT", "postcode": "39701"}}},
{"geometry": {"type": "Point", "coordinates": [-88.4417698299, 33.5251351704]}, "type": "Feature", "properties": {"collection_times": [{"days": "Mon-Fri", "time": "1:00pm"}, {"days": "Sat-Sun", "time": "Closed"}], "id": "3970100074", "name": "USPS COLLECTION BOX - BLUE BOX", "address": {"city": "COLUMBUS", "state": "MS", "street": "400 WILKINS WISE RD", "postcode": "39701"}}},
{"geometry": {"type": "Point", "coordinates": [-88.4322167618, 33.5373458674]}, "type": "Feature", "properties": {"collection_times": [{"days": "Mon-Sat", "time": "5:00pm"}, {"days": "Sun", "time": "Closed"}], "id": "3970100081", "name": "USPS COLLECTION BOX - PO LOBBY", "address": {"city": "COLUMBUS", "state": "MS", "street": "3202 BLUECUTT RD", "postcode": "39701"}}},
{"geometry": {"type": "Point", "coordinates": [-88.4160465536, 33.4968536933]}, "type": "Feature", "properties": {"collection_times": [{"days": "Mon-Fri", "time": "1:00pm"}, {"days": "Sat-Sun", "time": "Closed"}], "id": "3970100085", "name": "USPS COLLECTION BOX - BLUE BOX", "address": {"city": "COLUMBUS", "state": "MS", "street": "1501 MAIN ST", "postcode": "39701"}}},
{"geometry": {"type": "Point", "coordinates": [-88.3823617185, 33.4957708171]}, "type": "Feature", "properties": {"collection_times": [{"days": "Mon-Fri", "time": "4:00pm"}, {"days": "Sat-Sun", "time": "Closed"}], "id": "3970200001", "name": "USPS COLLECTION BOX - PO LOBBY", "address": {"city": "COLUMBUS", "state": "MS", "street": "235 ALABAMA ST", "postcode": "39702"}}},
{"geometry": {"type": "Point", "coordinates": [-88.3824878547, 33.4929893038]}, "type": "Feature", "properties": {"collection_times": [{"days": "Mon-Sat", "time": "9:00am"}, {"days": "Sun", "time": "Closed"}], "id": "3970200002", "name": "USPS COLLECTION BOX - BLUE BOX", "address": {"city": "COLUMBUS", "state": "MS", "street": "300 AIRLINE RD", "postcode": "39702"}}},
{"geometry": {"type": "Point", "coordinates": [-88.3823617185, 33.4957708171]}, "type": "Feature", "properties": {"collection_times": [{"days": "Mon-Fri", "time": "4:00pm"}, {"days": "Sat", "time": "12:00pm"}, {"days": "Sun", "time": "Closed"}], "id": "3970200004", "name": "USPS COLLECTION BOX - BLUE BOX", "address": {"city": "COLUMBUS", "state": "MS", "street": "235 ALABAMA ST", "postcode": "39702"}}},
{"geometry": {"type": "Point", "coordinates": [-88.3823617185, 33.4957708171]}, "type": "Feature", "properties": {"collection_times": [{"days": "Mon-Fri", "time": "4:00pm"}, {"days": "Sat-Sun", "time": "Closed"}], "id": "3970200005", "name": "USPS COLLECTION BOX - BLUE BOX", "address": {"city": "COLUMBUS", "state": "MS", "street": "235 ALABAMA ST", "postcode": "39702"}}},
{"geometry": {"type": "Point", "coordinates": [-88.3896815244, 33.5147110079]}, "type": "Feature", "properties": {"collection_times": [{"days": "Mon-Fri", "time": "1:00pm"}, {"days": "Sat-Sun", "time": "Closed"}], "id": "3970200009", "name": "USPS COLLECTION BOX - BLUE BOX", "address": {"city": "COLUMBUS", "state": "MS", "street": "HWY 50 & GARDNER BLVD", "postcode": "39702"}}},
{"geometry": {"type": "Point", "coordinates": [-88.3755590384, 33.5181803145]}, "type": "Feature", "properties": {"collection_times": [{"days": "Mon-Sat", "time": "12:30pm"}, {"days": "Sun", "time": "Closed"}], "id": "3970200011", "name": "USPS COLLECTION BOX - BLUE BOX", "address": {"city": "COLUMBUS", "state": "MS", "street": "HWY 50 EAST & LEHMBERG RD", "postcode": "39702"}}},
{"geometry": {"type": "Point", "coordinates": [-88.346110594, 33.4400883141]}, "type": "Feature", "properties": {"collection_times": [{"days": "Mon-Fri", "time": "1:00pm"}, {"days": "Sat-Sun", "time": "Closed"}], "id": "3970200012", "name": "USPS COLLECTION BOX - BLUE BOX", "address": {"city": "COLUMBUS", "state": "MS", "street": "INT OF IDLEWILD RD & AIRLINE RD", "postcode": "39702"}}},
{"geometry": {"type": "Point", "coordinates": [-88.346110594, 33.4400883141]}, "type": "Feature", "properties": {"collection_times": [{"days": "Mon-Fri", "time": "9:30am"}, {"days": "Sat-Sun", "time": "Closed"}], "id": "3970200013", "name": "USPS COLLECTION BOX - BLUE BOX", "address": {"city": "COLUMBUS", "state": "MS", "street": "NEW HOPE ST", "postcode": "39702"}}},
{"geometry": {"type": "Point", "coordinates": [-88.3823617185, 33.4957708171]}, "type": "Feature", "properties": {"collection_times": [{"days": "Mon-Fri", "time": "4:00pm"}, {"days": "Sat", "time": "12:00pm"}, {"days": "Sun", "time": "Closed"}], "id": "3970200015", "name": "USPS COLLECTION BOX - BLUE BOX", "address": {"city": "COLUMBUS", "state": "MS", "street": "235 ALABAMA ST", "postcode": "39702"}}},
{"geometry": {"type": "Point", "coordinates": [-88.4278089354, 33.4951345658]}, "type": "Feature", "properties": {"collection_times": [{"days": "Mon-Fri", "time": "4:00pm"}, {"days": "Sat", "time": "12:00pm"}, {"days": "Sun", "time": "Closed"}], "id": "3970300001", "name": "USPS COLLECTION BOX - BLUE BOX", "address": {"city": "COLUMBUS", "state": "MS", "street": "524 MAIN ST", "postcode": "39703"}}},
{"geometry": {"type": "Point", "coordinates": [-88.4278089354, 33.4951345658]}, "type": "Feature", "properties": {"collection_times": [{"days": "Mon-Fri", "time": "4:00pm"}, {"days": "Sat", "time": "12:00pm"}, {"days": "Sun", "time": "Closed"}], "id": "3970300002", "name": "USPS COLLECTION BOX - BLUE BOX", "address": {"city": "COLUMBUS", "state": "MS", "street": "524 MAIN ST", "postcode": "39703"}}},
{"geometry": {"type": "Point", "coordinates": [-88.4278089354, 33.4951345658]}, "type": "Feature", "properties": {"collection_times": [{"days": "Mon-Fri", "time": "4:00pm"}, {"days": "Sat", "time": "12:00pm"}, {"days": "Sun", "time": "Closed"}], "id": "3970300003", "name": "USPS COLLECTION BOX - BLUE BOX", "address": {"city": "COLUMBUS", "state": "MS", "street": "524 MAIN ST", "postcode": "39703"}}},
{"geometry": {"type": "Point", "coordinates": [-88.4278089354, 33.4951345658]}, "type": "Feature", "properties": {"collection_times": [{"days": "Mon-Fri", "time": "4:00pm"}, {"days": "Sat", "time": "12:00pm"}, {"days": "Sun", "time": "Closed"}], "id": "3970300004", "name": "USPS COLLECTION BOX - BLUE BOX", "address": {"city": "COLUMBUS", "state": "MS", "street": "524 MAIN ST", "postcode": "39703"}}},
{"geometry": {"type": "Point", "coordinates": [-88.4278089354, 33.4951345658]}, "type": "Feature", "properties": {"collection_times": [{"days": "Mon-Fri", "time": "4:00pm"}, {"days": "Sat-Sun", "time": "Closed"}], "id": "3970300005", "name": "USPS COLLECTION BOX - PO LOBBY", "address": {"city": "COLUMBUS", "state": "MS", "street": "524 MAIN ST", "postcode": "39703"}}},
{"geometry": {"type": "Point", "coordinates": [-88.4278089354, 33.4951345658]}, "type": "Feature", "properties": {"collection_times": [{"days": "Mon-Fri", "time": "4:00pm"}, {"days": "Sat", "time": "12:00pm"}, {"days": "Sun", "time": "Closed"}], "id": "3970300006", "name": "USPS COLLECTION BOX - BLUE BOX", "address": {"city": "COLUMBUS", "state": "MS", "street": "524 MAIN ST", "postcode": "39703"}}},
{"geometry": {"type": "Point", "coordinates": [-88.5462202657, 33.8252485856]}, "type": "Feature", "properties": {"collection_times": [{"days": "Mon-Fri", "time": "4:30pm"}, {"days": "Sat", "time": "10:30am"}, {"days": "Sun", "time": "Closed"}], "id": "3973000000", "name": "USPS COLLECTION BOX - BLUE BOX", "address": {"city": "ABERDEEN", "state": "MS", "street": "301 W COMMERCE ST", "postcode": "39730"}}},
{"geometry": {"type": "Point", "coordinates": [-88.5462202657, 33.8252485856]}, "type": "Feature", "properties": {"collection_times": [{"days": "Mon-Fri", "time": "4:30pm"}, {"days": "Sat", "time": "10:30am"}, {"days": "Sun", "time": "Closed"}], "id": "3973000001", "name": "USPS COLLECTION BOX - BLUE BOX", "address": {"city": "ABERDEEN", "state": "MS", "street": "301 W COMMERCE ST", "postcode": "39730"}}},
{"geometry": {"type": "Point", "coordinates": [-88.5462202657, 33.8252485856]}, "type": "Feature", "properties": {"collection_times": [{"days": "Mon-Fri", "time": "4:30pm"}, {"days": "Sat", "time": "10:30am"}, {"days": "Sun", "time": "Closed"}], "id": "3973000010", "name": "USPS COLLECTION BOX - PO LOBBY", "address": {"city": "ABERDEEN", "state": "MS", "street": "301 W COMMERCE ST", "postcode": "39730"}}},
{"geometry": {"type": "Point", "coordinates": [-88.5462202657, 33.8252485856]}, "type": "Feature", "properties": {"collection_times": [{"days": "Mon-Fri", "time": "4:30pm"}, {"days": "Sat", "time": "10:30am"}, {"days": "Sun", "time": "Closed"}], "id": "3973000011", "name": "USPS COLLECTION BOX - PO LOBBY", "address": {"city": "ABERDEEN", "state": "MS", "street": "301 W COMMERCE ST", "postcode": "39730"}}},
{"geometry": {"type": "Point", "coordinates": [-88.5462202657, 33.8252485856]}, "type": "Feature", "properties": {"collection_times": [{"days": "Mon-Fri", "time": "4:30pm"}, {"days": "Sat", "time": "10:30am"}, {"days": "Sun", "time": "Closed"}], "id": "3973000012", "name": "USPS COLLECTION BOX - PO LOBBY", "address": {"city": "ABERDEEN", "state": "MS", "street": "301 W COMMERCE ST", "postcode": "39730"}}},
{"geometry": {"type": "Point", "coordinates": [-89.2105375074, 33.3670784347]}, "type": "Feature", "properties": {"collection_times": [{"days": "Mon-Fri", "time": "3:55pm"}, {"days": "Sat", "time": "10:25am"}, {"days": "Sun", "time": "Closed"}], "id": "3973500000", "name": "USPS COLLECTION BOX - BLUE BOX", "address": {"city": "ACKERMAN", "state": "MS", "street": "1035 W MAIN ST", "postcode": "39735"}}},
{"geometry": {"type": "Point", "coordinates": [-89.2105375074, 33.3670784347]}, "type": "Feature", "properties": {"collection_times": [{"days": "Mon-Fri", "time": "4:25pm"}, {"days": "Sat", "time": "10:25am"}, {"days": "Sun", "time": "Closed"}], "id": "3973500001", "name": "USPS COLLECTION BOX - PO LOBBY", "address": {"city": "ACKERMAN", "state": "MS", "street": "1035 W MAIN ST", "postcode": "39735"}}},
{"geometry": {"type": "Point", "coordinates": [-88.6437589568, 33.4147428138]}, "type": "Feature", "properties": {"collection_times": [{"days": "Mon-Fri", "time": "4:25pm"}, {"days": "Sat-Sun", "time": "Closed"}], "id": "3973600000", "name": "USPS COLLECTION BOX - BLUE BOX", "address": {"city": "ARTESIA", "state": "MS", "street": "11 S FRONT ST", "postcode": "39736"}}},
{"geometry": {"type": "Point", "coordinates": [-89.2686163571, 33.5420196933]}, "type": "Feature", "properties": {"collection_times": [{"days": "Mon-Fri", "time": "3:45pm"}, {"days": "Sat", "time": "11:45am"}, {"days": "Sun", "time": "Closed"}], "id": "3973700000", "name": "USPS COLLECTION BOX - BLUE BOX", "address": {"city": "BELLEFONTAINE", "state": "MS", "street": "HWY 9", "postcode": "39737"}}},
{"geometry": {"type": "Point", "coordinates": [-89.3200696327, 33.6652629496]}, "type": "Feature", "properties": {"collection_times": [{"days": "Mon-Fri", "time": "11:50am"}, {"days": "Sat", "time": "11:45am"}, {"days": "Sun", "time": "Closed"}], "id": "3973700001", "name": "USPS COLLECTION BOX - PO LOBBY", "address": {"city": "BELLEFONTAINE", "state": "MS", "street": "HWY 9", "postcode": "39737"}}},
{"geometry": {"type": "Point", "coordinates": [-88.4316759506, 33.2171955614]}, "type": "Feature", "properties": {"collection_times": [{"days": "Mon-Fri", "time": "4:00pm"}, {"days": "Sat", "time": "10:00am"}, {"days": "Sun", "time": "Closed"}], "id": "3973900000", "name": "USPS COLLECTION BOX - BLUE BOX", "address": {"city": "BROOKSVILLE", "state": "MS", "street": "150 DEPOT ST", "postcode": "39739"}}},
{"geometry": {"type": "Point", "coordinates": [-88.3219629346, 33.6817735872]}, "type": "Feature", "properties": {"collection_times": [{"days": "Mon-Fri", "time": "3:55pm"}, {"days": "Sat", "time": "9:25am"}, {"days": "Sun", "time": "Closed"}], "id": "3974000000", "name": "USPS COLLECTION BOX - BLUE BOX", "address": {"city": "CALEDONIA", "state": "MS", "street": "650 MAIN ST", "postcode": "39740"}}},
{"geometry": {"type": "Point", "coordinates": [-88.822003525, 33.5904390433]}, "type": "Feature", "properties": {"collection_times": [{"days": "Mon-Fri", "time": "4:15pm"}, {"days": "Sat-Sun", "time": "Closed"}], "id": "3974100001", "name": "USPS COLLECTION BOX - BLUE BOX", "address": {"city": "CEDARBLUFF", "state": "MS", "street": "13560 HIGHWAY 50 W", "postcode": "39741"}}},
{"geometry": {"type": "Point", "coordinates": [-88.6193224534, 33.3018074728]}, "type": "Feature", "properties": {"collection_times": [{"days": "Mon-Fri", "time": "4:00pm"}, {"days": "Sat", "time": "10:00am"}, {"days": "Sun", "time": "Closed"}], "id": "3974300000", "name": "USPS COLLECTION BOX - BLUE BOX", "address": {"city": "CRAWFORD", "state": "MS", "street": "290 MAIN ST", "postcode": "39743"}}},
{"geometry": {"type": "Point", "coordinates": [-89.2679862454, 33.5407720777]}, "type": "Feature", "properties": {"collection_times": [{"days": "Mon-Fri", "time": "4:30pm"}, {"days": "Sat", "time": "12:00pm"}, {"days": "Sun", "time": "Closed"}], "id": "3974400000", "name": "USPS COLLECTION BOX - BLUE BOX", "address": {"city": "EUPORA", "state": "MS", "street": "107 N DUNN ST", "postcode": "39744"}}},
{"geometry": {"type": "Point", "coordinates": [-89.49488242, 33.3596577275]}, "type": "Feature", "properties": {"collection_times": [{"days": "Mon-Fri", "time": "4:00pm"}, {"days": "Sat", "time": "10:00am"}, {"days": "Sun", "time": "Closed"}], "id": "3974500000", "name": "USPS COLLECTION BOX - BLUE BOX", "address": {"city": "FRENCH CAMP", "state": "MS", "street": "1000 MS HIGHWAY 413", "postcode": "39745"}}},
{"geometry": {"type": "Point", "coordinates": [-89.49488242, 33.3596577275]}, "type": "Feature", "properties": {"collection_times": [{"days": "Mon-Fri", "time": "4:00pm"}, {"days": "Sat", "time": "10:00am"}, {"days": "Sun", "time": "Closed"}], "id": "3974500001", "name": "USPS COLLECTION BOX - PO LOBBY", "address": {"city": "FRENCH CAMP", "state": "MS", "street": "1000 MS HIGHWAY 413", "postcode": "39745"}}},
{"geometry": {"type": "Point", "coordinates": [-88.4368369884, 33.7343835701]}, "type": "Feature", "properties": {"collection_times": [{"days": "Mon-Fri", "time": "3:55pm"}, {"days": "Sat", "time": "10:25am"}, {"days": "Sun", "time": "Closed"}], "id": "3974600000", "name": "USPS COLLECTION BOX - BLUE BOX", "address": {"city": "HAMILTON", "state": "MS", "street": "40462 HIGHWAY 45 S", "postcode": "39746"}}},
{"geometry": {"type": "Point", "coordinates": [-88.4368369884, 33.7343835701]}, "type": "Feature", "properties": {"collection_times": [{"days": "Mon-Fri", "time": "4:00pm"}, {"days": "Sat", "time": "10:25am"}, {"days": "Sun", "time": "Closed"}], "id": "3974600001", "name": "USPS COLLECTION BOX - PO LOBBY", "address": {"city": "HAMILTON", "state": "MS", "street": "40462 HIGHWAY 45 S", "postcode": "39746"}}},
{"geometry": {"type": "Point", "coordinates": [-89.57377005, 33.4396019933]}, "type": "Feature", "properties": {"collection_times": [{"days": "Mon-Fri", "time": "4:00pm"}, {"days": "Sat", "time": "11:00am"}, {"days": "Sun", "time": "Closed"}], "id": "3974700000", "name": "USPS COLLECTION BOX - BLUE BOX", "address": {"city": "KILMICHAEL", "state": "MS", "street": "205 E MAIN ST", "postcode": "39747"}}},
{"geometry": {"type": "Point", "coordinates": [-89.57377005, 33.4396019933]}, "type": "Feature", "properties": {"collection_times": [{"days": "Mon-Fri", "time": "2:30pm"}, {"days": "Sat", "time": "11:00am"}, {"days": "Sun", "time": "Closed"}], "id": "3974700001", "name": "USPS COLLECTION BOX - PO LOBBY", "address": {"city": "KILMICHAEL", "state": "MS", "street": "205 E MAIN ST", "postcode": "39747"}}},
{"geometry": {"type": "Point", "coordinates": [-89.0470364097, 33.5399254562]}, "type": "Feature", "properties": {"collection_times": [{"days": "Mon-Fri", "time": "3:45pm"}, {"days": "Sat", "time": "9:45am"}, {"days": "Sun", "time": "Closed"}], "id": "3975000000", "name": "USPS COLLECTION BOX - BLUE BOX", "address": {"city": "MABEN", "state": "MS", "street": "2460 WATER ST", "postcode": "39750"}}},
{"geometry": {"type": "Point", "coordinates": [-89.0470364097, 33.5399254562]}, "type": "Feature", "properties": {"collection_times": [{"days": "Mon-Fri", "time": "2:20pm"}, {"days": "Sat", "time": "9:45am"}, {"days": "Sun", "time": "Closed"}], "id": "3975000001", "name": "USPS COLLECTION BOX - PO LOBBY", "address": {"city": "MABEN", "state": "MS", "street": "2460 WATER ST", "postcode": "39750"}}},
{"geometry": {"type": "Point", "coordinates": [-89.136595593, 33.6727830627]}, "type": "Feature", "properties": {"collection_times": [{"days": "Mon-Fri", "time": "3:55pm"}, {"days": "Sat-Sun", "time": "Closed"}], "id": "3975100000", "name": "USPS COLLECTION BOX - BLUE BOX", "address": {"city": "MANTEE", "state": "MS", "street": "MAIN ST ST", "postcode": "39751"}}},
{"geometry": {"type": "Point", "coordinates": [-89.1351862151, 33.4898543592]}, "type": "Feature", "properties": {"collection_times": [{"days": "Mon-Fri", "time": "4:00pm"}, {"days": "Sat", "time": "10:00am"}, {"days": "Sun", "time": "Closed"}], "id": "3975200000", "name": "USPS COLLECTION BOX - BLUE BOX", "address": {"city": "MATHISTON", "state": "MS", "street": "HWY 15", "postcode": "39752"}}},
{"geometry": {"type": "Point", "coordinates": [-89.1351862151, 33.4898543592]}, "type": "Feature", "properties": {"collection_times": [{"days": "Mon-Fri", "time": "2:30pm"}, {"days": "Sat", "time": "10:00am"}, {"days": "Sun", "time": "Closed"}], "id": "3975200001", "name": "USPS COLLECTION BOX - PO LOBBY", "address": {"city": "MATHISTON", "state": "MS", "street": "HWY 15", "postcode": "39752"}}},
{"geometry": {"type": "Point", "coordinates": [-88.9125122224, 33.5901402609]}, "type": "Feature", "properties": {"collection_times": [{"days": "Mon-Fri", "time": "4:00pm"}, {"days": "Sat", "time": "10:00am"}, {"days": "Sun", "time": "Closed"}], "id": "3975500000", "name": "USPS COLLECTION BOX - BLUE BOX", "address": {"city": "PHEBA", "state": "MS", "street": "HWY 389", "postcode": "39755"}}},
{"geometry": {"type": "Point", "coordinates": [-88.9125122224, 33.5901402609]}, "type": "Feature", "properties": {"collection_times": [{"days": "Mon-Fri", "time": "11:30am"}, {"days": "Sat", "time": "10:00am"}, {"days": "Sun", "time": "Closed"}], "id": "3975500001", "name": "USPS COLLECTION BOX - PO LOBBY", "address": {"city": "PHEBA", "state": "MS", "street": "HWY 389", "postcode": "39755"}}},
{"geometry": {"type": "Point", "coordinates": [-88.6623918588, 33.7967919223]}, "type": "Feature", "properties": {"collection_times": [{"days": "Mon-Fri", "time": "4:00pm"}, {"days": "Sat-Sun", "time": "Closed"}], "id": "3975600000", "name": "USPS COLLECTION BOX - BLUE BOX", "address": {"city": "PRAIRIE", "state": "MS", "street": "10177 HIGHWAY 382", "postcode": "39756"}}},
{"geometry": {"type": "Point", "coordinates": [-88.6943094809, 33.7601897566]}, "type": "Feature", "properties": {"collection_times": [{"days": "Mon-Fri", "time": "11:30am"}, {"days": "Sat-Sun", "time": "Closed"}], "id": "3975600001", "name": "USPS COLLECTION BOX - BLUE BOX", "address": {"city": "PRAIRIE", "state": "MS", "street": "9672 BRAND UNA RD", "postcode": "39756"}}},
{"geometry": {"type": "Point", "coordinates": [-88.8040323218, 33.4660844629]}, "type": "Feature", "properties": {"collection_times": [{"days": "Mon-Sat", "time": "10:00am"}, {"days": "Sun", "time": "Closed"}], "id": "3975900001", "name": "USPS COLLECTION BOX - BLUE BOX", "address": {"city": "STARKVILLE", "state": "MS", "street": "319 DR MARTIN LUTHER KING JR DR E", "postcode": "39759"}}},
{"geometry": {"type": "Point", "coordinates": [-88.8135711028, 33.4638161271]}, "type": "Feature", "properties": {"collection_times": [{"days": "Mon-Sat", "time": "10:00am"}, {"days": "Sun", "time": "Closed"}], "id": "3975900006", "name": "USPS COLLECTION BOX - BLUE BOX", "address": {"city": "STARKVILLE", "state": "MS", "street": "124 E MAIN ST", "postcode": "39759"}}},
{"geometry": {"type": "Point", "coordinates": [-88.8151797159, 33.4544518216]}, "type": "Feature", "properties": {"collection_times": [{"days": "Mon-Fri", "time": "12:15pm"}, {"days": "Sat", "time": "10:30am"}, {"days": "Sun", "time": "Closed"}], "id": "3975900010", "name": "USPS COLLECTION BOX - BLUE BOX", "address": {"city": "STARKVILLE", "state": "MS", "street": "118 HIGHWAY 12 W", "postcode": "39759"}}},
{"geometry": {"type": "Point", "coordinates": [-88.8398560167, 33.4499905756]}, "type": "Feature", "properties": {"collection_times": [{"days": "Mon-Fri", "time": "5:00pm"}, {"days": "Sat", "time": "3:00pm"}, {"days": "Sun", "time": "Closed"}], "id": "3975900017", "name": "USPS COLLECTION BOX - BLUE BOX", "address": {"city": "STARKVILLE", "state": "MS", "street": "822 TAYLOR ST", "postcode": "39759"}}},
{"geometry": {"type": "Point", "coordinates": [-88.790876443, 33.4698739925]}, "type": "Feature", "properties": {"collection_times": [{"days": "Mon-Fri", "time": "10:00am"}, {"days": "Sat-Sun", "time": "Closed"}], "id": "3975900021", "name": "USPS COLLECTION BOX - BLUE BOX", "address": {"city": "STARKVILLE", "state": "MS", "street": "1 RESEARCH BLVD", "postcode": "39759"}}},
{"geometry": {"type": "Point", "coordinates": [-88.8398560167, 33.4499905756]}, "type": "Feature", "properties": {"collection_times": [{"days": "Mon-Fri", "time": "5:00pm"}, {"days": "Sat", "time": "4:30pm"}, {"days": "Sun", "time": "Closed"}], "id": "3975900022", "name": "USPS COLLECTION BOX - PO LOBBY", "address": {"city": "STARKVILLE", "state": "MS", "street": "822 TAYLOR ST", "postcode": "39759"}}},
{"geometry": {"type": "Point", "coordinates": [-88.8398560167, 33.4499905756]}, "type": "Feature", "properties": {"collection_times": [{"days": "Mon-Fri", "time": "5:00pm"}, {"days": "Sat", "time": "3:00pm"}, {"days": "Sun", "time": "Closed"}], "id": "3975900023", "name": "USPS COLLECTION BOX - BLUE BOX", "address": {"city": "STARKVILLE", "state": "MS", "street": "822 TAYLOR ST", "postcode": "39759"}}},
{"geometry": {"type": "Point", "coordinates": [-88.7966969693, 33.4633458119]}, "type": "Feature", "properties": {"collection_times": [{"days": "Mon-Sat", "time": "9:00am"}, {"days": "Sun", "time": "Closed"}], "id": "3975900027", "name": "USPS COLLECTION BOX - BLUE BOX", "address": {"city": "STARKVILLE", "state": "MS", "street": "600 HIGHWAY 12 E", "postcode": "39759"}}},
{"geometry": {"type": "Point", "coordinates": [-88.3119952311, 33.5635342175]}, "type": "Feature", "properties": {"collection_times": [{"days": "Mon-Fri", "time": "3:55pm"}, {"days": "Sat", "time": "9:25am"}, {"days": "Sun", "time": "Closed"}], "id": "3976600000", "name": "USPS COLLECTION BOX - PO LOBBY", "address": {"city": "STEENS", "state": "MS", "street": "346 STEENS VERNON RD", "postcode": "39766"}}},
{"geometry": {"type": "Point", "coordinates": [-88.3119952311, 33.5635342175]}, "type": "Feature", "properties": {"collection_times": [{"days": "Mon-Fri", "time": "3:55pm"}, {"days": "Sat", "time": "9:25am"}, {"days": "Sun", "time": "Closed"}], "id": "3976600001", "name": "USPS COLLECTION BOX - BLUE BOX", "address": {"city": "STEENS", "state": "MS", "street": "346 STEENS VERNON RD", "postcode": "39766"}}},
{"geometry": {"type": "Point", "coordinates": [-89.4362683709, 33.4522333296]}, "type": "Feature", "properties": {"collection_times": [{"days": "Mon-Fri", "time": "4:15pm"}, {"days": "Sat", "time": "9:00am"}, {"days": "Sun", "time": "Closed"}], "id": "3976700001", "name": "USPS COLLECTION BOX - BLUE BOX", "address": {"city": "STEWART", "state": "MS", "street": "35 CHOCTAW ST", "postcode": "39767"}}},
{"geometry": {"type": "Point", "coordinates": [-89.4362683709, 33.4522333296]}, "type": "Feature", "properties": {"collection_times": [{"days": "Mon-Fri", "time": "11:20am"}, {"days": "Sat", "time": "9:00am"}, {"days": "Sun", "time": "Closed"}], "id": "3976700002", "name": "USPS COLLECTION BOX - PO LOBBY", "address": {"city": "STEWART", "state": "MS", "street": "35 CHOCTAW ST", "postcode": "39767"}}},
{"geometry": {"type": "Point", "coordinates": [-89.0489564914, 33.3432014419]}, "type": "Feature", "properties": {"collection_times": [{"days": "Mon-Fri", "time": "3:45pm"}, {"days": "Sat-Sun", "time": "Closed"}], "id": "3976900000", "name": "USPS COLLECTION BOX - BLUE BOX", "address": {"city": "STURGIS", "state": "MS", "street": "2738 HIGHWAY 12 W", "postcode": "39769"}}},
{"geometry": {"type": "Point", "coordinates": [-89.0489564914, 33.3432014419]}, "type": "Feature", "properties": {"collection_times": [{"days": "Mon-Fri", "time": "3:00pm"}, {"days": "Sat", "time": "9:00am"}, {"days": "Sun", "time": "Closed"}], "id": "3976900001", "name": "USPS COLLECTION BOX - PO LOBBY", "address": {"city": "STURGIS", "state": "MS", "street": "2738 HIGHWAY 12 W", "postcode": "39769"}}},
{"geometry": {"type": "Point", "coordinates": [-89.2779651225, 33.6074113235]}, "type": "Feature", "properties": {"collection_times": [{"days": "Mon-Fri", "time": "3:40pm"}, {"days": "Sat", "time": "9:00am"}, {"days": "Sun", "time": "Closed"}], "id": "3977100000", "name": "USPS COLLECTION BOX - BLUE BOX", "address": {"city": "WALTHALL", "state": "MS", "street": "57 HISTORICAL ST", "postcode": "39771"}}},
{"geometry": {"type": "Point", "coordinates": [-89.2889465187, 33.261233429]}, "type": "Feature", "properties": {"collection_times": [{"days": "Mon-Fri", "time": "4:00pm"}, {"days": "Sat-Sun", "time": "Closed"}], "id": "3977200002", "name": "USPS COLLECTION BOX - BLUE BOX", "address": {"city": "WEIR", "state": "MS", "street": "800 MAIN ST", "postcode": "39772"}}},
{"geometry": {"type": "Point", "coordinates": [-88.6549230808, 33.6070705149]}, "type": "Feature", "properties": {"collection_times": [{"days": "Mon-Sat", "time": "12:00pm"}, {"days": "Sun", "time": "Closed"}], "id": "3977300001", "name": "USPS COLLECTION BOX - BLUE BOX", "address": {"city": "WEST POINT", "state": "MS", "street": "226 HIGHWAY 45 N", "postcode": "39773"}}},
{"geometry": {"type": "Point", "coordinates": [-88.6491554466, 33.6058492581]}, "type": "Feature", "properties": {"collection_times": [{"days": "Mon-Fri", "time": "3:00pm"}, {"days": "Sat", "time": "10:30am"}, {"days": "Sun", "time": "Closed"}], "id": "3977300003", "name": "USPS COLLECTION BOX - BLUE BOX", "address": {"city": "WEST POINT", "state": "MS", "street": "205 COURT ST", "postcode": "39773"}}},
{"geometry": {"type": "Point", "coordinates": [-88.6491554466, 33.6058492581]}, "type": "Feature", "properties": {"collection_times": [{"days": "Mon-Fri", "time": "3:00pm"}, {"days": "Sat", "time": "10:30am"}, {"days": "Sun", "time": "Closed"}], "id": "3977300004", "name": "USPS COLLECTION BOX - BLUE BOX", "address": {"city": "WEST POINT", "state": "MS", "street": "205 COURT ST", "postcode": "39773"}}},
{"geometry": {"type": "Point", "coordinates": [-88.6468658723, 33.6031188462]}, "type": "Feature", "properties": {"collection_times": [{"days": "Mon-Fri", "time": "4:30pm"}, {"days": "Sat", "time": "3:00pm"}, {"days": "Sun", "time": "Closed"}], "id": "3977300005", "name": "USPS COLLECTION BOX - BLUE BOX", "address": {"city": "WEST POINT", "state": "MS", "street": "420 COMMERCE ST", "postcode": "39773"}}},
{"geometry": {"type": "Point", "coordinates": [-88.6468658723, 33.6031188462]}, "type": "Feature", "properties": {"collection_times": [{"days": "Mon-Fri", "time": "4:30pm"}, {"days": "Sat", "time": "3:00pm"}, {"days": "Sun", "time": "Closed"}], "id": "3977300006", "name": "USPS COLLECTION BOX - BLUE BOX", "address": {"city": "WEST POINT", "state": "MS", "street": "420 COMMERCE ST", "postcode": "39773"}}},
{"geometry": {"type": "Point", "coordinates": [-89.0513804693, 33.7805380383]}, "type": "Feature", "properties": {"collection_times": [{"days": "Mon-Fri", "time": "4:00pm"}, {"days": "Sat-Sun", "time": "Closed"}], "id": "3977600000", "name": "USPS COLLECTION BOX - BLUE BOX", "address": {"city": "WOODLAND", "state": "MS", "street": "109 MARKET ST", "postcode": "39776"}}}
]}
