{"type": "FeatureCollection", "features": [
{"geometry": {"type": "Point", "coordinates": [-81.221406269, 37.2738506103]}, "type": "Feature", "properties": {"collection_times": [{"days": "Mon-Sat", "time": "5:00pm"}, {"days": "Sun", "time": "Closed"}], "id": "2470100004", "name": "USPS COLLECTION BOX - BLUE BOX", "address": {"city": "BLUEFIELD", "state": "WV", "street": "3010 E CUMBERLAND RD", "postcode": "24701"}}},
{"geometry": {"type": "Point", "coordinates": [-81.221406269, 37.2738506103]}, "type": "Feature", "properties": {"collection_times": [{"days": "Mon-Sat", "time": "5:00pm"}, {"days": "Sun", "time": "Closed"}], "id": "2470100005", "name": "USPS COLLECTION BOX - BLUE BOX", "address": {"city": "BLUEFIELD", "state": "WV", "street": "3010 E CUMBERLAND RD", "postcode": "24701"}}},
{"geometry": {"type": "Point", "coordinates": [-81.221406269, 37.2738506103]}, "type": "Feature", "properties": {"collection_times": [{"days": "Mon-Sat", "time": "5:00pm"}, {"days": "Sun", "time": "Closed"}], "id": "2470100006", "name": "USPS COLLECTION BOX - BLUE BOX", "address": {"city": "BLUEFIELD", "state": "WV", "street": "3010 E CUMBERLAND RD", "postcode": "24701"}}},
{"geometry": {"type": "Point", "coordinates": [-81.221406269, 37.2738506103]}, "type": "Feature", "properties": {"collection_times": [{"days": "Mon-Sat", "time": "5:00pm"}, {"days": "Sun", "time": "Closed"}], "id": "2470100008", "name": "USPS COLLECTION BOX - PO LOBBY", "address": {"city": "BLUEFIELD", "state": "WV", "street": "3010 E CUMBERLAND RD", "postcode": "24701"}}},
{"geometry": {"type": "Point", "coordinates": [-81.221406269, 37.2738506103]}, "type": "Feature", "properties": {"collection_times": [{"days": "Mon-Sat", "time": "5:00pm"}, {"days": "Sun", "time": "Closed"}], "id": "2470100009", "name": "USPS COLLECTION BOX - PO LOBBY", "address": {"city": "BLUEFIELD", "state": "WV", "street": "3010 E CUMBERLAND RD", "postcode": "24701"}}},
{"geometry": {"type": "Point", "coordinates": [-81.235105213, 37.2670365919]}, "type": "Feature", "properties": {"collection_times": [{"days": "Mon-Fri", "time": "3:00pm"}, {"days": "Sat-Sun", "time": "Closed"}], "id": "2470100012", "name": "USPS COLLECTION BOX - BLUE BOX", "address": {"city": "BLUEFIELD", "state": "WV", "street": "219 ROCK ST", "postcode": "24701"}}},
{"geometry": {"type": "Point", "coordinates": [-81.2260013694, 37.2994135295]}, "type": "Feature", "properties": {"collection_times": [{"days": "Mon-Fri", "time": "3:00pm"}, {"days": "Sat", "time": "9:00am"}, {"days": "Sun", "time": "Closed"}], "id": "2470100039", "name": "USPS COLLECTION BOX - BLUE BOX", "address": {"city": "BLUEFIELD", "state": "WV", "street": "1 WESTWOOD PARK", "postcode": "24701"}}},
{"geometry": {"type": "Point", "coordinates": [-81.2260013694, 37.2994135295]}, "type": "Feature", "properties": {"collection_times": [{"days": "Mon-Fri", "time": "3:00pm"}, {"days": "Sat", "time": "9:00am"}, {"days": "Sun", "time": "Closed"}], "id": "2470100040", "name": "USPS COLLECTION BOX - BLUE BOX", "address": {"city": "BLUEFIELD", "state": "WV", "street": "2040 LEATHERWOOD LN", "postcode": "24701"}}},
{"geometry": {"type": "Point", "coordinates": [-81.235105213, 37.2670365919]}, "type": "Feature", "properties": {"collection_times": [{"days": "Mon-Fri", "time": "3:00pm"}, {"days": "Sat-Sun", "time": "Closed"}], "id": "2470100041", "name": "USPS COLLECTION BOX - BLUE BOX", "address": {"city": "BLUEFIELD", "state": "WV", "street": "219 ROCK ST", "postcode": "24701"}}},
{"geometry": {"type": "Point", "coordinates": [-81.2197717321, 37.2704262753]}, "type": "Feature", "properties": {"collection_times": [{"days": "Mon-Fri", "time": "3:00pm"}, {"days": "Sat-Sun", "time": "Closed"}], "id": "2470100042", "name": "USPS COLLECTION BOX - BLUE BOX", "address": {"city": "BLUEFIELD", "state": "WV", "street": "800 PRINCETON AVE", "postcode": "24701"}}},
{"geometry": {"type": "Point", "coordinates": [-81.2219496007, 37.2685598247]}, "type": "Feature", "properties": {"collection_times": [{"days": "Mon-Fri", "time": "3:00pm"}, {"days": "Sat", "time": "11:00am"}, {"days": "Sun", "time": "Closed"}], "id": "2470100044", "name": "USPS COLLECTION BOX - BLUE BOX", "address": {"city": "BLUEFIELD", "state": "WV", "street": "500 COMMERCE ST", "postcode": "24701"}}},
{"geometry": {"type": "Point", "coordinates": [-81.2218405712, 37.2586582558]}, "type": "Feature", "properties": {"collection_times": [{"days": "Mon-Fri", "time": "3:00pm"}, {"days": "Sat", "time": "2:00pm"}, {"days": "Sun", "time": "Closed"}], "id": "2470100049", "name": "USPS COLLECTION BOX - BLUE BOX", "address": {"city": "BLUEFIELD", "state": "WV", "street": "301 NORTH ST", "postcode": "24701"}}},
{"geometry": {"type": "Point", "coordinates": [-81.2308523252, 37.2539344779]}, "type": "Feature", "properties": {"collection_times": [{"days": "Mon-Fri", "time": "4:00pm"}, {"days": "Sat", "time": "9:30am"}, {"days": "Sun", "time": "Closed"}], "id": "2470100056", "name": "USPS COLLECTION BOX - BLUE BOX", "address": {"city": "BLUEFIELD", "state": "WV", "street": "1027 FREDERICK ST", "postcode": "24701"}}},
{"geometry": {"type": "Point", "coordinates": [-81.2260013694, 37.2994135295]}, "type": "Feature", "properties": {"collection_times": [{"days": "Mon-Sat", "time": "9:30am"}, {"days": "Sun", "time": "Closed"}], "id": "2470100057", "name": "USPS COLLECTION BOX - BLUE BOX", "address": {"city": "BLUEFIELD", "state": "WV", "street": "219 INDUSTRIAL PARK RD", "postcode": "24701"}}},
{"geometry": {"type": "Point", "coordinates": [-81.2260013694, 37.2994135295]}, "type": "Feature", "properties": {"collection_times": [{"days": "Mon-Sat", "time": "1:30pm"}, {"days": "Sun", "time": "Closed"}], "id": "2470100059", "name": "USPS COLLECTION BOX - BLUE BOX", "address": {"city": "BLUEFIELD", "state": "WV", "street": "730 VIRGINIA AVE", "postcode": "24701"}}},
{"geometry": {"type": "Point", "coordinates": [-81.221822649, 37.268745146]}, "type": "Feature", "properties": {"collection_times": [{"days": "Mon-Sat", "time": "9:00am"}, {"days": "Sun", "time": "Closed"}], "id": "2470100060", "name": "USPS COLLECTION BOX - BLUE BOX", "address": {"city": "BLUEFIELD", "state": "WV", "street": "525 COMMERCE ST", "postcode": "24701"}}},
{"geometry": {"type": "Point", "coordinates": [-81.3008203049, 37.3267087856]}, "type": "Feature", "properties": {"collection_times": [{"days": "Mon-Sat", "time": "9:30am"}, {"days": "Sun", "time": "Closed"}], "id": "2470100061", "name": "USPS COLLECTION BOX - BLUE BOX", "address": {"city": "BLUEFIELD", "state": "WV", "street": "4132 COAL HERITAGE RD", "postcode": "24701"}}},
{"geometry": {"type": "Point", "coordinates": [-81.221888838, 37.2672856274]}, "type": "Feature", "properties": {"collection_times": [{"days": "Mon-Fri", "time": "4:30pm"}, {"days": "Sat", "time": "9:30am"}, {"days": "Sun", "time": "Closed"}], "id": "2470100062", "name": "USPS COLLECTION BOX - PO LOBBY", "address": {"city": "BLUEFIELD", "state": "WV", "street": "601 FEDERAL ST", "postcode": "24701"}}},
{"geometry": {"type": "Point", "coordinates": [-81.2260013694, 37.2994135295]}, "type": "Feature", "properties": {"collection_times": [{"days": "Mon-Sat", "time": "11:00am"}, {"days": "Sun", "time": "Closed"}], "id": "2470100063", "name": "USPS COLLECTION BOX - BLUE BOX", "address": {"city": "BLUEFIELD", "state": "WV", "street": "495 BLUE PRINCE RD", "postcode": "24701"}}},
{"geometry": {"type": "Point", "coordinates": [-81.221406269, 37.2738506103]}, "type": "Feature", "properties": {"collection_times": [{"days": "Mon-Sat", "time": "5:00pm"}, {"days": "Sun", "time": "Closed"}], "id": "2470100064", "name": "USPS COLLECTION BOX - PO LOBBY", "address": {"city": "BLUEFIELD", "state": "WV", "street": "3010 E CUMBERLAND RD", "postcode": "24701"}}},
{"geometry": {"type": "Point", "coordinates": [-81.0147028266, 37.4232488347]}, "type": "Feature", "properties": {"collection_times": [{"days": "Mon-Fri", "time": "4:30pm"}, {"days": "Sat", "time": "12:00pm"}, {"days": "Sun", "time": "Closed"}], "id": "2471200000", "name": "USPS COLLECTION BOX - BLUE BOX", "address": {"city": "ATHENS", "state": "WV", "street": "203 VERMILLION ST", "postcode": "24712"}}},
{"geometry": {"type": "Point", "coordinates": [-81.0147028266, 37.4232488347]}, "type": "Feature", "properties": {"collection_times": [{"days": "Mon-Fri", "time": "4:30pm"}, {"days": "Sat", "time": "12:00pm"}, {"days": "Sun", "time": "Closed"}], "id": "2471200002", "name": "USPS COLLECTION BOX - PO LOBBY", "address": {"city": "ATHENS", "state": "WV", "street": "203 VERMILLION ST", "postcode": "24712"}}},
{"geometry": {"type": "Point", "coordinates": [-81.3204767394, 37.3482805545]}, "type": "Feature", "properties": {"collection_times": [{"days": "Mon-Fri", "time": "11:45am"}, {"days": "Sat", "time": "10:30am"}, {"days": "Sun", "time": "Closed"}], "id": "2471500001", "name": "USPS COLLECTION BOX - PO LOBBY", "address": {"city": "BRAMWELL", "state": "WV", "street": "137 MAIN ST", "postcode": "24715"}}},
{"geometry": {"type": "Point", "coordinates": [-81.3792713942, 37.53775874]}, "type": "Feature", "properties": {"collection_times": [{"days": "Mon-Fri", "time": "3:45pm"}, {"days": "Sat", "time": "10:45am"}, {"days": "Sun", "time": "Closed"}], "id": "2471600000", "name": "USPS COLLECTION BOX - BLUE BOX", "address": {"city": "BUD", "state": "WV", "street": "PO BOX 9998", "postcode": "24716"}}},
{"geometry": {"type": "Point", "coordinates": [-81.3792713942, 37.53775874]}, "type": "Feature", "properties": {"collection_times": [{"days": "Mon-Fri", "time": "3:45pm"}, {"days": "Sat", "time": "10:45am"}, {"days": "Sun", "time": "Closed"}], "id": "2471600001", "name": "USPS COLLECTION BOX - PO LOBBY", "address": {"city": "BUD", "state": "WV", "street": "PO BOX 9998", "postcode": "24716"}}},
{"geometry": {"type": "Point", "coordinates": [-81.3843833787, 37.5390061893]}, "type": "Feature", "properties": {"collection_times": [{"days": "Mon-Fri", "time": "10:15am"}, {"days": "Sat", "time": "10:45am"}, {"days": "Sun", "time": "Closed"}], "id": "2471900000", "name": "USPS COLLECTION BOX - BLUE BOX", "address": {"city": "COVEL", "state": "WV", "street": "PO BOX 9998", "postcode": "24719"}}},
{"geometry": {"type": "Point", "coordinates": [-81.3843833787, 37.5390061893]}, "type": "Feature", "properties": {"collection_times": [{"days": "Mon-Fri", "time": "10:15am"}, {"days": "Sat", "time": "10:45am"}, {"days": "Sun", "time": "Closed"}], "id": "2471900001", "name": "USPS COLLECTION BOX - PO LOBBY", "address": {"city": "COVEL", "state": "WV", "street": "PO BOX 9998", "postcode": "24719"}}},
{"geometry": {"type": "Point", "coordinates": [-81.1519861162, 37.3952413739]}, "type": "Feature", "properties": {"collection_times": [{"days": "Mon-Fri", "time": "12:00pm"}, {"days": "Sat", "time": "11:45am"}, {"days": "Sun", "time": "Closed"}], "id": "2473100000", "name": "USPS COLLECTION BOX - BLUE BOX", "address": {"city": "KEGLEY", "state": "WV", "street": "3376 BECKLEY RD", "postcode": "24731"}}},
{"geometry": {"type": "Point", "coordinates": [-81.1497108974, 37.3998857624]}, "type": "Feature", "properties": {"collection_times": [{"days": "Mon-Fri", "time": "12:00pm"}, {"days": "Sat", "time": "11:45am"}, {"days": "Sun", "time": "Closed"}], "id": "2473100001", "name": "USPS COLLECTION BOX - PO LOBBY", "address": {"city": "KEGLEY", "state": "WV", "street": "PO BOX 9998", "postcode": "24731"}}},
{"geometry": {"type": "Point", "coordinates": [-80.9465727394, 37.3392622867]}, "type": "Feature", "properties": {"collection_times": [{"days": "Mon-Sat", "time": "10:00am"}, {"days": "Sun", "time": "Closed"}], "id": "2473200000", "name": "USPS COLLECTION BOX - BLUE BOX", "address": {"city": "KELLYSVILLE", "state": "WV", "street": "4602 KELLYSVILLE RD", "postcode": "24732"}}},
{"geometry": {"type": "Point", "coordinates": [-80.9465727394, 37.3392622867]}, "type": "Feature", "properties": {"collection_times": [{"days": "Mon-Sat", "time": "10:00am"}, {"days": "Sun", "time": "Closed"}], "id": "2473200001", "name": "USPS COLLECTION BOX - PO LOBBY", "address": {"city": "KELLYSVILLE", "state": "WV", "street": "4602 KELLYSVILLE RD", "postcode": "24732"}}},
{"geometry": {"type": "Point", "coordinates": [-81.2095576423, 37.4446590951]}, "type": "Feature", "properties": {"collection_times": [{"days": "Mon-Fri", "time": "3:15pm"}, {"days": "Sat", "time": "10:45am"}, {"days": "Sun", "time": "Closed"}], "id": "2473300000", "name": "USPS COLLECTION BOX - BLUE BOX", "address": {"city": "LASHMEET", "state": "WV", "street": "4226 MATOAKA RD", "postcode": "24733"}}},
{"geometry": {"type": "Point", "coordinates": [-81.2095576423, 37.4446590951]}, "type": "Feature", "properties": {"collection_times": [{"days": "Mon-Fri", "time": "3:15pm"}, {"days": "Sat", "time": "10:45am"}, {"days": "Sun", "time": "Closed"}], "id": "2473300001", "name": "USPS COLLECTION BOX - PO LOBBY", "address": {"city": "LASHMEET", "state": "WV", "street": "4226 MATOAKA RD", "postcode": "24733"}}},
{"geometry": {"type": "Point", "coordinates": [-81.2526989989, 37.3537969513]}, "type": "Feature", "properties": {"collection_times": [{"days": "Mon-Fri", "time": "12:55pm"}, {"days": "Sat", "time": "10:30am"}, {"days": "Sun", "time": "Closed"}], "id": "2473700001", "name": "USPS COLLECTION BOX - PO LOBBY", "address": {"city": "MONTCALM", "state": "WV", "street": "5427 SIMMONS RIVER RD", "postcode": "24737"}}},
{"geometry": {"type": "Point", "coordinates": [-81.2526989989, 37.3537969513]}, "type": "Feature", "properties": {"collection_times": [{"days": "Mon-Fri", "time": "12:55pm"}, {"days": "Sat", "time": "10:30am"}, {"days": "Sun", "time": "Closed"}], "id": "2473700002", "name": "USPS COLLECTION BOX - PO LOBBY", "address": {"city": "MONTCALM", "state": "WV", "street": "5427 SIMMONS RIVER RD", "postcode": "24737"}}},
{"geometry": {"type": "Point", "coordinates": [-81.3047174045, 37.3024537815]}, "type": "Feature", "properties": {"collection_times": [{"days": "Mon-Fri", "time": "2:45pm"}, {"days": "Sat", "time": "10:15am"}, {"days": "Sun", "time": "Closed"}], "id": "2473800000", "name": "USPS COLLECTION BOX - BLUE BOX", "address": {"city": "NEMOURS", "state": "WV", "street": "5609 FALLS MILLS RD", "postcode": "24738"}}},
{"geometry": {"type": "Point", "coordinates": [-81.2223073284, 37.2580772103]}, "type": "Feature", "properties": {"collection_times": [{"days": "Mon-Fri", "time": "2:45pm"}, {"days": "Sat", "time": "10:15am"}, {"days": "Sun", "time": "Closed"}], "id": "2473800001", "name": "USPS COLLECTION BOX - PO LOBBY", "address": {"city": "NEMOURS", "state": "WV", "street": "5609 FALLS MILLS RD", "postcode": "24738"}}},
{"geometry": {"type": "Point", "coordinates": [-81.1005260717, 37.3663263938]}, "type": "Feature", "properties": {"collection_times": [{"days": "Mon-Fri", "time": "4:15pm"}, {"days": "Sat", "time": "1:00pm"}, {"days": "Sun", "time": "Closed"}], "id": "2474000007", "name": "USPS COLLECTION BOX - BLUE BOX", "address": {"city": "PRINCETON", "state": "WV", "street": "1403 HONAKER AVE", "postcode": "24740"}}},
{"geometry": {"type": "Point", "coordinates": [-81.0968175813, 37.3793907939]}, "type": "Feature", "properties": {"collection_times": [{"days": "Mon-Fri", "time": "3:45pm"}, {"days": "Sat", "time": "12:00pm"}, {"days": "Sun", "time": "Closed"}], "id": "2474000009", "name": "USPS COLLECTION BOX - BLUE BOX", "address": {"city": "PRINCETON", "state": "WV", "street": "608 NEW HOPE RD", "postcode": "24740"}}},
{"geometry": {"type": "Point", "coordinates": [-81.0547953479, 37.3633575117]}, "type": "Feature", "properties": {"collection_times": [{"days": "Mon-Sat", "time": "12:00pm"}, {"days": "Sun", "time": "Closed"}], "id": "2474000010", "name": "USPS COLLECTION BOX - BLUE BOX", "address": {"city": "PRINCETON", "state": "WV", "street": "910 OAKVALE RD", "postcode": "24740"}}},
{"geometry": {"type": "Point", "coordinates": [-81.0968175813, 37.3793907939]}, "type": "Feature", "properties": {"collection_times": [{"days": "Mon-Fri", "time": "3:45pm"}, {"days": "Sat", "time": "11:00am"}, {"days": "Sun", "time": "Closed"}], "id": "2474000011", "name": "USPS COLLECTION BOX - BLUE BOX", "address": {"city": "PRINCETON", "state": "WV", "street": "508 NEW HOPE RD", "postcode": "24740"}}},
{"geometry": {"type": "Point", "coordinates": [-81.1069597417, 37.3596322918]}, "type": "Feature", "properties": {"collection_times": [{"days": "Mon-Fri", "time": "12:00pm"}, {"days": "Sat", "time": "10:30am"}, {"days": "Sun", "time": "Closed"}], "id": "2474000012", "name": "USPS COLLECTION BOX - BLUE BOX", "address": {"city": "PRINCETON", "state": "WV", "street": "100 COURTHOUSE RD", "postcode": "24740"}}},
{"geometry": {"type": "Point", "coordinates": [-81.1042189836, 37.3664116835]}, "type": "Feature", "properties": {"collection_times": [{"days": "Mon-Sat", "time": "11:30am"}, {"days": "Sun", "time": "Closed"}], "id": "2474000016", "name": "USPS COLLECTION BOX - BLUE BOX", "address": {"city": "PRINCETON", "state": "WV", "street": "1608 W MAIN ST", "postcode": "24740"}}},
{"geometry": {"type": "Point", "coordinates": [-81.1014758632, 37.3656358466]}, "type": "Feature", "properties": {"collection_times": [{"days": "Mon-Fri", "time": "4:15pm"}, {"days": "Sat", "time": "1:00pm"}, {"days": "Sun", "time": "Closed"}], "id": "2474000017", "name": "USPS COLLECTION BOX - BLUE BOX", "address": {"city": "PRINCETON", "state": "WV", "street": "1439 E MAIN ST", "postcode": "24740"}}},
{"geometry": {"type": "Point", "coordinates": [-81.1012752178, 37.365698882]}, "type": "Feature", "properties": {"collection_times": [{"days": "Mon-Sat", "time": "10:30am"}, {"days": "Sun", "time": "Closed"}], "id": "2474000019", "name": "USPS COLLECTION BOX - BLUE BOX", "address": {"city": "PRINCETON", "state": "WV", "street": "1422 E MAIN ST", "postcode": "24740"}}},
{"geometry": {"type": "Point", "coordinates": [-81.0924806833, 37.3645630579]}, "type": "Feature", "properties": {"collection_times": [{"days": "Mon-Sat", "time": "1:30pm"}, {"days": "Sun", "time": "Closed"}], "id": "2474000022", "name": "USPS COLLECTION BOX - BLUE BOX", "address": {"city": "PRINCETON", "state": "WV", "street": "1033 STAFFORD DR", "postcode": "24740"}}},
{"geometry": {"type": "Point", "coordinates": [-81.0991884096, 37.360894668]}, "type": "Feature", "properties": {"collection_times": [{"days": "Mon-Fri", "time": "4:00pm"}, {"days": "Sat", "time": "12:00pm"}, {"days": "Sun", "time": "Closed"}], "id": "2474000025", "name": "USPS COLLECTION BOX - BLUE BOX", "address": {"city": "PRINCETON", "state": "WV", "street": "1309 STAFFORD DR", "postcode": "24740"}}},
{"geometry": {"type": "Point", "coordinates": [-81.1014758632, 37.3656358466]}, "type": "Feature", "properties": {"collection_times": [{"days": "Mon-Fri", "time": "4:15pm"}, {"days": "Sat", "time": "1:00pm"}, {"days": "Sun", "time": "Closed"}], "id": "2474000030", "name": "USPS COLLECTION BOX - BLUE BOX", "address": {"city": "PRINCETON", "state": "WV", "street": "1439 E MAIN ST", "postcode": "24740"}}},
{"geometry": {"type": "Point", "coordinates": [-81.096562823, 37.3693554693]}, "type": "Feature", "properties": {"collection_times": [{"days": "Mon-Fri", "time": "4:45pm"}, {"days": "Sat", "time": "4:30pm"}, {"days": "Sun", "time": "Closed"}], "id": "2474000032", "name": "USPS COLLECTION BOX - BLUE BOX", "address": {"city": "PRINCETON", "state": "WV", "street": "1000 MERCER ST", "postcode": "24740"}}},
{"geometry": {"type": "Point", "coordinates": [-81.1014758632, 37.3656358466]}, "type": "Feature", "properties": {"collection_times": [{"days": "Mon-Fri", "time": "4:15pm"}, {"days": "Sat", "time": "1:00pm"}, {"days": "Sun", "time": "Closed"}], "id": "2474000037", "name": "USPS COLLECTION BOX - BLUE BOX", "address": {"city": "PRINCETON", "state": "WV", "street": "1439 E MAIN ST", "postcode": "24740"}}},
{"geometry": {"type": "Point", "coordinates": [-81.096562823, 37.3693554693]}, "type": "Feature", "properties": {"collection_times": [{"days": "Mon-Fri", "time": "4:45pm"}, {"days": "Sat", "time": "4:30pm"}, {"days": "Sun", "time": "Closed"}], "id": "2474000039", "name": "USPS COLLECTION BOX - BLUE BOX", "address": {"city": "PRINCETON", "state": "WV", "street": "1000 MERCER ST", "postcode": "24740"}}},
{"geometry": {"type": "Point", "coordinates": [-81.0968175813, 37.3793907939]}, "type": "Feature", "properties": {"collection_times": [{"days": "Mon-Fri", "time": "4:00pm"}, {"days": "Sat", "time": "12:00pm"}, {"days": "Sun", "time": "Closed"}], "id": "2474000049", "name": "USPS COLLECTION BOX - BLUE BOX", "address": {"city": "PRINCETON", "state": "WV", "street": "1229 STAFFORD DR", "postcode": "24740"}}},
{"geometry": {"type": "Point", "coordinates": [-81.096562823, 37.3693554693]}, "type": "Feature", "properties": {"collection_times": [{"days": "Mon-Fri", "time": "4:45pm"}, {"days": "Sat", "time": "4:30pm"}, {"days": "Sun", "time": "Closed"}], "id": "2474000053", "name": "USPS COLLECTION BOX - PO LOBBY", "address": {"city": "PRINCETON", "state": "WV", "street": "1000 MERCER ST", "postcode": "24740"}}},
{"geometry": {"type": "Point", "coordinates": [-81.096562823, 37.3693554693]}, "type": "Feature", "properties": {"collection_times": [{"days": "Mon-Fri", "time": "4:45pm"}, {"days": "Sat", "time": "4:30pm"}, {"days": "Sun", "time": "Closed"}], "id": "2474000054", "name": "USPS COLLECTION BOX - PO LOBBY", "address": {"city": "PRINCETON", "state": "WV", "street": "1000 MERCER ST", "postcode": "24740"}}},
{"geometry": {"type": "Point", "coordinates": [-81.096562823, 37.3693554693]}, "type": "Feature", "properties": {"collection_times": [{"days": "Mon-Fri", "time": "4:45pm"}, {"days": "Sat", "time": "4:30pm"}, {"days": "Sun", "time": "Closed"}], "id": "2474000055", "name": "USPS COLLECTION BOX - PO LOBBY", "address": {"city": "PRINCETON", "state": "WV", "street": "1000 MERCER ST", "postcode": "24740"}}},
{"geometry": {"type": "Point", "coordinates": [-81.0499258179, 37.3499082004]}, "type": "Feature", "properties": {"collection_times": [{"days": "Mon-Sat", "time": "12:00pm"}, {"days": "Sun", "time": "Closed"}], "id": "2474000056", "name": "USPS COLLECTION BOX - BLUE BOX", "address": {"city": "PRINCETON", "state": "WV", "street": "201 GREASY RIDGE RD", "postcode": "24740"}}},
{"geometry": {"type": "Point", "coordinates": [-81.0968175813, 37.3793907939]}, "type": "Feature", "properties": {"collection_times": [{"days": "Mon-Fri", "time": "4:00pm"}, {"days": "Sat", "time": "12:00pm"}, {"days": "Sun", "time": "Closed"}], "id": "2474000057", "name": "USPS COLLECTION BOX - BLUE BOX", "address": {"city": "PRINCETON", "state": "WV", "street": "200 12TH STREET EXT", "postcode": "24740"}}},
{"geometry": {"type": "Point", "coordinates": [-81.0967435909, 37.3593697419]}, "type": "Feature", "properties": {"collection_times": [{"days": "Mon-Fri", "time": "4:00pm"}, {"days": "Sat", "time": "12:00pm"}, {"days": "Sun", "time": "Closed"}], "id": "2474000059", "name": "USPS COLLECTION BOX - BLUE BOX", "address": {"city": "PRINCETON", "state": "WV", "street": "195 DAVIS ST", "postcode": "24740"}}},
{"geometry": {"type": "Point", "coordinates": [-81.1005260717, 37.3663263938]}, "type": "Feature", "properties": {"collection_times": [{"days": "Mon-Fri", "time": "4:15pm"}, {"days": "Sat", "time": "1:00pm"}, {"days": "Sun", "time": "Closed"}], "id": "2474000061", "name": "USPS COLLECTION BOX - BLUE BOX", "address": {"city": "PRINCETON", "state": "WV", "street": "1403 HONAKER AVE", "postcode": "24740"}}},
{"geometry": {"type": "Point", "coordinates": [-81.0968175813, 37.3793907939]}, "type": "Feature", "properties": {"collection_times": [{"days": "Mon-Sat", "time": "11:30am"}, {"days": "Sun", "time": "Closed"}], "id": "2474000062", "name": "USPS COLLECTION BOX - BLUE BOX", "address": {"city": "PRINCETON", "state": "WV", "street": "3377 BECKLEY RD", "postcode": "24740"}}},
{"geometry": {"type": "Point", "coordinates": [-81.2315395894, 37.3845242349]}, "type": "Feature", "properties": {"collection_times": [{"days": "Mon-Fri", "time": "11:45am"}, {"days": "Sat", "time": "10:25am"}, {"days": "Sun", "time": "Closed"}], "id": "2474700000", "name": "USPS COLLECTION BOX - BLUE BOX", "address": {"city": "ROCK", "state": "WV", "street": "2757 ROCK RD", "postcode": "24747"}}},
{"geometry": {"type": "Point", "coordinates": [-81.2315395894, 37.3845242349]}, "type": "Feature", "properties": {"collection_times": [{"days": "Mon-Fri", "time": "11:45am"}, {"days": "Sat", "time": "10:25am"}, {"days": "Sun", "time": "Closed"}], "id": "2474700001", "name": "USPS COLLECTION BOX - PO LOBBY", "address": {"city": "ROCK", "state": "WV", "street": "2757 ROCK RD", "postcode": "24747"}}}
]}
