{"type": "FeatureCollection", "features": [
{"geometry": {"type": "Point", "coordinates": [-81.5048677447, 37.4247922053]}, "type": "Feature", "properties": {"collection_times": [{"days": "Mon-Fri", "time": "3:00pm"}, {"days": "Sat", "time": "1:00pm"}, {"days": "Sun", "time": "Closed"}], "id": "2480100002", "name": "USPS COLLECTION BOX - BLUE BOX", "address": {"city": "WELCH", "state": "WV", "street": "145 MAIN ST", "postcode": "24801"}}},
{"geometry": {"type": "Point", "coordinates": [-81.5846334171, 37.4330780313]}, "type": "Feature", "properties": {"collection_times": [{"days": "Mon-Fri", "time": "3:00pm"}, {"days": "Sat", "time": "2:00pm"}, {"days": "Sun", "time": "Closed"}], "id": "2480100009", "name": "USPS COLLECTION BOX - BLUE BOX", "address": {"city": "WELCH", "state": "WV", "street": "93 WYOMING ST", "postcode": "24801"}}},
{"geometry": {"type": "Point", "coordinates": [-81.5855994364, 37.4310790405]}, "type": "Feature", "properties": {"collection_times": [{"days": "Mon-Fri", "time": "5:15pm"}, {"days": "Sat", "time": "4:00pm"}, {"days": "Sun", "time": "Closed"}], "id": "2480100017", "name": "USPS COLLECTION BOX - PO LOBBY", "address": {"city": "WELCH", "state": "WV", "street": "9 MCDOWELL ST", "postcode": "24801"}}},
{"geometry": {"type": "Point", "coordinates": [-81.5855994364, 37.4310790405]}, "type": "Feature", "properties": {"collection_times": [{"days": "Mon-Fri", "time": "5:15pm"}, {"days": "Sat", "time": "4:00pm"}, {"days": "Sun", "time": "Closed"}], "id": "2480100018", "name": "USPS COLLECTION BOX - PO LOBBY", "address": {"city": "WELCH", "state": "WV", "street": "9 MCDOWELL ST", "postcode": "24801"}}},
{"geometry": {"type": "Point", "coordinates": [-81.5764125675, 37.4343785275]}, "type": "Feature", "properties": {"collection_times": [{"days": "Mon-Sat", "time": "10:00am"}, {"days": "Sun", "time": "Closed"}], "id": "2480100020", "name": "USPS COLLECTION BOX - BLUE BOX", "address": {"city": "WELCH", "state": "WV", "street": "781 VIRGINIA AVE", "postcode": "24801"}}},
{"geometry": {"type": "Point", "coordinates": [-81.5855994364, 37.4310790405]}, "type": "Feature", "properties": {"collection_times": [{"days": "Mon-Fri", "time": "5:15pm"}, {"days": "Sat", "time": "4:00pm"}, {"days": "Sun", "time": "Closed"}], "id": "2480100022", "name": "USPS COLLECTION BOX - BLUE BOX", "address": {"city": "WELCH", "state": "WV", "street": "9 MCDOWELL ST", "postcode": "24801"}}},
{"geometry": {"type": "Point", "coordinates": [-81.4453691545, 37.3447962444]}, "type": "Feature", "properties": {"collection_times": [{"days": "Mon-Fri", "time": "11:45am"}, {"days": "Sat", "time": "10:30am"}, {"days": "Sun", "time": "Closed"}], "id": "2480800000", "name": "USPS COLLECTION BOX - BLUE BOX", "address": {"city": "ANAWALT", "state": "WV", "street": "7 PLUM ST", "postcode": "24808"}}},
{"geometry": {"type": "Point", "coordinates": [-81.4453691545, 37.3447962444]}, "type": "Feature", "properties": {"collection_times": [{"days": "Mon-Fri", "time": "11:45am"}, {"days": "Sat", "time": "10:45am"}, {"days": "Sun", "time": "Closed"}], "id": "2480800001", "name": "USPS COLLECTION BOX - PO LOBBY", "address": {"city": "ANAWALT", "state": "WV", "street": "7 PLUM ST", "postcode": "24808"}}},
{"geometry": {"type": "Point", "coordinates": [-81.7860748213, 37.4156777878]}, "type": "Feature", "properties": {"collection_times": [{"days": "Mon-Fri", "time": "11:45am"}, {"days": "Sat", "time": "11:30am"}, {"days": "Sun", "time": "Closed"}], "id": "2481100000", "name": "USPS COLLECTION BOX - BLUE BOX", "address": {"city": "AVONDALE", "state": "WV", "street": "7120 MOUNTAINEER HWY", "postcode": "24811"}}},
{"geometry": {"type": "Point", "coordinates": [-81.7860748213, 37.4156777878]}, "type": "Feature", "properties": {"collection_times": [{"days": "Mon-Fri", "time": "11:45am"}, {"days": "Sat", "time": "11:30am"}, {"days": "Sun", "time": "Closed"}], "id": "2481100001", "name": "USPS COLLECTION BOX - PO LOBBY", "address": {"city": "AVONDALE", "state": "WV", "street": "7120 MOUNTAINEER HWY", "postcode": "24811"}}},
{"geometry": {"type": "Point", "coordinates": [-81.7151066099, 37.3387238092]}, "type": "Feature", "properties": {"collection_times": [{"days": "Mon-Fri", "time": "11:45am"}, {"days": "Sat", "time": "10:50am"}, {"days": "Sun", "time": "Closed"}], "id": "2481300000", "name": "USPS COLLECTION BOX - BLUE BOX", "address": {"city": "BARTLEY", "state": "WV", "street": "31 STORE BOTTOM RD", "postcode": "24813"}}},
{"geometry": {"type": "Point", "coordinates": [-81.7151066099, 37.3387238092]}, "type": "Feature", "properties": {"collection_times": [{"days": "Mon-Fri", "time": "11:45am"}, {"days": "Sat", "time": "10:50am"}, {"days": "Sun", "time": "Closed"}], "id": "2481300001", "name": "USPS COLLECTION BOX - PO LOBBY", "address": {"city": "BARTLEY", "state": "WV", "street": "31 STORE BOTTOM RD", "postcode": "24813"}}},
{"geometry": {"type": "Point", "coordinates": [-81.6706903767, 37.2975708385]}, "type": "Feature", "properties": {"collection_times": [{"days": "Mon-Fri", "time": "12:30pm"}, {"days": "Sat", "time": "9:45am"}, {"days": "Sun", "time": "Closed"}], "id": "2481500001", "name": "USPS COLLECTION BOX - PO LOBBY", "address": {"city": "BERWIND", "state": "WV", "street": "2115 RIFT BERWIND RD", "postcode": "24815"}}},
{"geometry": {"type": "Point", "coordinates": [-81.6743030852, 37.4738390431]}, "type": "Feature", "properties": {"collection_times": [{"days": "Mon-Sat", "time": "9:45am"}, {"days": "Sun", "time": "Closed"}], "id": "2481600000", "name": "USPS COLLECTION BOX - BLUE BOX", "address": {"city": "BIG SANDY", "state": "WV", "street": "62 ORA AVE", "postcode": "24816"}}},
{"geometry": {"type": "Point", "coordinates": [-81.6743030852, 37.4738390431]}, "type": "Feature", "properties": {"collection_times": [{"days": "Mon-Sat", "time": "9:45am"}, {"days": "Sun", "time": "Closed"}], "id": "2481600001", "name": "USPS COLLECTION BOX - PO LOBBY", "address": {"city": "BIG SANDY", "state": "WV", "street": "62 ORA AVE", "postcode": "24816"}}},
{"geometry": {"type": "Point", "coordinates": [-81.8007231148, 37.3510761141]}, "type": "Feature", "properties": {"collection_times": [{"days": "Mon-Fri", "time": "3:30pm"}, {"days": "Sat", "time": "11:00am"}, {"days": "Sun", "time": "Closed"}], "id": "2481700000", "name": "USPS COLLECTION BOX - BLUE BOX", "address": {"city": "BRADSHAW", "state": "WV", "street": "58 MOUNTAINEER HWY", "postcode": "24817"}}},
{"geometry": {"type": "Point", "coordinates": [-81.8007231148, 37.3510761141]}, "type": "Feature", "properties": {"collection_times": [{"days": "Mon-Fri", "time": "3:45pm"}, {"days": "Sat", "time": "11:45am"}, {"days": "Sun", "time": "Closed"}], "id": "2481700001", "name": "USPS COLLECTION BOX - PO LOBBY", "address": {"city": "BRADSHAW", "state": "WV", "street": "58 MOUNTAINEER HWY", "postcode": "24817"}}},
{"geometry": {"type": "Point", "coordinates": [-81.7118714825, 37.5828715058]}, "type": "Feature", "properties": {"collection_times": [{"days": "Mon-Fri", "time": "3:30pm"}, {"days": "Sat", "time": "10:30am"}, {"days": "Sun", "time": "Closed"}], "id": "2481800000", "name": "USPS COLLECTION BOX - BLUE BOX", "address": {"city": "BRENTON", "state": "WV", "street": "8079 R D BAILEY HWY", "postcode": "24818"}}},
{"geometry": {"type": "Point", "coordinates": [-81.7118714825, 37.5828715058]}, "type": "Feature", "properties": {"collection_times": [{"days": "Mon-Fri", "time": "3:00pm"}, {"days": "Sat", "time": "10:30am"}, {"days": "Sun", "time": "Closed"}], "id": "2481800001", "name": "USPS COLLECTION BOX - PO LOBBY", "address": {"city": "BRENTON", "state": "WV", "street": "8079 R D BAILEY HWY", "postcode": "24818"}}},
{"geometry": {"type": "Point", "coordinates": [-81.6911067095, 37.6496370351]}, "type": "Feature", "properties": {"collection_times": [{"days": "Mon-Fri", "time": "11:30am"}, {"days": "Sat", "time": "11:00am"}, {"days": "Sun", "time": "Closed"}], "id": "2482200001", "name": "USPS COLLECTION BOX - PO LOBBY", "address": {"city": "CLEAR FORK", "state": "WV", "street": "5510 CLEAR FORK VALLEY RD", "postcode": "24822"}}},
{"geometry": {"type": "Point", "coordinates": [-81.7669453719, 37.6644572435]}, "type": "Feature", "properties": {"collection_times": [{"days": "Mon-Fri", "time": "1:30pm"}, {"days": "Sat", "time": "12:00pm"}, {"days": "Sun", "time": "Closed"}], "id": "2482300000", "name": "USPS COLLECTION BOX - BLUE BOX", "address": {"city": "COAL MOUNTAIN", "state": "WV", "street": "PO BOX 9998", "postcode": "24823"}}},
{"geometry": {"type": "Point", "coordinates": [-81.7669453719, 37.6644572435]}, "type": "Feature", "properties": {"collection_times": [{"days": "Mon-Fri", "time": "1:30pm"}, {"days": "Sat", "time": "12:00pm"}, {"days": "Sun", "time": "Closed"}], "id": "2482300001", "name": "USPS COLLECTION BOX - PO LOBBY", "address": {"city": "COAL MOUNTAIN", "state": "WV", "street": "PO BOX 9998", "postcode": "24823"}}},
{"geometry": {"type": "Point", "coordinates": [-81.6688103303, 37.2965776426]}, "type": "Feature", "properties": {"collection_times": [{"days": "Mon-Fri", "time": "11:45am"}, {"days": "Sat", "time": "10:45am"}, {"days": "Sun", "time": "Closed"}], "id": "2482600000", "name": "USPS COLLECTION BOX - BLUE BOX", "address": {"city": "CUCUMBER", "state": "WV", "street": "PO BOX 9998", "postcode": "24826"}}},
{"geometry": {"type": "Point", "coordinates": [-81.6688103303, 37.2965776426]}, "type": "Feature", "properties": {"collection_times": [{"days": "Mon-Fri", "time": "11:45am"}, {"days": "Sat", "time": "10:45am"}, {"days": "Sun", "time": "Closed"}], "id": "2482600001", "name": "USPS COLLECTION BOX - PO LOBBY", "address": {"city": "CUCUMBER", "state": "WV", "street": "PO BOX 9998", "postcode": "24826"}}},
{"geometry": {"type": "Point", "coordinates": [-81.6649486366, 37.7410062984]}, "type": "Feature", "properties": {"collection_times": [{"days": "Mon-Fri", "time": "3:25pm"}, {"days": "Sat", "time": "11:30am"}, {"days": "Sun", "time": "Closed"}], "id": "2482700000", "name": "USPS COLLECTION BOX - BLUE BOX", "address": {"city": "CYCLONE", "state": "WV", "street": "5449 COUNTRY RD", "postcode": "24827"}}},
{"geometry": {"type": "Point", "coordinates": [-81.6649486366, 37.7410062984]}, "type": "Feature", "properties": {"collection_times": [{"days": "Mon-Fri", "time": "3:25pm"}, {"days": "Sat", "time": "11:30am"}, {"days": "Sun", "time": "Closed"}], "id": "2482700001", "name": "USPS COLLECTION BOX - PO LOBBY", "address": {"city": "CYCLONE", "state": "WV", "street": "5449 COUNTRY RD", "postcode": "24827"}}},
{"geometry": {"type": "Point", "coordinates": [-81.6583121498, 37.4688691371]}, "type": "Feature", "properties": {"collection_times": [{"days": "Mon-Fri", "time": "11:15am"}, {"days": "Sat", "time": "10:15am"}, {"days": "Sun", "time": "Closed"}], "id": "2482800000", "name": "USPS COLLECTION BOX - BLUE BOX", "address": {"city": "DAVY", "state": "WV", "street": "83 ASCO HOLLOW RD", "postcode": "24828"}}},
{"geometry": {"type": "Point", "coordinates": [-81.6583121498, 37.4688691371]}, "type": "Feature", "properties": {"collection_times": [{"days": "Mon-Fri", "time": "11:15am"}, {"days": "Sat", "time": "10:15am"}, {"days": "Sun", "time": "Closed"}], "id": "2482800001", "name": "USPS COLLECTION BOX - PO LOBBY", "address": {"city": "DAVY", "state": "WV", "street": "83 ASCO HOLLOW RD", "postcode": "24828"}}},
{"geometry": {"type": "Point", "coordinates": [-80.6136149343, 38.6424169896]}, "type": "Feature", "properties": {"collection_times": [{"days": "Mon-Fri", "time": "11:45am"}, {"days": "Sat", "time": "9:15am"}, {"days": "Sun", "time": "Closed"}], "id": "2483000000", "name": "USPS COLLECTION BOX - BLUE BOX", "address": {"city": "ELBERT", "state": "WV", "street": "2619 MIRACLE MOUNTAIN RD", "postcode": "24830"}}},
{"geometry": {"type": "Point", "coordinates": [-81.5383737414, 37.3366835619]}, "type": "Feature", "properties": {"collection_times": [{"days": "Mon-Fri", "time": "11:45am"}, {"days": "Sat", "time": "9:15am"}, {"days": "Sun", "time": "Closed"}], "id": "2483000001", "name": "USPS COLLECTION BOX - PO LOBBY", "address": {"city": "ELBERT", "state": "WV", "street": "2619 MIRACLE MOUNTAIN RD", "postcode": "24830"}}},
{"geometry": {"type": "Point", "coordinates": [-81.6204624371, 37.5693811521]}, "type": "Feature", "properties": {"collection_times": [{"days": "Mon-Sat", "time": "1:00pm"}, {"days": "Sun", "time": "Closed"}], "id": "2483400001", "name": "USPS COLLECTION BOX - PO LOBBY", "address": {"city": "FANROCK", "state": "WV", "street": "PO BOX 9998", "postcode": "24834"}}},
{"geometry": {"type": "Point", "coordinates": [-81.5513877121, 37.3637296341]}, "type": "Feature", "properties": {"collection_times": [{"days": "Mon-Fri", "time": "11:45am"}, {"days": "Sat", "time": "9:30am"}, {"days": "Sun", "time": "Closed"}], "id": "2483600000", "name": "USPS COLLECTION BOX - BLUE BOX", "address": {"city": "GARY", "state": "WV", "street": "5798 BLACK DIAMOND HWY", "postcode": "24836"}}},
{"geometry": {"type": "Point", "coordinates": [-81.5518470457, 37.3660682376]}, "type": "Feature", "properties": {"collection_times": [{"days": "Mon-Fri", "time": "11:45am"}, {"days": "Sat", "time": "9:30am"}, {"days": "Sun", "time": "Closed"}], "id": "2483600001", "name": "USPS COLLECTION BOX - PO LOBBY", "address": {"city": "GARY", "state": "WV", "street": "5798 BLACK DIAMOND HWY", "postcode": "24836"}}},
{"geometry": {"type": "Point", "coordinates": [-81.8156740355, 37.5586897448]}, "type": "Feature", "properties": {"collection_times": [{"days": "Mon-Fri", "time": "2:45pm"}, {"days": "Sat", "time": "12:45pm"}, {"days": "Sun", "time": "Closed"}], "id": "2483900000", "name": "USPS COLLECTION BOX - BLUE BOX", "address": {"city": "HANOVER", "state": "WV", "street": "5541 INTERSTATE HWY", "postcode": "24839"}}},
{"geometry": {"type": "Point", "coordinates": [-81.7858572436, 37.5793374964]}, "type": "Feature", "properties": {"collection_times": [{"days": "Mon-Fri", "time": "2:45pm"}, {"days": "Sat", "time": "12:45pm"}, {"days": "Sun", "time": "Closed"}], "id": "2483900001", "name": "USPS COLLECTION BOX - PO LOBBY", "address": {"city": "HANOVER", "state": "WV", "street": "5541 INTERSTATE HWY", "postcode": "24839"}}},
{"geometry": {"type": "Point", "coordinates": [-81.6631612891, 37.4710273096]}, "type": "Feature", "properties": {"collection_times": [{"days": "Mon-Fri", "time": "10:20am"}, {"days": "Sat", "time": "10:45am"}, {"days": "Sun", "time": "Closed"}], "id": "2484300000", "name": "USPS COLLECTION BOX - BLUE BOX", "address": {"city": "HENSLEY", "state": "WV", "street": "80 EVERGREEN DR", "postcode": "24843"}}},
{"geometry": {"type": "Point", "coordinates": [-81.6631612891, 37.4710273096]}, "type": "Feature", "properties": {"collection_times": [{"days": "Mon-Fri", "time": "10:20am"}, {"days": "Sat", "time": "10:45am"}, {"days": "Sun", "time": "Closed"}], "id": "2484300001", "name": "USPS COLLECTION BOX - PO LOBBY", "address": {"city": "HENSLEY", "state": "WV", "street": "80 EVERGREEN DR", "postcode": "24843"}}},
{"geometry": {"type": "Point", "coordinates": [-81.80762813, 37.4272415571]}, "type": "Feature", "properties": {"collection_times": [{"days": "Mon-Fri", "time": "4:30pm"}, {"days": "Sat", "time": "11:45am"}, {"days": "Sun", "time": "Closed"}], "id": "2484400000", "name": "USPS COLLECTION BOX - BLUE BOX", "address": {"city": "IAEGER", "state": "WV", "street": "5265 COAL HERITAGE RD", "postcode": "24844"}}},
{"geometry": {"type": "Point", "coordinates": [-81.80762813, 37.4272415571]}, "type": "Feature", "properties": {"collection_times": [{"days": "Mon-Fri", "time": "4:30pm"}, {"days": "Sat", "time": "11:45am"}, {"days": "Sun", "time": "Closed"}], "id": "2484400001", "name": "USPS COLLECTION BOX - PO LOBBY", "address": {"city": "IAEGER", "state": "WV", "street": "5265 COAL HERITAGE RD", "postcode": "24844"}}},
{"geometry": {"type": "Point", "coordinates": [-81.7945640118, 37.5392732969]}, "type": "Feature", "properties": {"collection_times": [{"days": "Mon-Fri", "time": "1:45pm"}, {"days": "Sat", "time": "10:45am"}, {"days": "Sun", "time": "Closed"}], "id": "2484500000", "name": "USPS COLLECTION BOX - BLUE BOX", "address": {"city": "IKES FORK", "state": "WV", "street": "8384 INTERSTATE HWY", "postcode": "24845"}}},
{"geometry": {"type": "Point", "coordinates": [-81.7945640118, 37.5392732969]}, "type": "Feature", "properties": {"collection_times": [{"days": "Mon-Fri", "time": "1:45pm"}, {"days": "Sat", "time": "10:45am"}, {"days": "Sun", "time": "Closed"}], "id": "2484500001", "name": "USPS COLLECTION BOX - PO LOBBY", "address": {"city": "IKES FORK", "state": "WV", "street": "8384 INTERSTATE HWY", "postcode": "24845"}}},
{"geometry": {"type": "Point", "coordinates": [-81.417570075, 37.5722710288]}, "type": "Feature", "properties": {"collection_times": [{"days": "Mon-Fri", "time": "11:00am"}, {"days": "Sat", "time": "9:30am"}, {"days": "Sun", "time": "Closed"}], "id": "2484700000", "name": "USPS COLLECTION BOX - BLUE BOX", "address": {"city": "ITMANN", "state": "WV", "street": "11312 RIVER RD", "postcode": "24847"}}},
{"geometry": {"type": "Point", "coordinates": [-81.417570075, 37.5722710288]}, "type": "Feature", "properties": {"collection_times": [{"days": "Mon-Fri", "time": "11:00am"}, {"days": "Sat", "time": "9:45am"}, {"days": "Sun", "time": "Closed"}], "id": "2484700001", "name": "USPS COLLECTION BOX - PO LOBBY", "address": {"city": "ITMANN", "state": "WV", "street": "11312 RIVER RD", "postcode": "24847"}}},
{"geometry": {"type": "Point", "coordinates": [-81.4332625685, 37.2968552303]}, "type": "Feature", "properties": {"collection_times": [{"days": "Mon-Fri", "time": "12:30pm"}, {"days": "Sat", "time": "11:45am"}, {"days": "Sun", "time": "Closed"}], "id": "2484800000", "name": "USPS COLLECTION BOX - BLUE BOX", "address": {"city": "JENKINJONES", "state": "WV", "street": "PO BOX 9998", "postcode": "24848"}}},
{"geometry": {"type": "Point", "coordinates": [-81.4332625685, 37.2968552303]}, "type": "Feature", "properties": {"collection_times": [{"days": "Mon-Fri", "time": "12:30pm"}, {"days": "Sat", "time": "11:45am"}, {"days": "Sun", "time": "Closed"}], "id": "2484800001", "name": "USPS COLLECTION BOX - PO LOBBY", "address": {"city": "JENKINJONES", "state": "WV", "street": "PO BOX 9998", "postcode": "24848"}}},
{"geometry": {"type": "Point", "coordinates": [-81.5762530952, 37.6697259253]}, "type": "Feature", "properties": {"collection_times": [{"days": "Mon-Fri", "time": "11:30am"}, {"days": "Sat", "time": "11:00am"}, {"days": "Sun", "time": "Closed"}], "id": "2484900000", "name": "USPS COLLECTION BOX - BLUE BOX", "address": {"city": "JESSE", "state": "WV", "street": "71 POPLAR GAP RD", "postcode": "24849"}}},
{"geometry": {"type": "Point", "coordinates": [-81.5547369224, 37.6629000632]}, "type": "Feature", "properties": {"collection_times": [{"days": "Mon-Fri", "time": "11:30am"}, {"days": "Sat", "time": "11:00am"}, {"days": "Sun", "time": "Closed"}], "id": "2484900001", "name": "USPS COLLECTION BOX - PO LOBBY", "address": {"city": "JESSE", "state": "WV", "street": "71 POPLAR GAP RD", "postcode": "24849"}}},
{"geometry": {"type": "Point", "coordinates": [-81.8344411847, 37.3313328856]}, "type": "Feature", "properties": {"collection_times": [{"days": "Mon-Fri", "time": "3:30pm"}, {"days": "Sat", "time": "11:30am"}, {"days": "Sun", "time": "Closed"}], "id": "2485000000", "name": "USPS COLLECTION BOX - BLUE BOX", "address": {"city": "JOLO", "state": "WV", "street": "PO BOX 9998", "postcode": "24850"}}},
{"geometry": {"type": "Point", "coordinates": [-81.8344411847, 37.3313328856]}, "type": "Feature", "properties": {"collection_times": [{"days": "Mon-Fri", "time": "3:30pm"}, {"days": "Sat", "time": "11:30am"}, {"days": "Sun", "time": "Closed"}], "id": "2485000001", "name": "USPS COLLECTION BOX - PO LOBBY", "address": {"city": "JOLO", "state": "WV", "street": "PO BOX 9998", "postcode": "24850"}}},
{"geometry": {"type": "Point", "coordinates": [-81.836990073, 37.5887734467]}, "type": "Feature", "properties": {"collection_times": [{"days": "Mon-Fri", "time": "12:45pm"}, {"days": "Sat", "time": "11:30am"}, {"days": "Sun", "time": "Closed"}], "id": "2485100000", "name": "USPS COLLECTION BOX - BLUE BOX", "address": {"city": "JUSTICE", "state": "WV", "street": "PO BOX 9998", "postcode": "24851"}}},
{"geometry": {"type": "Point", "coordinates": [-81.836990073, 37.5887734467]}, "type": "Feature", "properties": {"collection_times": [{"days": "Mon-Fri", "time": "12:45pm"}, {"days": "Sat", "time": "11:30am"}, {"days": "Sun", "time": "Closed"}], "id": "2485100001", "name": "USPS COLLECTION BOX - PO LOBBY", "address": {"city": "JUSTICE", "state": "WV", "street": "PO BOX 9998", "postcode": "24851"}}},
{"geometry": {"type": "Point", "coordinates": [-81.5069303632, 37.4253297292]}, "type": "Feature", "properties": {"collection_times": [{"days": "Mon-Fri", "time": "11:45am"}, {"days": "Sat", "time": "11:00am"}, {"days": "Sun", "time": "Closed"}], "id": "2485300000", "name": "USPS COLLECTION BOX - BLUE BOX", "address": {"city": "KIMBALL", "state": "WV", "street": "PO BOX 9998", "postcode": "24853"}}},
{"geometry": {"type": "Point", "coordinates": [-81.5069303632, 37.4253297292]}, "type": "Feature", "properties": {"collection_times": [{"days": "Mon-Fri", "time": "11:45am"}, {"days": "Sat", "time": "11:00am"}, {"days": "Sun", "time": "Closed"}], "id": "2485300001", "name": "USPS COLLECTION BOX - PO LOBBY", "address": {"city": "KIMBALL", "state": "WV", "street": "PO BOX 9998", "postcode": "24853"}}},
{"geometry": {"type": "Point", "coordinates": [-81.6580066619, 37.687935917]}, "type": "Feature", "properties": {"collection_times": [{"days": "Mon-Fri", "time": "11:45am"}, {"days": "Sat", "time": "12:15pm"}, {"days": "Sun", "time": "Closed"}], "id": "2485700000", "name": "USPS COLLECTION BOX - BLUE BOX", "address": {"city": "LYNCO", "state": "WV", "street": "473 CLEAR FORK VALLEY RD", "postcode": "24857"}}},
{"geometry": {"type": "Point", "coordinates": [-81.6580066619, 37.687935917]}, "type": "Feature", "properties": {"collection_times": [{"days": "Mon-Fri", "time": "11:45am"}, {"days": "Sat", "time": "12:15pm"}, {"days": "Sun", "time": "Closed"}], "id": "2485700001", "name": "USPS COLLECTION BOX - PO LOBBY", "address": {"city": "LYNCO", "state": "WV", "street": "473 CLEAR FORK VALLEY RD", "postcode": "24857"}}},
{"geometry": {"type": "Point", "coordinates": [-81.3665973122, 37.3707911774]}, "type": "Feature", "properties": {"collection_times": [{"days": "Mon-Fri", "time": "3:45pm"}, {"days": "Sat", "time": "9:45am"}, {"days": "Sun", "time": "Closed"}], "id": "2486100000", "name": "USPS COLLECTION BOX - BLUE BOX", "address": {"city": "MAYBEURY", "state": "WV", "street": "40128 COAL HERITAGE RD", "postcode": "24861"}}},
{"geometry": {"type": "Point", "coordinates": [-81.3665973122, 37.3707911774]}, "type": "Feature", "properties": {"collection_times": [{"days": "Mon-Fri", "time": "3:45pm"}, {"days": "Sat", "time": "9:45am"}, {"days": "Sun", "time": "Closed"}], "id": "2486100001", "name": "USPS COLLECTION BOX - PO LOBBY", "address": {"city": "MAYBEURY", "state": "WV", "street": "40128 COAL HERITAGE RD", "postcode": "24861"}}},
{"geometry": {"type": "Point", "coordinates": [-81.6187376041, 37.2645574108]}, "type": "Feature", "properties": {"collection_times": [{"days": "Mon-Fri", "time": "12:00pm"}, {"days": "Sat", "time": "10:45am"}, {"days": "Sun", "time": "Closed"}], "id": "2486600001", "name": "USPS COLLECTION BOX - PO LOBBY", "address": {"city": "NEWHALL", "state": "WV", "street": "19233 HIGHWAY 16 N", "postcode": "24866"}}},
{"geometry": {"type": "Point", "coordinates": [-81.4722560901, 37.5740200151]}, "type": "Feature", "properties": {"collection_times": [{"days": "Mon-Fri", "time": "11:00am"}, {"days": "Sat", "time": "9:20am"}, {"days": "Sun", "time": "Closed"}], "id": "2486700000", "name": "USPS COLLECTION BOX - BLUE BOX", "address": {"city": "NEW RICHMOND", "state": "WV", "street": "5204 RIVER RD", "postcode": "24867"}}},
{"geometry": {"type": "Point", "coordinates": [-81.4722560901, 37.5740200151]}, "type": "Feature", "properties": {"collection_times": [{"days": "Mon-Fri", "time": "11:00am"}, {"days": "Sat", "time": "9:20am"}, {"days": "Sun", "time": "Closed"}], "id": "2486700001", "name": "USPS COLLECTION BOX - PO LOBBY", "address": {"city": "NEW RICHMOND", "state": "WV", "street": "5204 RIVER RD", "postcode": "24867"}}},
{"geometry": {"type": "Point", "coordinates": [-81.4484821689, 37.4160267561]}, "type": "Feature", "properties": {"collection_times": [{"days": "Mon-Fri", "time": "4:15pm"}, {"days": "Sat", "time": "11:45am"}, {"days": "Sun", "time": "Closed"}], "id": "2486800000", "name": "USPS COLLECTION BOX - BLUE BOX", "address": {"city": "NORTHFORK", "state": "WV", "street": "PO BOX 9998", "postcode": "24868"}}},
{"geometry": {"type": "Point", "coordinates": [-81.4484821689, 37.4160267561]}, "type": "Feature", "properties": {"collection_times": [{"days": "Mon-Fri", "time": "4:45pm"}, {"days": "Sat", "time": "11:45am"}, {"days": "Sun", "time": "Closed"}], "id": "2486800001", "name": "USPS COLLECTION BOX - PO LOBBY", "address": {"city": "NORTHFORK", "state": "WV", "street": "PO BOX 9998", "postcode": "24868"}}},
{"geometry": {"type": "Point", "coordinates": [-81.5526654179, 37.7351711344]}, "type": "Feature", "properties": {"collection_times": [{"days": "Mon-Fri", "time": "4:00pm"}, {"days": "Sat", "time": "12:00pm"}, {"days": "Sun", "time": "Closed"}], "id": "2487000000", "name": "USPS COLLECTION BOX - BLUE BOX", "address": {"city": "OCEANA", "state": "WV", "street": "1524 COOK PKWY", "postcode": "24870"}}},
{"geometry": {"type": "Point", "coordinates": [-81.5526654179, 37.7351711344]}, "type": "Feature", "properties": {"collection_times": [{"days": "Mon-Fri", "time": "4:10pm"}, {"days": "Sat", "time": "12:50pm"}, {"days": "Sun", "time": "Closed"}], "id": "2487000001", "name": "USPS COLLECTION BOX - PO LOBBY", "address": {"city": "OCEANA", "state": "WV", "street": "1524 COOK PKWY", "postcode": "24870"}}},
{"geometry": {"type": "Point", "coordinates": [-81.5526654179, 37.7351711344]}, "type": "Feature", "properties": {"collection_times": [{"days": "Mon-Fri", "time": "4:10pm"}, {"days": "Sat", "time": "12:50pm"}, {"days": "Sun", "time": "Closed"}], "id": "2487000002", "name": "USPS COLLECTION BOX - PO LOBBY", "address": {"city": "OCEANA", "state": "WV", "street": "1524 COOK PKWY", "postcode": "24870"}}},
{"geometry": {"type": "Point", "coordinates": [-81.5526654179, 37.7351711344]}, "type": "Feature", "properties": {"collection_times": [{"days": "Mon-Fri", "time": "1:45pm"}, {"days": "Sat", "time": "11:45am"}, {"days": "Sun", "time": "Closed"}], "id": "2487000003", "name": "USPS COLLECTION BOX - PO LOBBY", "address": {"city": "OCEANA", "state": "WV", "street": "PO BOX 1", "postcode": "24870"}}},
{"geometry": {"type": "Point", "coordinates": [-81.4651435622, 37.349445096]}, "type": "Feature", "properties": {"collection_times": [{"days": "Mon-Fri", "time": "11:45am"}, {"days": "Sat", "time": "9:45am"}, {"days": "Sun", "time": "Closed"}], "id": "2487100000", "name": "USPS COLLECTION BOX - BLUE BOX", "address": {"city": "PAGETON", "state": "WV", "street": "PO BOX 9998", "postcode": "24871"}}},
{"geometry": {"type": "Point", "coordinates": [-81.4651435622, 37.349445096]}, "type": "Feature", "properties": {"collection_times": [{"days": "Mon-Fri", "time": "11:45am"}, {"days": "Sat", "time": "9:45am"}, {"days": "Sun", "time": "Closed"}], "id": "2487100001", "name": "USPS COLLECTION BOX - PO LOBBY", "address": {"city": "PAGETON", "state": "WV", "street": "PO BOX 9998", "postcode": "24871"}}},
{"geometry": {"type": "Point", "coordinates": [-81.8959071859, 37.4835643165]}, "type": "Feature", "properties": {"collection_times": [{"days": "Mon-Fri", "time": "3:45pm"}, {"days": "Sat", "time": "11:45am"}, {"days": "Sun", "time": "Closed"}], "id": "2487200000", "name": "USPS COLLECTION BOX - BLUE BOX", "address": {"city": "PANTHER", "state": "WV", "street": "534 GREENBRIER MOUNTAIN RD", "postcode": "24872"}}},
{"geometry": {"type": "Point", "coordinates": [-81.8959071859, 37.4835643165]}, "type": "Feature", "properties": {"collection_times": [{"days": "Mon-Fri", "time": "4:00pm"}, {"days": "Sat", "time": "11:45am"}, {"days": "Sun", "time": "Closed"}], "id": "2487200001", "name": "USPS COLLECTION BOX - PO LOBBY", "address": {"city": "PANTHER", "state": "WV", "street": "534 GREENBRIER MOUNTAIN RD", "postcode": "24872"}}},
{"geometry": {"type": "Point", "coordinates": [-81.6569524586, 37.3606934079]}, "type": "Feature", "properties": {"collection_times": [{"days": "Mon-Fri", "time": "12:45pm"}, {"days": "Sat", "time": "11:15am"}, {"days": "Sun", "time": "Closed"}], "id": "2487300000", "name": "USPS COLLECTION BOX - BLUE BOX", "address": {"city": "PAYNESVILLE", "state": "WV", "street": "17118 MARSHALL HWY", "postcode": "24873"}}},
{"geometry": {"type": "Point", "coordinates": [-81.6569524586, 37.3606934079]}, "type": "Feature", "properties": {"collection_times": [{"days": "Mon-Fri", "time": "12:45pm"}, {"days": "Sat", "time": "11:15am"}, {"days": "Sun", "time": "Closed"}], "id": "2487300001", "name": "USPS COLLECTION BOX - PO LOBBY", "address": {"city": "PAYNESVILLE", "state": "WV", "street": "17118 MARSHALL HWY", "postcode": "24873"}}},
{"geometry": {"type": "Point", "coordinates": [-81.5365466119, 37.5408873086]}, "type": "Feature", "properties": {"collection_times": [{"days": "Mon-Fri", "time": "3:30pm"}, {"days": "Sat", "time": "12:00pm"}, {"days": "Sun", "time": "Closed"}], "id": "2487400000", "name": "USPS COLLECTION BOX - BLUE BOX", "address": {"city": "PINEVILLE", "state": "WV", "street": "145 MAIN AVE", "postcode": "24874"}}},
{"geometry": {"type": "Point", "coordinates": [-81.5365466119, 37.5408873086]}, "type": "Feature", "properties": {"collection_times": [{"days": "Mon-Fri", "time": "3:00pm"}, {"days": "Sat", "time": "11:00am"}, {"days": "Sun", "time": "Closed"}], "id": "2487400001", "name": "USPS COLLECTION BOX - BLUE BOX", "address": {"city": "PINEVILLE", "state": "WV", "street": "999999 BANK ST/CEDAR AVE", "postcode": "24874"}}},
{"geometry": {"type": "Point", "coordinates": [-81.5365466119, 37.5408873086]}, "type": "Feature", "properties": {"collection_times": [{"days": "Mon-Fri", "time": "3:30pm"}, {"days": "Sat", "time": "12:00pm"}, {"days": "Sun", "time": "Closed"}], "id": "2487400002", "name": "USPS COLLECTION BOX - PO LOBBY", "address": {"city": "PINEVILLE", "state": "WV", "street": "145 MAIN AVE", "postcode": "24874"}}},
{"geometry": {"type": "Point", "coordinates": [-81.5365466119, 37.5408873086]}, "type": "Feature", "properties": {"collection_times": [{"days": "Mon-Fri", "time": "3:30pm"}, {"days": "Sat", "time": "12:00pm"}, {"days": "Sun", "time": "Closed"}], "id": "2487400003", "name": "USPS COLLECTION BOX - PO LOBBY", "address": {"city": "PINEVILLE", "state": "WV", "street": "145 MAIN AVE", "postcode": "24874"}}},
{"geometry": {"type": "Point", "coordinates": [-81.6436132862, 37.4221010542]}, "type": "Feature", "properties": {"collection_times": [{"days": "Mon-Fri", "time": "11:45am"}, {"days": "Sat", "time": "9:30am"}, {"days": "Sun", "time": "Closed"}], "id": "2487800000", "name": "USPS COLLECTION BOX - BLUE BOX", "address": {"city": "PREMIER", "state": "WV", "street": "PO BOX 9998", "postcode": "24878"}}},
{"geometry": {"type": "Point", "coordinates": [-81.6436132862, 37.4221010542]}, "type": "Feature", "properties": {"collection_times": [{"days": "Mon-Fri", "time": "11:45am"}, {"days": "Sat", "time": "9:40am"}, {"days": "Sun", "time": "Closed"}], "id": "2487800001", "name": "USPS COLLECTION BOX - PO LOBBY", "address": {"city": "PREMIER", "state": "WV", "street": "PO BOX 9998", "postcode": "24878"}}},
{"geometry": {"type": "Point", "coordinates": [-81.78052, 37.345573]}, "type": "Feature", "properties": {"collection_times": [{"days": "Mon-Fri", "time": "12:15pm"}, {"days": "Sat", "time": "11:45am"}, {"days": "Sun", "time": "Closed"}], "id": "2487900000", "name": "USPS COLLECTION BOX - PO LOBBY", "address": {"city": "RAYSAL", "state": "WV", "street": "8672 MARSHALL HWY", "postcode": "24879"}}},
{"geometry": {"type": "Point", "coordinates": [-81.78052, 37.345573]}, "type": "Feature", "properties": {"collection_times": [{"days": "Mon-Fri", "time": "12:15pm"}, {"days": "Sat", "time": "11:45am"}, {"days": "Sun", "time": "Closed"}], "id": "2487900001", "name": "USPS COLLECTION BOX - BLUE BOX", "address": {"city": "RAYSAL", "state": "WV", "street": "8672 MARSHALL HWY", "postcode": "24879"}}},
{"geometry": {"type": "Point", "coordinates": [-81.5329122439, 37.5928113177]}, "type": "Feature", "properties": {"collection_times": [{"days": "Mon-Fri", "time": "11:00am"}, {"days": "Sat", "time": "9:30am"}, {"days": "Sun", "time": "Closed"}], "id": "2488000000", "name": "USPS COLLECTION BOX - BLUE BOX", "address": {"city": "ROCK VIEW", "state": "WV", "street": "4025 APPALACHIAN HWY", "postcode": "24880"}}},
{"geometry": {"type": "Point", "coordinates": [-81.5329122439, 37.5928113177]}, "type": "Feature", "properties": {"collection_times": [{"days": "Mon-Fri", "time": "11:00am"}, {"days": "Sat", "time": "9:30am"}, {"days": "Sun", "time": "Closed"}], "id": "2488000001", "name": "USPS COLLECTION BOX - PO LOBBY", "address": {"city": "ROCK VIEW", "state": "WV", "street": "4025 APPALACHIAN HWY", "postcode": "24880"}}},
{"geometry": {"type": "Point", "coordinates": [-81.7010863034, 37.4598542562]}, "type": "Feature", "properties": {"collection_times": [{"days": "Mon-Fri", "time": "11:45am"}, {"days": "Sat", "time": "10:30am"}, {"days": "Sun", "time": "Closed"}], "id": "2488100000", "name": "USPS COLLECTION BOX - BLUE BOX", "address": {"city": "RODERFIELD", "state": "WV", "street": "12790 COAL HERITAGE RD", "postcode": "24881"}}},
{"geometry": {"type": "Point", "coordinates": [-81.7010863034, 37.4598542562]}, "type": "Feature", "properties": {"collection_times": [{"days": "Mon-Fri", "time": "11:45am"}, {"days": "Sat", "time": "10:45am"}, {"days": "Sun", "time": "Closed"}], "id": "2488100001", "name": "USPS COLLECTION BOX - PO LOBBY", "address": {"city": "RODERFIELD", "state": "WV", "street": "12790 COAL HERITAGE RD", "postcode": "24881"}}},
{"geometry": {"type": "Point", "coordinates": [-81.7673289839, 37.6157030058]}, "type": "Feature", "properties": {"collection_times": [{"days": "Mon-Fri", "time": "11:45am"}, {"days": "Sat", "time": "11:00am"}, {"days": "Sun", "time": "Closed"}], "id": "2488200000", "name": "USPS COLLECTION BOX - BLUE BOX", "address": {"city": "SIMON", "state": "WV", "street": "714 SIMON RD", "postcode": "24882"}}},
{"geometry": {"type": "Point", "coordinates": [-81.7673289839, 37.6157030058]}, "type": "Feature", "properties": {"collection_times": [{"days": "Mon-Fri", "time": "11:45am"}, {"days": "Sat", "time": "11:00am"}, {"days": "Sun", "time": "Closed"}], "id": "2488200001", "name": "USPS COLLECTION BOX - PO LOBBY", "address": {"city": "SIMON", "state": "WV", "street": "714 SIMON RD", "postcode": "24882"}}},
{"geometry": {"type": "Point", "coordinates": [-81.5701922218, 37.2625057972]}, "type": "Feature", "properties": {"collection_times": [{"days": "Mon-Fri", "time": "2:45pm"}, {"days": "Sat", "time": "9:45am"}, {"days": "Sun", "time": "Closed"}], "id": "2488400000", "name": "USPS COLLECTION BOX - BLUE BOX", "address": {"city": "SQUIRE", "state": "WV", "street": "20714 HIGHWAY 16 S", "postcode": "24884"}}},
{"geometry": {"type": "Point", "coordinates": [-81.5701922218, 37.2625057972]}, "type": "Feature", "properties": {"collection_times": [{"days": "Mon-Fri", "time": "2:45pm"}, {"days": "Sat", "time": "9:45am"}, {"days": "Sun", "time": "Closed"}], "id": "2488400001", "name": "USPS COLLECTION BOX - PO LOBBY", "address": {"city": "SQUIRE", "state": "WV", "street": "20714 HIGHWAY 16 S", "postcode": "24884"}}},
{"geometry": {"type": "Point", "coordinates": [-81.3857995521, 37.3711005234]}, "type": "Feature", "properties": {"collection_times": [{"days": "Mon-Sat", "time": "11:45am"}, {"days": "Sun", "time": "Closed"}], "id": "2488700002", "name": "USPS COLLECTION BOX - BLUE BOX", "address": {"city": "SWITCHBACK", "state": "WV", "street": "PO BOX 9998", "postcode": "24887"}}},
{"geometry": {"type": "Point", "coordinates": [-81.3857995521, 37.3711005234]}, "type": "Feature", "properties": {"collection_times": [{"days": "Mon-Sat", "time": "11:45am"}, {"days": "Sun", "time": "Closed"}], "id": "2488700003", "name": "USPS COLLECTION BOX - PO LOBBY", "address": {"city": "SWITCHBACK", "state": "WV", "street": "PO BOX 9998", "postcode": "24887"}}},
{"geometry": {"type": "Point", "coordinates": [-81.5193389509, 37.3685960402]}, "type": "Feature", "properties": {"collection_times": [{"days": "Mon-Fri", "time": "11:45am"}, {"days": "Sat", "time": "10:45am"}, {"days": "Sun", "time": "Closed"}], "id": "2488800000", "name": "USPS COLLECTION BOX - BLUE BOX", "address": {"city": "THORPE", "state": "WV", "street": "28 HOLIDAY BRANCH RD", "postcode": "24888"}}},
{"geometry": {"type": "Point", "coordinates": [-81.5172393185, 37.3691613765]}, "type": "Feature", "properties": {"collection_times": [{"days": "Mon-Fri", "time": "11:45am"}, {"days": "Sat", "time": "10:45am"}, {"days": "Sun", "time": "Closed"}], "id": "2488800001", "name": "USPS COLLECTION BOX - PO LOBBY", "address": {"city": "THORPE", "state": "WV", "street": "28 HOLIDAY BRANCH RD", "postcode": "24888"}}},
{"geometry": {"type": "Point", "coordinates": [-81.6706903767, 37.2975708385]}, "type": "Feature", "properties": {"collection_times": [{"days": "Mon-Fri", "time": "4:15pm"}, {"days": "Sat", "time": "11:45am"}, {"days": "Sun", "time": "Closed"}], "id": "2489200000", "name": "USPS COLLECTION BOX - BLUE BOX", "address": {"city": "WAR", "state": "WV", "street": "14175 ROCKET BOYS DR", "postcode": "24892"}}},
{"geometry": {"type": "Point", "coordinates": [-81.6706903767, 37.2975708385]}, "type": "Feature", "properties": {"collection_times": [{"days": "Mon-Fri", "time": "4:15pm"}, {"days": "Sat", "time": "11:45am"}, {"days": "Sun", "time": "Closed"}], "id": "2489200001", "name": "USPS COLLECTION BOX - PO LOBBY", "address": {"city": "WAR", "state": "WV", "street": "14175 ROCKET BOYS DR", "postcode": "24892"}}},
{"geometry": {"type": "Point", "coordinates": [-81.6932663027, 37.2826255338]}, "type": "Feature", "properties": {"collection_times": [{"days": "Mon-Fri", "time": "10:45am"}, {"days": "Sat", "time": "9:30am"}, {"days": "Sun", "time": "Closed"}], "id": "2489400000", "name": "USPS COLLECTION BOX - PO LOBBY", "address": {"city": "WARRIORMINE", "state": "WV", "street": "245 WAR CREEK DR", "postcode": "24894"}}},
{"geometry": {"type": "Point", "coordinates": [-81.6932663027, 37.2826255338]}, "type": "Feature", "properties": {"collection_times": [{"days": "Mon-Fri", "time": "10:45am"}, {"days": "Sat", "time": "9:30am"}, {"days": "Sun", "time": "Closed"}], "id": "2489400001", "name": "USPS COLLECTION BOX - BLUE BOX", "address": {"city": "WARRIORMINE", "state": "WV", "street": "245 WAR CREEK DR", "postcode": "24894"}}},
{"geometry": {"type": "Point", "coordinates": [-81.5961030781, 37.441186562]}, "type": "Feature", "properties": {"collection_times": [{"days": "Mon-Fri", "time": "4:15pm"}, {"days": "Sat", "time": "9:45am"}, {"days": "Sun", "time": "Closed"}], "id": "2489500001", "name": "USPS COLLECTION BOX - PO LOBBY", "address": {"city": "WILCOE", "state": "WV", "street": "PO BOX 9998", "postcode": "24895"}}},
{"geometry": {"type": "Point", "coordinates": [-81.5856063184, 37.5779854261]}, "type": "Feature", "properties": {"collection_times": [{"days": "Mon-Fri", "time": "12:00pm"}, {"days": "Sat", "time": "10:00am"}, {"days": "Sun", "time": "Closed"}], "id": "2489800000", "name": "USPS COLLECTION BOX - BLUE BOX", "address": {"city": "WYOMING", "state": "WV", "street": "100 NINETY FIFTH ST", "postcode": "24898"}}}
]}
