{"type": "FeatureCollection", "features": [
{"geometry": {"type": "Point", "coordinates": [-80.4460119651, 37.8021408735]}, "type": "Feature", "properties": {"collection_times": [{"days": "Mon-Fri", "time": "3:00pm"}, {"days": "Sat", "time": "12:30pm"}, {"days": "Sun", "time": "Closed"}], "id": "2490100005", "name": "USPS COLLECTION BOX - BLUE BOX", "address": {"city": "LEWISBURG", "state": "WV", "street": "942 W WASHINGTON ST", "postcode": "24901"}}},
{"geometry": {"type": "Point", "coordinates": [-80.4442266369, 37.8010942073]}, "type": "Feature", "properties": {"collection_times": [{"days": "Mon-Fri", "time": "5:15pm"}, {"days": "Sat", "time": "3:30pm"}, {"days": "Sun", "time": "Closed"}], "id": "2490100006", "name": "USPS COLLECTION BOX - BLUE BOX", "address": {"city": "LEWISBURG", "state": "WV", "street": "204 E WASHINGTON ST", "postcode": "24901"}}},
{"geometry": {"type": "Point", "coordinates": [-80.4418992473, 37.8010605426]}, "type": "Feature", "properties": {"collection_times": [{"days": "Mon-Fri", "time": "3:00pm"}, {"days": "Sat", "time": "12:30pm"}, {"days": "Sun", "time": "Closed"}], "id": "2490100014", "name": "USPS COLLECTION BOX - BLUE BOX", "address": {"city": "LEWISBURG", "state": "WV", "street": "134 N COURT ST", "postcode": "24901"}}},
{"geometry": {"type": "Point", "coordinates": [-80.4418992473, 37.8010605426]}, "type": "Feature", "properties": {"collection_times": [{"days": "Mon-Fri", "time": "3:00pm"}, {"days": "Sat", "time": "12:30pm"}, {"days": "Sun", "time": "Closed"}], "id": "2490100015", "name": "USPS COLLECTION BOX - BLUE BOX", "address": {"city": "LEWISBURG", "state": "WV", "street": "134 N COURT ST", "postcode": "24901"}}},
{"geometry": {"type": "Point", "coordinates": [-80.4442266369, 37.8010942073]}, "type": "Feature", "properties": {"collection_times": [{"days": "Mon-Fri", "time": "5:15pm"}, {"days": "Sat", "time": "3:30pm"}, {"days": "Sun", "time": "Closed"}], "id": "2490100017", "name": "USPS COLLECTION BOX - PO LOBBY", "address": {"city": "LEWISBURG", "state": "WV", "street": "204 E WASHINGTON ST", "postcode": "24901"}}},
{"geometry": {"type": "Point", "coordinates": [-80.4322709952, 37.8121205086]}, "type": "Feature", "properties": {"collection_times": [{"days": "Mon-Fri", "time": "3:00pm"}, {"days": "Sat", "time": "12:30pm"}, {"days": "Sun", "time": "Closed"}], "id": "2490100018", "name": "USPS COLLECTION BOX - BLUE BOX", "address": {"city": "LEWISBURG", "state": "WV", "street": "520 N JEFFERSON ST", "postcode": "24901"}}},
{"geometry": {"type": "Point", "coordinates": [-80.439464732, 37.8490186374]}, "type": "Feature", "properties": {"collection_times": [{"days": "Mon-Fri", "time": "3:00pm"}, {"days": "Sat", "time": "12:00pm"}, {"days": "Sun", "time": "Closed"}], "id": "2490100022", "name": "USPS COLLECTION BOX - BLUE BOX", "address": {"city": "LEWISBURG", "state": "WV", "street": "999999 RED OAK SHOPPING PLZ", "postcode": "24901"}}},
{"geometry": {"type": "Point", "coordinates": [-80.4479003817, 37.7904846682]}, "type": "Feature", "properties": {"collection_times": [{"days": "Mon-Fri", "time": "3:00pm"}, {"days": "Sat", "time": "12:30pm"}, {"days": "Sun", "time": "Closed"}], "id": "2490100023", "name": "USPS COLLECTION BOX - BLUE BOX", "address": {"city": "LEWISBURG", "state": "WV", "street": "75 SENECA TRL", "postcode": "24901"}}},
{"geometry": {"type": "Point", "coordinates": [-80.4530040563, 37.7872110826]}, "type": "Feature", "properties": {"collection_times": [{"days": "Mon-Fri", "time": "3:00pm"}, {"days": "Sat", "time": "12:30pm"}, {"days": "Sun", "time": "Closed"}], "id": "2490100024", "name": "USPS COLLECTION BOX - BLUE BOX", "address": {"city": "LEWISBURG", "state": "WV", "street": "123 SENECA TRL", "postcode": "24901"}}},
{"geometry": {"type": "Point", "coordinates": [-80.4186716166, 37.8312505951]}, "type": "Feature", "properties": {"collection_times": [{"days": "Mon-Fri", "time": "3:00pm"}, {"days": "Sat", "time": "12:30pm"}, {"days": "Sun", "time": "Closed"}], "id": "2490100026", "name": "USPS COLLECTION BOX - BLUE BOX", "address": {"city": "LEWISBURG", "state": "WV", "street": "777 N JEFFERSON ST", "postcode": "24901"}}},
{"geometry": {"type": "Point", "coordinates": [-80.439464732, 37.8490186374]}, "type": "Feature", "properties": {"collection_times": [{"days": "Mon-Fri", "time": "3:00pm"}, {"days": "Sat", "time": "12:00pm"}, {"days": "Sun", "time": "Closed"}], "id": "2490100027", "name": "USPS COLLECTION BOX - BLUE BOX", "address": {"city": "LEWISBURG", "state": "WV", "street": "200 MAPLEWOOD AVE", "postcode": "24901"}}},
{"geometry": {"type": "Point", "coordinates": [-80.6952813358, 37.7464138062]}, "type": "Feature", "properties": {"collection_times": [{"days": "Mon-Sat", "time": "1:00pm"}, {"days": "Sun", "time": "Closed"}], "id": "2491000000", "name": "USPS COLLECTION BOX - BLUE BOX", "address": {"city": "ALDERSON", "state": "WV", "street": "RR 2 BOX 0E", "postcode": "24910"}}},
{"geometry": {"type": "Point", "coordinates": [-80.6952813358, 37.7464138062]}, "type": "Feature", "properties": {"collection_times": [{"days": "Mon-Fri", "time": "4:00pm"}, {"days": "Sat", "time": "12:00pm"}, {"days": "Sun", "time": "Closed"}], "id": "2491000003", "name": "USPS COLLECTION BOX - PO LOBBY", "address": {"city": "ALDERSON", "state": "WV", "street": "111 RAILROAD AVE", "postcode": "24910"}}},
{"geometry": {"type": "Point", "coordinates": [-80.6952813358, 37.7464138062]}, "type": "Feature", "properties": {"collection_times": [{"days": "Mon-Fri", "time": "4:00pm"}, {"days": "Sat", "time": "12:00pm"}, {"days": "Sun", "time": "Closed"}], "id": "2491000004", "name": "USPS COLLECTION BOX - BLUE BOX", "address": {"city": "ALDERSON", "state": "WV", "street": "111 RAILROAD AVE", "postcode": "24910"}}},
{"geometry": {"type": "Point", "coordinates": [-80.5523944079, 37.8157950007]}, "type": "Feature", "properties": {"collection_times": [{"days": "Mon-Sat", "time": "2:15pm"}, {"days": "Sun", "time": "Closed"}], "id": "2491600000", "name": "USPS COLLECTION BOX - BLUE BOX", "address": {"city": "ASBURY", "state": "WV", "street": "9712 ALTA DR", "postcode": "24916"}}},
{"geometry": {"type": "Point", "coordinates": [-80.5523944079, 37.8157950007]}, "type": "Feature", "properties": {"collection_times": [{"days": "Mon-Sat", "time": "2:15pm"}, {"days": "Sun", "time": "Closed"}], "id": "2491600001", "name": "USPS COLLECTION BOX - PO LOBBY", "address": {"city": "ASBURY", "state": "WV", "street": "9712 ALTA DR", "postcode": "24916"}}},
{"geometry": {"type": "Point", "coordinates": [-80.7458482208, 37.497833622]}, "type": "Feature", "properties": {"collection_times": [{"days": "Mon-Fri", "time": "3:00pm"}, {"days": "Sat", "time": "11:15am"}, {"days": "Sun", "time": "Closed"}], "id": "2491800001", "name": "USPS COLLECTION BOX - BLUE BOX", "address": {"city": "BALLARD", "state": "WV", "street": "5974 BALLARD RED SULPHER PKWY", "postcode": "24918"}}},
{"geometry": {"type": "Point", "coordinates": [-80.7458482208, 37.497833622]}, "type": "Feature", "properties": {"collection_times": [{"days": "Mon-Fri", "time": "3:00pm"}, {"days": "Sat", "time": "11:15am"}, {"days": "Sun", "time": "Closed"}], "id": "2491800002", "name": "USPS COLLECTION BOX - PO LOBBY", "address": {"city": "BALLARD", "state": "WV", "street": "5974 BALLARD RED SULPHER PKWY", "postcode": "24918"}}},
{"geometry": {"type": "Point", "coordinates": [-79.7264453542, 38.5437477067]}, "type": "Feature", "properties": {"collection_times": [{"days": "Mon-Fri", "time": "1:00pm"}, {"days": "Sat", "time": "12:00pm"}, {"days": "Sun", "time": "Closed"}], "id": "2492000000", "name": "USPS COLLECTION BOX - BLUE BOX", "address": {"city": "BARTOW", "state": "WV", "street": "6784 STAUNTON PARKERSBURG TPKE", "postcode": "24920"}}},
{"geometry": {"type": "Point", "coordinates": [-79.7264453542, 38.5437477067]}, "type": "Feature", "properties": {"collection_times": [{"days": "Mon-Fri", "time": "1:00pm"}, {"days": "Sat", "time": "12:00pm"}, {"days": "Sun", "time": "Closed"}], "id": "2492000001", "name": "USPS COLLECTION BOX - PO LOBBY", "address": {"city": "BARTOW", "state": "WV", "street": "6784 STAUNTON PARKERSBURG TPKE", "postcode": "24920"}}},
{"geometry": {"type": "Point", "coordinates": [-80.1243837979, 38.20029185]}, "type": "Feature", "properties": {"collection_times": [{"days": "Mon-Fri", "time": "2:45pm"}, {"days": "Sat", "time": "8:30am"}, {"days": "Sun", "time": "Closed"}], "id": "2492400000", "name": "USPS COLLECTION BOX - BLUE BOX", "address": {"city": "BUCKEYE", "state": "WV", "street": "14333 SENECA TRL", "postcode": "24924"}}},
{"geometry": {"type": "Point", "coordinates": [-80.1348498461, 38.1856182355]}, "type": "Feature", "properties": {"collection_times": [{"days": "Mon-Fri", "time": "2:45pm"}, {"days": "Sat", "time": "8:30am"}, {"days": "Sun", "time": "Closed"}], "id": "2492400001", "name": "USPS COLLECTION BOX - PO LOBBY", "address": {"city": "BUCKEYE", "state": "WV", "street": "14333 SENECA TRL", "postcode": "24924"}}},
{"geometry": {"type": "Point", "coordinates": [-80.3472657301, 37.7562072773]}, "type": "Feature", "properties": {"collection_times": [{"days": "Mon-Fri", "time": "12:25pm"}, {"days": "Sat", "time": "10:00am"}, {"days": "Sun", "time": "Closed"}], "id": "2492500000", "name": "USPS COLLECTION BOX - BLUE BOX", "address": {"city": "CALDWELL", "state": "WV", "street": "35467 MIDLAND TRL E", "postcode": "24925"}}},
{"geometry": {"type": "Point", "coordinates": [-80.5992177988, 37.9218992254]}, "type": "Feature", "properties": {"collection_times": [{"days": "Mon-Fri", "time": "1:30pm"}, {"days": "Sat", "time": "11:30am"}, {"days": "Sun", "time": "Closed"}], "id": "2493100000", "name": "USPS COLLECTION BOX - BLUE BOX", "address": {"city": "CRAWLEY", "state": "WV", "street": "13795 MIDLAND TRL W", "postcode": "24931"}}},
{"geometry": {"type": "Point", "coordinates": [-80.5992177988, 37.9218992254]}, "type": "Feature", "properties": {"collection_times": [{"days": "Mon-Fri", "time": "1:30pm"}, {"days": "Sat", "time": "11:30am"}, {"days": "Sun", "time": "Closed"}], "id": "2493100001", "name": "USPS COLLECTION BOX - PO LOBBY", "address": {"city": "CRAWLEY", "state": "WV", "street": "13795 MIDLAND TRL W", "postcode": "24931"}}},
{"geometry": {"type": "Point", "coordinates": [-80.5992177988, 37.9218992254]}, "type": "Feature", "properties": {"collection_times": [{"days": "Mon-Fri", "time": "1:30pm"}, {"days": "Sat", "time": "11:30am"}, {"days": "Sun", "time": "Closed"}], "id": "2493100002", "name": "USPS COLLECTION BOX - PO LOBBY", "address": {"city": "CRAWLEY", "state": "WV", "street": "13795 MIDLAND TRL W", "postcode": "24931"}}},
{"geometry": {"type": "Point", "coordinates": [-79.8410144561, 38.3579253587]}, "type": "Feature", "properties": {"collection_times": [{"days": "Mon-Fri", "time": "12:45pm"}, {"days": "Sat", "time": "10:45am"}, {"days": "Sun", "time": "Closed"}], "id": "2493400000", "name": "USPS COLLECTION BOX - BLUE BOX", "address": {"city": "DUNMORE", "state": "WV", "street": "PO BOX 9998", "postcode": "24934"}}},
{"geometry": {"type": "Point", "coordinates": [-79.8410144561, 38.3579253587]}, "type": "Feature", "properties": {"collection_times": [{"days": "Mon-Fri", "time": "12:45pm"}, {"days": "Sat", "time": "11:00am"}, {"days": "Sun", "time": "Closed"}], "id": "2493400001", "name": "USPS COLLECTION BOX - PO LOBBY", "address": {"city": "DUNMORE", "state": "WV", "street": "PO BOX 9998", "postcode": "24934"}}},
{"geometry": {"type": "Point", "coordinates": [-80.8008056885, 37.5522329282]}, "type": "Feature", "properties": {"collection_times": [{"days": "Mon-Sat", "time": "1:30pm"}, {"days": "Sun", "time": "Closed"}], "id": "2493500000", "name": "USPS COLLECTION BOX - BLUE BOX", "address": {"city": "FOREST HILL", "state": "WV", "street": "15830 SR 12", "postcode": "24935"}}},
{"geometry": {"type": "Point", "coordinates": [-80.8225637819, 37.5546021464]}, "type": "Feature", "properties": {"collection_times": [{"days": "Mon-Sat", "time": "1:30pm"}, {"days": "Sun", "time": "Closed"}], "id": "2493500001", "name": "USPS COLLECTION BOX - PO LOBBY", "address": {"city": "FOREST HILL", "state": "WV", "street": "15830 SR 12", "postcode": "24935"}}},
{"geometry": {"type": "Point", "coordinates": [-80.3572936308, 37.9070520221]}, "type": "Feature", "properties": {"collection_times": [{"days": "Mon-Fri", "time": "4:30pm"}, {"days": "Sat", "time": "10:45am"}, {"days": "Sun", "time": "Closed"}], "id": "2493800000", "name": "USPS COLLECTION BOX - BLUE BOX", "address": {"city": "FRANKFORD", "state": "WV", "street": "21981 SENECA TRL N", "postcode": "24938"}}},
{"geometry": {"type": "Point", "coordinates": [-80.3572936308, 37.9070520221]}, "type": "Feature", "properties": {"collection_times": [{"days": "Mon-Fri", "time": "4:30pm"}, {"days": "Sat", "time": "10:45am"}, {"days": "Sun", "time": "Closed"}], "id": "2493800001", "name": "USPS COLLECTION BOX - PO LOBBY", "address": {"city": "FRANKFORD", "state": "WV", "street": "21981 SENECA TRL N", "postcode": "24938"}}},
{"geometry": {"type": "Point", "coordinates": [-80.3686835502, 37.5648458028]}, "type": "Feature", "properties": {"collection_times": [{"days": "Mon-Fri", "time": "2:30pm"}, {"days": "Sat", "time": "11:00am"}, {"days": "Sun", "time": "Closed"}], "id": "2494100000", "name": "USPS COLLECTION BOX - BLUE BOX", "address": {"city": "GAP MILLS", "state": "WV", "street": "4338 SWEET SPRINGS VLY", "postcode": "24941"}}},
{"geometry": {"type": "Point", "coordinates": [-80.3686835502, 37.5648458028]}, "type": "Feature", "properties": {"collection_times": [{"days": "Mon-Fri", "time": "2:30pm"}, {"days": "Sat", "time": "11:00am"}, {"days": "Sun", "time": "Closed"}], "id": "2494100001", "name": "USPS COLLECTION BOX - PO LOBBY", "address": {"city": "GAP MILLS", "state": "WV", "street": "4338 SWEET SPRINGS VLY", "postcode": "24941"}}},
{"geometry": {"type": "Point", "coordinates": [-80.3545344666, 37.5596075722]}, "type": "Feature", "properties": {"collection_times": [{"days": "Mon-Sat", "time": "10:00am"}, {"days": "Sun", "time": "Closed"}], "id": "2494100002", "name": "USPS COLLECTION BOX - BLUE BOX", "address": {"city": "GAP MILLS", "state": "WV", "street": "16071 PAINT BANK RD", "postcode": "24941"}}},
{"geometry": {"type": "Point", "coordinates": [-79.7643105355, 38.398927793]}, "type": "Feature", "properties": {"collection_times": [{"days": "Mon-Fri", "time": "3:00pm"}, {"days": "Sat", "time": "11:45am"}, {"days": "Sun", "time": "Closed"}], "id": "2494400000", "name": "USPS COLLECTION BOX - BLUE BOX", "address": {"city": "GREEN BANK", "state": "WV", "street": "PO BOX 9998", "postcode": "24944"}}},
{"geometry": {"type": "Point", "coordinates": [-79.7643105355, 38.398927793]}, "type": "Feature", "properties": {"collection_times": [{"days": "Mon-Fri", "time": "3:00pm"}, {"days": "Sat", "time": "11:45am"}, {"days": "Sun", "time": "Closed"}], "id": "2494400001", "name": "USPS COLLECTION BOX - PO LOBBY", "address": {"city": "GREEN BANK", "state": "WV", "street": "PO BOX 9998", "postcode": "24944"}}},
{"geometry": {"type": "Point", "coordinates": [-79.7643105355, 38.398927793]}, "type": "Feature", "properties": {"collection_times": [{"days": "Mon-Fri", "time": "1:00pm"}, {"days": "Sat", "time": "11:00am"}, {"days": "Sun", "time": "Closed"}], "id": "2494400002", "name": "USPS COLLECTION BOX - BLUE BOX", "address": {"city": "GREEN BANK", "state": "WV", "street": "101 MAIN ST", "postcode": "24944"}}},
{"geometry": {"type": "Point", "coordinates": [-79.8039378538, 38.4049719764]}, "type": "Feature", "properties": {"collection_times": [{"days": "Mon-Fri", "time": "1:00pm"}, {"days": "Sat", "time": "11:00am"}, {"days": "Sun", "time": "Closed"}], "id": "2494400003", "name": "USPS COLLECTION BOX - BLUE BOX", "address": {"city": "GREEN BANK", "state": "WV", "street": "15550 CASS RD", "postcode": "24944"}}},
{"geometry": {"type": "Point", "coordinates": [-80.6693122274, 37.5341854657]}, "type": "Feature", "properties": {"collection_times": [{"days": "Mon-Fri", "time": "11:45am"}, {"days": "Sat", "time": "11:00am"}, {"days": "Sun", "time": "Closed"}], "id": "2494500001", "name": "USPS COLLECTION BOX - BLUE BOX", "address": {"city": "GREENVILLE", "state": "WV", "street": "35 OLD SCHOOLHOUSE RD", "postcode": "24945"}}},
{"geometry": {"type": "Point", "coordinates": [-80.6693122274, 37.5341854657]}, "type": "Feature", "properties": {"collection_times": [{"days": "Mon-Fri", "time": "11:45am"}, {"days": "Sat", "time": "11:00am"}, {"days": "Sun", "time": "Closed"}], "id": "2494500002", "name": "USPS COLLECTION BOX - PO LOBBY", "address": {"city": "GREENVILLE", "state": "WV", "street": "35 OLD SCHOOLHOUSE RD", "postcode": "24945"}}},
{"geometry": {"type": "Point", "coordinates": [-80.2800199755, 38.1925360378]}, "type": "Feature", "properties": {"collection_times": [{"days": "Mon-Fri", "time": "2:45pm"}, {"days": "Sat", "time": "10:45am"}, {"days": "Sun", "time": "Closed"}], "id": "2494600000", "name": "USPS COLLECTION BOX - BLUE BOX", "address": {"city": "HILLSBORO", "state": "WV", "street": "7559 SENECA TRL", "postcode": "24946"}}},
{"geometry": {"type": "Point", "coordinates": [-80.2800199755, 38.1925360378]}, "type": "Feature", "properties": {"collection_times": [{"days": "Mon-Fri", "time": "2:45pm"}, {"days": "Sat", "time": "10:45am"}, {"days": "Sun", "time": "Closed"}], "id": "2494600001", "name": "USPS COLLECTION BOX - PO LOBBY", "address": {"city": "HILLSBORO", "state": "WV", "street": "7559 SENECA TRL", "postcode": "24946"}}},
{"geometry": {"type": "Point", "coordinates": [-80.603062443, 37.4863490551]}, "type": "Feature", "properties": {"collection_times": [{"days": "Mon-Fri", "time": "3:00pm"}, {"days": "Sat", "time": "11:00am"}, {"days": "Sun", "time": "Closed"}], "id": "2495100001", "name": "USPS COLLECTION BOX - PO LOBBY", "address": {"city": "LINDSIDE", "state": "WV", "street": "8529 SENECA TRL S", "postcode": "24951"}}},
{"geometry": {"type": "Point", "coordinates": [-80.0921565113, 38.2223573906]}, "type": "Feature", "properties": {"collection_times": [{"days": "Mon-Fri", "time": "3:45pm"}, {"days": "Sat", "time": "11:30am"}, {"days": "Sun", "time": "Closed"}], "id": "2495400007", "name": "USPS COLLECTION BOX - BLUE BOX", "address": {"city": "MARLINTON", "state": "WV", "street": "819 4TH AVE", "postcode": "24954"}}},
{"geometry": {"type": "Point", "coordinates": [-80.0921565113, 38.2223573906]}, "type": "Feature", "properties": {"collection_times": [{"days": "Mon-Fri", "time": "3:45pm"}, {"days": "Sat", "time": "11:30am"}, {"days": "Sun", "time": "Closed"}], "id": "2495400014", "name": "USPS COLLECTION BOX - PO LOBBY", "address": {"city": "MARLINTON", "state": "WV", "street": "819 4TH AVE", "postcode": "24954"}}},
{"geometry": {"type": "Point", "coordinates": [-80.4259971108, 37.9064993367]}, "type": "Feature", "properties": {"collection_times": [{"days": "Mon-Fri", "time": "3:00pm"}, {"days": "Sat", "time": "10:45am"}, {"days": "Sun", "time": "Closed"}], "id": "2495700000", "name": "USPS COLLECTION BOX - BLUE BOX", "address": {"city": "MAXWELTON", "state": "WV", "street": "16387 SENECA TRL N", "postcode": "24957"}}},
{"geometry": {"type": "Point", "coordinates": [-80.4259971108, 37.9064993367]}, "type": "Feature", "properties": {"collection_times": [{"days": "Mon-Fri", "time": "3:00pm"}, {"days": "Sat", "time": "10:45am"}, {"days": "Sun", "time": "Closed"}], "id": "2495700001", "name": "USPS COLLECTION BOX - PO LOBBY", "address": {"city": "MAXWELTON", "state": "WV", "street": "16387 SENECA TRL N", "postcode": "24957"}}},
{"geometry": {"type": "Point", "coordinates": [-80.7990734916, 37.3971635401]}, "type": "Feature", "properties": {"collection_times": [{"days": "Mon-Fri", "time": "3:50pm"}, {"days": "Sat", "time": "11:00am"}, {"days": "Sun", "time": "Closed"}], "id": "2496300000", "name": "USPS COLLECTION BOX - BLUE BOX", "address": {"city": "PETERSTOWN", "state": "WV", "street": "13 MARKET ST", "postcode": "24963"}}},
{"geometry": {"type": "Point", "coordinates": [-80.7990734916, 37.3971635401]}, "type": "Feature", "properties": {"collection_times": [{"days": "Mon-Fri", "time": "3:50pm"}, {"days": "Sat", "time": "11:00am"}, {"days": "Sun", "time": "Closed"}], "id": "2496300001", "name": "USPS COLLECTION BOX - PO LOBBY", "address": {"city": "PETERSTOWN", "state": "WV", "street": "13 MARKET ST", "postcode": "24963"}}},
{"geometry": {"type": "Point", "coordinates": [-80.3574058728, 38.0290988754]}, "type": "Feature", "properties": {"collection_times": [{"days": "Mon-Fri", "time": "3:15pm"}, {"days": "Sat", "time": "10:30am"}, {"days": "Sun", "time": "Closed"}], "id": "2496600000", "name": "USPS COLLECTION BOX - BLUE BOX", "address": {"city": "RENICK", "state": "WV", "street": "27288 SENECA TRL N", "postcode": "24966"}}},
{"geometry": {"type": "Point", "coordinates": [-80.3574058728, 38.0290988754]}, "type": "Feature", "properties": {"collection_times": [{"days": "Mon-Fri", "time": "3:15pm"}, {"days": "Sat", "time": "10:30am"}, {"days": "Sun", "time": "Closed"}], "id": "2496600001", "name": "USPS COLLECTION BOX - PO LOBBY", "address": {"city": "RENICK", "state": "WV", "street": "27288 SENECA TRL N", "postcode": "24966"}}},
{"geometry": {"type": "Point", "coordinates": [-80.4646974782, 37.7486609293]}, "type": "Feature", "properties": {"collection_times": [{"days": "Mon-Fri", "time": "4:15pm"}, {"days": "Sat", "time": "10:30am"}, {"days": "Sun", "time": "Closed"}], "id": "2497000007", "name": "USPS COLLECTION BOX - BLUE BOX", "address": {"city": "RONCEVERTE", "state": "WV", "street": "314 W EDGAR AVE", "postcode": "24970"}}},
{"geometry": {"type": "Point", "coordinates": [-80.4646974782, 37.7486609293]}, "type": "Feature", "properties": {"collection_times": [{"days": "Mon-Fri", "time": "4:15pm"}, {"days": "Sat", "time": "10:30am"}, {"days": "Sun", "time": "Closed"}], "id": "2497000010", "name": "USPS COLLECTION BOX - PO LOBBY", "address": {"city": "RONCEVERTE", "state": "WV", "street": "314 W EDGAR AVE", "postcode": "24970"}}},
{"geometry": {"type": "Point", "coordinates": [-80.5181492267, 37.6623644272]}, "type": "Feature", "properties": {"collection_times": [{"days": "Mon-Fri", "time": "12:15pm"}, {"days": "Sat", "time": "10:00am"}, {"days": "Sun", "time": "Closed"}], "id": "2497600000", "name": "USPS COLLECTION BOX - BLUE BOX", "address": {"city": "SINKS GROVE", "state": "WV", "street": "101 FORT SPRINGS RD", "postcode": "24976"}}},
{"geometry": {"type": "Point", "coordinates": [-80.5181492267, 37.6623644272]}, "type": "Feature", "properties": {"collection_times": [{"days": "Mon-Fri", "time": "12:15pm"}, {"days": "Sat", "time": "10:00am"}, {"days": "Sun", "time": "Closed"}], "id": "2497600001", "name": "USPS COLLECTION BOX - PO LOBBY", "address": {"city": "SINKS GROVE", "state": "WV", "street": "101 FORT SPRINGS RD", "postcode": "24976"}}},
{"geometry": {"type": "Point", "coordinates": [-80.705956, 37.89339]}, "type": "Feature", "properties": {"collection_times": [{"days": "Mon-Fri", "time": "1:45pm"}, {"days": "Sat", "time": "1:15pm"}, {"days": "Sun", "time": "Closed"}], "id": "2497700000", "name": "USPS COLLECTION BOX - BLUE BOX", "address": {"city": "SMOOT", "state": "WV", "street": "PO BOX 9998", "postcode": "24977"}}},
{"geometry": {"type": "Point", "coordinates": [-80.6841779009, 37.8788878008]}, "type": "Feature", "properties": {"collection_times": [{"days": "Mon-Fri", "time": "1:45pm"}, {"days": "Sat", "time": "1:15pm"}, {"days": "Sun", "time": "Closed"}], "id": "2497700001", "name": "USPS COLLECTION BOX - PO LOBBY", "address": {"city": "SMOOT", "state": "WV", "street": "PO BOX 9998", "postcode": "24977"}}},
{"geometry": {"type": "Point", "coordinates": [-80.739928084, 37.6353084182]}, "type": "Feature", "properties": {"collection_times": [{"days": "Mon-Fri", "time": "2:30pm"}, {"days": "Sat", "time": "11:00am"}, {"days": "Sun", "time": "Closed"}], "id": "2498100000", "name": "USPS COLLECTION BOX - BLUE BOX", "address": {"city": "TALCOTT", "state": "WV", "street": "3685 SR AND 12", "postcode": "24981"}}},
{"geometry": {"type": "Point", "coordinates": [-80.739928084, 37.6353084182]}, "type": "Feature", "properties": {"collection_times": [{"days": "Mon-Fri", "time": "2:00pm"}, {"days": "Sat", "time": "11:00am"}, {"days": "Sun", "time": "Closed"}], "id": "2498100001", "name": "USPS COLLECTION BOX - PO LOBBY", "address": {"city": "TALCOTT", "state": "WV", "street": "3685 SR AND 12", "postcode": "24981"}}},
{"geometry": {"type": "Point", "coordinates": [-80.5223547504, 37.5340234962]}, "type": "Feature", "properties": {"collection_times": [{"days": "Mon-Fri", "time": "4:30pm"}, {"days": "Sat", "time": "12:30pm"}, {"days": "Sun", "time": "Closed"}], "id": "2498300000", "name": "USPS COLLECTION BOX - PO LOBBY", "address": {"city": "UNION", "state": "WV", "street": "1 MIDDLE ST", "postcode": "24983"}}},
{"geometry": {"type": "Point", "coordinates": [-80.5223547504, 37.5340234962]}, "type": "Feature", "properties": {"collection_times": [{"days": "Mon-Fri", "time": "4:30pm"}, {"days": "Sat", "time": "12:30pm"}, {"days": "Sun", "time": "Closed"}], "id": "2498300001", "name": "USPS COLLECTION BOX - BLUE BOX", "address": {"city": "UNION", "state": "WV", "street": "1 MIDDLE ST", "postcode": "24983"}}},
{"geometry": {"type": "Point", "coordinates": [-80.7512261665, 37.5901089846]}, "type": "Feature", "properties": {"collection_times": [{"days": "Mon-Sat", "time": "12:15pm"}, {"days": "Sun", "time": "Closed"}], "id": "2498500000", "name": "USPS COLLECTION BOX - BLUE BOX", "address": {"city": "WAYSIDE", "state": "WV", "street": "PO BOX 9998", "postcode": "24985"}}},
{"geometry": {"type": "Point", "coordinates": [-80.7512261665, 37.5901089846]}, "type": "Feature", "properties": {"collection_times": [{"days": "Mon-Sat", "time": "12:15pm"}, {"days": "Sun", "time": "Closed"}], "id": "2498500001", "name": "USPS COLLECTION BOX - PO LOBBY", "address": {"city": "WAYSIDE", "state": "WV", "street": "PO BOX 9998", "postcode": "24985"}}},
{"geometry": {"type": "Point", "coordinates": [-80.2985456735, 37.7961714653]}, "type": "Feature", "properties": {"collection_times": [{"days": "Mon-Sat", "time": "4:00pm"}, {"days": "Sun", "time": "Closed"}], "id": "2498600000", "name": "USPS COLLECTION BOX - PO LOBBY", "address": {"city": "WHT SULPHUR S", "state": "WV", "street": "90 E MAIN ST", "postcode": "24986"}}},
{"geometry": {"type": "Point", "coordinates": [-80.2985456735, 37.7961714653]}, "type": "Feature", "properties": {"collection_times": [{"days": "Mon-Sat", "time": "4:00pm"}, {"days": "Sun", "time": "Closed"}], "id": "2498600002", "name": "USPS COLLECTION BOX - BLUE BOX", "address": {"city": "WHT SULPHUR S", "state": "WV", "street": "90 E MAIN ST", "postcode": "24986"}}},
{"geometry": {"type": "Point", "coordinates": [-80.2120592962, 37.9167137446]}, "type": "Feature", "properties": {"collection_times": [{"days": "Mon-Sat", "time": "10:00am"}, {"days": "Sun", "time": "Closed"}], "id": "2498600013", "name": "USPS COLLECTION BOX - BLUE BOX", "address": {"city": "WHT SULPHUR S", "state": "WV", "street": "5 ALVON RD", "postcode": "24986"}}},
{"geometry": {"type": "Point", "coordinates": [-80.5006792542, 37.9585526372]}, "type": "Feature", "properties": {"collection_times": [{"days": "Mon-Fri", "time": "11:30am"}, {"days": "Sat", "time": "11:00am"}, {"days": "Sun", "time": "Closed"}], "id": "2499100000", "name": "USPS COLLECTION BOX - BLUE BOX", "address": {"city": "WILLIAMSBURG", "state": "WV", "street": "9284 SHOESTRING TRL", "postcode": "24991"}}},
{"geometry": {"type": "Point", "coordinates": [-80.5006792542, 37.9585526372]}, "type": "Feature", "properties": {"collection_times": [{"days": "Mon-Fri", "time": "11:30am"}, {"days": "Sat", "time": "11:00am"}, {"days": "Sun", "time": "Closed"}], "id": "2499100001", "name": "USPS COLLECTION BOX - PO LOBBY", "address": {"city": "WILLIAMSBURG", "state": "WV", "street": "9284 SHOESTRING TRL", "postcode": "24991"}}},
{"geometry": {"type": "Point", "coordinates": [-80.6134487545, 37.6276426831]}, "type": "Feature", "properties": {"collection_times": [{"days": "Mon-Sat", "time": "9:45am"}, {"days": "Sun", "time": "Closed"}], "id": "2499300000", "name": "USPS COLLECTION BOX - BLUE BOX", "address": {"city": "WOLFCREEK", "state": "WV", "street": "8360 WOLF CREEK RD", "postcode": "24993"}}}
]}
