{"type": "FeatureCollection", "features": [
{"geometry": {"type": "Point", "coordinates": [-81.2743023767, 38.1376070684]}, "type": "Feature", "properties": {"collection_times": [{"days": "Mon-Fri", "time": "10:00am"}, {"days": "Sat", "time": "10:30am"}, {"days": "Sun", "time": "Closed"}], "id": "2500200000", "name": "USPS COLLECTION BOX - BLUE BOX", "address": {"city": "ALLOY", "state": "WV", "street": "PO BOX 9998", "postcode": "25002"}}},
{"geometry": {"type": "Point", "coordinates": [-81.2743023767, 38.1376070684]}, "type": "Feature", "properties": {"collection_times": [{"days": "Mon-Fri", "time": "9:45am"}, {"days": "Sat", "time": "10:30am"}, {"days": "Sun", "time": "Closed"}], "id": "2500200001", "name": "USPS COLLECTION BOX - PO LOBBY", "address": {"city": "ALLOY", "state": "WV", "street": "PO BOX 9998", "postcode": "25002"}}},
{"geometry": {"type": "Point", "coordinates": [-81.7744925819, 38.2427295307]}, "type": "Feature", "properties": {"collection_times": [{"days": "Mon-Fri", "time": "4:00pm"}, {"days": "Sat", "time": "11:00am"}, {"days": "Sun", "time": "Closed"}], "id": "2500300000", "name": "USPS COLLECTION BOX - BLUE BOX", "address": {"city": "ALUM CREEK", "state": "WV", "street": "26 LITTLE COAL RIVER RD", "postcode": "25003"}}},
{"geometry": {"type": "Point", "coordinates": [-81.7744925819, 38.2427295307]}, "type": "Feature", "properties": {"collection_times": [{"days": "Mon-Fri", "time": "4:00pm"}, {"days": "Sat", "time": "11:00am"}, {"days": "Sun", "time": "Closed"}], "id": "2500300001", "name": "USPS COLLECTION BOX - PO LOBBY", "address": {"city": "ALUM CREEK", "state": "WV", "street": "26 LITTLE COAL RIVER RD", "postcode": "25003"}}},
{"geometry": {"type": "Point", "coordinates": [-81.275218783, 38.544440332]}, "type": "Feature", "properties": {"collection_times": [{"days": "Mon-Sat", "time": "12:15pm"}, {"days": "Sun", "time": "Closed"}], "id": "2500500000", "name": "USPS COLLECTION BOX - BLUE BOX", "address": {"city": "AMMA", "state": "WV", "street": "2738 BIG SANDY RD", "postcode": "25005"}}},
{"geometry": {"type": "Point", "coordinates": [-81.275218783, 38.544440332]}, "type": "Feature", "properties": {"collection_times": [{"days": "Mon-Sat", "time": "12:15pm"}, {"days": "Sun", "time": "Closed"}], "id": "2500500001", "name": "USPS COLLECTION BOX - PO LOBBY", "address": {"city": "AMMA", "state": "WV", "street": "2738 BIG SANDY RD", "postcode": "25005"}}},
{"geometry": {"type": "Point", "coordinates": [-81.4356385351, 37.8381677615]}, "type": "Feature", "properties": {"collection_times": [{"days": "Mon-Fri", "time": "2:45pm"}, {"days": "Sat", "time": "10:00am"}, {"days": "Sun", "time": "Closed"}], "id": "2500700000", "name": "USPS COLLECTION BOX - BLUE BOX", "address": {"city": "ARNETT", "state": "WV", "street": "4461 COAL RIVER RD", "postcode": "25007"}}},
{"geometry": {"type": "Point", "coordinates": [-81.4356385351, 37.8381677615]}, "type": "Feature", "properties": {"collection_times": [{"days": "Mon-Fri", "time": "2:45pm"}, {"days": "Sat", "time": "10:00am"}, {"days": "Sun", "time": "Closed"}], "id": "2500700001", "name": "USPS COLLECTION BOX - PO LOBBY", "address": {"city": "ARNETT", "state": "WV", "street": "4461 COAL RIVER RD", "postcode": "25007"}}},
{"geometry": {"type": "Point", "coordinates": [-81.8433854555, 38.5143002873]}, "type": "Feature", "properties": {"collection_times": [{"days": "Mon-Fri", "time": "11:45am"}, {"days": "Sat", "time": "11:00am"}, {"days": "Sun", "time": "Closed"}], "id": "2501100001", "name": "USPS COLLECTION BOX - PO LOBBY", "address": {"city": "BANCROFT", "state": "WV", "street": "14 MAIN ST", "postcode": "25011"}}},
{"geometry": {"type": "Point", "coordinates": [-81.8433854555, 38.5143002873]}, "type": "Feature", "properties": {"collection_times": [{"days": "Mon-Fri", "time": "11:45am"}, {"days": "Sat", "time": "11:00am"}, {"days": "Sun", "time": "Closed"}], "id": "2501100003", "name": "USPS COLLECTION BOX - BLUE BOX", "address": {"city": "BANCROFT", "state": "WV", "street": "14 MAIN ST", "postcode": "25011"}}},
{"geometry": {"type": "Point", "coordinates": [-81.537385204, 38.2319517204]}, "type": "Feature", "properties": {"collection_times": [{"days": "Mon-Fri", "time": "4:00pm"}, {"days": "Sat", "time": "10:30am"}, {"days": "Sun", "time": "Closed"}], "id": "2501500001", "name": "USPS COLLECTION BOX - BLUE BOX", "address": {"city": "BELLE", "state": "WV", "street": "814 E DUPONT AVE", "postcode": "25015"}}},
{"geometry": {"type": "Point", "coordinates": [-81.5145768517, 38.2133604134]}, "type": "Feature", "properties": {"collection_times": [{"days": "Mon-Fri", "time": "11:00am"}, {"days": "Sat", "time": "10:30am"}, {"days": "Sun", "time": "Closed"}], "id": "2501500002", "name": "USPS COLLECTION BOX - BLUE BOX", "address": {"city": "BELLE", "state": "WV", "street": "2700 E DUPONT AVE", "postcode": "25015"}}},
{"geometry": {"type": "Point", "coordinates": [-81.569428283, 38.2650369025]}, "type": "Feature", "properties": {"collection_times": [{"days": "Mon-Sat", "time": "10:00am"}, {"days": "Sun", "time": "Closed"}], "id": "2501500004", "name": "USPS COLLECTION BOX - BLUE BOX", "address": {"city": "BELLE", "state": "WV", "street": "201 W MAIN ST", "postcode": "25015"}}},
{"geometry": {"type": "Point", "coordinates": [-81.5522505003, 38.2432470788]}, "type": "Feature", "properties": {"collection_times": [{"days": "Mon-Fri", "time": "2:15pm"}, {"days": "Sat", "time": "10:30am"}, {"days": "Sun", "time": "Closed"}], "id": "2501500007", "name": "USPS COLLECTION BOX - BLUE BOX", "address": {"city": "BELLE", "state": "WV", "street": "901 W DUPONT AVE", "postcode": "25015"}}},
{"geometry": {"type": "Point", "coordinates": [-81.5402309084, 38.2344334934]}, "type": "Feature", "properties": {"collection_times": [{"days": "Mon-Fri", "time": "2:00pm"}, {"days": "Sat", "time": "9:00am"}, {"days": "Sun", "time": "Closed"}], "id": "2501500008", "name": "USPS COLLECTION BOX - BLUE BOX", "address": {"city": "BELLE", "state": "WV", "street": "406 E DUPONT AVE", "postcode": "25015"}}},
{"geometry": {"type": "Point", "coordinates": [-81.5289315012, 38.2248826239]}, "type": "Feature", "properties": {"collection_times": [{"days": "Mon-Sat", "time": "9:30am"}, {"days": "Sun", "time": "Closed"}], "id": "2501500010", "name": "USPS COLLECTION BOX - BLUE BOX", "address": {"city": "BELLE", "state": "WV", "street": "2211 E DUPONT AVE", "postcode": "25015"}}},
{"geometry": {"type": "Point", "coordinates": [-81.5653190145, 38.2657814796]}, "type": "Feature", "properties": {"collection_times": [{"days": "Mon-Fri", "time": "1:00pm"}, {"days": "Sat", "time": "10:30am"}, {"days": "Sun", "time": "Closed"}], "id": "2501500013", "name": "USPS COLLECTION BOX - BLUE BOX", "address": {"city": "BELLE", "state": "WV", "street": "3175 W DUPONT AVE", "postcode": "25015"}}},
{"geometry": {"type": "Point", "coordinates": [-81.537385204, 38.2319517204]}, "type": "Feature", "properties": {"collection_times": [{"days": "Mon-Fri", "time": "4:00pm"}, {"days": "Sat", "time": "10:30am"}, {"days": "Sun", "time": "Closed"}], "id": "2501500014", "name": "USPS COLLECTION BOX - PO LOBBY", "address": {"city": "BELLE", "state": "WV", "street": "814 E DUPONT AVE", "postcode": "25015"}}},
{"geometry": {"type": "Point", "coordinates": [-81.1039204172, 38.3710931942]}, "type": "Feature", "properties": {"collection_times": [{"days": "Mon-Fri", "time": "11:45am"}, {"days": "Sat", "time": "11:00am"}, {"days": "Sun", "time": "Closed"}], "id": "2501900000", "name": "USPS COLLECTION BOX - BLUE BOX", "address": {"city": "BICKMORE", "state": "WV", "street": "47 FOLA RD", "postcode": "25019"}}},
{"geometry": {"type": "Point", "coordinates": [-81.1039204172, 38.3710931942]}, "type": "Feature", "properties": {"collection_times": [{"days": "Mon-Fri", "time": "11:45am"}, {"days": "Sat", "time": "11:30am"}, {"days": "Sun", "time": "Closed"}], "id": "2501900001", "name": "USPS COLLECTION BOX - PO LOBBY", "address": {"city": "BICKMORE", "state": "WV", "street": "47 FOLA RD", "postcode": "25019"}}},
{"geometry": {"type": "Point", "coordinates": [-81.7149290118, 37.8789900973]}, "type": "Feature", "properties": {"collection_times": [{"days": "Mon-Fri", "time": "11:45am"}, {"days": "Sat", "time": "11:00am"}, {"days": "Sun", "time": "Closed"}], "id": "2502100000", "name": "USPS COLLECTION BOX - BLUE BOX", "address": {"city": "BIM", "state": "WV", "street": "31003 POND FORK RD", "postcode": "25021"}}},
{"geometry": {"type": "Point", "coordinates": [-81.7149290118, 37.8789900973]}, "type": "Feature", "properties": {"collection_times": [{"days": "Mon-Fri", "time": "11:45am"}, {"days": "Sat", "time": "11:00am"}, {"days": "Sun", "time": "Closed"}], "id": "2502100001", "name": "USPS COLLECTION BOX - PO LOBBY", "address": {"city": "BIM", "state": "WV", "street": "31003 POND FORK RD", "postcode": "25021"}}},
{"geometry": {"type": "Point", "coordinates": [-81.8292482155, 37.8739264195]}, "type": "Feature", "properties": {"collection_times": [{"days": "Mon-Sat", "time": "10:15am"}, {"days": "Sun", "time": "Closed"}], "id": "2502200000", "name": "USPS COLLECTION BOX - BLUE BOX", "address": {"city": "BLAIR", "state": "WV", "street": "10516 BLAIR MOUNTAIN HWY", "postcode": "25022"}}},
{"geometry": {"type": "Point", "coordinates": [-81.8292482155, 37.8739264195]}, "type": "Feature", "properties": {"collection_times": [{"days": "Mon-Sat", "time": "10:15am"}, {"days": "Sun", "time": "Closed"}], "id": "2502200001", "name": "USPS COLLECTION BOX - PO LOBBY", "address": {"city": "BLAIR", "state": "WV", "street": "10516 BLAIR MOUNTAIN HWY", "postcode": "25022"}}},
{"geometry": {"type": "Point", "coordinates": [-81.6282646204, 38.131619123]}, "type": "Feature", "properties": {"collection_times": [{"days": "Mon-Fri", "time": "11:45am"}, {"days": "Sat", "time": "10:30am"}, {"days": "Sun", "time": "Closed"}], "id": "2502400000", "name": "USPS COLLECTION BOX - BLUE BOX", "address": {"city": "BLOOMINGROSE", "state": "WV", "street": "22201 COAL RIVER RD", "postcode": "25024"}}},
{"geometry": {"type": "Point", "coordinates": [-81.6420722296, 38.1406894559]}, "type": "Feature", "properties": {"collection_times": [{"days": "Mon-Fri", "time": "11:45am"}, {"days": "Sat", "time": "10:30am"}, {"days": "Sun", "time": "Closed"}], "id": "2502400001", "name": "USPS COLLECTION BOX - PO LOBBY", "address": {"city": "BLOOMINGROSE", "state": "WV", "street": "22201 COAL RIVER RD", "postcode": "25024"}}},
{"geometry": {"type": "Point", "coordinates": [-81.4703124562, 38.4445122597]}, "type": "Feature", "properties": {"collection_times": [{"days": "Mon-Sat", "time": "10:45am"}, {"days": "Sun", "time": "Closed"}], "id": "2502600000", "name": "USPS COLLECTION BOX - BLUE BOX", "address": {"city": "BLUE CREEK", "state": "WV", "street": "5151 ELK RIVER RD N", "postcode": "25026"}}},
{"geometry": {"type": "Point", "coordinates": [-81.4703124562, 38.4445122597]}, "type": "Feature", "properties": {"collection_times": [{"days": "Mon-Fri", "time": "10:45am"}, {"days": "Sat", "time": "11:00am"}, {"days": "Sun", "time": "Closed"}], "id": "2502600001", "name": "USPS COLLECTION BOX - PO LOBBY", "address": {"city": "BLUE CREEK", "state": "WV", "street": "5151 ELK RIVER RD N", "postcode": "25026"}}},
{"geometry": {"type": "Point", "coordinates": [-81.2912888908, 38.154585638]}, "type": "Feature", "properties": {"collection_times": [{"days": "Mon-Fri", "time": "1:15pm"}, {"days": "Sat", "time": "9:45am"}, {"days": "Sun", "time": "Closed"}], "id": "2503100000", "name": "USPS COLLECTION BOX - BLUE BOX", "address": {"city": "BOOMER", "state": "WV", "street": "2995 MIDLAND TRL", "postcode": "25031"}}},
{"geometry": {"type": "Point", "coordinates": [-81.2873764404, 38.1506413501]}, "type": "Feature", "properties": {"collection_times": [{"days": "Mon-Fri", "time": "1:15pm"}, {"days": "Sat", "time": "9:45am"}, {"days": "Sun", "time": "Closed"}], "id": "2503100001", "name": "USPS COLLECTION BOX - PO LOBBY", "address": {"city": "BOOMER", "state": "WV", "street": "2995 MIDLAND TRL", "postcode": "25031"}}},
{"geometry": {"type": "Point", "coordinates": [-81.9799420131, 38.6192063912]}, "type": "Feature", "properties": {"collection_times": [{"days": "Mon-Fri", "time": "2:00pm"}, {"days": "Sat", "time": "11:00am"}, {"days": "Sun", "time": "Closed"}], "id": "2503300000", "name": "USPS COLLECTION BOX - BLUE BOX", "address": {"city": "BUFFALO", "state": "WV", "street": "2062 BUFFALO RD", "postcode": "25033"}}},
{"geometry": {"type": "Point", "coordinates": [-81.9799420131, 38.6192063912]}, "type": "Feature", "properties": {"collection_times": [{"days": "Mon-Fri", "time": "2:00pm"}, {"days": "Sat", "time": "11:00am"}, {"days": "Sun", "time": "Closed"}], "id": "2503300001", "name": "USPS COLLECTION BOX - PO LOBBY", "address": {"city": "BUFFALO", "state": "WV", "street": "2062 BUFFALO RD", "postcode": "25033"}}},
{"geometry": {"type": "Point", "coordinates": [-81.527663864, 38.1783693904]}, "type": "Feature", "properties": {"collection_times": [{"days": "Mon-Fri", "time": "4:00pm"}, {"days": "Sat", "time": "11:45am"}, {"days": "Sun", "time": "Closed"}], "id": "2503500000", "name": "USPS COLLECTION BOX - BLUE BOX", "address": {"city": "CABIN CREEK", "state": "WV", "street": "15043 MACCORKLE AVE", "postcode": "25035"}}},
{"geometry": {"type": "Point", "coordinates": [-81.527663864, 38.1783693904]}, "type": "Feature", "properties": {"collection_times": [{"days": "Mon-Fri", "time": "4:00pm"}, {"days": "Sat", "time": "11:45am"}, {"days": "Sun", "time": "Closed"}], "id": "2503500001", "name": "USPS COLLECTION BOX - PO LOBBY", "address": {"city": "CABIN CREEK", "state": "WV", "street": "15043 MACCORKLE AVE", "postcode": "25035"}}},
{"geometry": {"type": "Point", "coordinates": [-81.2957218821, 38.1928132758]}, "type": "Feature", "properties": {"collection_times": [{"days": "Mon-Fri", "time": "12:00pm"}, {"days": "Sat", "time": "10:30am"}, {"days": "Sun", "time": "Closed"}], "id": "2503600000", "name": "USPS COLLECTION BOX - BLUE BOX", "address": {"city": "CANNELTON", "state": "WV", "street": "216 STUMP RD", "postcode": "25036"}}},
{"geometry": {"type": "Point", "coordinates": [-81.2957218821, 38.1928132758]}, "type": "Feature", "properties": {"collection_times": [{"days": "Mon-Fri", "time": "11:45am"}, {"days": "Sat", "time": "10:30am"}, {"days": "Sun", "time": "Closed"}], "id": "2503600001", "name": "USPS COLLECTION BOX - PO LOBBY", "address": {"city": "CANNELTON", "state": "WV", "street": "216 STUMP RD", "postcode": "25036"}}},
{"geometry": {"type": "Point", "coordinates": [-81.3573330528, 38.2048030956]}, "type": "Feature", "properties": {"collection_times": [{"days": "Mon-Fri", "time": "2:30pm"}, {"days": "Sat", "time": "10:45am"}, {"days": "Sun", "time": "Closed"}], "id": "2503900000", "name": "USPS COLLECTION BOX - BLUE BOX", "address": {"city": "CEDAR GROVE", "state": "WV", "street": "401 E GEORGE ST", "postcode": "25039"}}},
{"geometry": {"type": "Point", "coordinates": [-81.3573330528, 38.2048030956]}, "type": "Feature", "properties": {"collection_times": [{"days": "Mon-Fri", "time": "2:30pm"}, {"days": "Sat", "time": "10:45am"}, {"days": "Sun", "time": "Closed"}], "id": "2503900001", "name": "USPS COLLECTION BOX - PO LOBBY", "address": {"city": "CEDAR GROVE", "state": "WV", "street": "401 E GEORGE ST", "postcode": "25039"}}},
{"geometry": {"type": "Point", "coordinates": [-81.2339364537, 38.1239945272]}, "type": "Feature", "properties": {"collection_times": [{"days": "Mon-Fri", "time": "11:45am"}, {"days": "Sat", "time": "10:00am"}, {"days": "Sun", "time": "Closed"}], "id": "2504000000", "name": "USPS COLLECTION BOX - BLUE BOX", "address": {"city": "CHARLTON HEIGHTS", "state": "WV", "street": "6371 MIDLAND TRL", "postcode": "25040"}}},
{"geometry": {"type": "Point", "coordinates": [-81.2339364537, 38.1239945272]}, "type": "Feature", "properties": {"collection_times": [{"days": "Mon-Fri", "time": "11:45am"}, {"days": "Sat", "time": "10:00am"}, {"days": "Sun", "time": "Closed"}], "id": "2504000001", "name": "USPS COLLECTION BOX - PO LOBBY", "address": {"city": "CHARLTON HEIGHTS", "state": "WV", "street": "6371 MIDLAND TRL", "postcode": "25040"}}},
{"geometry": {"type": "Point", "coordinates": [-81.0228632114, 38.4574158292]}, "type": "Feature", "properties": {"collection_times": [{"days": "Mon-Fri", "time": "4:00pm"}, {"days": "Sat", "time": "11:00am"}, {"days": "Sun", "time": "Closed"}], "id": "2504300000", "name": "USPS COLLECTION BOX - BLUE BOX", "address": {"city": "CLAY", "state": "WV", "street": "54 MAIN ST", "postcode": "25043"}}},
{"geometry": {"type": "Point", "coordinates": [-81.0228632114, 38.4574158292]}, "type": "Feature", "properties": {"collection_times": [{"days": "Mon-Fri", "time": "4:00pm"}, {"days": "Sat", "time": "11:15am"}, {"days": "Sun", "time": "Closed"}], "id": "2504300001", "name": "USPS COLLECTION BOX - PO LOBBY", "address": {"city": "CLAY", "state": "WV", "street": "54 MAIN ST", "postcode": "25043"}}},
{"geometry": {"type": "Point", "coordinates": [-81.3437178543, 37.9157508305]}, "type": "Feature", "properties": {"collection_times": [{"days": "Mon-Fri", "time": "11:45am"}, {"days": "Sat", "time": "10:45am"}, {"days": "Sun", "time": "Closed"}], "id": "2504400000", "name": "USPS COLLECTION BOX - BLUE BOX", "address": {"city": "CLEAR CREEK", "state": "WV", "street": "119 TONEYS FRK", "postcode": "25044"}}},
{"geometry": {"type": "Point", "coordinates": [-81.3437178543, 37.9157508305]}, "type": "Feature", "properties": {"collection_times": [{"days": "Mon-Fri", "time": "11:45am"}, {"days": "Sat", "time": "10:45am"}, {"days": "Sun", "time": "Closed"}], "id": "2504400001", "name": "USPS COLLECTION BOX - PO LOBBY", "address": {"city": "CLEAR CREEK", "state": "WV", "street": "119 TONEYS FRK", "postcode": "25044"}}},
{"geometry": {"type": "Point", "coordinates": [-81.3491182039, 38.4885282955]}, "type": "Feature", "properties": {"collection_times": [{"days": "Mon-Fri", "time": "4:00pm"}, {"days": "Sat", "time": "11:00am"}, {"days": "Sun", "time": "Closed"}], "id": "2504500000", "name": "USPS COLLECTION BOX - BLUE BOX", "address": {"city": "CLENDENIN", "state": "WV", "street": "100 MAYWOOD AVE W", "postcode": "25045"}}},
{"geometry": {"type": "Point", "coordinates": [-81.3491182039, 38.4885282955]}, "type": "Feature", "properties": {"collection_times": [{"days": "Mon-Fri", "time": "4:00pm"}, {"days": "Sat", "time": "11:00am"}, {"days": "Sun", "time": "Closed"}], "id": "2504500002", "name": "USPS COLLECTION BOX - PO LOBBY", "address": {"city": "CLENDENIN", "state": "WV", "street": "100 MAYWOOD AVE W", "postcode": "25045"}}},
{"geometry": {"type": "Point", "coordinates": [-81.3509097274, 38.4898098536]}, "type": "Feature", "properties": {"collection_times": [{"days": "Mon-Fri", "time": "1:00pm"}, {"days": "Sat", "time": "10:00am"}, {"days": "Sun", "time": "Closed"}], "id": "2504500003", "name": "USPS COLLECTION BOX - BLUE BOX", "address": {"city": "CLENDENIN", "state": "WV", "street": "106 BEECH ST", "postcode": "25045"}}},
{"geometry": {"type": "Point", "coordinates": [-82.0066857933, 37.7941124006]}, "type": "Feature", "properties": {"collection_times": [{"days": "Mon-Fri", "time": "1:45pm"}, {"days": "Sat", "time": "10:30am"}, {"days": "Sun", "time": "Closed"}], "id": "2504700000", "name": "USPS COLLECTION BOX - BLUE BOX", "address": {"city": "CLOTHIER", "state": "WV", "street": "18841 BLAIR MOUNTAIN HWY", "postcode": "25047"}}},
{"geometry": {"type": "Point", "coordinates": [-82.0066857933, 37.7941124006]}, "type": "Feature", "properties": {"collection_times": [{"days": "Mon-Fri", "time": "1:45pm"}, {"days": "Sat", "time": "10:30am"}, {"days": "Sun", "time": "Closed"}], "id": "2504700001", "name": "USPS COLLECTION BOX - PO LOBBY", "address": {"city": "CLOTHIER", "state": "WV", "street": "18841 BLAIR MOUNTAIN HWY", "postcode": "25047"}}},
{"geometry": {"type": "Point", "coordinates": [-81.5703996564, 38.1240769327]}, "type": "Feature", "properties": {"collection_times": [{"days": "Mon-Fri", "time": "11:45am"}, {"days": "Sat", "time": "10:30am"}, {"days": "Sun", "time": "Closed"}], "id": "2504900000", "name": "USPS COLLECTION BOX - BLUE BOX", "address": {"city": "COMFORT", "state": "WV", "street": "7008 COAL RIVER RD", "postcode": "25049"}}},
{"geometry": {"type": "Point", "coordinates": [-81.5703996564, 38.1240769327]}, "type": "Feature", "properties": {"collection_times": [{"days": "Mon-Fri", "time": "11:45am"}, {"days": "Sat", "time": "10:30am"}, {"days": "Sun", "time": "Closed"}], "id": "2504900001", "name": "USPS COLLECTION BOX - PO LOBBY", "address": {"city": "COMFORT", "state": "WV", "street": "7008 COAL RIVER RD", "postcode": "25049"}}},
{"geometry": {"type": "Point", "coordinates": [-81.7344804344, 38.1402809858]}, "type": "Feature", "properties": {"collection_times": [{"days": "Mon-Sat", "time": "11:45am"}, {"days": "Sun", "time": "Closed"}], "id": "2505100000", "name": "USPS COLLECTION BOX - BLUE BOX", "address": {"city": "COSTA", "state": "WV", "street": "122 PAULEY RD", "postcode": "25051"}}},
{"geometry": {"type": "Point", "coordinates": [-81.7344804344, 38.1402809858]}, "type": "Feature", "properties": {"collection_times": [{"days": "Mon-Sat", "time": "11:45am"}, {"days": "Sun", "time": "Closed"}], "id": "2505100001", "name": "USPS COLLECTION BOX - PO LOBBY", "address": {"city": "COSTA", "state": "WV", "street": "122 PAULEY RD", "postcode": "25051"}}},
{"geometry": {"type": "Point", "coordinates": [-81.8284, 38.07556]}, "type": "Feature", "properties": {"collection_times": [{"days": "Mon-Fri", "time": "2:00pm"}, {"days": "Sat", "time": "11:00am"}, {"days": "Sun", "time": "Closed"}], "id": "2505300002", "name": "USPS COLLECTION BOX - BLUE BOX", "address": {"city": "DANVILLE", "state": "WV", "street": "1007 SMOOT AVE", "postcode": "25053"}}},
{"geometry": {"type": "Point", "coordinates": [-81.870945414, 38.0437642183]}, "type": "Feature", "properties": {"collection_times": [{"days": "Mon-Fri", "time": "4:00pm"}, {"days": "Sat", "time": "11:00am"}, {"days": "Sun", "time": "Closed"}], "id": "2505300003", "name": "USPS COLLECTION BOX - BLUE BOX", "address": {"city": "DANVILLE", "state": "WV", "street": "236 MALL RD", "postcode": "25053"}}},
{"geometry": {"type": "Point", "coordinates": [-81.870945414, 38.0437642183]}, "type": "Feature", "properties": {"collection_times": [{"days": "Mon-Fri", "time": "4:00pm"}, {"days": "Sat", "time": "11:00am"}, {"days": "Sun", "time": "Closed"}], "id": "2505300004", "name": "USPS COLLECTION BOX - PO LOBBY", "address": {"city": "DANVILLE", "state": "WV", "street": "236 MALL RD", "postcode": "25053"}}},
{"geometry": {"type": "Point", "coordinates": [-81.8361779139, 38.0316305671]}, "type": "Feature", "properties": {"collection_times": [{"days": "Mon-Fri", "time": "4:00pm"}, {"days": "Sat", "time": "11:00am"}, {"days": "Sun", "time": "Closed"}], "id": "2505300005", "name": "USPS COLLECTION BOX - PO LOBBY", "address": {"city": "DANVILLE", "state": "WV", "street": "236 MALL RD", "postcode": "25053"}}},
{"geometry": {"type": "Point", "coordinates": [-81.870945414, 38.0437642183]}, "type": "Feature", "properties": {"collection_times": [{"days": "Mon-Fri", "time": "2:00pm"}, {"days": "Sat", "time": "11:00am"}, {"days": "Sun", "time": "Closed"}], "id": "2505300007", "name": "USPS COLLECTION BOX - BLUE BOX", "address": {"city": "DANVILLE", "state": "WV", "street": "3265 SMOOT AVE", "postcode": "25053"}}},
{"geometry": {"type": "Point", "coordinates": [-81.452199926, 38.1426978749]}, "type": "Feature", "properties": {"collection_times": [{"days": "Mon-Fri", "time": "1:45pm"}, {"days": "Sat", "time": "11:15am"}, {"days": "Sun", "time": "Closed"}], "id": "2505400000", "name": "USPS COLLECTION BOX - BLUE BOX", "address": {"city": "DAWES", "state": "WV", "street": "5558 CABIN CREEK DR", "postcode": "25054"}}},
{"geometry": {"type": "Point", "coordinates": [-81.4519061864, 38.1432973124]}, "type": "Feature", "properties": {"collection_times": [{"days": "Mon-Fri", "time": "1:45pm"}, {"days": "Sat", "time": "11:15am"}, {"days": "Sun", "time": "Closed"}], "id": "2505400001", "name": "USPS COLLECTION BOX - PO LOBBY", "address": {"city": "DAWES", "state": "WV", "street": "PO BOX 9998", "postcode": "25054"}}},
{"geometry": {"type": "Point", "coordinates": [-81.1802662998, 38.2668842967]}, "type": "Feature", "properties": {"collection_times": [{"days": "Mon-Fri", "time": "12:45pm"}, {"days": "Sat", "time": "10:45am"}, {"days": "Sun", "time": "Closed"}], "id": "2505900000", "name": "USPS COLLECTION BOX - BLUE BOX", "address": {"city": "DIXIE", "state": "WV", "street": "1792 DIXIE HWY", "postcode": "25059"}}},
{"geometry": {"type": "Point", "coordinates": [-81.1802662998, 38.2668842967]}, "type": "Feature", "properties": {"collection_times": [{"days": "Mon-Fri", "time": "12:30pm"}, {"days": "Sat", "time": "10:45am"}, {"days": "Sun", "time": "Closed"}], "id": "2505900001", "name": "USPS COLLECTION BOX - PO LOBBY", "address": {"city": "DIXIE", "state": "WV", "street": "1792 DIXIE HWY", "postcode": "25059"}}},
{"geometry": {"type": "Point", "coordinates": [-81.4738445278, 38.1828292346]}, "type": "Feature", "properties": {"collection_times": [{"days": "Mon-Fri", "time": "11:45am"}, {"days": "Sat", "time": "10:30am"}, {"days": "Sun", "time": "Closed"}], "id": "2506100001", "name": "USPS COLLECTION BOX - BLUE BOX", "address": {"city": "DRY BRANCH", "state": "WV", "street": "2137 CABIN CREEK RD", "postcode": "25061"}}},
{"geometry": {"type": "Point", "coordinates": [-81.4738445278, 38.1828292346]}, "type": "Feature", "properties": {"collection_times": [{"days": "Mon-Fri", "time": "11:45am"}, {"days": "Sat", "time": "10:30am"}, {"days": "Sun", "time": "Closed"}], "id": "2506100002", "name": "USPS COLLECTION BOX - PO LOBBY", "address": {"city": "DRY BRANCH", "state": "WV", "street": "2137 CABIN CREEK RD", "postcode": "25061"}}},
{"geometry": {"type": "Point", "coordinates": [-81.4632464453, 37.8599360355]}, "type": "Feature", "properties": {"collection_times": [{"days": "Mon-Fri", "time": "11:45am"}, {"days": "Sat", "time": "9:00am"}, {"days": "Sun", "time": "Closed"}], "id": "2506200001", "name": "USPS COLLECTION BOX - BLUE BOX", "address": {"city": "DRY CREEK", "state": "WV", "street": "6486 COAL RIVER RD", "postcode": "25062"}}},
{"geometry": {"type": "Point", "coordinates": [-81.4632464453, 37.8599360355]}, "type": "Feature", "properties": {"collection_times": [{"days": "Mon-Fri", "time": "11:45am"}, {"days": "Sat", "time": "9:00am"}, {"days": "Sun", "time": "Closed"}], "id": "2506200002", "name": "USPS COLLECTION BOX - PO LOBBY", "address": {"city": "DRY CREEK", "state": "WV", "street": "6486 COAL RIVER RD", "postcode": "25062"}}},
{"geometry": {"type": "Point", "coordinates": [-80.9989712907, 38.5858263786]}, "type": "Feature", "properties": {"collection_times": [{"days": "Mon-Fri", "time": "3:00pm"}, {"days": "Sat", "time": "10:30am"}, {"days": "Sun", "time": "Closed"}], "id": "2506300000", "name": "USPS COLLECTION BOX - BLUE BOX", "address": {"city": "DUCK", "state": "WV", "street": "390 SERVIA ELMIRA RD", "postcode": "25063"}}},
{"geometry": {"type": "Point", "coordinates": [-80.9989712907, 38.5858263786]}, "type": "Feature", "properties": {"collection_times": [{"days": "Mon-Fri", "time": "3:00pm"}, {"days": "Sat", "time": "10:30am"}, {"days": "Sun", "time": "Closed"}], "id": "2506300001", "name": "USPS COLLECTION BOX - PO LOBBY", "address": {"city": "DUCK", "state": "WV", "street": "390 SERVIA ELMIRA RD", "postcode": "25063"}}},
{"geometry": {"type": "Point", "coordinates": [-80.9989712907, 38.5858263786]}, "type": "Feature", "properties": {"collection_times": [{"days": "Mon-Fri", "time": "3:00pm"}, {"days": "Sat", "time": "10:30am"}, {"days": "Sun", "time": "Closed"}], "id": "2506300002", "name": "USPS COLLECTION BOX - PO LOBBY", "address": {"city": "DUCK", "state": "WV", "street": "390 SERVIA ELMIRA RD", "postcode": "25063"}}},
{"geometry": {"type": "Point", "coordinates": [-81.7306925437, 38.3605576654]}, "type": "Feature", "properties": {"collection_times": [{"days": "Mon-Sat", "time": "9:00am"}, {"days": "Sun", "time": "Closed"}], "id": "2506400002", "name": "USPS COLLECTION BOX - BLUE BOX", "address": {"city": "DUNBAR", "state": "WV", "street": "605 DUNBAR AVE", "postcode": "25064"}}},
{"geometry": {"type": "Point", "coordinates": [-81.7374252609, 38.3590959431]}, "type": "Feature", "properties": {"collection_times": [{"days": "Mon-Sat", "time": "9:00am"}, {"days": "Sun", "time": "Closed"}], "id": "2506400003", "name": "USPS COLLECTION BOX - BLUE BOX", "address": {"city": "DUNBAR", "state": "WV", "street": "304 10TH ST", "postcode": "25064"}}},
{"geometry": {"type": "Point", "coordinates": [-81.7395707463, 38.3580819954]}, "type": "Feature", "properties": {"collection_times": [{"days": "Mon-Fri", "time": "4:15pm"}, {"days": "Sat", "time": "2:45pm"}, {"days": "Sun", "time": "Closed"}], "id": "2506400005", "name": "USPS COLLECTION BOX - BLUE BOX", "address": {"city": "DUNBAR", "state": "WV", "street": "1201 GROSSCUP AVE", "postcode": "25064"}}},
{"geometry": {"type": "Point", "coordinates": [-81.7686832528, 38.3796890374]}, "type": "Feature", "properties": {"collection_times": [{"days": "Mon-Sat", "time": "9:00am"}, {"days": "Sun", "time": "Closed"}], "id": "2506400014", "name": "USPS COLLECTION BOX - BLUE BOX", "address": {"city": "DUNBAR", "state": "WV", "street": "209 BARRON DR", "postcode": "25064"}}},
{"geometry": {"type": "Point", "coordinates": [-81.7395707463, 38.3580819954]}, "type": "Feature", "properties": {"collection_times": [{"days": "Mon-Fri", "time": "4:15pm"}, {"days": "Sat", "time": "2:45pm"}, {"days": "Sun", "time": "Closed"}], "id": "2506400029", "name": "USPS COLLECTION BOX - BLUE BOX", "address": {"city": "DUNBAR", "state": "WV", "street": "1201 GROSSCUP AVE", "postcode": "25064"}}},
{"geometry": {"type": "Point", "coordinates": [-81.7446492114, 38.3679403752]}, "type": "Feature", "properties": {"collection_times": [{"days": "Mon-Sat", "time": "9:00am"}, {"days": "Sun", "time": "Closed"}], "id": "2506400030", "name": "USPS COLLECTION BOX - BLUE BOX", "address": {"city": "DUNBAR", "state": "WV", "street": "200 ROXALANA BUSINESS PARK", "postcode": "25064"}}},
{"geometry": {"type": "Point", "coordinates": [-81.7397252507, 38.3607935777]}, "type": "Feature", "properties": {"collection_times": [{"days": "Mon-Sat", "time": "9:00am"}, {"days": "Sun", "time": "Closed"}], "id": "2506400035", "name": "USPS COLLECTION BOX - BLUE BOX", "address": {"city": "DUNBAR", "state": "WV", "street": "333 12TH ST", "postcode": "25064"}}},
{"geometry": {"type": "Point", "coordinates": [-81.7395707463, 38.3580819954]}, "type": "Feature", "properties": {"collection_times": [{"days": "Mon-Fri", "time": "4:15pm"}, {"days": "Sat", "time": "2:45pm"}, {"days": "Sun", "time": "Closed"}], "id": "2506400036", "name": "USPS COLLECTION BOX - PO LOBBY", "address": {"city": "DUNBAR", "state": "WV", "street": "1201 GROSSCUP AVE", "postcode": "25064"}}},
{"geometry": {"type": "Point", "coordinates": [-81.7395707463, 38.3580819954]}, "type": "Feature", "properties": {"collection_times": [{"days": "Mon-Fri", "time": "4:15pm"}, {"days": "Sat", "time": "2:45pm"}, {"days": "Sun", "time": "Closed"}], "id": "2506400037", "name": "USPS COLLECTION BOX - PO LOBBY", "address": {"city": "DUNBAR", "state": "WV", "street": "1201 GROSSCUP AVE", "postcode": "25064"}}},
{"geometry": {"type": "Point", "coordinates": [-81.7252866411, 38.3725100082]}, "type": "Feature", "properties": {"collection_times": [{"days": "Mon-Sat", "time": "9:00am"}, {"days": "Sun", "time": "Closed"}], "id": "2506400041", "name": "USPS COLLECTION BOX - BLUE BOX", "address": {"city": "DUNBAR", "state": "WV", "street": "870 ROXALANA HILLS DR", "postcode": "25064"}}},
{"geometry": {"type": "Point", "coordinates": [-81.4398572916, 38.217522742]}, "type": "Feature", "properties": {"collection_times": [{"days": "Mon-Fri", "time": "3:30pm"}, {"days": "Sat", "time": "11:00am"}, {"days": "Sun", "time": "Closed"}], "id": "2506700000", "name": "USPS COLLECTION BOX - BLUE BOX", "address": {"city": "EAST BANK", "state": "WV", "street": "208 WILLOW ST", "postcode": "25067"}}},
{"geometry": {"type": "Point", "coordinates": [-81.4398572916, 38.217522742]}, "type": "Feature", "properties": {"collection_times": [{"days": "Mon-Fri", "time": "3:30pm"}, {"days": "Sat", "time": "11:00am"}, {"days": "Sun", "time": "Closed"}], "id": "2506700001", "name": "USPS COLLECTION BOX - PO LOBBY", "address": {"city": "EAST BANK", "state": "WV", "street": "208 WILLOW ST", "postcode": "25067"}}},
{"geometry": {"type": "Point", "coordinates": [-81.9180736519, 38.5321191322]}, "type": "Feature", "properties": {"collection_times": [{"days": "Mon-Fri", "time": "4:15pm"}, {"days": "Sat", "time": "11:00am"}, {"days": "Sun", "time": "Closed"}], "id": "2507000000", "name": "USPS COLLECTION BOX - BLUE BOX", "address": {"city": "ELEANOR", "state": "WV", "street": "103 ROOSEVELT BLVD", "postcode": "25070"}}},
{"geometry": {"type": "Point", "coordinates": [-81.9180736519, 38.5321191322]}, "type": "Feature", "properties": {"collection_times": [{"days": "Mon-Fri", "time": "4:15pm"}, {"days": "Sat", "time": "11:00am"}, {"days": "Sun", "time": "Closed"}], "id": "2507000001", "name": "USPS COLLECTION BOX - PO LOBBY", "address": {"city": "ELEANOR", "state": "WV", "street": "103 ROOSEVELT BLVD", "postcode": "25070"}}},
{"geometry": {"type": "Point", "coordinates": [-81.4709545711, 38.4459429998]}, "type": "Feature", "properties": {"collection_times": [{"days": "Mon-Sat", "time": "8:30am"}, {"days": "Sun", "time": "Closed"}], "id": "2507100001", "name": "USPS COLLECTION BOX - BLUE BOX", "address": {"city": "ELKVIEW", "state": "WV", "street": "203 CROSSINGS MALL RD", "postcode": "25071"}}},
{"geometry": {"type": "Point", "coordinates": [-81.4895877846, 38.4269212207]}, "type": "Feature", "properties": {"collection_times": [{"days": "Mon-Fri", "time": "4:15pm"}, {"days": "Sat", "time": "12:00pm"}, {"days": "Sun", "time": "Closed"}], "id": "2507100003", "name": "USPS COLLECTION BOX - BLUE BOX", "address": {"city": "ELKVIEW", "state": "WV", "street": "5062 ELK RIVER RD S", "postcode": "25071"}}},
{"geometry": {"type": "Point", "coordinates": [-81.4895877846, 38.4269212207]}, "type": "Feature", "properties": {"collection_times": [{"days": "Mon-Fri", "time": "4:15pm"}, {"days": "Sat", "time": "12:00pm"}, {"days": "Sun", "time": "Closed"}], "id": "2507100005", "name": "USPS COLLECTION BOX - PO LOBBY", "address": {"city": "ELKVIEW", "state": "WV", "street": "5062 ELK RIVER RD S", "postcode": "25071"}}},
{"geometry": {"type": "Point", "coordinates": [-81.4406223118, 38.0769935382]}, "type": "Feature", "properties": {"collection_times": [{"days": "Mon-Fri", "time": "11:30am"}, {"days": "Sat", "time": "10:45am"}, {"days": "Sun", "time": "Closed"}], "id": "2507500000", "name": "USPS COLLECTION BOX - BLUE BOX", "address": {"city": "ESKDALE", "state": "WV", "street": "28 KEENEY DR", "postcode": "25075"}}},
{"geometry": {"type": "Point", "coordinates": [-81.4406223118, 38.0769935382]}, "type": "Feature", "properties": {"collection_times": [{"days": "Mon-Fri", "time": "11:30am"}, {"days": "Sat", "time": "10:45am"}, {"days": "Sun", "time": "Closed"}], "id": "2507500001", "name": "USPS COLLECTION BOX - PO LOBBY", "address": {"city": "ESKDALE", "state": "WV", "street": "28 KEENEY DR", "postcode": "25075"}}},
{"geometry": {"type": "Point", "coordinates": [-81.9119389362, 37.8663738]}, "type": "Feature", "properties": {"collection_times": [{"days": "Mon-Fri", "time": "12:30pm"}, {"days": "Sat", "time": "11:00am"}, {"days": "Sun", "time": "Closed"}], "id": "2507600000", "name": "USPS COLLECTION BOX - BLUE BOX", "address": {"city": "ETHEL", "state": "WV", "street": "2978 BLAIR MOUNTAIN HWY", "postcode": "25076"}}},
{"geometry": {"type": "Point", "coordinates": [-81.9208334382, 37.8645364513]}, "type": "Feature", "properties": {"collection_times": [{"days": "Mon-Fri", "time": "12:30pm"}, {"days": "Sat", "time": "11:00am"}, {"days": "Sun", "time": "Closed"}], "id": "2507600001", "name": "USPS COLLECTION BOX - PO LOBBY", "address": {"city": "ETHEL", "state": "WV", "street": "2978 BLAIR MOUNTAIN HWY", "postcode": "25076"}}},
{"geometry": {"type": "Point", "coordinates": [-81.3879324996, 38.4783326262]}, "type": "Feature", "properties": {"collection_times": [{"days": "Mon-Fri", "time": "12:00pm"}, {"days": "Sat", "time": "11:30am"}, {"days": "Sun", "time": "Closed"}], "id": "2507900000", "name": "USPS COLLECTION BOX - BLUE BOX", "address": {"city": "FALLING ROCK", "state": "WV", "street": "5520 ELK RIVER RD N", "postcode": "25079"}}},
{"geometry": {"type": "Point", "coordinates": [-81.3879324996, 38.4783326262]}, "type": "Feature", "properties": {"collection_times": [{"days": "Mon-Fri", "time": "12:00pm"}, {"days": "Sat", "time": "11:30am"}, {"days": "Sun", "time": "Closed"}], "id": "2507900001", "name": "USPS COLLECTION BOX - PO LOBBY", "address": {"city": "FALLING ROCK", "state": "WV", "street": "5520 ELK RIVER RD N", "postcode": "25079"}}},
{"geometry": {"type": "Point", "coordinates": [-81.7731101581, 38.0964994956]}, "type": "Feature", "properties": {"collection_times": [{"days": "Mon-Fri", "time": "11:45am"}, {"days": "Sat", "time": "11:00am"}, {"days": "Sun", "time": "Closed"}], "id": "2508100000", "name": "USPS COLLECTION BOX - BLUE BOX", "address": {"city": "FOSTER", "state": "WV", "street": "7976 DANIEL BOONE PKWY", "postcode": "25081"}}},
{"geometry": {"type": "Point", "coordinates": [-81.7731101581, 38.0964994956]}, "type": "Feature", "properties": {"collection_times": [{"days": "Mon-Fri", "time": "11:45am"}, {"days": "Sat", "time": "11:00am"}, {"days": "Sun", "time": "Closed"}], "id": "2508100001", "name": "USPS COLLECTION BOX - PO LOBBY", "address": {"city": "FOSTER", "state": "WV", "street": "7976 DANIEL BOONE PKWY", "postcode": "25081"}}},
{"geometry": {"type": "Point", "coordinates": [-82.0042852854, 38.6009880495]}, "type": "Feature", "properties": {"collection_times": [{"days": "Mon-Fri", "time": "11:45am"}, {"days": "Sat", "time": "11:00am"}, {"days": "Sun", "time": "Closed"}], "id": "2508200000", "name": "USPS COLLECTION BOX - BLUE BOX", "address": {"city": "FRAZIERS BOTTOM", "state": "WV", "street": "18350 WINFIELD RD", "postcode": "25082"}}},
{"geometry": {"type": "Point", "coordinates": [-82.0042852854, 38.6009880495]}, "type": "Feature", "properties": {"collection_times": [{"days": "Mon-Fri", "time": "11:45am"}, {"days": "Sat", "time": "11:00am"}, {"days": "Sun", "time": "Closed"}], "id": "2508200001", "name": "USPS COLLECTION BOX - PO LOBBY", "address": {"city": "FRAZIERS BOTTOM", "state": "WV", "street": "18350 WINFIELD RD", "postcode": "25082"}}},
{"geometry": {"type": "Point", "coordinates": [-81.3810232221, 38.1718209923]}, "type": "Feature", "properties": {"collection_times": [{"days": "Mon-Fri", "time": "11:45am"}, {"days": "Sat", "time": "10:00am"}, {"days": "Sun", "time": "Closed"}], "id": "2508300000", "name": "USPS COLLECTION BOX - BLUE BOX", "address": {"city": "GALLAGHER", "state": "WV", "street": "2341 PAINT CREEK RD", "postcode": "25083"}}},
{"geometry": {"type": "Point", "coordinates": [-81.1981264872, 38.1642318447]}, "type": "Feature", "properties": {"collection_times": [{"days": "Mon-Fri", "time": "3:15pm"}, {"days": "Sat", "time": "10:45am"}, {"days": "Sun", "time": "Closed"}], "id": "2508500000", "name": "USPS COLLECTION BOX - BLUE BOX", "address": {"city": "GAULEY BRIDGE", "state": "WV", "street": "301 MAIN ST", "postcode": "25085"}}},
{"geometry": {"type": "Point", "coordinates": [-81.1981264872, 38.1642318447]}, "type": "Feature", "properties": {"collection_times": [{"days": "Mon-Fri", "time": "3:15pm"}, {"days": "Sat", "time": "10:45am"}, {"days": "Sun", "time": "Closed"}], "id": "2508500001", "name": "USPS COLLECTION BOX - PO LOBBY", "address": {"city": "GAULEY BRIDGE", "state": "WV", "street": "301 MAIN ST", "postcode": "25085"}}},
{"geometry": {"type": "Point", "coordinates": [-81.4256695411, 38.2115925951]}, "type": "Feature", "properties": {"collection_times": [{"days": "Mon-Fri", "time": "3:45pm"}, {"days": "Sat", "time": "10:45am"}, {"days": "Sun", "time": "Closed"}], "id": "2508600000", "name": "USPS COLLECTION BOX - BLUE BOX", "address": {"city": "GLASGOW", "state": "WV", "street": "406 3RD ST", "postcode": "25086"}}},
{"geometry": {"type": "Point", "coordinates": [-81.4256695411, 38.2115925951]}, "type": "Feature", "properties": {"collection_times": [{"days": "Mon-Fri", "time": "3:45pm"}, {"days": "Sat", "time": "10:45am"}, {"days": "Sun", "time": "Closed"}], "id": "2508600001", "name": "USPS COLLECTION BOX - PO LOBBY", "address": {"city": "GLASGOW", "state": "WV", "street": "406 3RD ST", "postcode": "25086"}}},
{"geometry": {"type": "Point", "coordinates": [-81.2150069181, 38.1537492982]}, "type": "Feature", "properties": {"collection_times": [{"days": "Mon-Fri", "time": "10:15am"}, {"days": "Sat", "time": "7:30am"}, {"days": "Sun", "time": "Closed"}], "id": "2509000000", "name": "USPS COLLECTION BOX - BLUE BOX", "address": {"city": "GLEN FERRIS", "state": "WV", "street": "8999 MIDLAND TRL", "postcode": "25090"}}},
{"geometry": {"type": "Point", "coordinates": [-81.2144773821, 38.155982081]}, "type": "Feature", "properties": {"collection_times": [{"days": "Mon-Fri", "time": "10:15am"}, {"days": "Sat", "time": "7:30am"}, {"days": "Sun", "time": "Closed"}], "id": "2509000001", "name": "USPS COLLECTION BOX - PO LOBBY", "address": {"city": "GLEN FERRIS", "state": "WV", "street": "PO BOX 9998", "postcode": "25090"}}},
{"geometry": {"type": "Point", "coordinates": [-81.6630277353, 37.9863275634]}, "type": "Feature", "properties": {"collection_times": [{"days": "Mon-Fri", "time": "2:15pm"}, {"days": "Sat", "time": "10:00am"}, {"days": "Sun", "time": "Closed"}], "id": "2509300000", "name": "USPS COLLECTION BOX - BLUE BOX", "address": {"city": "GORDON", "state": "WV", "street": "2303 GORDON RD", "postcode": "25093"}}},
{"geometry": {"type": "Point", "coordinates": [-81.6630277353, 37.9863275634]}, "type": "Feature", "properties": {"collection_times": [{"days": "Mon-Fri", "time": "2:15pm"}, {"days": "Sat", "time": "10:00am"}, {"days": "Sun", "time": "Closed"}], "id": "2509300001", "name": "USPS COLLECTION BOX - PO LOBBY", "address": {"city": "GORDON", "state": "WV", "street": "2303 GORDON RD", "postcode": "25093"}}}
]}
