{"type": "FeatureCollection", "features": [
{"geometry": {"type": "Point", "coordinates": [-81.3627505061, 38.1863513606]}, "type": "Feature", "properties": {"collection_times": [{"days": "Mon-Fri", "time": "11:45am"}, {"days": "Sat", "time": "11:00am"}, {"days": "Sun", "time": "Closed"}], "id": "2510200000", "name": "USPS COLLECTION BOX - BLUE BOX", "address": {"city": "HANDLEY", "state": "WV", "street": "37 2ND AVE", "postcode": "25102"}}},
{"geometry": {"type": "Point", "coordinates": [-82.1406634184, 38.8345732612]}, "type": "Feature", "properties": {"collection_times": [{"days": "Mon-Fri", "time": "4:15pm"}, {"days": "Sat", "time": "10:45am"}, {"days": "Sun", "time": "Closed"}], "id": "2510600000", "name": "USPS COLLECTION BOX - BLUE BOX", "address": {"city": "HENDERSON", "state": "WV", "street": "9 CHESTNUT ST", "postcode": "25106"}}},
{"geometry": {"type": "Point", "coordinates": [-82.1406634184, 38.8345732612]}, "type": "Feature", "properties": {"collection_times": [{"days": "Mon-Fri", "time": "4:15pm"}, {"days": "Sat", "time": "10:45am"}, {"days": "Sun", "time": "Closed"}], "id": "2510600001", "name": "USPS COLLECTION BOX - PO LOBBY", "address": {"city": "HENDERSON", "state": "WV", "street": "9 CHESTNUT ST", "postcode": "25106"}}},
{"geometry": {"type": "Point", "coordinates": [-81.6034087546, 38.1929523278]}, "type": "Feature", "properties": {"collection_times": [{"days": "Mon-Fri", "time": "11:45am"}, {"days": "Sat", "time": "10:15am"}, {"days": "Sun", "time": "Closed"}], "id": "2510700000", "name": "USPS COLLECTION BOX - BLUE BOX", "address": {"city": "HERNSHAW", "state": "WV", "street": "2996 LENS CREEK RD", "postcode": "25107"}}},
{"geometry": {"type": "Point", "coordinates": [-81.6034087546, 38.1929523278]}, "type": "Feature", "properties": {"collection_times": [{"days": "Mon-Fri", "time": "11:45am"}, {"days": "Sat", "time": "10:15am"}, {"days": "Sun", "time": "Closed"}], "id": "2510700001", "name": "USPS COLLECTION BOX - PO LOBBY", "address": {"city": "HERNSHAW", "state": "WV", "street": "2996 LENS CREEK RD", "postcode": "25107"}}},
{"geometry": {"type": "Point", "coordinates": [-81.8749605525, 37.9644446326]}, "type": "Feature", "properties": {"collection_times": [{"days": "Mon-Fri", "time": "1:45pm"}, {"days": "Sat", "time": "11:00am"}, {"days": "Sun", "time": "Closed"}], "id": "2510800000", "name": "USPS COLLECTION BOX - BLUE BOX", "address": {"city": "HEWETT", "state": "WV", "street": "3864 HEWETT CREEK RD", "postcode": "25108"}}},
{"geometry": {"type": "Point", "coordinates": [-81.8749605525, 37.9644446326]}, "type": "Feature", "properties": {"collection_times": [{"days": "Mon-Fri", "time": "1:45pm"}, {"days": "Sat", "time": "11:00am"}, {"days": "Sun", "time": "Closed"}], "id": "2510800001", "name": "USPS COLLECTION BOX - PO LOBBY", "address": {"city": "HEWETT", "state": "WV", "street": "3864 HEWETT CREEK RD", "postcode": "25108"}}},
{"geometry": {"type": "Point", "coordinates": [-81.8599329094, 38.5326080344]}, "type": "Feature", "properties": {"collection_times": [{"days": "Mon-Fri", "time": "11:45am"}, {"days": "Sat", "time": "10:30am"}, {"days": "Sun", "time": "Closed"}], "id": "2510900000", "name": "USPS COLLECTION BOX - BLUE BOX", "address": {"city": "HOMETOWN", "state": "WV", "street": "41 5TH AVE S", "postcode": "25109"}}},
{"geometry": {"type": "Point", "coordinates": [-81.8599329094, 38.5326080344]}, "type": "Feature", "properties": {"collection_times": [{"days": "Mon-Fri", "time": "11:45am"}, {"days": "Sat", "time": "10:30am"}, {"days": "Sun", "time": "Closed"}], "id": "2510900001", "name": "USPS COLLECTION BOX - PO LOBBY", "address": {"city": "HOMETOWN", "state": "WV", "street": "41 5TH AVE S", "postcode": "25109"}}},
{"geometry": {"type": "Point", "coordinates": [-81.4666383062, 38.2087713481]}, "type": "Feature", "properties": {"collection_times": [{"days": "Mon-Fri", "time": "11:45am"}, {"days": "Sat", "time": "11:00am"}, {"days": "Sun", "time": "Closed"}], "id": "2511000000", "name": "USPS COLLECTION BOX - BLUE BOX", "address": {"city": "HUGHESTON", "state": "WV", "street": "5082 HUGHES CREEK RD", "postcode": "25110"}}},
{"geometry": {"type": "Point", "coordinates": [-81.4666383062, 38.2087713481]}, "type": "Feature", "properties": {"collection_times": [{"days": "Mon-Fri", "time": "11:45am"}, {"days": "Sat", "time": "11:00am"}, {"days": "Sun", "time": "Closed"}], "id": "2511000001", "name": "USPS COLLECTION BOX - PO LOBBY", "address": {"city": "HUGHESTON", "state": "WV", "street": "5082 HUGHES CREEK RD", "postcode": "25110"}}},
{"geometry": {"type": "Point", "coordinates": [-81.1564667301, 38.373123496]}, "type": "Feature", "properties": {"collection_times": [{"days": "Mon-Fri", "time": "11:45am"}, {"days": "Sat", "time": "10:45am"}, {"days": "Sun", "time": "Closed"}], "id": "2511100000", "name": "USPS COLLECTION BOX - BLUE BOX", "address": {"city": "INDORE", "state": "WV", "street": "11447 CLAY HWY", "postcode": "25111"}}},
{"geometry": {"type": "Point", "coordinates": [-81.1564667301, 38.373123496]}, "type": "Feature", "properties": {"collection_times": [{"days": "Mon-Fri", "time": "11:45am"}, {"days": "Sat", "time": "10:45am"}, {"days": "Sun", "time": "Closed"}], "id": "2511100001", "name": "USPS COLLECTION BOX - PO LOBBY", "address": {"city": "INDORE", "state": "WV", "street": "11447 CLAY HWY", "postcode": "25111"}}},
{"geometry": {"type": "Point", "coordinates": [-81.8338274056, 38.419900001]}, "type": "Feature", "properties": {"collection_times": [{"days": "Mon-Fri", "time": "4:45pm"}, {"days": "Sat", "time": "11:00am"}, {"days": "Sun", "time": "Closed"}], "id": "2511200000", "name": "USPS COLLECTION BOX - BLUE BOX", "address": {"city": "INSTITUTE", "state": "WV", "street": "6200 FAIRLAWN AVE", "postcode": "25112"}}},
{"geometry": {"type": "Point", "coordinates": [-81.8338274056, 38.419900001]}, "type": "Feature", "properties": {"collection_times": [{"days": "Mon-Fri", "time": "4:45pm"}, {"days": "Sat", "time": "11:00am"}, {"days": "Sun", "time": "Closed"}], "id": "2511200001", "name": "USPS COLLECTION BOX - PO LOBBY", "address": {"city": "INSTITUTE", "state": "WV", "street": "6200 FAIRLAWN AVE", "postcode": "25112"}}},
{"geometry": {"type": "Point", "coordinates": [-81.034735291, 38.5272289424]}, "type": "Feature", "properties": {"collection_times": [{"days": "Mon-Fri", "time": "2:30pm"}, {"days": "Sat", "time": "11:45am"}, {"days": "Sun", "time": "Closed"}], "id": "2511300000", "name": "USPS COLLECTION BOX - BLUE BOX", "address": {"city": "IVYDALE", "state": "WV", "street": "10514 IVYDALE RD", "postcode": "25113"}}},
{"geometry": {"type": "Point", "coordinates": [-81.034735291, 38.5272289424]}, "type": "Feature", "properties": {"collection_times": [{"days": "Mon-Fri", "time": "2:30pm"}, {"days": "Sat", "time": "11:45am"}, {"days": "Sun", "time": "Closed"}], "id": "2511300001", "name": "USPS COLLECTION BOX - PO LOBBY", "address": {"city": "IVYDALE", "state": "WV", "street": "10514 IVYDALE RD", "postcode": "25113"}}},
{"geometry": {"type": "Point", "coordinates": [-81.7734227308, 37.9604223903]}, "type": "Feature", "properties": {"collection_times": [{"days": "Mon-Fri", "time": "11:45am"}, {"days": "Sat", "time": "11:00am"}, {"days": "Sun", "time": "Closed"}], "id": "2511400000", "name": "USPS COLLECTION BOX - BLUE BOX", "address": {"city": "JEFFREY", "state": "WV", "street": "162 HEWETT CREEK RD", "postcode": "25114"}}},
{"geometry": {"type": "Point", "coordinates": [-81.7734227308, 37.9604223903]}, "type": "Feature", "properties": {"collection_times": [{"days": "Mon-Fri", "time": "11:45am"}, {"days": "Sat", "time": "11:00am"}, {"days": "Sun", "time": "Closed"}], "id": "2511400001", "name": "USPS COLLECTION BOX - PO LOBBY", "address": {"city": "JEFFREY", "state": "WV", "street": "162 HEWETT CREEK RD", "postcode": "25114"}}},
{"geometry": {"type": "Point", "coordinates": [-81.0406583856, 37.9986088025]}, "type": "Feature", "properties": {"collection_times": [{"days": "Mon-Fri", "time": "11:45am"}, {"days": "Sat", "time": "10:45am"}, {"days": "Sun", "time": "Closed"}], "id": "2511800000", "name": "USPS COLLECTION BOX - BLUE BOX", "address": {"city": "KIMBERLY", "state": "WV", "street": "15 KIMBERLY POST OFFICE RD", "postcode": "25118"}}},
{"geometry": {"type": "Point", "coordinates": [-81.0406583856, 37.9986088025]}, "type": "Feature", "properties": {"collection_times": [{"days": "Mon-Fri", "time": "11:45am"}, {"days": "Sat", "time": "10:45am"}, {"days": "Sun", "time": "Closed"}], "id": "2511800001", "name": "USPS COLLECTION BOX - PO LOBBY", "address": {"city": "KIMBERLY", "state": "WV", "street": "15 KIMBERLY POST OFFICE RD", "postcode": "25118"}}},
{"geometry": {"type": "Point", "coordinates": [-81.2532548675, 38.0384035965]}, "type": "Feature", "properties": {"collection_times": [{"days": "Mon-Fri", "time": "11:30am"}, {"days": "Sat", "time": "11:00am"}, {"days": "Sun", "time": "Closed"}], "id": "2511900000", "name": "USPS COLLECTION BOX - BLUE BOX", "address": {"city": "KINCAID", "state": "WV", "street": "7598 DEEP WATER MOUNTAIN RD", "postcode": "25119"}}},
{"geometry": {"type": "Point", "coordinates": [-81.2671982817, 38.0523261051]}, "type": "Feature", "properties": {"collection_times": [{"days": "Mon-Fri", "time": "11:30am"}, {"days": "Sat", "time": "11:00am"}, {"days": "Sun", "time": "Closed"}], "id": "2511900001", "name": "USPS COLLECTION BOX - PO LOBBY", "address": {"city": "KINCAID", "state": "WV", "street": "7598 DEEP WATER MOUNTAIN RD", "postcode": "25119"}}},
{"geometry": {"type": "Point", "coordinates": [-81.9273434751, 37.9218040328]}, "type": "Feature", "properties": {"collection_times": [{"days": "Mon-Fri", "time": "12:00pm"}, {"days": "Sat", "time": "11:00am"}, {"days": "Sun", "time": "Closed"}], "id": "2512100000", "name": "USPS COLLECTION BOX - BLUE BOX", "address": {"city": "LAKE", "state": "WV", "street": "2413 MAIN HEWETT CREEK RD", "postcode": "25121"}}},
{"geometry": {"type": "Point", "coordinates": [-81.9273434751, 37.9218040328]}, "type": "Feature", "properties": {"collection_times": [{"days": "Mon-Fri", "time": "12:00pm"}, {"days": "Sat", "time": "11:00am"}, {"days": "Sun", "time": "Closed"}], "id": "2512100001", "name": "USPS COLLECTION BOX - PO LOBBY", "address": {"city": "LAKE", "state": "WV", "street": "2413 MAIN HEWETT CREEK RD", "postcode": "25121"}}},
{"geometry": {"type": "Point", "coordinates": [-81.8885745145, 38.7274686989]}, "type": "Feature", "properties": {"collection_times": [{"days": "Mon-Fri", "time": "2:00pm"}, {"days": "Sat", "time": "11:30am"}, {"days": "Sun", "time": "Closed"}], "id": "2512300000", "name": "USPS COLLECTION BOX - BLUE BOX", "address": {"city": "LEON", "state": "WV", "street": "20597 CHARLESTON RD", "postcode": "25123"}}},
{"geometry": {"type": "Point", "coordinates": [-82.004229447, 38.780689585]}, "type": "Feature", "properties": {"collection_times": [{"days": "Mon-Fri", "time": "2:00pm"}, {"days": "Sat", "time": "11:30am"}, {"days": "Sun", "time": "Closed"}], "id": "2512300001", "name": "USPS COLLECTION BOX - PO LOBBY", "address": {"city": "LEON", "state": "WV", "street": "20597 CHARLESTON RD", "postcode": "25123"}}},
{"geometry": {"type": "Point", "coordinates": [-81.7684997107, 38.6314875674]}, "type": "Feature", "properties": {"collection_times": [{"days": "Mon-Fri", "time": "11:45am"}, {"days": "Sat", "time": "10:00am"}, {"days": "Sun", "time": "Closed"}], "id": "2512400000", "name": "USPS COLLECTION BOX - BLUE BOX", "address": {"city": "LIBERTY", "state": "WV", "street": "19 DERRICKS CREEK RD", "postcode": "25124"}}},
{"geometry": {"type": "Point", "coordinates": [-81.7684997107, 38.6314875674]}, "type": "Feature", "properties": {"collection_times": [{"days": "Mon-Fri", "time": "11:45am"}, {"days": "Sat", "time": "10:00am"}, {"days": "Sun", "time": "Closed"}], "id": "2512400001", "name": "USPS COLLECTION BOX - PO LOBBY", "address": {"city": "LIBERTY", "state": "WV", "street": "19 DERRICKS CREEK RD", "postcode": "25124"}}},
{"geometry": {"type": "Point", "coordinates": [-81.2039209495, 38.3075940496]}, "type": "Feature", "properties": {"collection_times": [{"days": "Mon-Fri", "time": "11:45am"}, {"days": "Sat", "time": "10:30am"}, {"days": "Sun", "time": "Closed"}], "id": "2512500000", "name": "USPS COLLECTION BOX - BLUE BOX", "address": {"city": "LIZEMORES", "state": "WV", "street": "13938 CLAY HWY", "postcode": "25125"}}},
{"geometry": {"type": "Point", "coordinates": [-81.2039209495, 38.3075940496]}, "type": "Feature", "properties": {"collection_times": [{"days": "Mon-Fri", "time": "11:45am"}, {"days": "Sat", "time": "10:30am"}, {"days": "Sun", "time": "Closed"}], "id": "2512500001", "name": "USPS COLLECTION BOX - PO LOBBY", "address": {"city": "LIZEMORES", "state": "WV", "street": "13938 CLAY HWY", "postcode": "25125"}}},
{"geometry": {"type": "Point", "coordinates": [-81.3687975459, 38.1943990953]}, "type": "Feature", "properties": {"collection_times": [{"days": "Mon-Fri", "time": "11:45am"}, {"days": "Sat", "time": "10:30am"}, {"days": "Sun", "time": "Closed"}], "id": "2512600000", "name": "USPS COLLECTION BOX - BLUE BOX", "address": {"city": "LONDON", "state": "WV", "street": "10049 E DUPONT AVE", "postcode": "25126"}}},
{"geometry": {"type": "Point", "coordinates": [-81.3473932409, 38.1872436136]}, "type": "Feature", "properties": {"collection_times": [{"days": "Mon-Fri", "time": "11:45am"}, {"days": "Sat", "time": "10:30am"}, {"days": "Sun", "time": "Closed"}], "id": "2512600001", "name": "USPS COLLECTION BOX - PO LOBBY", "address": {"city": "LONDON", "state": "WV", "street": "PO BOX 9998", "postcode": "25126"}}},
{"geometry": {"type": "Point", "coordinates": [-81.8249371942, 38.0585139064]}, "type": "Feature", "properties": {"collection_times": [{"days": "Mon-Fri", "time": "3:00pm"}, {"days": "Sat", "time": "9:30am"}, {"days": "Sun", "time": "Closed"}], "id": "2513000002", "name": "USPS COLLECTION BOX - BLUE BOX", "address": {"city": "MADISON", "state": "WV", "street": "343 MAIN ST", "postcode": "25130"}}},
{"geometry": {"type": "Point", "coordinates": [-81.8189724423, 38.0676717734]}, "type": "Feature", "properties": {"collection_times": [{"days": "Mon-Fri", "time": "3:00pm"}, {"days": "Sat", "time": "9:30am"}, {"days": "Sun", "time": "Closed"}], "id": "2513000006", "name": "USPS COLLECTION BOX - BLUE BOX", "address": {"city": "MADISON", "state": "WV", "street": "200 STATE ST", "postcode": "25130"}}},
{"geometry": {"type": "Point", "coordinates": [-81.8199749423, 38.0661909676]}, "type": "Feature", "properties": {"collection_times": [{"days": "Mon-Fri", "time": "3:00pm"}, {"days": "Sat", "time": "9:30am"}, {"days": "Sun", "time": "Closed"}], "id": "2513000007", "name": "USPS COLLECTION BOX - BLUE BOX", "address": {"city": "MADISON", "state": "WV", "street": "300 STATE ST", "postcode": "25130"}}},
{"geometry": {"type": "Point", "coordinates": [-81.8189724423, 38.0676717734]}, "type": "Feature", "properties": {"collection_times": [{"days": "Mon-Fri", "time": "3:00pm"}, {"days": "Sat", "time": "9:30am"}, {"days": "Sun", "time": "Closed"}], "id": "2513000008", "name": "USPS COLLECTION BOX - BLUE BOX", "address": {"city": "MADISON", "state": "WV", "street": "200 STATE ST", "postcode": "25130"}}},
{"geometry": {"type": "Point", "coordinates": [-81.825403452, 38.0563242247]}, "type": "Feature", "properties": {"collection_times": [{"days": "Mon-Fri", "time": "3:00pm"}, {"days": "Sat", "time": "11:00am"}, {"days": "Sun", "time": "Closed"}], "id": "2513000009", "name": "USPS COLLECTION BOX - BLUE BOX", "address": {"city": "MADISON", "state": "WV", "street": "650 S MAIN ST", "postcode": "25130"}}},
{"geometry": {"type": "Point", "coordinates": [-81.8253977704, 38.0575373544]}, "type": "Feature", "properties": {"collection_times": [{"days": "Mon-Fri", "time": "3:00pm"}, {"days": "Sat", "time": "9:30am"}, {"days": "Sun", "time": "Closed"}], "id": "2513000010", "name": "USPS COLLECTION BOX - BLUE BOX", "address": {"city": "MADISON", "state": "WV", "street": "483 MAIN ST", "postcode": "25130"}}},
{"geometry": {"type": "Point", "coordinates": [-81.825403452, 38.0563242247]}, "type": "Feature", "properties": {"collection_times": [{"days": "Mon-Fri", "time": "4:35pm"}, {"days": "Sat", "time": "11:00am"}, {"days": "Sun", "time": "Closed"}], "id": "2513000011", "name": "USPS COLLECTION BOX - PO LOBBY", "address": {"city": "MADISON", "state": "WV", "street": "650 S MAIN ST", "postcode": "25130"}}},
{"geometry": {"type": "Point", "coordinates": [-81.3559350003, 38.2426684369]}, "type": "Feature", "properties": {"collection_times": [{"days": "Mon-Fri", "time": "11:45am"}, {"days": "Sat", "time": "10:45am"}, {"days": "Sun", "time": "Closed"}], "id": "2513200000", "name": "USPS COLLECTION BOX - BLUE BOX", "address": {"city": "MAMMOTH", "state": "WV", "street": "5873 KELLEYS CREEK RD", "postcode": "25132"}}},
{"geometry": {"type": "Point", "coordinates": [-81.3559350003, 38.2426684369]}, "type": "Feature", "properties": {"collection_times": [{"days": "Mon-Fri", "time": "11:45am"}, {"days": "Sat", "time": "10:45am"}, {"days": "Sun", "time": "Closed"}], "id": "2513200001", "name": "USPS COLLECTION BOX - PO LOBBY", "address": {"city": "MAMMOTH", "state": "WV", "street": "5873 KELLEYS CREEK RD", "postcode": "25132"}}},
{"geometry": {"type": "Point", "coordinates": [-81.1296252596, 38.4698462773]}, "type": "Feature", "properties": {"collection_times": [{"days": "Mon-Fri", "time": "11:45am"}, {"days": "Sat", "time": "9:45am"}, {"days": "Sun", "time": "Closed"}], "id": "2513300000", "name": "USPS COLLECTION BOX - BLUE BOX", "address": {"city": "MAYSEL", "state": "WV", "street": "1848 PROCIOUS MAYSEL RD", "postcode": "25133"}}},
{"geometry": {"type": "Point", "coordinates": [-81.1296252596, 38.4698462773]}, "type": "Feature", "properties": {"collection_times": [{"days": "Mon-Fri", "time": "11:45am"}, {"days": "Sat", "time": "9:45am"}, {"days": "Sun", "time": "Closed"}], "id": "2513300001", "name": "USPS COLLECTION BOX - PO LOBBY", "address": {"city": "MAYSEL", "state": "WV", "street": "1848 PROCIOUS MAYSEL RD", "postcode": "25133"}}},
{"geometry": {"type": "Point", "coordinates": [-81.1296252596, 38.4698462773]}, "type": "Feature", "properties": {"collection_times": [{"days": "Mon-Fri", "time": "11:45am"}, {"days": "Sat", "time": "9:45am"}, {"days": "Sun", "time": "Closed"}], "id": "2513300002", "name": "USPS COLLECTION BOX - PO LOBBY", "address": {"city": "MAYSEL", "state": "WV", "street": "1848 PROCIOUS MAYSEL RD", "postcode": "25133"}}},
{"geometry": {"type": "Point", "coordinates": [-81.4491043983, 38.1521871642]}, "type": "Feature", "properties": {"collection_times": [{"days": "Mon-Fri", "time": "11:45am"}, {"days": "Sat", "time": "10:45am"}, {"days": "Sun", "time": "Closed"}], "id": "2513400000", "name": "USPS COLLECTION BOX - BLUE BOX", "address": {"city": "MIAMI", "state": "WV", "street": "4933 CABIN CREEK RD", "postcode": "25134"}}},
{"geometry": {"type": "Point", "coordinates": [-81.4491043983, 38.1521871642]}, "type": "Feature", "properties": {"collection_times": [{"days": "Mon-Fri", "time": "11:45am"}, {"days": "Sat", "time": "10:45am"}, {"days": "Sun", "time": "Closed"}], "id": "2513400001", "name": "USPS COLLECTION BOX - PO LOBBY", "address": {"city": "MIAMI", "state": "WV", "street": "4933 CABIN CREEK RD", "postcode": "25134"}}},
{"geometry": {"type": "Point", "coordinates": [-81.3216916094, 38.1812107011]}, "type": "Feature", "properties": {"collection_times": [{"days": "Mon-Fri", "time": "4:45pm"}, {"days": "Sat", "time": "1:00pm"}, {"days": "Sun", "time": "Closed"}], "id": "2513600001", "name": "USPS COLLECTION BOX - BLUE BOX", "address": {"city": "MONTGOMERY", "state": "WV", "street": "315 4TH AVE", "postcode": "25136"}}},
{"geometry": {"type": "Point", "coordinates": [-81.3259608186, 38.1797889305]}, "type": "Feature", "properties": {"collection_times": [{"days": "Mon-Sat", "time": "8:30am"}, {"days": "Sun", "time": "Closed"}], "id": "2513600004", "name": "USPS COLLECTION BOX - BLUE BOX", "address": {"city": "MONTGOMERY", "state": "WV", "street": "400 FAYETTE PIKE", "postcode": "25136"}}},
{"geometry": {"type": "Point", "coordinates": [-81.3216453621, 38.1813141448]}, "type": "Feature", "properties": {"collection_times": [{"days": "Mon-Fri", "time": "4:45pm"}, {"days": "Sat", "time": "1:00pm"}, {"days": "Sun", "time": "Closed"}], "id": "2513600010", "name": "USPS COLLECTION BOX - BLUE BOX", "address": {"city": "MONTGOMERY", "state": "WV", "street": "316 4TH AVE", "postcode": "25136"}}},
{"geometry": {"type": "Point", "coordinates": [-81.3216916094, 38.1812107011]}, "type": "Feature", "properties": {"collection_times": [{"days": "Mon-Fri", "time": "4:45pm"}, {"days": "Sat", "time": "1:00pm"}, {"days": "Sun", "time": "Closed"}], "id": "2513600012", "name": "USPS COLLECTION BOX - PO LOBBY", "address": {"city": "MONTGOMERY", "state": "WV", "street": "315 4TH AVE", "postcode": "25136"}}},
{"geometry": {"type": "Point", "coordinates": [-81.3216916094, 38.1812107011]}, "type": "Feature", "properties": {"collection_times": [{"days": "Mon-Fri", "time": "4:45pm"}, {"days": "Sat", "time": "1:00pm"}, {"days": "Sun", "time": "Closed"}], "id": "2513600013", "name": "USPS COLLECTION BOX - PO LOBBY", "address": {"city": "MONTGOMERY", "state": "WV", "street": "315 4TH AVE", "postcode": "25136"}}},
{"geometry": {"type": "Point", "coordinates": [-81.3216916094, 38.1812107011]}, "type": "Feature", "properties": {"collection_times": [{"days": "Mon-Fri", "time": "4:45pm"}, {"days": "Sat", "time": "1:00pm"}, {"days": "Sun", "time": "Closed"}], "id": "2513600014", "name": "USPS COLLECTION BOX - PO LOBBY", "address": {"city": "MONTGOMERY", "state": "WV", "street": "315 4TH AVE", "postcode": "25136"}}},
{"geometry": {"type": "Point", "coordinates": [-81.3232697321, 38.0154025079]}, "type": "Feature", "properties": {"collection_times": [{"days": "Mon-Fri", "time": "10:00am"}, {"days": "Sat", "time": "9:30am"}, {"days": "Sun", "time": "Closed"}], "id": "2513600015", "name": "USPS COLLECTION BOX - BLUE BOX", "address": {"city": "MONTGOMERY", "state": "WV", "street": "999999 WV TPKE", "postcode": "25136"}}},
{"geometry": {"type": "Point", "coordinates": [-81.2894577452, 38.1433365905]}, "type": "Feature", "properties": {"collection_times": [{"days": "Mon-Fri", "time": "2:15pm"}, {"days": "Sat", "time": "10:00am"}, {"days": "Sun", "time": "Closed"}], "id": "2513900000", "name": "USPS COLLECTION BOX - BLUE BOX", "address": {"city": "MOUNT CARBON", "state": "WV", "street": "18040 DEEPWATER MOUNTAIN RD", "postcode": "25139"}}},
{"geometry": {"type": "Point", "coordinates": [-81.2894577452, 38.1433365905]}, "type": "Feature", "properties": {"collection_times": [{"days": "Mon-Fri", "time": "2:15pm"}, {"days": "Sat", "time": "10:45am"}, {"days": "Sun", "time": "Closed"}], "id": "2513900001", "name": "USPS COLLECTION BOX - PO LOBBY", "address": {"city": "MOUNT CARBON", "state": "WV", "street": "18040 DEEPWATER MOUNTAIN RD", "postcode": "25139"}}},
{"geometry": {"type": "Point", "coordinates": [-81.500759879, 37.8636683517]}, "type": "Feature", "properties": {"collection_times": [{"days": "Mon-Fri", "time": "2:30pm"}, {"days": "Sat", "time": "10:45am"}, {"days": "Sun", "time": "Closed"}], "id": "2514000000", "name": "USPS COLLECTION BOX - BLUE BOX", "address": {"city": "NAOMA", "state": "WV", "street": "7502 COAL RIVER RD", "postcode": "25140"}}},
{"geometry": {"type": "Point", "coordinates": [-81.5153983285, 37.8762404736]}, "type": "Feature", "properties": {"collection_times": [{"days": "Mon-Sat", "time": "10:30am"}, {"days": "Sun", "time": "Closed"}], "id": "2514000001", "name": "USPS COLLECTION BOX - BLUE BOX", "address": {"city": "NAOMA", "state": "WV", "street": "8452 COAL RIVER RD", "postcode": "25140"}}},
{"geometry": {"type": "Point", "coordinates": [-81.500759879, 37.8636683517]}, "type": "Feature", "properties": {"collection_times": [{"days": "Mon-Fri", "time": "2:30pm"}, {"days": "Sat", "time": "10:30am"}, {"days": "Sun", "time": "Closed"}], "id": "2514000002", "name": "USPS COLLECTION BOX - PO LOBBY", "address": {"city": "NAOMA", "state": "WV", "street": "7502 COAL RIVER RD", "postcode": "25140"}}},
{"geometry": {"type": "Point", "coordinates": [-81.529900937, 37.9112551883]}, "type": "Feature", "properties": {"collection_times": [{"days": "Mon-Fri", "time": "12:30pm"}, {"days": "Sat", "time": "12:00pm"}, {"days": "Sun", "time": "Closed"}], "id": "2514000003", "name": "USPS COLLECTION BOX - BLUE BOX", "address": {"city": "NAOMA", "state": "WV", "street": "130 FRONTIER ST", "postcode": "25140"}}},
{"geometry": {"type": "Point", "coordinates": [-81.7483544, 38.1721747677]}, "type": "Feature", "properties": {"collection_times": [{"days": "Mon-Fri", "time": "2:30pm"}, {"days": "Sat", "time": "10:15am"}, {"days": "Sun", "time": "Closed"}], "id": "2514200000", "name": "USPS COLLECTION BOX - BLUE BOX", "address": {"city": "NELLIS", "state": "WV", "street": "31 FORK CREEK RD", "postcode": "25142"}}},
{"geometry": {"type": "Point", "coordinates": [-81.7483544, 38.1721747677]}, "type": "Feature", "properties": {"collection_times": [{"days": "Mon-Fri", "time": "2:30pm"}, {"days": "Sat", "time": "10:15am"}, {"days": "Sun", "time": "Closed"}], "id": "2514200001", "name": "USPS COLLECTION BOX - PO LOBBY", "address": {"city": "NELLIS", "state": "WV", "street": "31 FORK CREEK RD", "postcode": "25142"}}},
{"geometry": {"type": "Point", "coordinates": [-81.8402902483, 38.4264744802]}, "type": "Feature", "properties": {"collection_times": [{"days": "Mon-Fri", "time": "1:00pm"}, {"days": "Sat", "time": "12:00pm"}, {"days": "Sun", "time": "Closed"}], "id": "2514300002", "name": "USPS COLLECTION BOX - BLUE BOX", "address": {"city": "NITRO", "state": "WV", "street": "2801 28TH ST", "postcode": "25143"}}},
{"geometry": {"type": "Point", "coordinates": [-81.8309995433, 38.4445907814]}, "type": "Feature", "properties": {"collection_times": [{"days": "Mon-Sat", "time": "11:00am"}, {"days": "Sun", "time": "Closed"}], "id": "2514300004", "name": "USPS COLLECTION BOX - BLUE BOX", "address": {"city": "NITRO", "state": "WV", "street": "4200 1ST AVE", "postcode": "25143"}}},
{"geometry": {"type": "Point", "coordinates": [-81.8410081249, 38.4212531912]}, "type": "Feature", "properties": {"collection_times": [{"days": "Mon-Sat", "time": "11:00am"}, {"days": "Sun", "time": "Closed"}], "id": "2514300005", "name": "USPS COLLECTION BOX - BLUE BOX", "address": {"city": "NITRO", "state": "WV", "street": "109 LAYNE AVE", "postcode": "25143"}}},
{"geometry": {"type": "Point", "coordinates": [-81.8401361052, 38.4227354276]}, "type": "Feature", "properties": {"collection_times": [{"days": "Mon-Fri", "time": "2:00pm"}, {"days": "Sat", "time": "12:00pm"}, {"days": "Sun", "time": "Closed"}], "id": "2514300006", "name": "USPS COLLECTION BOX - BLUE BOX", "address": {"city": "NITRO", "state": "WV", "street": "2199 2ND AVE", "postcode": "25143"}}},
{"geometry": {"type": "Point", "coordinates": [-81.8401686077, 38.401481268]}, "type": "Feature", "properties": {"collection_times": [{"days": "Mon-Fri", "time": "2:00pm"}, {"days": "Sat", "time": "12:00pm"}, {"days": "Sun", "time": "Closed"}], "id": "2514300007", "name": "USPS COLLECTION BOX - BLUE BOX", "address": {"city": "NITRO", "state": "WV", "street": "1101 MAIN AVE", "postcode": "25143"}}},
{"geometry": {"type": "Point", "coordinates": [-81.8320570283, 38.396344362]}, "type": "Feature", "properties": {"collection_times": [{"days": "Mon-Fri", "time": "2:00pm"}, {"days": "Sat", "time": "12:00pm"}, {"days": "Sun", "time": "Closed"}], "id": "2514300009", "name": "USPS COLLECTION BOX - BLUE BOX", "address": {"city": "NITRO", "state": "WV", "street": "497 1ST AVE S", "postcode": "25143"}}},
{"geometry": {"type": "Point", "coordinates": [-81.8429995663, 38.4209311879]}, "type": "Feature", "properties": {"collection_times": [{"days": "Mon-Fri", "time": "2:00pm"}, {"days": "Sat", "time": "12:00pm"}, {"days": "Sun", "time": "Closed"}], "id": "2514300012", "name": "USPS COLLECTION BOX - BLUE BOX", "address": {"city": "NITRO", "state": "WV", "street": "1901 1ST AVE", "postcode": "25143"}}},
{"geometry": {"type": "Point", "coordinates": [-81.8395715422, 38.4217562677]}, "type": "Feature", "properties": {"collection_times": [{"days": "Mon-Fri", "time": "4:30pm"}, {"days": "Sat", "time": "12:00pm"}, {"days": "Sun", "time": "Closed"}], "id": "2514300014", "name": "USPS COLLECTION BOX - BLUE BOX", "address": {"city": "NITRO", "state": "WV", "street": "311 21ST ST", "postcode": "25143"}}},
{"geometry": {"type": "Point", "coordinates": [-81.8395715422, 38.4217562677]}, "type": "Feature", "properties": {"collection_times": [{"days": "Mon-Fri", "time": "4:30pm"}, {"days": "Sat", "time": "12:00pm"}, {"days": "Sun", "time": "Closed"}], "id": "2514300015", "name": "USPS COLLECTION BOX - BLUE BOX", "address": {"city": "NITRO", "state": "WV", "street": "311 21ST ST", "postcode": "25143"}}},
{"geometry": {"type": "Point", "coordinates": [-81.8186024443, 38.4472615136]}, "type": "Feature", "properties": {"collection_times": [{"days": "Mon-Sat", "time": "11:00am"}, {"days": "Sun", "time": "Closed"}], "id": "2514300017", "name": "USPS COLLECTION BOX - BLUE BOX", "address": {"city": "NITRO", "state": "WV", "street": "4650 1ST AVE", "postcode": "25143"}}},
{"geometry": {"type": "Point", "coordinates": [-81.8395715422, 38.4217562677]}, "type": "Feature", "properties": {"collection_times": [{"days": "Mon-Fri", "time": "4:30pm"}, {"days": "Sat", "time": "12:00pm"}, {"days": "Sun", "time": "Closed"}], "id": "2514300018", "name": "USPS COLLECTION BOX - PO LOBBY", "address": {"city": "NITRO", "state": "WV", "street": "311 21ST ST", "postcode": "25143"}}},
{"geometry": {"type": "Point", "coordinates": [-81.8176816047, 37.9531437086]}, "type": "Feature", "properties": {"collection_times": [{"days": "Mon-Sat", "time": "10:45am"}, {"days": "Sun", "time": "Closed"}], "id": "2514900000", "name": "USPS COLLECTION BOX - BLUE BOX", "address": {"city": "OTTAWA", "state": "WV", "street": "22321 SPRUCE RIVER RD STE A", "postcode": "25149"}}},
{"geometry": {"type": "Point", "coordinates": [-81.8176816047, 37.9531437086]}, "type": "Feature", "properties": {"collection_times": [{"days": "Mon-Sat", "time": "10:45am"}, {"days": "Sun", "time": "Closed"}], "id": "2514900001", "name": "USPS COLLECTION BOX - PO LOBBY", "address": {"city": "OTTAWA", "state": "WV", "street": "22321 SPRUCE RIVER RD STE A", "postcode": "25149"}}},
{"geometry": {"type": "Point", "coordinates": [-81.7116469984, 38.1250501705]}, "type": "Feature", "properties": {"collection_times": [{"days": "Mon-Fri", "time": "11:45am"}, {"days": "Sat", "time": "10:45am"}, {"days": "Sun", "time": "Closed"}], "id": "2515400000", "name": "USPS COLLECTION BOX - BLUE BOX", "address": {"city": "PEYTONA", "state": "WV", "street": "54 ROUNDBOTTOM RD STE A", "postcode": "25154"}}},
{"geometry": {"type": "Point", "coordinates": [-81.7116469984, 38.1250501705]}, "type": "Feature", "properties": {"collection_times": [{"days": "Mon-Fri", "time": "11:45am"}, {"days": "Sat", "time": "10:45am"}, {"days": "Sun", "time": "Closed"}], "id": "2515400001", "name": "USPS COLLECTION BOX - PO LOBBY", "address": {"city": "PEYTONA", "state": "WV", "street": "54 ROUNDBOTTOM RD STE A", "postcode": "25154"}}},
{"geometry": {"type": "Point", "coordinates": [-81.4841935258, 38.4125161812]}, "type": "Feature", "properties": {"collection_times": [{"days": "Mon-Fri", "time": "4:15pm"}, {"days": "Sat", "time": "11:00am"}, {"days": "Sun", "time": "Closed"}], "id": "2515600000", "name": "USPS COLLECTION BOX - BLUE BOX", "address": {"city": "PINCH", "state": "WV", "street": "231 N PINCH RD", "postcode": "25156"}}},
{"geometry": {"type": "Point", "coordinates": [-81.4841935258, 38.4125161812]}, "type": "Feature", "properties": {"collection_times": [{"days": "Mon-Fri", "time": "4:15pm"}, {"days": "Sat", "time": "11:00am"}, {"days": "Sun", "time": "Closed"}], "id": "2515600001", "name": "USPS COLLECTION BOX - PO LOBBY", "address": {"city": "PINCH", "state": "WV", "street": "231 N PINCH RD", "postcode": "25156"}}},
{"geometry": {"type": "Point", "coordinates": [-81.8421175853, 38.5127563324]}, "type": "Feature", "properties": {"collection_times": [{"days": "Mon-Fri", "time": "4:15pm"}, {"days": "Sat", "time": "11:00am"}, {"days": "Sun", "time": "Closed"}], "id": "2515900000", "name": "USPS COLLECTION BOX - BLUE BOX", "address": {"city": "POCA", "state": "WV", "street": "118 MAIN ST", "postcode": "25159"}}},
{"geometry": {"type": "Point", "coordinates": [-81.8421175853, 38.5127563324]}, "type": "Feature", "properties": {"collection_times": [{"days": "Mon-Fri", "time": "4:15pm"}, {"days": "Sat", "time": "11:00am"}, {"days": "Sun", "time": "Closed"}], "id": "2515900001", "name": "USPS COLLECTION BOX - PO LOBBY", "address": {"city": "POCA", "state": "WV", "street": "118 MAIN ST", "postcode": "25159"}}},
{"geometry": {"type": "Point", "coordinates": [-81.281662043, 38.2872285173]}, "type": "Feature", "properties": {"collection_times": [{"days": "Mon-Sat", "time": "12:15pm"}, {"days": "Sun", "time": "Closed"}], "id": "2516000000", "name": "USPS COLLECTION BOX - BLUE BOX", "address": {"city": "POND GAP", "state": "WV", "street": "PO BOX 9998", "postcode": "25160"}}},
{"geometry": {"type": "Point", "coordinates": [-81.281662043, 38.2872285173]}, "type": "Feature", "properties": {"collection_times": [{"days": "Mon-Sat", "time": "12:15pm"}, {"days": "Sun", "time": "Closed"}], "id": "2516000001", "name": "USPS COLLECTION BOX - PO LOBBY", "address": {"city": "POND GAP", "state": "WV", "street": "PO BOX 9998", "postcode": "25160"}}},
{"geometry": {"type": "Point", "coordinates": [-81.3837091524, 38.2101879469]}, "type": "Feature", "properties": {"collection_times": [{"days": "Mon-Fri", "time": "11:45am"}, {"days": "Sat", "time": "10:30am"}, {"days": "Sun", "time": "Closed"}], "id": "2516200000", "name": "USPS COLLECTION BOX - BLUE BOX", "address": {"city": "PRATT", "state": "WV", "street": "307 CENTER ST", "postcode": "25162"}}},
{"geometry": {"type": "Point", "coordinates": [-81.3837091524, 38.2101879469]}, "type": "Feature", "properties": {"collection_times": [{"days": "Mon-Fri", "time": "11:30am"}, {"days": "Sat", "time": "10:30am"}, {"days": "Sun", "time": "Closed"}], "id": "2516200001", "name": "USPS COLLECTION BOX - PO LOBBY", "address": {"city": "PRATT", "state": "WV", "street": "307 CENTER ST", "postcode": "25162"}}},
{"geometry": {"type": "Point", "coordinates": [-81.2014601499, 38.4820309296]}, "type": "Feature", "properties": {"collection_times": [{"days": "Mon-Fri", "time": "2:30pm"}, {"days": "Sat", "time": "10:00am"}, {"days": "Sun", "time": "Closed"}], "id": "2516400000", "name": "USPS COLLECTION BOX - BLUE BOX", "address": {"city": "PROCIOUS", "state": "WV", "street": "8531 PROCIOUS MAYSEL RD", "postcode": "25164"}}},
{"geometry": {"type": "Point", "coordinates": [-81.2014601499, 38.4820309296]}, "type": "Feature", "properties": {"collection_times": [{"days": "Mon-Fri", "time": "2:30pm"}, {"days": "Sat", "time": "10:15am"}, {"days": "Sun", "time": "Closed"}], "id": "2516400001", "name": "USPS COLLECTION BOX - PO LOBBY", "address": {"city": "PROCIOUS", "state": "WV", "street": "8531 PROCIOUS MAYSEL RD", "postcode": "25164"}}},
{"geometry": {"type": "Point", "coordinates": [-81.6585181637, 38.1600824665]}, "type": "Feature", "properties": {"collection_times": [{"days": "Mon-Fri", "time": "11:15am"}, {"days": "Sat", "time": "10:15am"}, {"days": "Sun", "time": "Closed"}], "id": "2516500000", "name": "USPS COLLECTION BOX - BLUE BOX", "address": {"city": "RACINE", "state": "WV", "street": "3010 SHORT CREEK RD", "postcode": "25165"}}},
{"geometry": {"type": "Point", "coordinates": [-81.6585181637, 38.1600824665]}, "type": "Feature", "properties": {"collection_times": [{"days": "Mon-Fri", "time": "11:00am"}, {"days": "Sat", "time": "10:15am"}, {"days": "Sun", "time": "Closed"}], "id": "2516500001", "name": "USPS COLLECTION BOX - PO LOBBY", "address": {"city": "RACINE", "state": "WV", "street": "3010 SHORT CREEK RD", "postcode": "25165"}}},
{"geometry": {"type": "Point", "coordinates": [-81.6585181637, 38.1600824665]}, "type": "Feature", "properties": {"collection_times": [{"days": "Mon-Fri", "time": "3:45pm"}, {"days": "Sat", "time": "12:30pm"}, {"days": "Sun", "time": "Closed"}], "id": "2516500002", "name": "USPS COLLECTION BOX - BLUE BOX", "address": {"city": "RACINE", "state": "WV", "street": "15 ASHFORD HILL RD", "postcode": "25165"}}},
{"geometry": {"type": "Point", "coordinates": [-81.8956443407, 38.558827201]}, "type": "Feature", "properties": {"collection_times": [{"days": "Mon-Fri", "time": "11:45am"}, {"days": "Sat", "time": "9:00am"}, {"days": "Sun", "time": "Closed"}], "id": "2516800000", "name": "USPS COLLECTION BOX - BLUE BOX", "address": {"city": "RED HOUSE", "state": "WV", "street": "11442 CHARLESTON RD", "postcode": "25168"}}},
{"geometry": {"type": "Point", "coordinates": [-81.9511523515, 38.5499342033]}, "type": "Feature", "properties": {"collection_times": [{"days": "Mon-Sat", "time": "9:00am"}, {"days": "Sun", "time": "Closed"}], "id": "2516800001", "name": "USPS COLLECTION BOX - BLUE BOX", "address": {"city": "RED HOUSE", "state": "WV", "street": "1 CAMELOT DR", "postcode": "25168"}}},
{"geometry": {"type": "Point", "coordinates": [-81.238668976, 38.0803470456]}, "type": "Feature", "properties": {"collection_times": [{"days": "Mon-Fri", "time": "11:45am"}, {"days": "Sat", "time": "11:00am"}, {"days": "Sun", "time": "Closed"}], "id": "2517300000", "name": "USPS COLLECTION BOX - BLUE BOX", "address": {"city": "ROBSON", "state": "WV", "street": "13759 DEEPWATER MOUNTAIN RD", "postcode": "25173"}}},
{"geometry": {"type": "Point", "coordinates": [-81.238668976, 38.0803470456]}, "type": "Feature", "properties": {"collection_times": [{"days": "Mon-Fri", "time": "11:30am"}, {"days": "Sat", "time": "11:00am"}, {"days": "Sun", "time": "Closed"}], "id": "2517300002", "name": "USPS COLLECTION BOX - PO LOBBY", "address": {"city": "ROBSON", "state": "WV", "street": "13759 DEEPWATER MOUNTAIN RD", "postcode": "25173"}}},
{"geometry": {"type": "Point", "coordinates": [-81.451077891, 37.850576732]}, "type": "Feature", "properties": {"collection_times": [{"days": "Mon-Fri", "time": "11:45am"}, {"days": "Sat", "time": "10:15am"}, {"days": "Sun", "time": "Closed"}], "id": "2517400000", "name": "USPS COLLECTION BOX - BLUE BOX", "address": {"city": "ROCK CREEK", "state": "WV", "street": "5762 COAL RIVER RD", "postcode": "25174"}}},
{"geometry": {"type": "Point", "coordinates": [-81.451077891, 37.850576732]}, "type": "Feature", "properties": {"collection_times": [{"days": "Mon-Fri", "time": "11:45am"}, {"days": "Sat", "time": "10:15am"}, {"days": "Sun", "time": "Closed"}], "id": "2517400001", "name": "USPS COLLECTION BOX - PO LOBBY", "address": {"city": "ROCK CREEK", "state": "WV", "street": "5762 COAL RIVER RD", "postcode": "25174"}}},
{"geometry": {"type": "Point", "coordinates": [-81.8281357664, 38.3882731972]}, "type": "Feature", "properties": {"collection_times": [{"days": "Mon-Fri", "time": "3:00pm"}, {"days": "Sat", "time": "10:00am"}, {"days": "Sun", "time": "Closed"}], "id": "2517700002", "name": "USPS COLLECTION BOX - BLUE BOX", "address": {"city": "SAINT ALBANS", "state": "WV", "street": "1443 MACCORKLE AVE", "postcode": "25177"}}},
{"geometry": {"type": "Point", "coordinates": [-81.7960221953, 38.3812093261]}, "type": "Feature", "properties": {"collection_times": [{"days": "Mon-Sat", "time": "10:00am"}, {"days": "Sun", "time": "Closed"}], "id": "2517700014", "name": "USPS COLLECTION BOX - BLUE BOX", "address": {"city": "SAINT ALBANS", "state": "WV", "street": "114 SPRUCE ST", "postcode": "25177"}}},
{"geometry": {"type": "Point", "coordinates": [-81.8060565756, 38.3843438632]}, "type": "Feature", "properties": {"collection_times": [{"days": "Mon-Sat", "time": "10:00am"}, {"days": "Sun", "time": "Closed"}], "id": "2517700016", "name": "USPS COLLECTION BOX - BLUE BOX", "address": {"city": "SAINT ALBANS", "state": "WV", "street": "2351 CLEVELAND AVE", "postcode": "25177"}}},
{"geometry": {"type": "Point", "coordinates": [-81.8396485714, 38.3860040663]}, "type": "Feature", "properties": {"collection_times": [{"days": "Mon-Sat", "time": "10:00am"}, {"days": "Sun", "time": "Closed"}], "id": "2517700018", "name": "USPS COLLECTION BOX - BLUE BOX", "address": {"city": "SAINT ALBANS", "state": "WV", "street": "1 KANAWHA TER", "postcode": "25177"}}},
{"geometry": {"type": "Point", "coordinates": [-81.8364473382, 38.3854198817]}, "type": "Feature", "properties": {"collection_times": [{"days": "Mon-Fri", "time": "3:00pm"}, {"days": "Sat", "time": "10:00am"}, {"days": "Sun", "time": "Closed"}], "id": "2517700019", "name": "USPS COLLECTION BOX - BLUE BOX", "address": {"city": "SAINT ALBANS", "state": "WV", "street": "100 KANAWHA TER", "postcode": "25177"}}},
{"geometry": {"type": "Point", "coordinates": [-81.8369931917, 38.3869189515]}, "type": "Feature", "properties": {"collection_times": [{"days": "Mon-Sat", "time": "10:00am"}, {"days": "Sun", "time": "Closed"}], "id": "2517700022", "name": "USPS COLLECTION BOX - BLUE BOX", "address": {"city": "SAINT ALBANS", "state": "WV", "street": "516 C ST", "postcode": "25177"}}},
{"geometry": {"type": "Point", "coordinates": [-81.8203098652, 38.3875009913]}, "type": "Feature", "properties": {"collection_times": [{"days": "Mon-Fri", "time": "3:00pm"}, {"days": "Sat", "time": "10:00am"}, {"days": "Sun", "time": "Closed"}], "id": "2517700029", "name": "USPS COLLECTION BOX - BLUE BOX", "address": {"city": "SAINT ALBANS", "state": "WV", "street": "103 BOONE ST", "postcode": "25177"}}},
{"geometry": {"type": "Point", "coordinates": [-81.82999684, 38.3886152148]}, "type": "Feature", "properties": {"collection_times": [{"days": "Mon-Sat", "time": "10:00am"}, {"days": "Sun", "time": "Closed"}], "id": "2517700030", "name": "USPS COLLECTION BOX - BLUE BOX", "address": {"city": "SAINT ALBANS", "state": "WV", "street": "604 MACCORKLE AVE SW", "postcode": "25177"}}},
{"geometry": {"type": "Point", "coordinates": [-81.8383843209, 38.3890735797]}, "type": "Feature", "properties": {"collection_times": [{"days": "Mon-Fri", "time": "4:45pm"}, {"days": "Sat", "time": "3:00pm"}, {"days": "Sun", "time": "Closed"}], "id": "2517700032", "name": "USPS COLLECTION BOX - BLUE BOX", "address": {"city": "SAINT ALBANS", "state": "WV", "street": "431 B ST", "postcode": "25177"}}},
{"geometry": {"type": "Point", "coordinates": [-81.8383843209, 38.3890735797]}, "type": "Feature", "properties": {"collection_times": [{"days": "Mon-Fri", "time": "4:45pm"}, {"days": "Sat", "time": "3:00pm"}, {"days": "Sun", "time": "Closed"}], "id": "2517700033", "name": "USPS COLLECTION BOX - BLUE BOX", "address": {"city": "SAINT ALBANS", "state": "WV", "street": "431 B ST", "postcode": "25177"}}},
{"geometry": {"type": "Point", "coordinates": [-81.8383843209, 38.3890735797]}, "type": "Feature", "properties": {"collection_times": [{"days": "Mon-Fri", "time": "4:45pm"}, {"days": "Sat", "time": "3:00pm"}, {"days": "Sun", "time": "Closed"}], "id": "2517700034", "name": "USPS COLLECTION BOX - PO LOBBY", "address": {"city": "SAINT ALBANS", "state": "WV", "street": "431 B ST", "postcode": "25177"}}},
{"geometry": {"type": "Point", "coordinates": [-81.832364248, 38.3855177316]}, "type": "Feature", "properties": {"collection_times": [{"days": "Mon-Fri", "time": "3:00pm"}, {"days": "Sat", "time": "10:00am"}, {"days": "Sun", "time": "Closed"}], "id": "2517700036", "name": "USPS COLLECTION BOX - BLUE BOX", "address": {"city": "SAINT ALBANS", "state": "WV", "street": "520 6TH AVE", "postcode": "25177"}}},
{"geometry": {"type": "Point", "coordinates": [-81.6223153026, 38.1341561387]}, "type": "Feature", "properties": {"collection_times": [{"days": "Mon-Fri", "time": "2:45pm"}, {"days": "Sat", "time": "10:30am"}, {"days": "Sun", "time": "Closed"}], "id": "2518100000", "name": "USPS COLLECTION BOX - BLUE BOX", "address": {"city": "SETH", "state": "WV", "street": "10117 COAL RIVER RD", "postcode": "25181"}}},
{"geometry": {"type": "Point", "coordinates": [-81.6223153026, 38.1341561387]}, "type": "Feature", "properties": {"collection_times": [{"days": "Mon-Fri", "time": "2:45pm"}, {"days": "Sat", "time": "10:30am"}, {"days": "Sun", "time": "Closed"}], "id": "2518100001", "name": "USPS COLLECTION BOX - PO LOBBY", "address": {"city": "SETH", "state": "WV", "street": "10117 COAL RIVER RD", "postcode": "25181"}}},
{"geometry": {"type": "Point", "coordinates": [-81.828174102, 37.9181426699]}, "type": "Feature", "properties": {"collection_times": [{"days": "Mon-Fri", "time": "12:45pm"}, {"days": "Sat", "time": "10:45am"}, {"days": "Sun", "time": "Closed"}], "id": "2518300000", "name": "USPS COLLECTION BOX - BLUE BOX", "address": {"city": "SHARPLES", "state": "WV", "street": "16547 BLAIR MOUNTAIN HWY", "postcode": "25183"}}},
{"geometry": {"type": "Point", "coordinates": [-81.828174102, 37.9181426699]}, "type": "Feature", "properties": {"collection_times": [{"days": "Mon-Fri", "time": "12:45pm"}, {"days": "Sat", "time": "10:45am"}, {"days": "Sun", "time": "Closed"}], "id": "2518300001", "name": "USPS COLLECTION BOX - PO LOBBY", "address": {"city": "SHARPLES", "state": "WV", "street": "16547 BLAIR MOUNTAIN HWY", "postcode": "25183"}}},
{"geometry": {"type": "Point", "coordinates": [-81.3068464872, 38.1806899907]}, "type": "Feature", "properties": {"collection_times": [{"days": "Mon-Fri", "time": "4:00pm"}, {"days": "Sat", "time": "11:00am"}, {"days": "Sun", "time": "Closed"}], "id": "2518600000", "name": "USPS COLLECTION BOX - BLUE BOX", "address": {"city": "SMITHERS", "state": "WV", "street": "314 MICHIGAN AVE", "postcode": "25186"}}},
{"geometry": {"type": "Point", "coordinates": [-81.3068464872, 38.1806899907]}, "type": "Feature", "properties": {"collection_times": [{"days": "Mon-Fri", "time": "4:00pm"}, {"days": "Sat", "time": "11:00am"}, {"days": "Sun", "time": "Closed"}], "id": "2518600001", "name": "USPS COLLECTION BOX - PO LOBBY", "address": {"city": "SMITHERS", "state": "WV", "street": "314 MICHIGAN AVE", "postcode": "25186"}}},
{"geometry": {"type": "Point", "coordinates": [-81.3045870543, 38.1744007952]}, "type": "Feature", "properties": {"collection_times": [{"days": "Mon-Fri", "time": "12:30pm"}, {"days": "Sat", "time": "12:00pm"}, {"days": "Sun", "time": "Closed"}], "id": "2518600002", "name": "USPS COLLECTION BOX - BLUE BOX", "address": {"city": "SMITHERS", "state": "WV", "street": "74 MICHIGAN AVE", "postcode": "25186"}}},
{"geometry": {"type": "Point", "coordinates": [-82.0081079991, 38.7148677566]}, "type": "Feature", "properties": {"collection_times": [{"days": "Mon-Fri", "time": "9:45am"}, {"days": "Sat", "time": "9:15am"}, {"days": "Sun", "time": "Closed"}], "id": "2518700000", "name": "USPS COLLECTION BOX - BLUE BOX", "address": {"city": "SOUTHSIDE", "state": "WV", "street": "26460 KANAWHA VALLEY RD", "postcode": "25187"}}},
{"geometry": {"type": "Point", "coordinates": [-81.5386166957, 38.0008579317]}, "type": "Feature", "properties": {"collection_times": [{"days": "Mon-Fri", "time": "11:45am"}, {"days": "Sat", "time": "10:30am"}, {"days": "Sun", "time": "Closed"}], "id": "2519300000", "name": "USPS COLLECTION BOX - BLUE BOX", "address": {"city": "SYLVESTER", "state": "WV", "street": "32832 COAL RIVER RD", "postcode": "25193"}}},
{"geometry": {"type": "Point", "coordinates": [-81.5386166957, 38.0008579317]}, "type": "Feature", "properties": {"collection_times": [{"days": "Mon-Fri", "time": "11:45am"}, {"days": "Sat", "time": "10:30am"}, {"days": "Sun", "time": "Closed"}], "id": "2519300001", "name": "USPS COLLECTION BOX - PO LOBBY", "address": {"city": "SYLVESTER", "state": "WV", "street": "32832 COAL RIVER RD", "postcode": "25193"}}}
]}
