{"type": "FeatureCollection", "features": [
{"geometry": {"type": "Point", "coordinates": [-81.4930847984, 38.3335731036]}, "type": "Feature", "properties": {"collection_times": [{"days": "Mon-Fri", "time": "11:45am"}, {"days": "Sat", "time": "11:00am"}, {"days": "Sun", "time": "Closed"}], "id": "2520100001", "name": "USPS COLLECTION BOX - BLUE BOX", "address": {"city": "TAD", "state": "WV", "street": "75 PATTERSON DR", "postcode": "25201"}}},
{"geometry": {"type": "Point", "coordinates": [-81.4930847984, 38.3335731036]}, "type": "Feature", "properties": {"collection_times": [{"days": "Mon-Fri", "time": "11:45am"}, {"days": "Sat", "time": "11:00am"}, {"days": "Sun", "time": "Closed"}], "id": "2520100002", "name": "USPS COLLECTION BOX - PO LOBBY", "address": {"city": "TAD", "state": "WV", "street": "75 PATTERSON DR", "postcode": "25201"}}},
{"geometry": {"type": "Point", "coordinates": [-81.8571718279, 38.343861314]}, "type": "Feature", "properties": {"collection_times": [{"days": "Mon-Fri", "time": "3:30pm"}, {"days": "Sat", "time": "11:00am"}, {"days": "Sun", "time": "Closed"}], "id": "2520200000", "name": "USPS COLLECTION BOX - BLUE BOX", "address": {"city": "TORNADO", "state": "WV", "street": "7920 COAL RIVER RD", "postcode": "25202"}}},
{"geometry": {"type": "Point", "coordinates": [-81.8571718279, 38.343861314]}, "type": "Feature", "properties": {"collection_times": [{"days": "Mon-Fri", "time": "3:30pm"}, {"days": "Sat", "time": "11:00am"}, {"days": "Sun", "time": "Closed"}], "id": "2520200001", "name": "USPS COLLECTION BOX - PO LOBBY", "address": {"city": "TORNADO", "state": "WV", "street": "7920 COAL RIVER RD", "postcode": "25202"}}},
{"geometry": {"type": "Point", "coordinates": [-81.8781303238, 38.0327190356]}, "type": "Feature", "properties": {"collection_times": [{"days": "Mon-Sat", "time": "11:30am"}, {"days": "Sun", "time": "Closed"}], "id": "2520300000", "name": "USPS COLLECTION BOX - BLUE BOX", "address": {"city": "TURTLE CREEK", "state": "WV", "street": "83 OAKMONT DR", "postcode": "25203"}}},
{"geometry": {"type": "Point", "coordinates": [-81.8781303238, 38.0327190356]}, "type": "Feature", "properties": {"collection_times": [{"days": "Mon-Sat", "time": "11:30am"}, {"days": "Sun", "time": "Closed"}], "id": "2520300001", "name": "USPS COLLECTION BOX - PO LOBBY", "address": {"city": "TURTLE CREEK", "state": "WV", "street": "83 OAKMONT DR", "postcode": "25203"}}},
{"geometry": {"type": "Point", "coordinates": [-81.6309634591, 37.9286138554]}, "type": "Feature", "properties": {"collection_times": [{"days": "Mon-Fri", "time": "1:45pm"}, {"days": "Sat", "time": "11:45am"}, {"days": "Sun", "time": "Closed"}], "id": "2520400000", "name": "USPS COLLECTION BOX - BLUE BOX", "address": {"city": "TWILIGHT", "state": "WV", "street": "71 POST OFFICE RD", "postcode": "25204"}}},
{"geometry": {"type": "Point", "coordinates": [-81.6309634591, 37.9286138554]}, "type": "Feature", "properties": {"collection_times": [{"days": "Mon-Fri", "time": "1:45pm"}, {"days": "Sat", "time": "11:45am"}, {"days": "Sun", "time": "Closed"}], "id": "2520400001", "name": "USPS COLLECTION BOX - PO LOBBY", "address": {"city": "TWILIGHT", "state": "WV", "street": "71 POST OFFICE RD", "postcode": "25204"}}},
{"geometry": {"type": "Point", "coordinates": [-81.8253353736, 38.0579280241]}, "type": "Feature", "properties": {"collection_times": [{"days": "Mon-Fri", "time": "11:45am"}, {"days": "Sat", "time": "11:00am"}, {"days": "Sun", "time": "Closed"}], "id": "2520500000", "name": "USPS COLLECTION BOX - BLUE BOX", "address": {"city": "UNEEDA", "state": "WV", "street": "2140 POND FORK RD", "postcode": "25205"}}},
{"geometry": {"type": "Point", "coordinates": [-81.8253353736, 38.0579280241]}, "type": "Feature", "properties": {"collection_times": [{"days": "Mon-Fri", "time": "11:45am"}, {"days": "Sat", "time": "11:15am"}, {"days": "Sun", "time": "Closed"}], "id": "2520500001", "name": "USPS COLLECTION BOX - PO LOBBY", "address": {"city": "UNEEDA", "state": "WV", "street": "2140 POND FORK RD", "postcode": "25205"}}},
{"geometry": {"type": "Point", "coordinates": [-81.6790115667, 37.9046636825]}, "type": "Feature", "properties": {"collection_times": [{"days": "Mon-Fri", "time": "3:00pm"}, {"days": "Sat", "time": "8:30am"}, {"days": "Sun", "time": "Closed"}], "id": "2520600000", "name": "USPS COLLECTION BOX - BLUE BOX", "address": {"city": "VAN", "state": "WV", "street": "20042 POND FORK RD", "postcode": "25206"}}},
{"geometry": {"type": "Point", "coordinates": [-81.6790115667, 37.9046636825]}, "type": "Feature", "properties": {"collection_times": [{"days": "Mon-Fri", "time": "3:00pm"}, {"days": "Sat", "time": "8:30am"}, {"days": "Sun", "time": "Closed"}], "id": "2520600001", "name": "USPS COLLECTION BOX - PO LOBBY", "address": {"city": "VAN", "state": "WV", "street": "20042 POND FORK RD", "postcode": "25206"}}},
{"geometry": {"type": "Point", "coordinates": [-81.5906685754, 37.8386540108]}, "type": "Feature", "properties": {"collection_times": [{"days": "Mon-Fri", "time": "2:30pm"}, {"days": "Sat", "time": "9:00am"}, {"days": "Sun", "time": "Closed"}], "id": "2520800000", "name": "USPS COLLECTION BOX - BLUE BOX", "address": {"city": "WHARTON", "state": "WV", "street": "35665 POND FORK RD", "postcode": "25208"}}},
{"geometry": {"type": "Point", "coordinates": [-81.5906685754, 37.8386540108]}, "type": "Feature", "properties": {"collection_times": [{"days": "Mon-Sat", "time": "10:00am"}, {"days": "Sun", "time": "Closed"}], "id": "2520800001", "name": "USPS COLLECTION BOX - BLUE BOX", "address": {"city": "WHARTON", "state": "WV", "street": "157 MCKINLEY ST", "postcode": "25208"}}},
{"geometry": {"type": "Point", "coordinates": [-81.5906685754, 37.8386540108]}, "type": "Feature", "properties": {"collection_times": [{"days": "Mon-Fri", "time": "3:00pm"}, {"days": "Sat", "time": "11:45am"}, {"days": "Sun", "time": "Closed"}], "id": "2520800002", "name": "USPS COLLECTION BOX - PO LOBBY", "address": {"city": "WHARTON", "state": "WV", "street": "35665 POND FORK RD", "postcode": "25208"}}},
{"geometry": {"type": "Point", "coordinates": [-81.4590584181, 37.9327241864]}, "type": "Feature", "properties": {"collection_times": [{"days": "Mon-Fri", "time": "4:45pm"}, {"days": "Sat", "time": "1:00pm"}, {"days": "Sun", "time": "Closed"}], "id": "2520900000", "name": "USPS COLLECTION BOX - BLUE BOX", "address": {"city": "WHITESVILLE", "state": "WV", "street": "39140 COAL RIVER RD", "postcode": "25209"}}},
{"geometry": {"type": "Point", "coordinates": [-81.4590584181, 37.9327241864]}, "type": "Feature", "properties": {"collection_times": [{"days": "Mon-Fri", "time": "4:30pm"}, {"days": "Sat", "time": "11:30am"}, {"days": "Sun", "time": "Closed"}], "id": "2520900001", "name": "USPS COLLECTION BOX - BLUE BOX", "address": {"city": "WHITESVILLE", "state": "WV", "street": "157 LEWIS ST", "postcode": "25209"}}},
{"geometry": {"type": "Point", "coordinates": [-81.4590584181, 37.9327241864]}, "type": "Feature", "properties": {"collection_times": [{"days": "Mon-Fri", "time": "4:30pm"}, {"days": "Sat", "time": "11:30am"}, {"days": "Sun", "time": "Closed"}], "id": "2520900002", "name": "USPS COLLECTION BOX - BLUE BOX", "address": {"city": "WHITESVILLE", "state": "WV", "street": "157 LEWIS ST", "postcode": "25209"}}},
{"geometry": {"type": "Point", "coordinates": [-81.4590584181, 37.9327241864]}, "type": "Feature", "properties": {"collection_times": [{"days": "Mon-Fri", "time": "4:30pm"}, {"days": "Sat", "time": "11:30am"}, {"days": "Sun", "time": "Closed"}], "id": "2520900003", "name": "USPS COLLECTION BOX - PO LOBBY", "address": {"city": "WHITESVILLE", "state": "WV", "street": "157 LEWIS ST", "postcode": "25209"}}},
{"geometry": {"type": "Point", "coordinates": [-81.4590584181, 37.9327241864]}, "type": "Feature", "properties": {"collection_times": [{"days": "Mon-Fri", "time": "4:30pm"}, {"days": "Sat", "time": "11:30am"}, {"days": "Sun", "time": "Closed"}], "id": "2520900004", "name": "USPS COLLECTION BOX - PO LOBBY", "address": {"city": "WHITESVILLE", "state": "WV", "street": "157 LEWIS ST", "postcode": "25209"}}},
{"geometry": {"type": "Point", "coordinates": [-80.8573559653, 38.4662303794]}, "type": "Feature", "properties": {"collection_times": [{"days": "Mon-Sat", "time": "11:00am"}, {"days": "Sun", "time": "Closed"}], "id": "2521100000", "name": "USPS COLLECTION BOX - PO LOBBY", "address": {"city": "WIDEN", "state": "WV", "street": "PO BOX 9998", "postcode": "25211"}}},
{"geometry": {"type": "Point", "coordinates": [-80.8573559653, 38.4662303794]}, "type": "Feature", "properties": {"collection_times": [{"days": "Mon-Sat", "time": "11:00am"}, {"days": "Sun", "time": "Closed"}], "id": "2521100001", "name": "USPS COLLECTION BOX - BLUE BOX", "address": {"city": "WIDEN", "state": "WV", "street": "PO BOX 9998", "postcode": "25211"}}},
{"geometry": {"type": "Point", "coordinates": [-81.8362784466, 38.4783043467]}, "type": "Feature", "properties": {"collection_times": [{"days": "Mon-Fri", "time": "4:30pm"}, {"days": "Sat", "time": "11:30am"}, {"days": "Sun", "time": "Closed"}], "id": "2521300000", "name": "USPS COLLECTION BOX - BLUE BOX", "address": {"city": "WINFIELD", "state": "WV", "street": "3278 WINFIELD RD", "postcode": "25213"}}},
{"geometry": {"type": "Point", "coordinates": [-81.8362784466, 38.4783043467]}, "type": "Feature", "properties": {"collection_times": [{"days": "Mon-Fri", "time": "4:30pm"}, {"days": "Sat", "time": "11:30am"}, {"days": "Sun", "time": "Closed"}], "id": "2521300001", "name": "USPS COLLECTION BOX - PO LOBBY", "address": {"city": "WINFIELD", "state": "WV", "street": "3278 WINFIELD RD", "postcode": "25213"}}},
{"geometry": {"type": "Point", "coordinates": [-81.5526071657, 38.1636642655]}, "type": "Feature", "properties": {"collection_times": [{"days": "Mon-Fri", "time": "11:45am"}, {"days": "Sat", "time": "10:45am"}, {"days": "Sun", "time": "Closed"}], "id": "2521400000", "name": "USPS COLLECTION BOX - BLUE BOX", "address": {"city": "WINIFREDE", "state": "WV", "street": "303 FIELDS CREEK RD", "postcode": "25214"}}},
{"geometry": {"type": "Point", "coordinates": [-81.5526071657, 38.1636642655]}, "type": "Feature", "properties": {"collection_times": [{"days": "Mon-Fri", "time": "11:45am"}, {"days": "Sat", "time": "10:45am"}, {"days": "Sun", "time": "Closed"}], "id": "2521400001", "name": "USPS COLLECTION BOX - PO LOBBY", "address": {"city": "WINIFREDE", "state": "WV", "street": "303 FIELDS CREEK RD", "postcode": "25214"}}},
{"geometry": {"type": "Point", "coordinates": [-81.1488356938, 38.838751685]}, "type": "Feature", "properties": {"collection_times": [{"days": "Mon-Fri", "time": "2:30pm"}, {"days": "Sat", "time": "10:30am"}, {"days": "Sun", "time": "Closed"}], "id": "2523400000", "name": "USPS COLLECTION BOX - BLUE BOX", "address": {"city": "ARNOLDSBURG", "state": "WV", "street": "21 HAYS ST", "postcode": "25234"}}},
{"geometry": {"type": "Point", "coordinates": [-81.1488356938, 38.838751685]}, "type": "Feature", "properties": {"collection_times": [{"days": "Mon-Fri", "time": "2:30pm"}, {"days": "Sat", "time": "10:30am"}, {"days": "Sun", "time": "Closed"}], "id": "2523400001", "name": "USPS COLLECTION BOX - PO LOBBY", "address": {"city": "ARNOLDSBURG", "state": "WV", "street": "21 HAYS ST", "postcode": "25234"}}},
{"geometry": {"type": "Point", "coordinates": [-81.0767152258, 38.6553056073]}, "type": "Feature", "properties": {"collection_times": [{"days": "Mon-Fri", "time": "11:45am"}, {"days": "Sat", "time": "11:00am"}, {"days": "Sun", "time": "Closed"}], "id": "2523500000", "name": "USPS COLLECTION BOX - BLUE BOX", "address": {"city": "CHLOE", "state": "WV", "street": "22233 S CALHOUN HWY", "postcode": "25235"}}},
{"geometry": {"type": "Point", "coordinates": [-81.0767152258, 38.6553056073]}, "type": "Feature", "properties": {"collection_times": [{"days": "Mon-Fri", "time": "11:45am"}, {"days": "Sat", "time": "11:00am"}, {"days": "Sun", "time": "Closed"}], "id": "2523500001", "name": "USPS COLLECTION BOX - PO LOBBY", "address": {"city": "CHLOE", "state": "WV", "street": "22233 S CALHOUN HWY", "postcode": "25235"}}},
{"geometry": {"type": "Point", "coordinates": [-81.8200216376, 38.857427904]}, "type": "Feature", "properties": {"collection_times": [{"days": "Mon-Fri", "time": "1:30pm"}, {"days": "Sat", "time": "10:00am"}, {"days": "Sun", "time": "Closed"}], "id": "2523900000", "name": "USPS COLLECTION BOX - BLUE BOX", "address": {"city": "COTTAGEVILLE", "state": "WV", "street": "53 OLE MILL RD", "postcode": "25239"}}},
{"geometry": {"type": "Point", "coordinates": [-81.8200216376, 38.857427904]}, "type": "Feature", "properties": {"collection_times": [{"days": "Mon-Fri", "time": "1:30pm"}, {"days": "Sat", "time": "10:00am"}, {"days": "Sun", "time": "Closed"}], "id": "2523900001", "name": "USPS COLLECTION BOX - PO LOBBY", "address": {"city": "COTTAGEVILLE", "state": "WV", "street": "53 OLE MILL RD", "postcode": "25239"}}},
{"geometry": {"type": "Point", "coordinates": [-81.779049792, 38.821123639]}, "type": "Feature", "properties": {"collection_times": [{"days": "Mon-Fri", "time": "4:00pm"}, {"days": "Sat", "time": "11:45am"}, {"days": "Sun", "time": "Closed"}], "id": "2524100000", "name": "USPS COLLECTION BOX - BLUE BOX", "address": {"city": "EVANS", "state": "WV", "street": "116 EVANS RD", "postcode": "25241"}}},
{"geometry": {"type": "Point", "coordinates": [-81.779049792, 38.821123639]}, "type": "Feature", "properties": {"collection_times": [{"days": "Mon-Fri", "time": "4:00pm"}, {"days": "Sat", "time": "11:45am"}, {"days": "Sun", "time": "Closed"}], "id": "2524100001", "name": "USPS COLLECTION BOX - PO LOBBY", "address": {"city": "EVANS", "state": "WV", "street": "116 EVANS RD", "postcode": "25241"}}},
{"geometry": {"type": "Point", "coordinates": [-81.4034135034, 38.6978887634]}, "type": "Feature", "properties": {"collection_times": [{"days": "Mon-Fri", "time": "11:15am"}, {"days": "Sat", "time": "9:45am"}, {"days": "Sun", "time": "Closed"}], "id": "2524300000", "name": "USPS COLLECTION BOX - BLUE BOX", "address": {"city": "GANDEEVILLE", "state": "WV", "street": "3886 CHARLESTON RD", "postcode": "25243"}}},
{"geometry": {"type": "Point", "coordinates": [-81.4034135034, 38.6978887634]}, "type": "Feature", "properties": {"collection_times": [{"days": "Mon-Fri", "time": "11:15am"}, {"days": "Sat", "time": "9:45am"}, {"days": "Sun", "time": "Closed"}], "id": "2524300001", "name": "USPS COLLECTION BOX - PO LOBBY", "address": {"city": "GANDEEVILLE", "state": "WV", "street": "3886 CHARLESTON RD", "postcode": "25243"}}},
{"geometry": {"type": "Point", "coordinates": [-81.5701339696, 38.8052794109]}, "type": "Feature", "properties": {"collection_times": [{"days": "Mon-Sat", "time": "12:00pm"}, {"days": "Sun", "time": "Closed"}], "id": "2524400000", "name": "USPS COLLECTION BOX - BLUE BOX", "address": {"city": "GAY", "state": "WV", "street": "7345 GAY RD", "postcode": "25244"}}},
{"geometry": {"type": "Point", "coordinates": [-81.5701339696, 38.8052794109]}, "type": "Feature", "properties": {"collection_times": [{"days": "Mon-Sat", "time": "12:00pm"}, {"days": "Sun", "time": "Closed"}], "id": "2524400001", "name": "USPS COLLECTION BOX - PO LOBBY", "address": {"city": "GAY", "state": "WV", "street": "7345 GAY RD", "postcode": "25244"}}},
{"geometry": {"type": "Point", "coordinates": [-81.9911622963, 39.0060235462]}, "type": "Feature", "properties": {"collection_times": [{"days": "Mon-Fri", "time": "11:45am"}, {"days": "Sat", "time": "9:45am"}, {"days": "Sun", "time": "Closed"}], "id": "2524700000", "name": "USPS COLLECTION BOX - BLUE BOX", "address": {"city": "HARTFORD", "state": "WV", "street": "209 HEALEY ST", "postcode": "25247"}}},
{"geometry": {"type": "Point", "coordinates": [-81.9911622963, 39.0060235462]}, "type": "Feature", "properties": {"collection_times": [{"days": "Mon-Fri", "time": "11:45am"}, {"days": "Sat", "time": "9:45am"}, {"days": "Sun", "time": "Closed"}], "id": "2524700001", "name": "USPS COLLECTION BOX - PO LOBBY", "address": {"city": "HARTFORD", "state": "WV", "street": "209 HEALEY ST", "postcode": "25247"}}},
{"geometry": {"type": "Point", "coordinates": [-81.6209796029, 38.6435358243]}, "type": "Feature", "properties": {"collection_times": [{"days": "Mon-Fri", "time": "4:30pm"}, {"days": "Sat", "time": "11:00am"}, {"days": "Sun", "time": "Closed"}], "id": "2524800000", "name": "USPS COLLECTION BOX - BLUE BOX", "address": {"city": "KENNA", "state": "WV", "street": "100 KENTUCK RD", "postcode": "25248"}}},
{"geometry": {"type": "Point", "coordinates": [-81.6209796029, 38.6435358243]}, "type": "Feature", "properties": {"collection_times": [{"days": "Mon-Fri", "time": "4:30pm"}, {"days": "Sat", "time": "11:30am"}, {"days": "Sun", "time": "Closed"}], "id": "2524800001", "name": "USPS COLLECTION BOX - PO LOBBY", "address": {"city": "KENNA", "state": "WV", "street": "100 KENTUCK RD", "postcode": "25248"}}},
{"geometry": {"type": "Point", "coordinates": [-81.2493686258, 38.6201118323]}, "type": "Feature", "properties": {"collection_times": [{"days": "Mon-Fri", "time": "12:45pm"}, {"days": "Sat", "time": "12:15pm"}, {"days": "Sun", "time": "Closed"}], "id": "2525100000", "name": "USPS COLLECTION BOX - BLUE BOX", "address": {"city": "LEFT HAND", "state": "WV", "street": "9346 CLAY RD", "postcode": "25251"}}},
{"geometry": {"type": "Point", "coordinates": [-81.5404991279, 38.9195909635]}, "type": "Feature", "properties": {"collection_times": [{"days": "Mon-Fri", "time": "11:45am"}, {"days": "Sat", "time": "9:30am"}, {"days": "Sun", "time": "Closed"}], "id": "2525200000", "name": "USPS COLLECTION BOX - BLUE BOX", "address": {"city": "LEROY", "state": "WV", "street": "4327 LIVERPOOL RD", "postcode": "25252"}}},
{"geometry": {"type": "Point", "coordinates": [-81.53016, 38.89487]}, "type": "Feature", "properties": {"collection_times": [{"days": "Mon-Fri", "time": "11:15am"}, {"days": "Sat", "time": "9:30am"}, {"days": "Sun", "time": "Closed"}], "id": "2525200001", "name": "USPS COLLECTION BOX - PO LOBBY", "address": {"city": "LEROY", "state": "WV", "street": "4327 LIVERPOOL RD", "postcode": "25252"}}},
{"geometry": {"type": "Point", "coordinates": [-81.9768336794, 38.8834311113]}, "type": "Feature", "properties": {"collection_times": [{"days": "Mon-Fri", "time": "11:45am"}, {"days": "Sat", "time": "12:15pm"}, {"days": "Sun", "time": "Closed"}], "id": "2525300000", "name": "USPS COLLECTION BOX - BLUE BOX", "address": {"city": "LETART", "state": "WV", "street": "23758 SANDHILL RD", "postcode": "25253"}}},
{"geometry": {"type": "Point", "coordinates": [-81.9768336794, 38.8834311113]}, "type": "Feature", "properties": {"collection_times": [{"days": "Mon-Fri", "time": "11:45am"}, {"days": "Sat", "time": "12:15pm"}, {"days": "Sun", "time": "Closed"}], "id": "2525300001", "name": "USPS COLLECTION BOX - PO LOBBY", "address": {"city": "LETART", "state": "WV", "street": "23758 SANDHILL RD", "postcode": "25253"}}},
{"geometry": {"type": "Point", "coordinates": [-82.0303189906, 39.0208230827]}, "type": "Feature", "properties": {"collection_times": [{"days": "Mon-Fri", "time": "4:15pm"}, {"days": "Sat", "time": "11:00am"}, {"days": "Sun", "time": "Closed"}], "id": "2526000000", "name": "USPS COLLECTION BOX - BLUE BOX", "address": {"city": "MASON", "state": "WV", "street": "5 N 2ND ST", "postcode": "25260"}}},
{"geometry": {"type": "Point", "coordinates": [-82.0303189906, 39.0208230827]}, "type": "Feature", "properties": {"collection_times": [{"days": "Mon-Fri", "time": "4:15pm"}, {"days": "Sat", "time": "11:00am"}, {"days": "Sun", "time": "Closed"}], "id": "2526000001", "name": "USPS COLLECTION BOX - PO LOBBY", "address": {"city": "MASON", "state": "WV", "street": "5 N 2ND ST", "postcode": "25260"}}},
{"geometry": {"type": "Point", "coordinates": [-81.075577177, 38.8580587325]}, "type": "Feature", "properties": {"collection_times": [{"days": "Mon-Fri", "time": "11:00am"}, {"days": "Sat", "time": "10:00am"}, {"days": "Sun", "time": "Closed"}], "id": "2526100000", "name": "USPS COLLECTION BOX - BLUE BOX", "address": {"city": "MILLSTONE", "state": "WV", "street": "11376 S CALHOUN HWY", "postcode": "25261"}}},
{"geometry": {"type": "Point", "coordinates": [-81.075577177, 38.8580587325]}, "type": "Feature", "properties": {"collection_times": [{"days": "Mon-Fri", "time": "11:00am"}, {"days": "Sat", "time": "10:00am"}, {"days": "Sun", "time": "Closed"}], "id": "2526100001", "name": "USPS COLLECTION BOX - PO LOBBY", "address": {"city": "MILLSTONE", "state": "WV", "street": "11376 S CALHOUN HWY", "postcode": "25261"}}},
{"geometry": {"type": "Point", "coordinates": [-81.810918668, 38.9123099874]}, "type": "Feature", "properties": {"collection_times": [{"days": "Mon-Fri", "time": "4:45pm"}, {"days": "Sat", "time": "11:45am"}, {"days": "Sun", "time": "Closed"}], "id": "2526200000", "name": "USPS COLLECTION BOX - BLUE BOX", "address": {"city": "MILLWOOD", "state": "WV", "street": "23 DANDELION DR", "postcode": "25262"}}},
{"geometry": {"type": "Point", "coordinates": [-81.810918668, 38.9123099874]}, "type": "Feature", "properties": {"collection_times": [{"days": "Mon-Fri", "time": "4:45pm"}, {"days": "Sat", "time": "11:45am"}, {"days": "Sun", "time": "Closed"}], "id": "2526200001", "name": "USPS COLLECTION BOX - PO LOBBY", "address": {"city": "MILLWOOD", "state": "WV", "street": "23 DANDELION DR", "postcode": "25262"}}},
{"geometry": {"type": "Point", "coordinates": [-81.9704955415, 38.9859621445]}, "type": "Feature", "properties": {"collection_times": [{"days": "Mon-Fri", "time": "3:45pm"}, {"days": "Sat", "time": "11:00am"}, {"days": "Sun", "time": "Closed"}], "id": "2526500000", "name": "USPS COLLECTION BOX - BLUE BOX", "address": {"city": "NEW HAVEN", "state": "WV", "street": "606 5TH ST", "postcode": "25265"}}},
{"geometry": {"type": "Point", "coordinates": [-81.9704955415, 38.9859621445]}, "type": "Feature", "properties": {"collection_times": [{"days": "Mon-Fri", "time": "3:45pm"}, {"days": "Sat", "time": "11:00am"}, {"days": "Sun", "time": "Closed"}], "id": "2526500001", "name": "USPS COLLECTION BOX - PO LOBBY", "address": {"city": "NEW HAVEN", "state": "WV", "street": "606 5TH ST", "postcode": "25265"}}},
{"geometry": {"type": "Point", "coordinates": [-81.1830654585, 38.5922232192]}, "type": "Feature", "properties": {"collection_times": [{"days": "Mon-Fri", "time": "11:45am"}, {"days": "Sat", "time": "11:00am"}, {"days": "Sun", "time": "Closed"}], "id": "2526600000", "name": "USPS COLLECTION BOX - BLUE BOX", "address": {"city": "NEWTON", "state": "WV", "street": "12402 CLAY RD", "postcode": "25266"}}},
{"geometry": {"type": "Point", "coordinates": [-81.1830654585, 38.5922232192]}, "type": "Feature", "properties": {"collection_times": [{"days": "Mon-Fri", "time": "11:45am"}, {"days": "Sat", "time": "11:00am"}, {"days": "Sun", "time": "Closed"}], "id": "2526600001", "name": "USPS COLLECTION BOX - PO LOBBY", "address": {"city": "NEWTON", "state": "WV", "street": "12402 CLAY RD", "postcode": "25266"}}},
{"geometry": {"type": "Point", "coordinates": [-80.9488218421, 38.8705900563]}, "type": "Feature", "properties": {"collection_times": [{"days": "Mon-Fri", "time": "2:30pm"}, {"days": "Sat", "time": "11:00am"}, {"days": "Sun", "time": "Closed"}], "id": "2526700000", "name": "USPS COLLECTION BOX - BLUE BOX", "address": {"city": "NORMANTOWN", "state": "WV", "street": "80 GASSAWAY RD", "postcode": "25267"}}},
{"geometry": {"type": "Point", "coordinates": [-80.9488218421, 38.8705900563]}, "type": "Feature", "properties": {"collection_times": [{"days": "Mon-Fri", "time": "2:45pm"}, {"days": "Sat", "time": "11:00am"}, {"days": "Sun", "time": "Closed"}], "id": "2526700001", "name": "USPS COLLECTION BOX - PO LOBBY", "address": {"city": "NORMANTOWN", "state": "WV", "street": "80 GASSAWAY RD", "postcode": "25267"}}},
{"geometry": {"type": "Point", "coordinates": [-81.7108070607, 38.8188187146]}, "type": "Feature", "properties": {"collection_times": [{"days": "Mon-Fri", "time": "4:30pm"}, {"days": "Sat", "time": "12:00pm"}, {"days": "Sun", "time": "Closed"}], "id": "2527100000", "name": "USPS COLLECTION BOX - BLUE BOX", "address": {"city": "RIPLEY", "state": "WV", "street": "114 MAIN ST W", "postcode": "25271"}}},
{"geometry": {"type": "Point", "coordinates": [-81.7091983115, 38.8096623243]}, "type": "Feature", "properties": {"collection_times": [{"days": "Mon-Fri", "time": "11:00am"}, {"days": "Sat", "time": "10:00am"}, {"days": "Sun", "time": "Closed"}], "id": "2527100003", "name": "USPS COLLECTION BOX - BLUE BOX", "address": {"city": "RIPLEY", "state": "WV", "street": "1 TANGLEWOOD VLG", "postcode": "25271"}}},
{"geometry": {"type": "Point", "coordinates": [-81.7034621546, 38.8107471623]}, "type": "Feature", "properties": {"collection_times": [{"days": "Mon-Fri", "time": "11:00am"}, {"days": "Sat", "time": "10:00am"}, {"days": "Sun", "time": "Closed"}], "id": "2527100005", "name": "USPS COLLECTION BOX - BLUE BOX", "address": {"city": "RIPLEY", "state": "WV", "street": "2 SCHOOL ST", "postcode": "25271"}}},
{"geometry": {"type": "Point", "coordinates": [-81.6848865127, 38.7961693374]}, "type": "Feature", "properties": {"collection_times": [{"days": "Mon-Fri", "time": "11:00am"}, {"days": "Sat", "time": "10:00am"}, {"days": "Sun", "time": "Closed"}], "id": "2527100007", "name": "USPS COLLECTION BOX - BLUE BOX", "address": {"city": "RIPLEY", "state": "WV", "street": "1 COURT ST", "postcode": "25271"}}},
{"geometry": {"type": "Point", "coordinates": [-81.7240706041, 38.8212171829]}, "type": "Feature", "properties": {"collection_times": [{"days": "Mon-Sat", "time": "10:00am"}, {"days": "Sun", "time": "Closed"}], "id": "2527100009", "name": "USPS COLLECTION BOX - BLUE BOX", "address": {"city": "RIPLEY", "state": "WV", "street": "716 MAIN ST W", "postcode": "25271"}}},
{"geometry": {"type": "Point", "coordinates": [-81.7108070607, 38.8188187146]}, "type": "Feature", "properties": {"collection_times": [{"days": "Mon-Fri", "time": "4:30pm"}, {"days": "Sat", "time": "12:00pm"}, {"days": "Sun", "time": "Closed"}], "id": "2527100010", "name": "USPS COLLECTION BOX - PO LOBBY", "address": {"city": "RIPLEY", "state": "WV", "street": "114 MAIN ST W", "postcode": "25271"}}},
{"geometry": {"type": "Point", "coordinates": [-81.6848865127, 38.7961693374]}, "type": "Feature", "properties": {"collection_times": [{"days": "Mon-Sat", "time": "10:00am"}, {"days": "Sun", "time": "Closed"}], "id": "2527100012", "name": "USPS COLLECTION BOX - BLUE BOX", "address": {"city": "RIPLEY", "state": "WV", "street": "200 ACADEMY DR", "postcode": "25271"}}},
{"geometry": {"type": "Point", "coordinates": [-81.6854144605, 38.9069865913]}, "type": "Feature", "properties": {"collection_times": [{"days": "Mon-Fri", "time": "3:00pm"}, {"days": "Sat", "time": "11:00am"}, {"days": "Sun", "time": "Closed"}], "id": "2527500000", "name": "USPS COLLECTION BOX - BLUE BOX", "address": {"city": "SANDYVILLE", "state": "WV", "street": "1 INDEPENDENCE RD", "postcode": "25275"}}},
{"geometry": {"type": "Point", "coordinates": [-81.6854144605, 38.9069865913]}, "type": "Feature", "properties": {"collection_times": [{"days": "Mon-Fri", "time": "3:00pm"}, {"days": "Sat", "time": "10:45am"}, {"days": "Sun", "time": "Closed"}], "id": "2527500001", "name": "USPS COLLECTION BOX - PO LOBBY", "address": {"city": "SANDYVILLE", "state": "WV", "street": "1 INDEPENDENCE RD", "postcode": "25275"}}},
{"geometry": {"type": "Point", "coordinates": [-81.3526487218, 38.8029736415]}, "type": "Feature", "properties": {"collection_times": [{"days": "Mon-Sat", "time": "4:00pm"}, {"days": "Sun", "time": "Closed"}], "id": "2527600000", "name": "USPS COLLECTION BOX - BLUE BOX", "address": {"city": "SPENCER", "state": "WV", "street": "200 MAIN ST", "postcode": "25276"}}},
{"geometry": {"type": "Point", "coordinates": [-81.3501098824, 38.8022970876]}, "type": "Feature", "properties": {"collection_times": [{"days": "Mon-Fri", "time": "4:45pm"}, {"days": "Sat", "time": "4:00pm"}, {"days": "Sun", "time": "Closed"}], "id": "2527600001", "name": "USPS COLLECTION BOX - BLUE BOX", "address": {"city": "SPENCER", "state": "WV", "street": "102 COURT ST", "postcode": "25276"}}},
{"geometry": {"type": "Point", "coordinates": [-81.3501098824, 38.8022970876]}, "type": "Feature", "properties": {"collection_times": [{"days": "Mon-Fri", "time": "4:45pm"}, {"days": "Sat", "time": "4:00pm"}, {"days": "Sun", "time": "Closed"}], "id": "2527600003", "name": "USPS COLLECTION BOX - PO LOBBY", "address": {"city": "SPENCER", "state": "WV", "street": "102 COURT ST", "postcode": "25276"}}},
{"geometry": {"type": "Point", "coordinates": [-81.3501098824, 38.8022970876]}, "type": "Feature", "properties": {"collection_times": [{"days": "Mon-Fri", "time": "4:45pm"}, {"days": "Sat", "time": "4:00pm"}, {"days": "Sun", "time": "Closed"}], "id": "2527600004", "name": "USPS COLLECTION BOX - PO LOBBY", "address": {"city": "SPENCER", "state": "WV", "street": "102 COURT ST", "postcode": "25276"}}},
{"geometry": {"type": "Point", "coordinates": [-81.1107955959, 38.5440538785]}, "type": "Feature", "properties": {"collection_times": [{"days": "Mon-Fri", "time": "12:15pm"}, {"days": "Sat", "time": "11:15am"}, {"days": "Sun", "time": "Closed"}], "id": "2528500000", "name": "USPS COLLECTION BOX - BLUE BOX", "address": {"city": "WALLBACK", "state": "WV", "street": "6284 WALLBACK RD", "postcode": "25285"}}},
{"geometry": {"type": "Point", "coordinates": [-81.1107955959, 38.5440538785]}, "type": "Feature", "properties": {"collection_times": [{"days": "Mon-Fri", "time": "12:15pm"}, {"days": "Sat", "time": "11:15am"}, {"days": "Sun", "time": "Closed"}], "id": "2528500001", "name": "USPS COLLECTION BOX - PO LOBBY", "address": {"city": "WALLBACK", "state": "WV", "street": "6284 WALLBACK RD", "postcode": "25285"}}},
{"geometry": {"type": "Point", "coordinates": [-81.403549129, 38.6382480765]}, "type": "Feature", "properties": {"collection_times": [{"days": "Mon-Fri", "time": "2:45pm"}, {"days": "Sat", "time": "11:00am"}, {"days": "Sun", "time": "Closed"}], "id": "2528600000", "name": "USPS COLLECTION BOX - BLUE BOX", "address": {"city": "WALTON", "state": "WV", "street": "30 RIVER RD", "postcode": "25286"}}},
{"geometry": {"type": "Point", "coordinates": [-81.403549129, 38.6382480765]}, "type": "Feature", "properties": {"collection_times": [{"days": "Mon-Fri", "time": "2:45pm"}, {"days": "Sat", "time": "11:00am"}, {"days": "Sun", "time": "Closed"}], "id": "2528600001", "name": "USPS COLLECTION BOX - PO LOBBY", "address": {"city": "WALTON", "state": "WV", "street": "30 RIVER RD", "postcode": "25286"}}},
{"geometry": {"type": "Point", "coordinates": [-82.0716682375, 38.9324552981]}, "type": "Feature", "properties": {"collection_times": [{"days": "Mon-Fri", "time": "11:45am"}, {"days": "Sat", "time": "10:45am"}, {"days": "Sun", "time": "Closed"}], "id": "2528700000", "name": "USPS COLLECTION BOX - BLUE BOX", "address": {"city": "WEST COLUMBIA", "state": "WV", "street": "17404 OHIO RIVER RD", "postcode": "25287"}}},
{"geometry": {"type": "Point", "coordinates": [-82.0716682375, 38.9324552981]}, "type": "Feature", "properties": {"collection_times": [{"days": "Mon-Fri", "time": "11:45am"}, {"days": "Sat", "time": "10:45am"}, {"days": "Sun", "time": "Closed"}], "id": "2528700002", "name": "USPS COLLECTION BOX - PO LOBBY", "address": {"city": "WEST COLUMBIA", "state": "WV", "street": "17404 OHIO RIVER RD", "postcode": "25287"}}}
]}
