{"type": "FeatureCollection", "features": [
{"geometry": {"type": "Point", "coordinates": [-81.6264829394, 38.3436490869]}, "type": "Feature", "properties": {"collection_times": [{"days": "Mon-Fri", "time": "2:00pm"}, {"days": "Sat", "time": "9:00am"}, {"days": "Sun", "time": "Closed"}], "id": "2530100020", "name": "USPS COLLECTION BOX - BLUE BOX", "address": {"city": "CHARLESTON", "state": "WV", "street": "203 BRADFORD ST", "postcode": "25301"}}},
{"geometry": {"type": "Point", "coordinates": [-81.6291139082, 38.3497668084]}, "type": "Feature", "properties": {"collection_times": [{"days": "Mon-Fri", "time": "11:00am"}, {"days": "Sat", "time": "9:30am"}, {"days": "Sun", "time": "Closed"}], "id": "2530100024", "name": "USPS COLLECTION BOX - BLUE BOX", "address": {"city": "CHARLESTON", "state": "WV", "street": "501 LEON SULLIVAN WAY", "postcode": "25301"}}},
{"geometry": {"type": "Point", "coordinates": [-81.6260007915, 38.3473245733]}, "type": "Feature", "properties": {"collection_times": [{"days": "Mon-Fri", "time": "4:00pm"}, {"days": "Sat", "time": "10:00am"}, {"days": "Sun", "time": "Closed"}], "id": "2530100029", "name": "USPS COLLECTION BOX - BLUE BOX", "address": {"city": "CHARLESTON", "state": "WV", "street": "501 MORRIS ST", "postcode": "25301"}}},
{"geometry": {"type": "Point", "coordinates": [-81.6370141776, 38.3486554051]}, "type": "Feature", "properties": {"collection_times": [{"days": "Mon-Fri", "time": "4:00pm"}, {"days": "Sat", "time": "10:00am"}, {"days": "Sun", "time": "Closed"}], "id": "2530100030", "name": "USPS COLLECTION BOX - BLUE BOX", "address": {"city": "CHARLESTON", "state": "WV", "street": "3 CAPITOL ST", "postcode": "25301"}}},
{"geometry": {"type": "Point", "coordinates": [-81.634791917, 38.3501793306]}, "type": "Feature", "properties": {"collection_times": [{"days": "Mon-Fri", "time": "4:15pm"}, {"days": "Sat", "time": "10:00am"}, {"days": "Sun", "time": "Closed"}], "id": "2530100032", "name": "USPS COLLECTION BOX - BLUE BOX", "address": {"city": "CHARLESTON", "state": "WV", "street": "209 CAPITOL ST", "postcode": "25301"}}},
{"geometry": {"type": "Point", "coordinates": [-81.631963311, 38.351480831]}, "type": "Feature", "properties": {"collection_times": [{"days": "Mon-Fri", "time": "4:00pm"}, {"days": "Sat", "time": "10:00am"}, {"days": "Sun", "time": "Closed"}], "id": "2530100033", "name": "USPS COLLECTION BOX - BLUE BOX", "address": {"city": "CHARLESTON", "state": "WV", "street": "405 CAPITOL ST", "postcode": "25301"}}},
{"geometry": {"type": "Point", "coordinates": [-81.6391050583, 38.3571208036]}, "type": "Feature", "properties": {"collection_times": [{"days": "Mon-Sat", "time": "11:00am"}, {"days": "Sun", "time": "Closed"}], "id": "2530100036", "name": "USPS COLLECTION BOX - BLUE BOX", "address": {"city": "CHARLESTON", "state": "WV", "street": "100 WASHINGTON ST E", "postcode": "25301"}}},
{"geometry": {"type": "Point", "coordinates": [-81.6407470775, 38.3516910924]}, "type": "Feature", "properties": {"collection_times": [{"days": "Mon-Fri", "time": "3:30pm"}, {"days": "Sat", "time": "10:00am"}, {"days": "Sun", "time": "Closed"}], "id": "2530100044", "name": "USPS COLLECTION BOX - BLUE BOX", "address": {"city": "CHARLESTON", "state": "WV", "street": "300 KANAWHA BLVD E", "postcode": "25301"}}},
{"geometry": {"type": "Point", "coordinates": [-81.6306476951, 38.3429787585]}, "type": "Feature", "properties": {"collection_times": [{"days": "Mon-Fri", "time": "4:00pm"}, {"days": "Sat", "time": "10:00am"}, {"days": "Sun", "time": "Closed"}], "id": "2530100045", "name": "USPS COLLECTION BOX - BLUE BOX", "address": {"city": "CHARLESTON", "state": "WV", "street": "1316 KANAWHA BLVD E", "postcode": "25301"}}},
{"geometry": {"type": "Point", "coordinates": [-81.6349074672, 38.349883558]}, "type": "Feature", "properties": {"collection_times": [{"days": "Mon-Fri", "time": "4:00pm"}, {"days": "Sat", "time": "10:00am"}, {"days": "Sun", "time": "Closed"}], "id": "2530100049", "name": "USPS COLLECTION BOX - BLUE BOX", "address": {"city": "CHARLESTON", "state": "WV", "street": "812 QUARRIER ST", "postcode": "25301"}}},
{"geometry": {"type": "Point", "coordinates": [-81.632808197, 38.3533233498]}, "type": "Feature", "properties": {"collection_times": [{"days": "Mon-Fri", "time": "4:00pm"}, {"days": "Sat", "time": "10:00am"}, {"days": "Sun", "time": "Closed"}], "id": "2530100051", "name": "USPS COLLECTION BOX - BLUE BOX", "address": {"city": "CHARLESTON", "state": "WV", "street": "333 LAIDLEY ST", "postcode": "25301"}}},
{"geometry": {"type": "Point", "coordinates": [-81.6352541501, 38.3532622347]}, "type": "Feature", "properties": {"collection_times": [{"days": "Mon-Fri", "time": "4:00pm"}, {"days": "Sat", "time": "10:00am"}, {"days": "Sun", "time": "Closed"}], "id": "2530100052", "name": "USPS COLLECTION BOX - BLUE BOX", "address": {"city": "CHARLESTON", "state": "WV", "street": "500 LEE ST E", "postcode": "25301"}}},
{"geometry": {"type": "Point", "coordinates": [-81.6317572785, 38.3493741667]}, "type": "Feature", "properties": {"collection_times": [{"days": "Mon-Fri", "time": "4:00pm"}, {"days": "Sat", "time": "10:00am"}, {"days": "Sun", "time": "Closed"}], "id": "2530100055", "name": "USPS COLLECTION BOX - BLUE BOX", "address": {"city": "CHARLESTON", "state": "WV", "street": "924 QUARRIER ST", "postcode": "25301"}}},
{"geometry": {"type": "Point", "coordinates": [-81.6343778872, 38.3480098896]}, "type": "Feature", "properties": {"collection_times": [{"days": "Mon-Fri", "time": "4:00pm"}, {"days": "Sat", "time": "9:00am"}, {"days": "Sun", "time": "Closed"}], "id": "2530100056", "name": "USPS COLLECTION BOX - BLUE BOX", "address": {"city": "CHARLESTON", "state": "WV", "street": "1000 VIRGINIA ST E", "postcode": "25301"}}},
{"geometry": {"type": "Point", "coordinates": [-81.6260725338, 38.3507692526]}, "type": "Feature", "properties": {"collection_times": [{"days": "Mon-Fri", "time": "4:00pm"}, {"days": "Sat", "time": "9:30am"}, {"days": "Sun", "time": "Closed"}], "id": "2530100066", "name": "USPS COLLECTION BOX - BLUE BOX", "address": {"city": "CHARLESTON", "state": "WV", "street": "1116 SMITH ST", "postcode": "25301"}}},
{"geometry": {"type": "Point", "coordinates": [-81.6381018159, 38.3510241685]}, "type": "Feature", "properties": {"collection_times": [{"days": "Mon-Fri", "time": "3:30pm"}, {"days": "Sat-Sun", "time": "Closed"}], "id": "2530100069", "name": "USPS COLLECTION BOX - BLUE BOX", "address": {"city": "CHARLESTON", "state": "WV", "street": "500 VIRGINIA ST E", "postcode": "25301"}}},
{"geometry": {"type": "Point", "coordinates": [-81.6375148433, 38.3504185931]}, "type": "Feature", "properties": {"collection_times": [{"days": "Mon-Fri", "time": "4:00pm"}, {"days": "Sat", "time": "10:00am"}, {"days": "Sun", "time": "Closed"}], "id": "2530100071", "name": "USPS COLLECTION BOX - BLUE BOX", "address": {"city": "CHARLESTON", "state": "WV", "street": "615 VIRGINIA ST E", "postcode": "25301"}}},
{"geometry": {"type": "Point", "coordinates": [-81.6358115433, 38.3492275393]}, "type": "Feature", "properties": {"collection_times": [{"days": "Mon-Fri", "time": "4:00pm"}, {"days": "Sat", "time": "10:00am"}, {"days": "Sun", "time": "Closed"}], "id": "2530100072", "name": "USPS COLLECTION BOX - BLUE BOX", "address": {"city": "CHARLESTON", "state": "WV", "street": "814 VIRGINIA ST E", "postcode": "25301"}}},
{"geometry": {"type": "Point", "coordinates": [-81.6326647511, 38.3479332464]}, "type": "Feature", "properties": {"collection_times": [{"days": "Mon-Fri", "time": "1:30pm"}, {"days": "Sat", "time": "10:00am"}, {"days": "Sun", "time": "Closed"}], "id": "2530100076", "name": "USPS COLLECTION BOX - BLUE BOX", "address": {"city": "CHARLESTON", "state": "WV", "street": "1031 QUARRIER ST", "postcode": "25301"}}},
{"geometry": {"type": "Point", "coordinates": [-81.6331919168, 38.3508028216]}, "type": "Feature", "properties": {"collection_times": [{"days": "Mon-Fri", "time": "4:15pm"}, {"days": "Sat", "time": "10:00am"}, {"days": "Sun", "time": "Closed"}], "id": "2530100077", "name": "USPS COLLECTION BOX - BLUE BOX", "address": {"city": "CHARLESTON", "state": "WV", "street": "300 CAPITOL ST", "postcode": "25301"}}},
{"geometry": {"type": "Point", "coordinates": [-81.6331919168, 38.3508028216]}, "type": "Feature", "properties": {"collection_times": [{"days": "Mon-Fri", "time": "4:15pm"}, {"days": "Sat", "time": "10:00am"}, {"days": "Sun", "time": "Closed"}], "id": "2530100078", "name": "USPS COLLECTION BOX - BLUE BOX", "address": {"city": "CHARLESTON", "state": "WV", "street": "300 CAPITOL ST", "postcode": "25301"}}},
{"geometry": {"type": "Point", "coordinates": [-81.631963311, 38.351480831]}, "type": "Feature", "properties": {"collection_times": [{"days": "Mon-Fri", "time": "4:00pm"}, {"days": "Sat", "time": "10:00am"}, {"days": "Sun", "time": "Closed"}], "id": "2530100080", "name": "USPS COLLECTION BOX - BLUE BOX", "address": {"city": "CHARLESTON", "state": "WV", "street": "405 CAPITOL ST", "postcode": "25301"}}},
{"geometry": {"type": "Point", "coordinates": [-81.631963311, 38.351480831]}, "type": "Feature", "properties": {"collection_times": [{"days": "Mon-Fri", "time": "4:00pm"}, {"days": "Sat", "time": "10:00am"}, {"days": "Sun", "time": "Closed"}], "id": "2530100081", "name": "USPS COLLECTION BOX - BLUE BOX", "address": {"city": "CHARLESTON", "state": "WV", "street": "405 CAPITOL ST", "postcode": "25301"}}},
{"geometry": {"type": "Point", "coordinates": [-81.6329707457, 38.3481805571]}, "type": "Feature", "properties": {"collection_times": [{"days": "Mon-Fri", "time": "1:30pm"}, {"days": "Sat", "time": "10:00am"}, {"days": "Sun", "time": "Closed"}], "id": "2530100083", "name": "USPS COLLECTION BOX - BLUE BOX", "address": {"city": "CHARLESTON", "state": "WV", "street": "1021 QUARRIER ST", "postcode": "25301"}}},
{"geometry": {"type": "Point", "coordinates": [-81.6228476044, 38.3484578459]}, "type": "Feature", "properties": {"collection_times": [{"days": "Mon-Sat", "time": "10:00am"}, {"days": "Sun", "time": "Closed"}], "id": "2530100086", "name": "USPS COLLECTION BOX - BLUE BOX", "address": {"city": "CHARLESTON", "state": "WV", "street": "1334 SMITH ST", "postcode": "25301"}}},
{"geometry": {"type": "Point", "coordinates": [-81.6232451609, 38.3486201551]}, "type": "Feature", "properties": {"collection_times": [{"days": "Mon-Fri", "time": "2:00pm"}, {"days": "Sat", "time": "9:00am"}, {"days": "Sun", "time": "Closed"}], "id": "2530100087", "name": "USPS COLLECTION BOX - BLUE BOX", "address": {"city": "CHARLESTON", "state": "WV", "street": "1321 SMITH ST", "postcode": "25301"}}},
{"geometry": {"type": "Point", "coordinates": [-81.6333861849, 38.3518900298]}, "type": "Feature", "properties": {"collection_times": [{"days": "Mon-Fri", "time": "4:00pm"}, {"days": "Sat", "time": "10:00am"}, {"days": "Sun", "time": "Closed"}], "id": "2530100088", "name": "USPS COLLECTION BOX - BLUE BOX", "address": {"city": "CHARLESTON", "state": "WV", "street": "300 SUMMERS ST", "postcode": "25301"}}},
{"geometry": {"type": "Point", "coordinates": [-81.6360124152, 38.3493702085]}, "type": "Feature", "properties": {"collection_times": [{"days": "Mon-Fri", "time": "4:00pm"}, {"days": "Sat", "time": "10:00am"}, {"days": "Sun", "time": "Closed"}], "id": "2530100098", "name": "USPS COLLECTION BOX - BLUE BOX", "address": {"city": "CHARLESTON", "state": "WV", "street": "100 CAPITOL ST", "postcode": "25301"}}},
{"geometry": {"type": "Point", "coordinates": [-81.63261105, 38.344413337]}, "type": "Feature", "properties": {"collection_times": [{"days": "Mon-Fri", "time": "4:00pm"}, {"days": "Sat", "time": "10:00am"}, {"days": "Sun", "time": "Closed"}], "id": "2530100103", "name": "USPS COLLECTION BOX - BLUE BOX", "address": {"city": "CHARLESTON", "state": "WV", "street": "1202 KANAWHA BLVD E", "postcode": "25301"}}},
{"geometry": {"type": "Point", "coordinates": [-81.6352541501, 38.3532622347]}, "type": "Feature", "properties": {"collection_times": [{"days": "Mon-Fri", "time": "4:00pm"}, {"days": "Sat", "time": "10:00am"}, {"days": "Sun", "time": "Closed"}], "id": "2530100105", "name": "USPS COLLECTION BOX - BLUE BOX", "address": {"city": "CHARLESTON", "state": "WV", "street": "500 LEE ST E", "postcode": "25301"}}},
{"geometry": {"type": "Point", "coordinates": [-81.6314701908, 38.345438752]}, "type": "Feature", "properties": {"collection_times": [{"days": "Mon-Fri", "time": "4:00pm"}, {"days": "Sat", "time": "10:00am"}, {"days": "Sun", "time": "Closed"}], "id": "2530100110", "name": "USPS COLLECTION BOX - BLUE BOX", "address": {"city": "CHARLESTON", "state": "WV", "street": "1203 VIRGINIA ST E", "postcode": "25301"}}},
{"geometry": {"type": "Point", "coordinates": [-81.6311603484, 38.3451826284]}, "type": "Feature", "properties": {"collection_times": [{"days": "Mon-Fri", "time": "4:00pm"}, {"days": "Sat", "time": "10:00am"}, {"days": "Sun", "time": "Closed"}], "id": "2530100111", "name": "USPS COLLECTION BOX - BLUE BOX", "address": {"city": "CHARLESTON", "state": "WV", "street": "1223 VIRGINIA ST E", "postcode": "25301"}}},
{"geometry": {"type": "Point", "coordinates": [-81.6314852752, 38.3491142528]}, "type": "Feature", "properties": {"collection_times": [{"days": "Mon-Fri", "time": "6:00pm"}, {"days": "Sat", "time": "5:00pm"}, {"days": "Sun", "time": "Closed"}], "id": "2530100121", "name": "USPS COLLECTION BOX - BLUE BOX", "address": {"city": "CHARLESTON", "state": "WV", "street": "1001 WASHINGTON ST E", "postcode": "25301"}}},
{"geometry": {"type": "Point", "coordinates": [-81.6314852752, 38.3491142528]}, "type": "Feature", "properties": {"collection_times": [{"days": "Mon-Fri", "time": "6:00pm"}, {"days": "Sat", "time": "5:00pm"}, {"days": "Sun", "time": "Closed"}], "id": "2530100123", "name": "USPS COLLECTION BOX - BLUE BOX", "address": {"city": "CHARLESTON", "state": "WV", "street": "1002 LEE ST E", "postcode": "25301"}}},
{"geometry": {"type": "Point", "coordinates": [-81.6314852752, 38.3491142528]}, "type": "Feature", "properties": {"collection_times": [{"days": "Mon-Fri", "time": "6:00pm"}, {"days": "Sat", "time": "5:00pm"}, {"days": "Sun", "time": "Closed"}], "id": "2530100130", "name": "USPS COLLECTION BOX - BLUE BOX", "address": {"city": "CHARLESTON", "state": "WV", "street": "1001 WASHINGTON ST E", "postcode": "25301"}}},
{"geometry": {"type": "Point", "coordinates": [-81.6352541501, 38.3532622347]}, "type": "Feature", "properties": {"collection_times": [{"days": "Mon-Fri", "time": "4:00pm"}, {"days": "Sat", "time": "10:00am"}, {"days": "Sun", "time": "Closed"}], "id": "2530100133", "name": "USPS COLLECTION BOX - BLUE BOX", "address": {"city": "CHARLESTON", "state": "WV", "street": "500 LEE ST E", "postcode": "25301"}}},
{"geometry": {"type": "Point", "coordinates": [-81.6343523373, 38.3515661351]}, "type": "Feature", "properties": {"collection_times": [{"days": "Mon-Fri", "time": "3:30pm"}, {"days": "Sat", "time": "10:00am"}, {"days": "Sun", "time": "Closed"}], "id": "2530100135", "name": "USPS COLLECTION BOX - BLUE BOX", "address": {"city": "CHARLESTON", "state": "WV", "street": "179 SUMMERS ST", "postcode": "25301"}}},
{"geometry": {"type": "Point", "coordinates": [-81.6358115433, 38.3492275393]}, "type": "Feature", "properties": {"collection_times": [{"days": "Mon-Fri", "time": "4:00pm"}, {"days": "Sat", "time": "10:00am"}, {"days": "Sun", "time": "Closed"}], "id": "2530100137", "name": "USPS COLLECTION BOX - BLUE BOX", "address": {"city": "CHARLESTON", "state": "WV", "street": "814 VIRGINIA ST E", "postcode": "25301"}}},
{"geometry": {"type": "Point", "coordinates": [-81.629525352, 38.3455672983]}, "type": "Feature", "properties": {"collection_times": [{"days": "Mon-Fri", "time": "4:00pm"}, {"days": "Sat", "time": "10:00am"}, {"days": "Sun", "time": "Closed"}], "id": "2530100145", "name": "USPS COLLECTION BOX - BLUE BOX", "address": {"city": "CHARLESTON", "state": "WV", "street": "1215 QUARRIER ST", "postcode": "25301"}}},
{"geometry": {"type": "Point", "coordinates": [-81.6317572785, 38.3493741667]}, "type": "Feature", "properties": {"collection_times": [{"days": "Mon-Fri", "time": "4:00pm"}, {"days": "Sat", "time": "10:00am"}, {"days": "Sun", "time": "Closed"}], "id": "2530100151", "name": "USPS COLLECTION BOX - BLUE BOX", "address": {"city": "CHARLESTON", "state": "WV", "street": "924 QUARRIER ST", "postcode": "25301"}}},
{"geometry": {"type": "Point", "coordinates": [-81.6375148433, 38.3504185931]}, "type": "Feature", "properties": {"collection_times": [{"days": "Mon-Fri", "time": "4:00pm"}, {"days": "Sat", "time": "10:00am"}, {"days": "Sun", "time": "Closed"}], "id": "2530100156", "name": "USPS COLLECTION BOX - BLUE BOX", "address": {"city": "CHARLESTON", "state": "WV", "street": "615 VIRGINIA ST E", "postcode": "25301"}}},
{"geometry": {"type": "Point", "coordinates": [-81.630326385, 38.3463367441]}, "type": "Feature", "properties": {"collection_times": [{"days": "Mon-Fri", "time": "4:00pm"}, {"days": "Sat", "time": "10:00am"}, {"days": "Sun", "time": "Closed"}], "id": "2530100172", "name": "USPS COLLECTION BOX - BLUE BOX", "address": {"city": "CHARLESTON", "state": "WV", "street": "1200 QUARRIER ST", "postcode": "25301"}}},
{"geometry": {"type": "Point", "coordinates": [-81.6295304609, 38.3457013512]}, "type": "Feature", "properties": {"collection_times": [{"days": "Mon-Fri", "time": "4:00pm"}, {"days": "Sat", "time": "10:00am"}, {"days": "Sun", "time": "Closed"}], "id": "2530100173", "name": "USPS COLLECTION BOX - BLUE BOX", "address": {"city": "CHARLESTON", "state": "WV", "street": "1 ARLINGTON CT", "postcode": "25301"}}},
{"geometry": {"type": "Point", "coordinates": [-81.6358496123, 38.3505999674]}, "type": "Feature", "properties": {"collection_times": [{"days": "Mon-Fri", "time": "3:30pm"}, {"days": "Sat", "time": "10:00am"}, {"days": "Sun", "time": "Closed"}], "id": "2530100174", "name": "USPS COLLECTION BOX - BLUE BOX", "address": {"city": "CHARLESTON", "state": "WV", "street": "135 SUMMERS ST", "postcode": "25301"}}},
{"geometry": {"type": "Point", "coordinates": [-81.6349074672, 38.349883558]}, "type": "Feature", "properties": {"collection_times": [{"days": "Mon-Fri", "time": "4:00pm"}, {"days": "Sat", "time": "10:00am"}, {"days": "Sun", "time": "Closed"}], "id": "2530100175", "name": "USPS COLLECTION BOX - BLUE BOX", "address": {"city": "CHARLESTON", "state": "WV", "street": "812 QUARRIER ST", "postcode": "25301"}}},
{"geometry": {"type": "Point", "coordinates": [-81.638471339, 38.352856024]}, "type": "Feature", "properties": {"collection_times": [{"days": "Mon-Fri", "time": "4:30pm"}, {"days": "Sat", "time": "10:00am"}, {"days": "Sun", "time": "Closed"}], "id": "2530100177", "name": "USPS COLLECTION BOX - BLUE BOX", "address": {"city": "CHARLESTON", "state": "WV", "street": "350 QUARRIER ST", "postcode": "25301"}}},
{"geometry": {"type": "Point", "coordinates": [-81.6361330239, 38.3478932371]}, "type": "Feature", "properties": {"collection_times": [{"days": "Mon-Fri", "time": "4:00pm"}, {"days": "Sat", "time": "10:00am"}, {"days": "Sun", "time": "Closed"}], "id": "2530100179", "name": "USPS COLLECTION BOX - BLUE BOX", "address": {"city": "CHARLESTON", "state": "WV", "street": "8 HALE ST", "postcode": "25301"}}},
{"geometry": {"type": "Point", "coordinates": [-81.6314852752, 38.3491142528]}, "type": "Feature", "properties": {"collection_times": [{"days": "Mon-Fri", "time": "6:00pm"}, {"days": "Sat", "time": "5:00pm"}, {"days": "Sun", "time": "Closed"}], "id": "2530100180", "name": "USPS COLLECTION BOX - PO LOBBY", "address": {"city": "CHARLESTON", "state": "WV", "street": "1002 LEE ST E", "postcode": "25301"}}},
{"geometry": {"type": "Point", "coordinates": [-81.6273039833, 38.342489208]}, "type": "Feature", "properties": {"collection_times": [{"days": "Mon-Fri", "time": "2:00pm"}, {"days": "Sat", "time": "9:00am"}, {"days": "Sun", "time": "Closed"}], "id": "2530100187", "name": "USPS COLLECTION BOX - BLUE BOX", "address": {"city": "CHARLESTON", "state": "WV", "street": "1411 VIRGINIA ST E", "postcode": "25301"}}},
{"geometry": {"type": "Point", "coordinates": [-81.634791917, 38.3501793306]}, "type": "Feature", "properties": {"collection_times": [{"days": "Mon-Fri", "time": "4:15pm"}, {"days": "Sat", "time": "10:00am"}, {"days": "Sun", "time": "Closed"}], "id": "2530100188", "name": "USPS COLLECTION BOX - BLUE BOX", "address": {"city": "CHARLESTON", "state": "WV", "street": "209 CAPITOL ST", "postcode": "25301"}}},
{"geometry": {"type": "Point", "coordinates": [-81.6386676606, 38.3568223396]}, "type": "Feature", "properties": {"collection_times": [{"days": "Mon-Fri", "time": "11:00am"}, {"days": "Sat", "time": "9:00am"}, {"days": "Sun", "time": "Closed"}], "id": "2530100190", "name": "USPS COLLECTION BOX - BLUE BOX", "address": {"city": "CHARLESTON", "state": "WV", "street": "140 WASHINGTON ST E", "postcode": "25301"}}},
{"geometry": {"type": "Point", "coordinates": [-81.6360124152, 38.3493702085]}, "type": "Feature", "properties": {"collection_times": [{"days": "Mon-Fri", "time": "4:00pm"}, {"days": "Sat", "time": "10:00am"}, {"days": "Sun", "time": "Closed"}], "id": "2530100191", "name": "USPS COLLECTION BOX - BLUE BOX", "address": {"city": "CHARLESTON", "state": "WV", "street": "100 CAPITOL ST", "postcode": "25301"}}},
{"geometry": {"type": "Point", "coordinates": [-81.629525352, 38.3455672983]}, "type": "Feature", "properties": {"collection_times": [{"days": "Mon-Fri", "time": "4:00pm"}, {"days": "Sat", "time": "10:00am"}, {"days": "Sun", "time": "Closed"}], "id": "2530100192", "name": "USPS COLLECTION BOX - BLUE BOX", "address": {"city": "CHARLESTON", "state": "WV", "street": "1215 QUARRIER ST", "postcode": "25301"}}},
{"geometry": {"type": "Point", "coordinates": [-81.6382883588, 38.3512155748]}, "type": "Feature", "properties": {"collection_times": [{"days": "Mon-Fri", "time": "3:30pm"}, {"days": "Sat-Sun", "time": "Closed"}], "id": "2530100194", "name": "USPS COLLECTION BOX - BLUE BOX", "address": {"city": "CHARLESTON", "state": "WV", "street": "500 VIRGINIA ST E", "postcode": "25301"}}},
{"geometry": {"type": "Point", "coordinates": [-81.6314852752, 38.3491142528]}, "type": "Feature", "properties": {"collection_times": [{"days": "Mon-Fri", "time": "6:00pm"}, {"days": "Sat", "time": "5:00pm"}, {"days": "Sun", "time": "Closed"}], "id": "2530100196", "name": "USPS COLLECTION BOX - APC", "address": {"city": "CHARLESTON", "state": "WV", "street": "1002 LEE ST E", "postcode": "25301"}}},
{"geometry": {"type": "Point", "coordinates": [-81.634791917, 38.3501793306]}, "type": "Feature", "properties": {"collection_times": [{"days": "Mon-Fri", "time": "4:15pm"}, {"days": "Sat", "time": "10:00am"}, {"days": "Sun", "time": "Closed"}], "id": "2530100198", "name": "USPS COLLECTION BOX - BLUE BOX", "address": {"city": "CHARLESTON", "state": "WV", "street": "209 CAPITOL ST", "postcode": "25301"}}},
{"geometry": {"type": "Point", "coordinates": [-81.632083069, 38.3495749632]}, "type": "Feature", "properties": {"collection_times": [{"days": "Mon-Fri", "time": "6:00pm"}, {"days": "Sat", "time": "5:00pm"}, {"days": "Sun", "time": "Closed"}], "id": "2530100199", "name": "USPS COLLECTION BOX - BLUE BOX", "address": {"city": "CHARLESTON", "state": "WV", "street": "1002 LEE ST E", "postcode": "25301"}}},
{"geometry": {"type": "Point", "coordinates": [-81.6385157253, 38.3529158232]}, "type": "Feature", "properties": {"collection_times": [{"days": "Mon-Fri", "time": "4:30pm"}, {"days": "Sat", "time": "10:00am"}, {"days": "Sun", "time": "Closed"}], "id": "2530100204", "name": "USPS COLLECTION BOX - BLUE BOX", "address": {"city": "CHARLESTON", "state": "WV", "street": "350 QUARRIER ST", "postcode": "25301"}}},
{"geometry": {"type": "Point", "coordinates": [-81.632083069, 38.3495742608]}, "type": "Feature", "properties": {"collection_times": [{"days": "Mon-Fri", "time": "6:00pm"}, {"days": "Sat", "time": "5:00pm"}, {"days": "Sun", "time": "Closed"}], "id": "2530100205", "name": "USPS COLLECTION BOX - BLUE BOX", "address": {"city": "CHARLESTON", "state": "WV", "street": "1002 LEE ST E", "postcode": "25301"}}},
{"geometry": {"type": "Point", "coordinates": [-81.6307213956, 38.3498286395]}, "type": "Feature", "properties": {"collection_times": [{"days": "Mon-Fri", "time": "6:00pm"}, {"days": "Sat", "time": "5:00pm"}, {"days": "Sun", "time": "Closed"}], "id": "2530100206", "name": "USPS COLLECTION BOX - BLUE BOX", "address": {"city": "CHARLESTON", "state": "WV", "street": "1001 WASHINGTON ST E", "postcode": "25301"}}},
{"geometry": {"type": "Point", "coordinates": [-81.6307213956, 38.3498286395]}, "type": "Feature", "properties": {"collection_times": [{"days": "Mon-Fri", "time": "6:00pm"}, {"days": "Sat", "time": "5:00pm"}, {"days": "Sun", "time": "Closed"}], "id": "2530100207", "name": "USPS COLLECTION BOX - BLUE BOX", "address": {"city": "CHARLESTON", "state": "WV", "street": "1001 WASHINGTON ST E", "postcode": "25301"}}},
{"geometry": {"type": "Point", "coordinates": [-81.6206218602, 38.3618082542]}, "type": "Feature", "properties": {"collection_times": [{"days": "Mon-Sat", "time": "9:00am"}, {"days": "Sun", "time": "Closed"}], "id": "2530200005", "name": "USPS COLLECTION BOX - BLUE BOX", "address": {"city": "CHARLESTON", "state": "WV", "street": "1627 BIGLEY AVE", "postcode": "25302"}}},
{"geometry": {"type": "Point", "coordinates": [-81.6533851246, 38.3641760091]}, "type": "Feature", "properties": {"collection_times": [{"days": "Mon-Sat", "time": "9:00am"}, {"days": "Sun", "time": "Closed"}], "id": "2530200007", "name": "USPS COLLECTION BOX - BLUE BOX", "address": {"city": "CHARLESTON", "state": "WV", "street": "824 CENTRAL AVE", "postcode": "25302"}}},
{"geometry": {"type": "Point", "coordinates": [-81.6460741677, 38.3602053908]}, "type": "Feature", "properties": {"collection_times": [{"days": "Mon-Fri", "time": "4:30pm"}, {"days": "Sat", "time": "11:00am"}, {"days": "Sun", "time": "Closed"}], "id": "2530200025", "name": "USPS COLLECTION BOX - BLUE BOX", "address": {"city": "CHARLESTON", "state": "WV", "street": "303 OHIO AVE", "postcode": "25302"}}},
{"geometry": {"type": "Point", "coordinates": [-81.6450722535, 38.3554400231]}, "type": "Feature", "properties": {"collection_times": [{"days": "Mon-Fri", "time": "3:30pm"}, {"days": "Sat", "time": "8:30am"}, {"days": "Sun", "time": "Closed"}], "id": "2530200027", "name": "USPS COLLECTION BOX - BLUE BOX", "address": {"city": "CHARLESTON", "state": "WV", "street": "1 UNION SQ", "postcode": "25302"}}},
{"geometry": {"type": "Point", "coordinates": [-81.6434091159, 38.3616414736]}, "type": "Feature", "properties": {"collection_times": [{"days": "Mon-Fri", "time": "2:00pm"}, {"days": "Sat", "time": "9:00am"}, {"days": "Sun", "time": "Closed"}], "id": "2530200028", "name": "USPS COLLECTION BOX - BLUE BOX", "address": {"city": "CHARLESTON", "state": "WV", "street": "310 LEE ST W", "postcode": "25302"}}},
{"geometry": {"type": "Point", "coordinates": [-81.6434091159, 38.3616414736]}, "type": "Feature", "properties": {"collection_times": [{"days": "Mon-Fri", "time": "2:00pm"}, {"days": "Sat", "time": "9:00am"}, {"days": "Sun", "time": "Closed"}], "id": "2530200029", "name": "USPS COLLECTION BOX - BLUE BOX", "address": {"city": "CHARLESTON", "state": "WV", "street": "310 LEE ST W", "postcode": "25302"}}},
{"geometry": {"type": "Point", "coordinates": [-81.6380448667, 38.3605222774]}, "type": "Feature", "properties": {"collection_times": [{"days": "Mon-Fri", "time": "11:00am"}, {"days": "Sat", "time": "9:00am"}, {"days": "Sun", "time": "Closed"}], "id": "2530200033", "name": "USPS COLLECTION BOX - BLUE BOX", "address": {"city": "CHARLESTON", "state": "WV", "street": "830 PENNSYLVANIA AVE", "postcode": "25302"}}},
{"geometry": {"type": "Point", "coordinates": [-81.643230862, 38.3599199249]}, "type": "Feature", "properties": {"collection_times": [{"days": "Mon-Fri", "time": "2:00pm"}, {"days": "Sat", "time": "9:00am"}, {"days": "Sun", "time": "Closed"}], "id": "2530200035", "name": "USPS COLLECTION BOX - BLUE BOX", "address": {"city": "CHARLESTON", "state": "WV", "street": "508 TENNESSEE AVE", "postcode": "25302"}}},
{"geometry": {"type": "Point", "coordinates": [-81.6481878108, 38.3610180997]}, "type": "Feature", "properties": {"collection_times": [{"days": "Mon-Sat", "time": "9:30am"}, {"days": "Sun", "time": "Closed"}], "id": "2530200037", "name": "USPS COLLECTION BOX - BLUE BOX", "address": {"city": "CHARLESTON", "state": "WV", "street": "423 VIRGINIA ST W", "postcode": "25302"}}},
{"geometry": {"type": "Point", "coordinates": [-81.6413523184, 38.3613666808]}, "type": "Feature", "properties": {"collection_times": [{"days": "Mon-Fri", "time": "1:00pm"}, {"days": "Sat", "time": "9:30am"}, {"days": "Sun", "time": "Closed"}], "id": "2530200040", "name": "USPS COLLECTION BOX - BLUE BOX", "address": {"city": "CHARLESTON", "state": "WV", "street": "305 WASHINGTON ST W", "postcode": "25302"}}},
{"geometry": {"type": "Point", "coordinates": [-81.6460741677, 38.3602053908]}, "type": "Feature", "properties": {"collection_times": [{"days": "Mon-Fri", "time": "4:30pm"}, {"days": "Sat", "time": "11:00am"}, {"days": "Sun", "time": "Closed"}], "id": "2530200043", "name": "USPS COLLECTION BOX - BLUE BOX", "address": {"city": "CHARLESTON", "state": "WV", "street": "303 OHIO AVE", "postcode": "25302"}}},
{"geometry": {"type": "Point", "coordinates": [-81.6165181662, 38.3632322472]}, "type": "Feature", "properties": {"collection_times": [{"days": "Mon-Sat", "time": "10:00am"}, {"days": "Sun", "time": "Closed"}], "id": "2530200048", "name": "USPS COLLECTION BOX - BLUE BOX", "address": {"city": "CHARLESTON", "state": "WV", "street": "1829 BIGLEY AVE", "postcode": "25302"}}},
{"geometry": {"type": "Point", "coordinates": [-81.5237027334, 38.4073066361]}, "type": "Feature", "properties": {"collection_times": [{"days": "Mon-Sat", "time": "12:30pm"}, {"days": "Sun", "time": "Closed"}], "id": "2530200051", "name": "USPS COLLECTION BOX - BLUE BOX", "address": {"city": "CHARLESTON", "state": "WV", "street": "4506 PENNSYLVANIA AVE", "postcode": "25302"}}},
{"geometry": {"type": "Point", "coordinates": [-81.6450722535, 38.3554400231]}, "type": "Feature", "properties": {"collection_times": [{"days": "Mon-Fri", "time": "3:30pm"}, {"days": "Sat", "time": "8:30am"}, {"days": "Sun", "time": "Closed"}], "id": "2530200055", "name": "USPS COLLECTION BOX - BLUE BOX", "address": {"city": "CHARLESTON", "state": "WV", "street": "1 UNION SQ", "postcode": "25302"}}},
{"geometry": {"type": "Point", "coordinates": [-81.7058042251, 38.3653587022]}, "type": "Feature", "properties": {"collection_times": [{"days": "Mon-Fri", "time": "11:00am"}, {"days": "Sat", "time": "10:00am"}, {"days": "Sun", "time": "Closed"}], "id": "2530300013", "name": "USPS COLLECTION BOX - BLUE BOX", "address": {"city": "S CHARLESTON", "state": "WV", "street": "3100 MACCORKLE AVE SW", "postcode": "25303"}}},
{"geometry": {"type": "Point", "coordinates": [-81.6946848327, 38.3662008553]}, "type": "Feature", "properties": {"collection_times": [{"days": "Mon-Sat", "time": "4:30pm"}, {"days": "Sun", "time": "Closed"}], "id": "2530300015", "name": "USPS COLLECTION BOX - BLUE BOX", "address": {"city": "S CHARLESTON", "state": "WV", "street": "400 D ST", "postcode": "25303"}}},
{"geometry": {"type": "Point", "coordinates": [-81.6946848327, 38.3662008553]}, "type": "Feature", "properties": {"collection_times": [{"days": "Mon-Sat", "time": "4:30pm"}, {"days": "Sun", "time": "Closed"}], "id": "2530300026", "name": "USPS COLLECTION BOX - BLUE BOX", "address": {"city": "S CHARLESTON", "state": "WV", "street": "400 D ST", "postcode": "25303"}}},
{"geometry": {"type": "Point", "coordinates": [-81.6946848327, 38.3662008553]}, "type": "Feature", "properties": {"collection_times": [{"days": "Mon-Sat", "time": "4:30pm"}, {"days": "Sun", "time": "Closed"}], "id": "2530300027", "name": "USPS COLLECTION BOX - BLUE BOX", "address": {"city": "S CHARLESTON", "state": "WV", "street": "400 D ST", "postcode": "25303"}}},
{"geometry": {"type": "Point", "coordinates": [-81.6946848327, 38.3662008553]}, "type": "Feature", "properties": {"collection_times": [{"days": "Mon-Sat", "time": "4:30pm"}, {"days": "Sun", "time": "Closed"}], "id": "2530300030", "name": "USPS COLLECTION BOX - PO LOBBY", "address": {"city": "S CHARLESTON", "state": "WV", "street": "400 D ST", "postcode": "25303"}}},
{"geometry": {"type": "Point", "coordinates": [-81.6946848327, 38.3662008553]}, "type": "Feature", "properties": {"collection_times": [{"days": "Mon-Sat", "time": "4:30pm"}, {"days": "Sun", "time": "Closed"}], "id": "2530300031", "name": "USPS COLLECTION BOX - PO LOBBY", "address": {"city": "S CHARLESTON", "state": "WV", "street": "400 D ST", "postcode": "25303"}}},
{"geometry": {"type": "Point", "coordinates": [-81.7068649168, 38.3648228086]}, "type": "Feature", "properties": {"collection_times": [{"days": "Mon-Fri", "time": "11:30am"}, {"days": "Sat", "time": "10:00am"}, {"days": "Sun", "time": "Closed"}], "id": "2530300033", "name": "USPS COLLECTION BOX - BLUE BOX", "address": {"city": "S CHARLESTON", "state": "WV", "street": "91 MACCORKLE AVE SW", "postcode": "25303"}}},
{"geometry": {"type": "Point", "coordinates": [-81.5828655458, 38.3223086408]}, "type": "Feature", "properties": {"collection_times": [{"days": "Mon-Fri", "time": "4:30pm"}, {"days": "Sat", "time": "12:00pm"}, {"days": "Sun", "time": "Closed"}], "id": "2530400007", "name": "USPS COLLECTION BOX - BLUE BOX", "address": {"city": "CHARLESTON", "state": "WV", "street": "4600 MACCORKLE AVE SE", "postcode": "25304"}}},
{"geometry": {"type": "Point", "coordinates": [-81.568337296, 38.313849558]}, "type": "Feature", "properties": {"collection_times": [{"days": "Mon-Sat", "time": "10:00am"}, {"days": "Sun", "time": "Closed"}], "id": "2530400008", "name": "USPS COLLECTION BOX - BLUE BOX", "address": {"city": "CHARLESTON", "state": "WV", "street": "5700 MACCORKLE AVE SE", "postcode": "25304"}}},
{"geometry": {"type": "Point", "coordinates": [-81.5852110234, 38.3236609165]}, "type": "Feature", "properties": {"collection_times": [{"days": "Mon-Sat", "time": "9:30am"}, {"days": "Sun", "time": "Closed"}], "id": "2530400009", "name": "USPS COLLECTION BOX - BLUE BOX", "address": {"city": "CHARLESTON", "state": "WV", "street": "4420 MACCORKLE AVE SE", "postcode": "25304"}}},
{"geometry": {"type": "Point", "coordinates": [-81.5998637876, 38.3285062471]}, "type": "Feature", "properties": {"collection_times": [{"days": "Mon-Fri", "time": "11:00am"}, {"days": "Sat", "time": "10:00am"}, {"days": "Sun", "time": "Closed"}], "id": "2530400011", "name": "USPS COLLECTION BOX - BLUE BOX", "address": {"city": "CHARLESTON", "state": "WV", "street": "3416 MACCORKLE AVE SE", "postcode": "25304"}}},
{"geometry": {"type": "Point", "coordinates": [-81.5969736791, 38.3280848825]}, "type": "Feature", "properties": {"collection_times": [{"days": "Mon-Fri", "time": "3:00pm"}, {"days": "Sat", "time": "9:00am"}, {"days": "Sun", "time": "Closed"}], "id": "2530400012", "name": "USPS COLLECTION BOX - BLUE BOX", "address": {"city": "CHARLESTON", "state": "WV", "street": "3601 MACCORKLE AVE SE", "postcode": "25304"}}},
{"geometry": {"type": "Point", "coordinates": [-81.5921284244, 38.3263752967]}, "type": "Feature", "properties": {"collection_times": [{"days": "Mon-Sat", "time": "9:30am"}, {"days": "Sun", "time": "Closed"}], "id": "2530400027", "name": "USPS COLLECTION BOX - BLUE BOX", "address": {"city": "CHARLESTON", "state": "WV", "street": "3900 VENABLE AVE", "postcode": "25304"}}},
{"geometry": {"type": "Point", "coordinates": [-81.5984471434, 38.330001698]}, "type": "Feature", "properties": {"collection_times": [{"days": "Mon-Fri", "time": "10:00am"}, {"days": "Sat", "time": "9:00am"}, {"days": "Sun", "time": "Closed"}], "id": "2530400033", "name": "USPS COLLECTION BOX - BLUE BOX", "address": {"city": "CHARLESTON", "state": "WV", "street": "215 35TH ST SE", "postcode": "25304"}}},
{"geometry": {"type": "Point", "coordinates": [-81.6187762242, 38.3326585069]}, "type": "Feature", "properties": {"collection_times": [{"days": "Mon-Fri", "time": "4:00pm"}, {"days": "Sat", "time": "10:00am"}, {"days": "Sun", "time": "Closed"}], "id": "2530400035", "name": "USPS COLLECTION BOX - BLUE BOX", "address": {"city": "CHARLESTON", "state": "WV", "street": "2300 MACCORKLE AVE SE", "postcode": "25304"}}},
{"geometry": {"type": "Point", "coordinates": [-81.7058042251, 38.3653587022]}, "type": "Feature", "properties": {"collection_times": [{"days": "Mon-Fri", "time": "4:00pm"}, {"days": "Sat", "time": "9:00am"}, {"days": "Sun", "time": "Closed"}], "id": "2530400037", "name": "USPS COLLECTION BOX - BLUE BOX", "address": {"city": "CHARLESTON", "state": "WV", "street": "3100 MACCORKLE AVE SE", "postcode": "25304"}}},
{"geometry": {"type": "Point", "coordinates": [-81.5914721684, 38.3272652724]}, "type": "Feature", "properties": {"collection_times": [{"days": "Mon-Fri", "time": "3:00pm"}, {"days": "Sat", "time": "9:00am"}, {"days": "Sun", "time": "Closed"}], "id": "2530400045", "name": "USPS COLLECTION BOX - BLUE BOX", "address": {"city": "CHARLESTON", "state": "WV", "street": "3912 MACCORKLE AVE SE", "postcode": "25304"}}},
{"geometry": {"type": "Point", "coordinates": [-81.582806033, 38.32213558]}, "type": "Feature", "properties": {"collection_times": [{"days": "Mon-Fri", "time": "4:30pm"}, {"days": "Sat", "time": "12:00pm"}, {"days": "Sun", "time": "Closed"}], "id": "2530400049", "name": "USPS COLLECTION BOX - PO LOBBY", "address": {"city": "CHARLESTON", "state": "WV", "street": "4600 MACCORKLE AVE SE", "postcode": "25304"}}},
{"geometry": {"type": "Point", "coordinates": [-81.6005371669, 38.3262229504]}, "type": "Feature", "properties": {"collection_times": [{"days": "Mon-Fri", "time": "1:00pm"}, {"days": "Sat", "time": "10:00am"}, {"days": "Sun", "time": "Closed"}], "id": "2530400052", "name": "USPS COLLECTION BOX - BLUE BOX", "address": {"city": "CHARLESTON", "state": "WV", "street": "3410 CHESTERFIELD AVE", "postcode": "25304"}}},
{"geometry": {"type": "Point", "coordinates": [-81.586908214, 38.3243787807]}, "type": "Feature", "properties": {"collection_times": [{"days": "Mon-Fri", "time": "2:00pm"}, {"days": "Sat", "time": "9:00am"}, {"days": "Sun", "time": "Closed"}], "id": "2530400055", "name": "USPS COLLECTION BOX - BLUE BOX", "address": {"city": "CHARLESTON", "state": "WV", "street": "4301 MACCORKLE AVE SE", "postcode": "25304"}}},
{"geometry": {"type": "Point", "coordinates": [-81.5700786806, 38.3121390168]}, "type": "Feature", "properties": {"collection_times": [{"days": "Mon-Sat", "time": "10:00am"}, {"days": "Sun", "time": "Closed"}], "id": "2530400056", "name": "USPS COLLECTION BOX - BLUE BOX", "address": {"city": "CHARLESTON", "state": "WV", "street": "601 57TH ST SE", "postcode": "25304"}}},
{"geometry": {"type": "Point", "coordinates": [-81.5573162285, 38.2994171708]}, "type": "Feature", "properties": {"collection_times": [{"days": "Mon-Fri", "time": "2:00pm"}, {"days": "Sat", "time": "10:00am"}, {"days": "Sun", "time": "Closed"}], "id": "2530600013", "name": "USPS COLLECTION BOX - BLUE BOX", "address": {"city": "CHARLESTON", "state": "WV", "street": "4202 MALDEN DR", "postcode": "25306"}}},
{"geometry": {"type": "Point", "coordinates": [-81.5362935021, 38.3135362456]}, "type": "Feature", "properties": {"collection_times": [{"days": "Mon-Sat", "time": "11:00am"}, {"days": "Sun", "time": "Closed"}], "id": "2530600014", "name": "USPS COLLECTION BOX - BLUE BOX", "address": {"city": "CHARLESTON", "state": "WV", "street": "332 CAMPBELLS CREEK DR", "postcode": "25306"}}},
{"geometry": {"type": "Point", "coordinates": [-81.7259180037, 38.3554240656]}, "type": "Feature", "properties": {"collection_times": [{"days": "Mon-Fri", "time": "3:30pm"}, {"days": "Sat", "time": "10:00am"}, {"days": "Sun", "time": "Closed"}], "id": "2530900000", "name": "USPS COLLECTION BOX - BLUE BOX", "address": {"city": "CHARLESTON", "state": "WV", "street": "414 DIVISION ST", "postcode": "25309"}}},
{"geometry": {"type": "Point", "coordinates": [-81.7183614337, 38.3554090185]}, "type": "Feature", "properties": {"collection_times": [{"days": "Mon-Sat", "time": "10:00am"}, {"days": "Sun", "time": "Closed"}], "id": "2530900003", "name": "USPS COLLECTION BOX - BLUE BOX", "address": {"city": "CHARLESTON", "state": "WV", "street": "388 KENNA DR", "postcode": "25309"}}},
{"geometry": {"type": "Point", "coordinates": [-81.7266214765, 38.355534253]}, "type": "Feature", "properties": {"collection_times": [{"days": "Mon-Fri", "time": "3:30pm"}, {"days": "Sat", "time": "10:00am"}, {"days": "Sun", "time": "Closed"}], "id": "2530900007", "name": "USPS COLLECTION BOX - BLUE BOX", "address": {"city": "CHARLESTON", "state": "WV", "street": "4605 MACCORKLE AVE SW", "postcode": "25309"}}},
{"geometry": {"type": "Point", "coordinates": [-81.7147775887, 38.3223128669]}, "type": "Feature", "properties": {"collection_times": [{"days": "Mon-Fri", "time": "5:00pm"}, {"days": "Sat", "time": "11:00am"}, {"days": "Sun", "time": "Closed"}], "id": "2530900011", "name": "USPS COLLECTION BOX - BLUE BOX", "address": {"city": "CHARLESTON", "state": "WV", "street": "2470 MOUNTAINEER BLVD", "postcode": "25309"}}},
{"geometry": {"type": "Point", "coordinates": [-81.7270960052, 38.3563697082]}, "type": "Feature", "properties": {"collection_times": [{"days": "Mon-Fri", "time": "10:30am"}, {"days": "Sat", "time": "10:00am"}, {"days": "Sun", "time": "Closed"}], "id": "2530900015", "name": "USPS COLLECTION BOX - BLUE BOX", "address": {"city": "CHARLESTON", "state": "WV", "street": "4610 KANAWHA AVE SW", "postcode": "25309"}}},
{"geometry": {"type": "Point", "coordinates": [-81.7308087043, 38.3525699727]}, "type": "Feature", "properties": {"collection_times": [{"days": "Mon-Fri", "time": "10:30am"}, {"days": "Sat", "time": "10:00am"}, {"days": "Sun", "time": "Closed"}], "id": "2530900019", "name": "USPS COLLECTION BOX - BLUE BOX", "address": {"city": "CHARLESTON", "state": "WV", "street": "608 CHESTNUT ST", "postcode": "25309"}}},
{"geometry": {"type": "Point", "coordinates": [-81.7139590215, 38.3291065449]}, "type": "Feature", "properties": {"collection_times": [{"days": "Mon-Sat", "time": "11:00am"}, {"days": "Sun", "time": "Closed"}], "id": "2530900026", "name": "USPS COLLECTION BOX - BLUE BOX", "address": {"city": "CHARLESTON", "state": "WV", "street": "106 R H L BLVD", "postcode": "25309"}}},
{"geometry": {"type": "Point", "coordinates": [-81.7266511616, 38.3555231495]}, "type": "Feature", "properties": {"collection_times": [{"days": "Mon-Fri", "time": "11:00am"}, {"days": "Sat", "time": "10:00am"}, {"days": "Sun", "time": "Closed"}], "id": "2530900027", "name": "USPS COLLECTION BOX - BLUE BOX", "address": {"city": "CHARLESTON", "state": "WV", "street": "4607 MACCORKLE AVE SW", "postcode": "25309"}}},
{"geometry": {"type": "Point", "coordinates": [-81.6103951077, 38.3365853838]}, "type": "Feature", "properties": {"collection_times": [{"days": "Mon-Fri", "time": "3:30pm"}, {"days": "Sat", "time": "10:00am"}, {"days": "Sun", "time": "Closed"}], "id": "2531100001", "name": "USPS COLLECTION BOX - BLUE BOX", "address": {"city": "CHARLESTON", "state": "WV", "street": "112 CALIFORNIA AVE", "postcode": "25311"}}},
{"geometry": {"type": "Point", "coordinates": [-81.6099950608, 38.3373901125]}, "type": "Feature", "properties": {"collection_times": [{"days": "Mon-Fri", "time": "3:30pm"}, {"days": "Sat", "time": "10:00am"}, {"days": "Sun", "time": "Closed"}], "id": "2531100002", "name": "USPS COLLECTION BOX - BLUE BOX", "address": {"city": "CHARLESTON", "state": "WV", "street": "212 CALIFORNIA AVE", "postcode": "25311"}}},
{"geometry": {"type": "Point", "coordinates": [-81.6006418549, 38.3402251366]}, "type": "Feature", "properties": {"collection_times": [{"days": "Mon-Fri", "time": "3:45pm"}, {"days": "Sat", "time": "9:00am"}, {"days": "Sun", "time": "Closed"}], "id": "2531100008", "name": "USPS COLLECTION BOX - BLUE BOX", "address": {"city": "CHARLESTON", "state": "WV", "street": "101 DEE DR", "postcode": "25311"}}},
{"geometry": {"type": "Point", "coordinates": [-81.6253944689, 38.3413210732]}, "type": "Feature", "properties": {"collection_times": [{"days": "Mon-Sat", "time": "9:30am"}, {"days": "Sun", "time": "Closed"}], "id": "2531100019", "name": "USPS COLLECTION BOX - BLUE BOX", "address": {"city": "CHARLESTON", "state": "WV", "street": "1501 VIRGINIA ST E", "postcode": "25311"}}},
{"geometry": {"type": "Point", "coordinates": [-81.618151701, 38.3385364658]}, "type": "Feature", "properties": {"collection_times": [{"days": "Mon-Sat", "time": "10:00am"}, {"days": "Sun", "time": "Closed"}], "id": "2531100022", "name": "USPS COLLECTION BOX - BLUE BOX", "address": {"city": "CHARLESTON", "state": "WV", "street": "1600 VIRGINIA ST E", "postcode": "25311"}}},
{"geometry": {"type": "Point", "coordinates": [-81.6162793666, 38.340439302]}, "type": "Feature", "properties": {"collection_times": [{"days": "Mon-Sat", "time": "10:00am"}, {"days": "Sun", "time": "Closed"}], "id": "2531100025", "name": "USPS COLLECTION BOX - BLUE BOX", "address": {"city": "CHARLESTON", "state": "WV", "street": "1606 WASHINGTON ST E", "postcode": "25311"}}},
{"geometry": {"type": "Point", "coordinates": [-81.6182004088, 38.3412122769]}, "type": "Feature", "properties": {"collection_times": [{"days": "Mon-Sat", "time": "9:30am"}, {"days": "Sun", "time": "Closed"}], "id": "2531100028", "name": "USPS COLLECTION BOX - BLUE BOX", "address": {"city": "CHARLESTON", "state": "WV", "street": "1579 WASHINGTON ST E", "postcode": "25311"}}},
{"geometry": {"type": "Point", "coordinates": [-81.6006418549, 38.3402251366]}, "type": "Feature", "properties": {"collection_times": [{"days": "Mon-Fri", "time": "3:45pm"}, {"days": "Sat", "time": "9:00am"}, {"days": "Sun", "time": "Closed"}], "id": "2531100041", "name": "USPS COLLECTION BOX - BLUE BOX", "address": {"city": "CHARLESTON", "state": "WV", "street": "101 DEE DR", "postcode": "25311"}}},
{"geometry": {"type": "Point", "coordinates": [-81.5600478168, 38.3597524882]}, "type": "Feature", "properties": {"collection_times": [{"days": "Mon-Fri", "time": "3:45pm"}, {"days": "Sat", "time": "10:00am"}, {"days": "Sun", "time": "Closed"}], "id": "2531100047", "name": "USPS COLLECTION BOX - BLUE BOX", "address": {"city": "CHARLESTON", "state": "WV", "street": "1 DEITRICK DR", "postcode": "25311"}}},
{"geometry": {"type": "Point", "coordinates": [-81.6095658, 38.337113489]}, "type": "Feature", "properties": {"collection_times": [{"days": "Mon-Fri", "time": "3:15pm"}, {"days": "Sat-Sun", "time": "Closed"}], "id": "2531100048", "name": "USPS COLLECTION BOX - BLUE BOX", "address": {"city": "CHARLESTON", "state": "WV", "street": "1900 WASHINGTON ST E", "postcode": "25311"}}},
{"geometry": {"type": "Point", "coordinates": [-81.5600478168, 38.3597524882]}, "type": "Feature", "properties": {"collection_times": [{"days": "Mon-Fri", "time": "3:45pm"}, {"days": "Sat", "time": "10:00am"}, {"days": "Sun", "time": "Closed"}], "id": "2531100049", "name": "USPS COLLECTION BOX - BLUE BOX", "address": {"city": "CHARLESTON", "state": "WV", "street": "1 DEITRICK DR", "postcode": "25311"}}},
{"geometry": {"type": "Point", "coordinates": [-81.6226586428, 38.3390064629]}, "type": "Feature", "properties": {"collection_times": [{"days": "Mon-Sat", "time": "10:00am"}, {"days": "Sun", "time": "Closed"}], "id": "2531100050", "name": "USPS COLLECTION BOX - BLUE BOX", "address": {"city": "CHARLESTON", "state": "WV", "street": "1546 KANAWHA BLVD E", "postcode": "25311"}}},
{"geometry": {"type": "Point", "coordinates": [-81.6084444351, 38.3350893123]}, "type": "Feature", "properties": {"collection_times": [{"days": "Mon-Sat", "time": "10:00am"}, {"days": "Sun", "time": "Closed"}], "id": "2531100053", "name": "USPS COLLECTION BOX - BLUE BOX", "address": {"city": "CHARLESTON", "state": "WV", "street": "2110 KANAWHA BLVD E", "postcode": "25311"}}},
{"geometry": {"type": "Point", "coordinates": [-81.6571799056, 38.4536716787]}, "type": "Feature", "properties": {"collection_times": [{"days": "Mon-Sat", "time": "10:00am"}, {"days": "Sun", "time": "Closed"}], "id": "2531200003", "name": "USPS COLLECTION BOX - BLUE BOX", "address": {"city": "CHARLESTON", "state": "WV", "street": "102 HILLS PLZ", "postcode": "25312"}}},
{"geometry": {"type": "Point", "coordinates": [-81.662092182, 38.3724935932]}, "type": "Feature", "properties": {"collection_times": [{"days": "Mon-Sat", "time": "9:30am"}, {"days": "Sun", "time": "Closed"}], "id": "2531200007", "name": "USPS COLLECTION BOX - BLUE BOX", "address": {"city": "CHARLESTON", "state": "WV", "street": "1625 WASHINGTON ST W", "postcode": "25312"}}},
{"geometry": {"type": "Point", "coordinates": [-81.6628838831, 38.368205154]}, "type": "Feature", "properties": {"collection_times": [{"days": "Mon-Sat", "time": "11:00am"}, {"days": "Sun", "time": "Closed"}], "id": "2531200011", "name": "USPS COLLECTION BOX - BLUE BOX", "address": {"city": "CHARLESTON", "state": "WV", "street": "1550 4TH AVE", "postcode": "25312"}}},
{"geometry": {"type": "Point", "coordinates": [-81.6658882706, 38.3761398823]}, "type": "Feature", "properties": {"collection_times": [{"days": "Mon-Sat", "time": "9:00am"}, {"days": "Sun", "time": "Closed"}], "id": "2531200014", "name": "USPS COLLECTION BOX - BLUE BOX", "address": {"city": "CHARLESTON", "state": "WV", "street": "901 GRIFFIN DR", "postcode": "25312"}}},
{"geometry": {"type": "Point", "coordinates": [-81.6765228365, 38.376522469]}, "type": "Feature", "properties": {"collection_times": [{"days": "Mon-Fri", "time": "3:00pm"}, {"days": "Sat", "time": "2:00pm"}, {"days": "Sun", "time": "Closed"}], "id": "2531200018", "name": "USPS COLLECTION BOX - BLUE BOX", "address": {"city": "CHARLESTON", "state": "WV", "street": "2328 7TH AVE", "postcode": "25312"}}},
{"geometry": {"type": "Point", "coordinates": [-81.6680841397, 38.3673110793]}, "type": "Feature", "properties": {"collection_times": [{"days": "Mon-Sat", "time": "10:00am"}, {"days": "Sun", "time": "Closed"}], "id": "2531200021", "name": "USPS COLLECTION BOX - BLUE BOX", "address": {"city": "CHARLESTON", "state": "WV", "street": "122 HILLS PLZ", "postcode": "25312"}}},
{"geometry": {"type": "Point", "coordinates": [-81.7846089923, 38.4269808769]}, "type": "Feature", "properties": {"collection_times": [{"days": "Mon-Sat", "time": "10:00am"}, {"days": "Sun", "time": "Closed"}], "id": "2531300002", "name": "USPS COLLECTION BOX - BLUE BOX", "address": {"city": "CHARLESTON", "state": "WV", "street": "5450 BIG TYLER RD", "postcode": "25313"}}},
{"geometry": {"type": "Point", "coordinates": [-81.7954292286, 38.4140963129]}, "type": "Feature", "properties": {"collection_times": [{"days": "Mon-Sat", "time": "10:00am"}, {"days": "Sun", "time": "Closed"}], "id": "2531300003", "name": "USPS COLLECTION BOX - BLUE BOX", "address": {"city": "CHARLESTON", "state": "WV", "street": "130 GOFF MOUNTAIN RD", "postcode": "25313"}}},
{"geometry": {"type": "Point", "coordinates": [-81.7823706293, 38.4207468007]}, "type": "Feature", "properties": {"collection_times": [{"days": "Mon-Sat", "time": "10:00am"}, {"days": "Sun", "time": "Closed"}], "id": "2531300007", "name": "USPS COLLECTION BOX - BLUE BOX", "address": {"city": "CHARLESTON", "state": "WV", "street": "5101 WASHINGTON ST W", "postcode": "25313"}}},
{"geometry": {"type": "Point", "coordinates": [-81.7639787728, 38.4265094928]}, "type": "Feature", "properties": {"collection_times": [{"days": "Mon-Sat", "time": "10:00am"}, {"days": "Sun", "time": "Closed"}], "id": "2531300008", "name": "USPS COLLECTION BOX - BLUE BOX", "address": {"city": "CHARLESTON", "state": "WV", "street": "100 NITRO MARKET PL", "postcode": "25313"}}},
{"geometry": {"type": "Point", "coordinates": [-81.7700866654, 38.4319996123]}, "type": "Feature", "properties": {"collection_times": [{"days": "Mon-Fri", "time": "4:30pm"}, {"days": "Sat", "time": "3:00pm"}, {"days": "Sun", "time": "Closed"}], "id": "2531300010", "name": "USPS COLLECTION BOX - BLUE BOX", "address": {"city": "CHARLESTON", "state": "WV", "street": "5306 BIG TYLER RD", "postcode": "25313"}}},
{"geometry": {"type": "Point", "coordinates": [-81.7954906877, 38.4206860926]}, "type": "Feature", "properties": {"collection_times": [{"days": "Mon-Sat", "time": "10:00am"}, {"days": "Sun", "time": "Closed"}], "id": "2531300011", "name": "USPS COLLECTION BOX - BLUE BOX", "address": {"city": "CHARLESTON", "state": "WV", "street": "903 CROSS LANES DR", "postcode": "25313"}}},
{"geometry": {"type": "Point", "coordinates": [-81.7700107512, 38.431968393]}, "type": "Feature", "properties": {"collection_times": [{"days": "Mon-Fri", "time": "4:30pm"}, {"days": "Sat", "time": "3:00pm"}, {"days": "Sun", "time": "Closed"}], "id": "2531300012", "name": "USPS COLLECTION BOX - PO LOBBY", "address": {"city": "CHARLESTON", "state": "WV", "street": "5306 BIG TYLER RD", "postcode": "25313"}}},
{"geometry": {"type": "Point", "coordinates": [-81.6767551135, 38.34197355]}, "type": "Feature", "properties": {"collection_times": [{"days": "Mon-Fri", "time": "2:00pm"}, {"days": "Sat", "time": "9:00am"}, {"days": "Sun", "time": "Closed"}], "id": "2531400000", "name": "USPS COLLECTION BOX - BLUE BOX", "address": {"city": "CHARLESTON", "state": "WV", "street": "1100 FLEDDERJOHN RD", "postcode": "25314"}}},
{"geometry": {"type": "Point", "coordinates": [-81.6604386598, 38.3324025752]}, "type": "Feature", "properties": {"collection_times": [{"days": "Mon-Sat", "time": "10:00am"}, {"days": "Sun", "time": "Closed"}], "id": "2531400001", "name": "USPS COLLECTION BOX - BLUE BOX", "address": {"city": "CHARLESTON", "state": "WV", "street": "402 BOW HUNTER RD", "postcode": "25314"}}},
{"geometry": {"type": "Point", "coordinates": [-81.642559418, 38.3411988964]}, "type": "Feature", "properties": {"collection_times": [{"days": "Mon-Sat", "time": "2:30pm"}, {"days": "Sun", "time": "Closed"}], "id": "2531400002", "name": "USPS COLLECTION BOX - BLUE BOX", "address": {"city": "CHARLESTON", "state": "WV", "street": "1001 BRIDGE RD", "postcode": "25314"}}},
{"geometry": {"type": "Point", "coordinates": [-81.6544546358, 38.3467133355]}, "type": "Feature", "properties": {"collection_times": [{"days": "Mon-Fri", "time": "2:00pm"}, {"days": "Sat", "time": "9:00am"}, {"days": "Sun", "time": "Closed"}], "id": "2531400010", "name": "USPS COLLECTION BOX - BLUE BOX", "address": {"city": "CHARLESTON", "state": "WV", "street": "888 OAKWOOD RD", "postcode": "25314"}}},
{"geometry": {"type": "Point", "coordinates": [-81.6404402778, 38.3484607531]}, "type": "Feature", "properties": {"collection_times": [{"days": "Mon-Fri", "time": "2:30pm"}, {"days": "Sat", "time": "9:00am"}, {"days": "Sun", "time": "Closed"}], "id": "2531400013", "name": "USPS COLLECTION BOX - BLUE BOX", "address": {"city": "CHARLESTON", "state": "WV", "street": "340 MACCORKLE AVE SE", "postcode": "25314"}}},
{"geometry": {"type": "Point", "coordinates": [-81.6291365061, 38.3382941059]}, "type": "Feature", "properties": {"collection_times": [{"days": "Mon-Fri", "time": "2:00pm"}, {"days": "Sat", "time": "9:00am"}, {"days": "Sun", "time": "Closed"}], "id": "2531400014", "name": "USPS COLLECTION BOX - BLUE BOX", "address": {"city": "CHARLESTON", "state": "WV", "street": "1410 MACCORKLE AVE SE", "postcode": "25314"}}},
{"geometry": {"type": "Point", "coordinates": [-81.5369281878, 38.2239958798]}, "type": "Feature", "properties": {"collection_times": [{"days": "Mon-Fri", "time": "1:30pm"}, {"days": "Sat", "time": "11:00am"}, {"days": "Sun", "time": "Closed"}], "id": "2531500004", "name": "USPS COLLECTION BOX - BLUE BOX", "address": {"city": "CHARLESTON", "state": "WV", "street": "12404 MACCORKLE AVE", "postcode": "25315"}}},
{"geometry": {"type": "Point", "coordinates": [-81.5677992576, 38.2462011222]}, "type": "Feature", "properties": {"collection_times": [{"days": "Mon-Fri", "time": "2:00pm"}, {"days": "Sat", "time": "12:00pm"}, {"days": "Sun", "time": "Closed"}], "id": "2531500012", "name": "USPS COLLECTION BOX - BLUE BOX", "address": {"city": "CHARLESTON", "state": "WV", "street": "9303 MACCORKLE AVE", "postcode": "25315"}}},
{"geometry": {"type": "Point", "coordinates": [-81.6347596773, 38.5318513627]}, "type": "Feature", "properties": {"collection_times": [{"days": "Mon-Sat", "time": "12:00pm"}, {"days": "Sun", "time": "Closed"}], "id": "2532000001", "name": "USPS COLLECTION BOX - BLUE BOX", "address": {"city": "CHARLESTON", "state": "WV", "street": "6405 SISSONVILLE DR", "postcode": "25320"}}},
{"geometry": {"type": "Point", "coordinates": [-81.6710277868, 38.4748314933]}, "type": "Feature", "properties": {"collection_times": [{"days": "Mon-Fri", "time": "3:15pm"}, {"days": "Sat", "time": "12:30pm"}, {"days": "Sun", "time": "Closed"}], "id": "2532000003", "name": "USPS COLLECTION BOX - BLUE BOX", "address": {"city": "CHARLESTON", "state": "WV", "street": "6088 SISSONVILLE DR", "postcode": "25320"}}}
]}
