{"type": "FeatureCollection", "features": [
{"geometry": {"type": "Point", "coordinates": [-77.9647042588, 39.4581115178]}, "type": "Feature", "properties": {"collection_times": [{"days": "Mon-Fri", "time": "3:30pm"}, {"days": "Sat", "time": "9:30am"}, {"days": "Sun", "time": "Closed"}], "id": "2540100000", "name": "USPS COLLECTION BOX - BLUE BOX", "address": {"city": "MARTINSBURG", "state": "WV", "street": "130 COLLEGE ST", "postcode": "25401"}}},
{"geometry": {"type": "Point", "coordinates": [-77.9649524143, 39.4573174164]}, "type": "Feature", "properties": {"collection_times": [{"days": "Mon-Fri", "time": "3:30pm"}, {"days": "Sat", "time": "9:30am"}, {"days": "Sun", "time": "Closed"}], "id": "2540100001", "name": "USPS COLLECTION BOX - BLUE BOX", "address": {"city": "MARTINSBURG", "state": "WV", "street": "130 S COLLEGE ST", "postcode": "25401"}}},
{"geometry": {"type": "Point", "coordinates": [-77.9646248621, 39.4537245571]}, "type": "Feature", "properties": {"collection_times": [{"days": "Mon-Fri", "time": "3:45pm"}, {"days": "Sat", "time": "10:30am"}, {"days": "Sun", "time": "Closed"}], "id": "2540100008", "name": "USPS COLLECTION BOX - BLUE BOX", "address": {"city": "MARTINSBURG", "state": "WV", "street": "401 S QUEEN ST", "postcode": "25401"}}},
{"geometry": {"type": "Point", "coordinates": [-77.9610086341, 39.4518598501]}, "type": "Feature", "properties": {"collection_times": [{"days": "Mon-Sat", "time": "2:00pm"}, {"days": "Sun", "time": "Closed"}], "id": "2540100010", "name": "USPS COLLECTION BOX - BLUE BOX", "address": {"city": "MARTINSBURG", "state": "WV", "street": "419 E STEPHEN ST", "postcode": "25401"}}},
{"geometry": {"type": "Point", "coordinates": [-77.9582316972, 39.4772072141]}, "type": "Feature", "properties": {"collection_times": [{"days": "Mon-Fri", "time": "4:30pm"}, {"days": "Sat", "time": "11:00am"}, {"days": "Sun", "time": "Closed"}], "id": "2540100013", "name": "USPS COLLECTION BOX - BLUE BOX", "address": {"city": "MARTINSBURG", "state": "WV", "street": "1444 EDWIN MILLER BLVD", "postcode": "25401"}}},
{"geometry": {"type": "Point", "coordinates": [-77.9872572908, 39.4348742209]}, "type": "Feature", "properties": {"collection_times": [{"days": "Mon-Sat", "time": "12:30pm"}, {"days": "Sun", "time": "Closed"}], "id": "2540100017", "name": "USPS COLLECTION BOX - BLUE BOX", "address": {"city": "MARTINSBURG", "state": "WV", "street": "200 SHENANDOAH RD", "postcode": "25401"}}},
{"geometry": {"type": "Point", "coordinates": [-77.9465482358, 39.4649256416]}, "type": "Feature", "properties": {"collection_times": [{"days": "Mon-Sat", "time": "10:00am"}, {"days": "Sun", "time": "Closed"}], "id": "2540100021", "name": "USPS COLLECTION BOX - BLUE BOX", "address": {"city": "MARTINSBURG", "state": "WV", "street": "846 E MOLER AVE", "postcode": "25401"}}},
{"geometry": {"type": "Point", "coordinates": [-77.9880317857, 39.4559026769]}, "type": "Feature", "properties": {"collection_times": [{"days": "Mon-Fri", "time": "11:00am"}, {"days": "Sat", "time": "10:00am"}, {"days": "Sun", "time": "Closed"}], "id": "2540100022", "name": "USPS COLLECTION BOX - BLUE BOX", "address": {"city": "MARTINSBURG", "state": "WV", "street": "600 FOXCROFT APTS", "postcode": "25401"}}},
{"geometry": {"type": "Point", "coordinates": [-77.9886975182, 39.4619443033]}, "type": "Feature", "properties": {"collection_times": [{"days": "Mon-Sat", "time": "10:30am"}, {"days": "Sun", "time": "Closed"}], "id": "2540100024", "name": "USPS COLLECTION BOX - BLUE BOX", "address": {"city": "MARTINSBURG", "state": "WV", "street": "206 S VIKING WAY", "postcode": "25401"}}},
{"geometry": {"type": "Point", "coordinates": [-77.9684322908, 39.4544788627]}, "type": "Feature", "properties": {"collection_times": [{"days": "Mon-Fri", "time": "3:30pm"}, {"days": "Sat", "time": "9:00am"}, {"days": "Sun", "time": "Closed"}], "id": "2540100025", "name": "USPS COLLECTION BOX - BLUE BOX", "address": {"city": "MARTINSBURG", "state": "WV", "street": "400 W STEPHEN ST", "postcode": "25401"}}},
{"geometry": {"type": "Point", "coordinates": [-77.9639047089, 39.4562750102]}, "type": "Feature", "properties": {"collection_times": [{"days": "Mon-Fri", "time": "3:30pm"}, {"days": "Sat", "time": "9:30am"}, {"days": "Sun", "time": "Closed"}], "id": "2540100028", "name": "USPS COLLECTION BOX - BLUE BOX", "address": {"city": "MARTINSBURG", "state": "WV", "street": "100 W KING ST", "postcode": "25401"}}},
{"geometry": {"type": "Point", "coordinates": [-77.9637343539, 39.4570554997]}, "type": "Feature", "properties": {"collection_times": [{"days": "Mon-Fri", "time": "3:45pm"}, {"days": "Sat", "time": "9:30am"}, {"days": "Sun", "time": "Closed"}], "id": "2540100029", "name": "USPS COLLECTION BOX - BLUE BOX", "address": {"city": "MARTINSBURG", "state": "WV", "street": "134 S QUEEN ST", "postcode": "25401"}}},
{"geometry": {"type": "Point", "coordinates": [-77.9719831384, 39.4612828461]}, "type": "Feature", "properties": {"collection_times": [{"days": "Mon-Sat", "time": "12:00pm"}, {"days": "Sun", "time": "Closed"}], "id": "2540100035", "name": "USPS COLLECTION BOX - BLUE BOX", "address": {"city": "MARTINSBURG", "state": "WV", "street": "5724 HAMMONDS MILL RD", "postcode": "25401"}}},
{"geometry": {"type": "Point", "coordinates": [-77.970244781, 39.4728097408]}, "type": "Feature", "properties": {"collection_times": [{"days": "Mon-Fri", "time": "4:00pm"}, {"days": "Sat", "time": "2:00pm"}, {"days": "Sun", "time": "Closed"}], "id": "2540100036", "name": "USPS COLLECTION BOX - BLUE BOX", "address": {"city": "MARTINSBURG", "state": "WV", "street": "309 ROCK CLIFF DR", "postcode": "25401"}}},
{"geometry": {"type": "Point", "coordinates": [-77.9810511385, 39.474626754]}, "type": "Feature", "properties": {"collection_times": [{"days": "Mon-Sat", "time": "12:00pm"}, {"days": "Sun", "time": "Closed"}], "id": "2540100044", "name": "USPS COLLECTION BOX - BLUE BOX", "address": {"city": "MARTINSBURG", "state": "WV", "street": "2000 FOUNDATION WAY", "postcode": "25401"}}},
{"geometry": {"type": "Point", "coordinates": [-77.9684322908, 39.4544788627]}, "type": "Feature", "properties": {"collection_times": [{"days": "Mon-Fri", "time": "3:30pm"}, {"days": "Sat", "time": "9:00am"}, {"days": "Sun", "time": "Closed"}], "id": "2540100049", "name": "USPS COLLECTION BOX - BLUE BOX", "address": {"city": "MARTINSBURG", "state": "WV", "street": "400 W STEPHEN ST", "postcode": "25401"}}},
{"geometry": {"type": "Point", "coordinates": [-77.9881750762, 39.4526360221]}, "type": "Feature", "properties": {"collection_times": [{"days": "Mon-Fri", "time": "5:00pm"}, {"days": "Sat", "time": "3:00pm"}, {"days": "Sun", "time": "Closed"}], "id": "2540100053", "name": "USPS COLLECTION BOX - BLUE BOX", "address": {"city": "MARTINSBURG", "state": "WV", "street": "800 FOXCROFT AVE", "postcode": "25401"}}},
{"geometry": {"type": "Point", "coordinates": [-77.9719831384, 39.4612828461]}, "type": "Feature", "properties": {"collection_times": [{"days": "Mon-Sat", "time": "10:00am"}, {"days": "Sun", "time": "Closed"}], "id": "2540100054", "name": "USPS COLLECTION BOX - BLUE BOX", "address": {"city": "MARTINSBURG", "state": "WV", "street": "801 ELM DR", "postcode": "25401"}}},
{"geometry": {"type": "Point", "coordinates": [-77.9563390462, 39.4731738113]}, "type": "Feature", "properties": {"collection_times": [{"days": "Mon-Fri", "time": "6:00pm"}, {"days": "Sat", "time": "5:00pm"}, {"days": "Sun", "time": "Closed"}], "id": "2540100056", "name": "USPS COLLECTION BOX - BLUE BOX", "address": {"city": "MARTINSBURG", "state": "WV", "street": "1355 OLD COURTHOUSE SQ", "postcode": "25401"}}},
{"geometry": {"type": "Point", "coordinates": [-77.9563390462, 39.4731738113]}, "type": "Feature", "properties": {"collection_times": [{"days": "Mon-Fri", "time": "6:00pm"}, {"days": "Sat", "time": "5:00pm"}, {"days": "Sun", "time": "Closed"}], "id": "2540100057", "name": "USPS COLLECTION BOX - BLUE BOX", "address": {"city": "MARTINSBURG", "state": "WV", "street": "1355 OLD COURTHOUSE SQ", "postcode": "25401"}}},
{"geometry": {"type": "Point", "coordinates": [-77.9563390462, 39.4731738113]}, "type": "Feature", "properties": {"collection_times": [{"days": "Mon-Fri", "time": "6:00pm"}, {"days": "Sat", "time": "5:00pm"}, {"days": "Sun", "time": "Closed"}], "id": "2540100058", "name": "USPS COLLECTION BOX - BLUE BOX", "address": {"city": "MARTINSBURG", "state": "WV", "street": "1355 OLD COURTHOUSE SQ", "postcode": "25401"}}},
{"geometry": {"type": "Point", "coordinates": [-77.9719831384, 39.4612828461]}, "type": "Feature", "properties": {"collection_times": [{"days": "Mon-Fri", "time": "4:00pm"}, {"days": "Sat", "time": "3:00pm"}, {"days": "Sun", "time": "Closed"}], "id": "2540100061", "name": "USPS COLLECTION BOX - BLUE BOX", "address": {"city": "MARTINSBURG", "state": "WV", "street": "4081 WILLIAMSPORT PIKE", "postcode": "25401"}}},
{"geometry": {"type": "Point", "coordinates": [-77.9563390462, 39.4731738113]}, "type": "Feature", "properties": {"collection_times": [{"days": "Mon-Sat", "time": "6:00pm"}, {"days": "Sun", "time": "Closed"}], "id": "2540100062", "name": "USPS COLLECTION BOX - PO LOBBY", "address": {"city": "MARTINSBURG", "state": "WV", "street": "1355 OLD COURTHOUSE SQ", "postcode": "25401"}}},
{"geometry": {"type": "Point", "coordinates": [-77.9637343539, 39.4570554997]}, "type": "Feature", "properties": {"collection_times": [{"days": "Mon-Fri", "time": "3:45pm"}, {"days": "Sat", "time": "9:30am"}, {"days": "Sun", "time": "Closed"}], "id": "2540100065", "name": "USPS COLLECTION BOX - BLUE BOX", "address": {"city": "MARTINSBURG", "state": "WV", "street": "134 S QUEEN ST", "postcode": "25401"}}},
{"geometry": {"type": "Point", "coordinates": [-77.9563390462, 39.4731738113]}, "type": "Feature", "properties": {"collection_times": [{"days": "Mon-Fri", "time": "6:00pm"}, {"days": "Sat", "time": "3:30pm"}, {"days": "Sun", "time": "Closed"}], "id": "2540100066", "name": "USPS COLLECTION BOX - APC", "address": {"city": "MARTINSBURG", "state": "WV", "street": "1355 OLD COURTHOUSE SQ", "postcode": "25401"}}},
{"geometry": {"type": "Point", "coordinates": [-77.9639047089, 39.4562750102]}, "type": "Feature", "properties": {"collection_times": [{"days": "Mon-Fri", "time": "3:30pm"}, {"days": "Sat", "time": "9:30am"}, {"days": "Sun", "time": "Closed"}], "id": "2540100067", "name": "USPS COLLECTION BOX - BLUE BOX", "address": {"city": "MARTINSBURG", "state": "WV", "street": "100 W KING ST", "postcode": "25401"}}},
{"geometry": {"type": "Point", "coordinates": [-77.9686052037, 39.453199891]}, "type": "Feature", "properties": {"collection_times": [{"days": "Mon-Fri", "time": "3:30pm"}, {"days": "Sat", "time": "9:00am"}, {"days": "Sun", "time": "Closed"}], "id": "2540100068", "name": "USPS COLLECTION BOX - BLUE BOX", "address": {"city": "MARTINSBURG", "state": "WV", "street": "380 W SOUTH ST", "postcode": "25401"}}},
{"geometry": {"type": "Point", "coordinates": [-77.9686052037, 39.453199891]}, "type": "Feature", "properties": {"collection_times": [{"days": "Mon-Fri", "time": "3:30pm"}, {"days": "Sat", "time": "9:00am"}, {"days": "Sun", "time": "Closed"}], "id": "2540100069", "name": "USPS COLLECTION BOX - BLUE BOX", "address": {"city": "MARTINSBURG", "state": "WV", "street": "380 W SOUTH ST", "postcode": "25401"}}},
{"geometry": {"type": "Point", "coordinates": [-77.9168789261, 39.4180867263]}, "type": "Feature", "properties": {"collection_times": [{"days": "Mon-Fri", "time": "10:00am"}, {"days": "Sat-Sun", "time": "Closed"}], "id": "2540100070", "name": "USPS COLLECTION BOX - BLUE BOX", "address": {"city": "MARTINSBURG", "state": "WV", "street": "244 NEEDY RD", "postcode": "25401"}}},
{"geometry": {"type": "Point", "coordinates": [-77.9772907177, 39.4069434636]}, "type": "Feature", "properties": {"collection_times": [{"days": "Mon-Sat", "time": "10:00am"}, {"days": "Sun", "time": "Closed"}], "id": "2540100071", "name": "USPS COLLECTION BOX - BLUE BOX", "address": {"city": "MARTINSBURG", "state": "WV", "street": "222 SABRE JET BLVD", "postcode": "25401"}}},
{"geometry": {"type": "Point", "coordinates": [-78.2284471605, 39.6273436173]}, "type": "Feature", "properties": {"collection_times": [{"days": "Mon-Fri", "time": "2:15pm"}, {"days": "Sat", "time": "2:00pm"}, {"days": "Sun", "time": "Closed"}], "id": "2541100003", "name": "USPS COLLECTION BOX - BLUE BOX", "address": {"city": "BERKELEY SPGS", "state": "WV", "street": "83 FAIRFAX ST", "postcode": "25411"}}},
{"geometry": {"type": "Point", "coordinates": [-78.2300846968, 39.6211883153]}, "type": "Feature", "properties": {"collection_times": [{"days": "Mon-Fri", "time": "4:30pm"}, {"days": "Sat", "time": "3:30pm"}, {"days": "Sun", "time": "Closed"}], "id": "2541100009", "name": "USPS COLLECTION BOX - BLUE BOX", "address": {"city": "BERKELEY SPGS", "state": "WV", "street": "417 N WASHINGTON ST", "postcode": "25411"}}},
{"geometry": {"type": "Point", "coordinates": [-78.2269119706, 39.6281703724]}, "type": "Feature", "properties": {"collection_times": [{"days": "Mon-Fri", "time": "4:30pm"}, {"days": "Sat", "time": "3:30pm"}, {"days": "Sun", "time": "Closed"}], "id": "2541100010", "name": "USPS COLLECTION BOX - PO LOBBY", "address": {"city": "BERKELEY SPGS", "state": "WV", "street": "417 N WASHINGTON ST", "postcode": "25411"}}},
{"geometry": {"type": "Point", "coordinates": [-78.0475291191, 39.3114425963]}, "type": "Feature", "properties": {"collection_times": [{"days": "Mon-Fri", "time": "4:00pm"}, {"days": "Sat", "time": "11:00am"}, {"days": "Sun", "time": "Closed"}], "id": "2541300000", "name": "USPS COLLECTION BOX - BLUE BOX", "address": {"city": "BUNKER HILL", "state": "WV", "street": "9604 WINCHESTER AVE", "postcode": "25413"}}},
{"geometry": {"type": "Point", "coordinates": [-78.0475291191, 39.3114425963]}, "type": "Feature", "properties": {"collection_times": [{"days": "Mon-Fri", "time": "4:00pm"}, {"days": "Sat", "time": "11:00am"}, {"days": "Sun", "time": "Closed"}], "id": "2541300001", "name": "USPS COLLECTION BOX - PO LOBBY", "address": {"city": "BUNKER HILL", "state": "WV", "street": "9604 WINCHESTER AVE", "postcode": "25413"}}},
{"geometry": {"type": "Point", "coordinates": [-77.8599530782, 39.2890254816]}, "type": "Feature", "properties": {"collection_times": [{"days": "Mon-Fri", "time": "5:00pm"}, {"days": "Sat", "time": "12:00pm"}, {"days": "Sun", "time": "Closed"}], "id": "2541400001", "name": "USPS COLLECTION BOX - BLUE BOX", "address": {"city": "CHARLES TOWN", "state": "WV", "street": "101 W WASHINGTON ST", "postcode": "25414"}}},
{"geometry": {"type": "Point", "coordinates": [-77.8599530782, 39.2890254816]}, "type": "Feature", "properties": {"collection_times": [{"days": "Mon-Fri", "time": "5:00pm"}, {"days": "Sat", "time": "12:00pm"}, {"days": "Sun", "time": "Closed"}], "id": "2541400003", "name": "USPS COLLECTION BOX - BLUE BOX", "address": {"city": "CHARLES TOWN", "state": "WV", "street": "101 W WASHINGTON ST", "postcode": "25414"}}},
{"geometry": {"type": "Point", "coordinates": [-77.8599167015, 39.2890190051]}, "type": "Feature", "properties": {"collection_times": [{"days": "Mon-Fri", "time": "5:00pm"}, {"days": "Sat", "time": "12:00pm"}, {"days": "Sun", "time": "Closed"}], "id": "2541400025", "name": "USPS COLLECTION BOX - PO LOBBY", "address": {"city": "CHARLES TOWN", "state": "WV", "street": "101 W WASHINGTON ST", "postcode": "25414"}}},
{"geometry": {"type": "Point", "coordinates": [-77.8585121434, 39.5862252593]}, "type": "Feature", "properties": {"collection_times": [{"days": "Mon-Fri", "time": "4:15pm"}, {"days": "Sat", "time": "12:00pm"}, {"days": "Sun", "time": "Closed"}], "id": "2541900000", "name": "USPS COLLECTION BOX - BLUE BOX", "address": {"city": "FALLING WATERS", "state": "WV", "street": "9853 WILLIAMSPORT PIKE", "postcode": "25419"}}},
{"geometry": {"type": "Point", "coordinates": [-77.8585121434, 39.5862252593]}, "type": "Feature", "properties": {"collection_times": [{"days": "Mon-Fri", "time": "4:15pm"}, {"days": "Sat", "time": "12:00pm"}, {"days": "Sun", "time": "Closed"}], "id": "2541900004", "name": "USPS COLLECTION BOX - PO LOBBY", "address": {"city": "FALLING WATERS", "state": "WV", "street": "9853 WILLIAMSPORT PIKE", "postcode": "25419"}}},
{"geometry": {"type": "Point", "coordinates": [-78.0915772764, 39.3676653511]}, "type": "Feature", "properties": {"collection_times": [{"days": "Mon-Fri", "time": "3:15pm"}, {"days": "Sat", "time": "11:30am"}, {"days": "Sun", "time": "Closed"}], "id": "2542000000", "name": "USPS COLLECTION BOX - BLUE BOX", "address": {"city": "GERRARDSTOWN", "state": "WV", "street": "1498 GERRARDSTOWN RD", "postcode": "25420"}}},
{"geometry": {"type": "Point", "coordinates": [-78.0915772764, 39.3676653511]}, "type": "Feature", "properties": {"collection_times": [{"days": "Mon-Fri", "time": "3:15pm"}, {"days": "Sat", "time": "11:30am"}, {"days": "Sun", "time": "Closed"}], "id": "2542000003", "name": "USPS COLLECTION BOX - PO LOBBY", "address": {"city": "GERRARDSTOWN", "state": "WV", "street": "1498 GERRARDSTOWN RD", "postcode": "25420"}}},
{"geometry": {"type": "Point", "coordinates": [-78.3594098995, 39.5606298173]}, "type": "Feature", "properties": {"collection_times": [{"days": "Mon-Fri", "time": "4:00pm"}, {"days": "Sat", "time": "11:00am"}, {"days": "Sun", "time": "Closed"}], "id": "2542200000", "name": "USPS COLLECTION BOX - BLUE BOX", "address": {"city": "GREAT CACAPON", "state": "WV", "street": "5010 CENTRAL AVE", "postcode": "25422"}}},
{"geometry": {"type": "Point", "coordinates": [-78.3594098995, 39.5606298173]}, "type": "Feature", "properties": {"collection_times": [{"days": "Mon-Fri", "time": "4:00pm"}, {"days": "Sat", "time": "11:00am"}, {"days": "Sun", "time": "Closed"}], "id": "2542200001", "name": "USPS COLLECTION BOX - PO LOBBY", "address": {"city": "GREAT CACAPON", "state": "WV", "street": "5010 CENTRAL AVE", "postcode": "25422"}}},
{"geometry": {"type": "Point", "coordinates": [-77.7979554446, 39.313480002]}, "type": "Feature", "properties": {"collection_times": [{"days": "Mon-Fri", "time": "11:45am"}, {"days": "Sat", "time": "11:15am"}, {"days": "Sun", "time": "Closed"}], "id": "2542300000", "name": "USPS COLLECTION BOX - BLUE BOX", "address": {"city": "HALLTOWN", "state": "WV", "street": "402 SHEPHERDSTOWN PIKE", "postcode": "25423"}}},
{"geometry": {"type": "Point", "coordinates": [-77.7979554446, 39.313480002]}, "type": "Feature", "properties": {"collection_times": [{"days": "Mon-Fri", "time": "11:45am"}, {"days": "Sat", "time": "11:15am"}, {"days": "Sun", "time": "Closed"}], "id": "2542300001", "name": "USPS COLLECTION BOX - PO LOBBY", "address": {"city": "HALLTOWN", "state": "WV", "street": "402 SHEPHERDSTOWN PIKE", "postcode": "25423"}}},
{"geometry": {"type": "Point", "coordinates": [-77.7896310652, 39.236337059]}, "type": "Feature", "properties": {"collection_times": [{"days": "Mon-Fri", "time": "4:00pm"}, {"days": "Sat", "time": "12:00pm"}, {"days": "Sun", "time": "Closed"}], "id": "2542500000", "name": "USPS COLLECTION BOX - BLUE BOX", "address": {"city": "HARPERS FERRY", "state": "WV", "street": "1010 WASHINGTON ST", "postcode": "25425"}}},
{"geometry": {"type": "Point", "coordinates": [-77.7896310652, 39.236337059]}, "type": "Feature", "properties": {"collection_times": [{"days": "Mon-Fri", "time": "4:15pm"}, {"days": "Sat", "time": "12:00pm"}, {"days": "Sun", "time": "Closed"}], "id": "2542500005", "name": "USPS COLLECTION BOX - PO LOBBY", "address": {"city": "HARPERS FERRY", "state": "WV", "street": "1010 WASHINGTON ST", "postcode": "25425"}}},
{"geometry": {"type": "Point", "coordinates": [-77.7627565072, 39.3439642677]}, "type": "Feature", "properties": {"collection_times": [{"days": "Mon-Sat", "time": "12:00pm"}, {"days": "Sun", "time": "Closed"}], "id": "2542500006", "name": "USPS COLLECTION BOX - BLUE BOX", "address": {"city": "HARPERS FERRY", "state": "WV", "street": "2299 BAKERTON RD", "postcode": "25425"}}},
{"geometry": {"type": "Point", "coordinates": [-78.0050736826, 39.556155326]}, "type": "Feature", "properties": {"collection_times": [{"days": "Mon-Fri", "time": "4:30pm"}, {"days": "Sat", "time": "12:00pm"}, {"days": "Sun", "time": "Closed"}], "id": "2542700001", "name": "USPS COLLECTION BOX - PO LOBBY", "address": {"city": "HEDGESVILLE", "state": "WV", "street": "5471 HEDGESVILLE RD", "postcode": "25427"}}},
{"geometry": {"type": "Point", "coordinates": [-78.0050736826, 39.556155326]}, "type": "Feature", "properties": {"collection_times": [{"days": "Mon-Fri", "time": "4:30pm"}, {"days": "Sat", "time": "12:00pm"}, {"days": "Sun", "time": "Closed"}], "id": "2542700002", "name": "USPS COLLECTION BOX - BLUE BOX", "address": {"city": "HEDGESVILLE", "state": "WV", "street": "5471 HEDGESVILLE RD", "postcode": "25427"}}},
{"geometry": {"type": "Point", "coordinates": [-78.0537493159, 39.3643441055]}, "type": "Feature", "properties": {"collection_times": [{"days": "Mon-Fri", "time": "4:30pm"}, {"days": "Sat", "time": "11:30am"}, {"days": "Sun", "time": "Closed"}], "id": "2542800001", "name": "USPS COLLECTION BOX - PO LOBBY", "address": {"city": "INWOOD", "state": "WV", "street": "7796 WINCHESTER AVE", "postcode": "25428"}}},
{"geometry": {"type": "Point", "coordinates": [-77.9144822868, 39.3972932661]}, "type": "Feature", "properties": {"collection_times": [{"days": "Mon-Sat", "time": "11:30am"}, {"days": "Sun", "time": "Closed"}], "id": "2543000000", "name": "USPS COLLECTION BOX - BLUE BOX", "address": {"city": "KEARNEYSVILLE", "state": "WV", "street": "250 MURALL DR", "postcode": "25430"}}},
{"geometry": {"type": "Point", "coordinates": [-77.8885629004, 39.3909137598]}, "type": "Feature", "properties": {"collection_times": [{"days": "Mon-Fri", "time": "4:30pm"}, {"days": "Sat", "time": "11:30am"}, {"days": "Sun", "time": "Closed"}], "id": "2543000001", "name": "USPS COLLECTION BOX - BLUE BOX", "address": {"city": "KEARNEYSVILLE", "state": "WV", "street": "5512 CHARLES TOWN RD", "postcode": "25430"}}},
{"geometry": {"type": "Point", "coordinates": [-77.8885629004, 39.3909137598]}, "type": "Feature", "properties": {"collection_times": [{"days": "Mon-Fri", "time": "4:30pm"}, {"days": "Sat", "time": "11:30am"}, {"days": "Sun", "time": "Closed"}], "id": "2543000002", "name": "USPS COLLECTION BOX - PO LOBBY", "address": {"city": "KEARNEYSVILLE", "state": "WV", "street": "5512 CHARLESTOWN RD", "postcode": "25430"}}},
{"geometry": {"type": "Point", "coordinates": [-78.4561754221, 39.527137359]}, "type": "Feature", "properties": {"collection_times": [{"days": "Mon-Fri", "time": "3:45pm"}, {"days": "Sat", "time": "12:00pm"}, {"days": "Sun", "time": "Closed"}], "id": "2543400000", "name": "USPS COLLECTION BOX - BLUE BOX", "address": {"city": "PAW PAW", "state": "WV", "street": "93 WINCHESTER ST", "postcode": "25434"}}},
{"geometry": {"type": "Point", "coordinates": [-78.4561754221, 39.527137359]}, "type": "Feature", "properties": {"collection_times": [{"days": "Mon-Fri", "time": "3:45pm"}, {"days": "Sat", "time": "12:00pm"}, {"days": "Sun", "time": "Closed"}], "id": "2543400001", "name": "USPS COLLECTION BOX - PO LOBBY", "address": {"city": "PAW PAW", "state": "WV", "street": "93 WINCHESTER ST", "postcode": "25434"}}},
{"geometry": {"type": "Point", "coordinates": [-78.5671613464, 39.4504664098]}, "type": "Feature", "properties": {"collection_times": [{"days": "Mon-Sat", "time": "11:00am"}, {"days": "Sun", "time": "Closed"}], "id": "2543700000", "name": "USPS COLLECTION BOX - BLUE BOX", "address": {"city": "POINTS", "state": "WV", "street": "PO BOX 9998", "postcode": "25437"}}},
{"geometry": {"type": "Point", "coordinates": [-78.5671613464, 39.4504664098]}, "type": "Feature", "properties": {"collection_times": [{"days": "Mon-Sat", "time": "11:00am"}, {"days": "Sun", "time": "Closed"}], "id": "2543700001", "name": "USPS COLLECTION BOX - PO LOBBY", "address": {"city": "POINTS", "state": "WV", "street": "PO BOX 9998", "postcode": "25437"}}},
{"geometry": {"type": "Point", "coordinates": [-77.8602289897, 39.2950688617]}, "type": "Feature", "properties": {"collection_times": [{"days": "Mon-Fri", "time": "3:00pm"}, {"days": "Sat", "time": "1:00pm"}, {"days": "Sun", "time": "Closed"}], "id": "2543800000", "name": "USPS COLLECTION BOX - BLUE BOX", "address": {"city": "RANSON", "state": "WV", "street": "301 S MILDRED ST", "postcode": "25438"}}},
{"geometry": {"type": "Point", "coordinates": [-77.8651233378, 39.3054397549]}, "type": "Feature", "properties": {"collection_times": [{"days": "Mon-Fri", "time": "5:00pm"}, {"days": "Sat", "time": "4:00pm"}, {"days": "Sun", "time": "Closed"}], "id": "2543800001", "name": "USPS COLLECTION BOX - BLUE BOX", "address": {"city": "RANSON", "state": "WV", "street": "205 AMBROSE DR", "postcode": "25438"}}},
{"geometry": {"type": "Point", "coordinates": [-77.8651233378, 39.3054397549]}, "type": "Feature", "properties": {"collection_times": [{"days": "Mon-Fri", "time": "5:00pm"}, {"days": "Sat", "time": "4:00pm"}, {"days": "Sun", "time": "Closed"}], "id": "2543800002", "name": "USPS COLLECTION BOX - BLUE BOX", "address": {"city": "RANSON", "state": "WV", "street": "205 AMBROSE DR", "postcode": "25438"}}},
{"geometry": {"type": "Point", "coordinates": [-77.8651233378, 39.3054397549]}, "type": "Feature", "properties": {"collection_times": [{"days": "Mon-Fri", "time": "5:00pm"}, {"days": "Sat", "time": "4:00pm"}, {"days": "Sun", "time": "Closed"}], "id": "2543800003", "name": "USPS COLLECTION BOX - PO LOBBY", "address": {"city": "RANSON", "state": "WV", "street": "205 AMBROSE DR", "postcode": "25438"}}},
{"geometry": {"type": "Point", "coordinates": [-77.8588218745, 39.3041624939]}, "type": "Feature", "properties": {"collection_times": [{"days": "Mon-Sat", "time": "10:00am"}, {"days": "Sun", "time": "Closed"}], "id": "2543800004", "name": "USPS COLLECTION BOX - BLUE BOX", "address": {"city": "RANSON", "state": "WV", "street": "1607 TUSCAWILLA DR", "postcode": "25438"}}},
{"geometry": {"type": "Point", "coordinates": [-77.8588218745, 39.3041624939]}, "type": "Feature", "properties": {"collection_times": [{"days": "Mon-Sat", "time": "11:00am"}, {"days": "Sun", "time": "Closed"}], "id": "2543800005", "name": "USPS COLLECTION BOX - BLUE BOX", "address": {"city": "RANSON", "state": "WV", "street": "151 AUGUSTINE AVE", "postcode": "25438"}}},
{"geometry": {"type": "Point", "coordinates": [-77.8588218745, 39.3041624939]}, "type": "Feature", "properties": {"collection_times": [{"days": "Mon-Sat", "time": "9:30am"}, {"days": "Sun", "time": "Closed"}], "id": "2543800006", "name": "USPS COLLECTION BOX - BLUE BOX", "address": {"city": "RANSON", "state": "WV", "street": "34 MALLARD CT", "postcode": "25438"}}},
{"geometry": {"type": "Point", "coordinates": [-77.8588218745, 39.3041624939]}, "type": "Feature", "properties": {"collection_times": [{"days": "Mon-Sat", "time": "9:30am"}, {"days": "Sun", "time": "Closed"}], "id": "2543800007", "name": "USPS COLLECTION BOX - BLUE BOX", "address": {"city": "RANSON", "state": "WV", "street": "84 SOMERSET BLVD", "postcode": "25438"}}},
{"geometry": {"type": "Point", "coordinates": [-77.8588218745, 39.3041624939]}, "type": "Feature", "properties": {"collection_times": [{"days": "Mon-Sat", "time": "9:45am"}, {"days": "Sun", "time": "Closed"}], "id": "2543800008", "name": "USPS COLLECTION BOX - BLUE BOX", "address": {"city": "RANSON", "state": "WV", "street": "130 PATRICK HENRY WAY", "postcode": "25438"}}},
{"geometry": {"type": "Point", "coordinates": [-77.8588218745, 39.3041624939]}, "type": "Feature", "properties": {"collection_times": [{"days": "Mon-Sat", "time": "11:15am"}, {"days": "Sun", "time": "Closed"}], "id": "2543800009", "name": "USPS COLLECTION BOX - BLUE BOX", "address": {"city": "RANSON", "state": "WV", "street": "23 TUSCAWILLA DR", "postcode": "25438"}}},
{"geometry": {"type": "Point", "coordinates": [-77.8588218745, 39.3041624939]}, "type": "Feature", "properties": {"collection_times": [{"days": "Mon-Sat", "time": "11:00am"}, {"days": "Sun", "time": "Closed"}], "id": "2543800010", "name": "USPS COLLECTION BOX - BLUE BOX", "address": {"city": "RANSON", "state": "WV", "street": "23 THOMAS JEFFERSON CIR", "postcode": "25438"}}},
{"geometry": {"type": "Point", "coordinates": [-77.8597653575, 39.2942299544]}, "type": "Feature", "properties": {"collection_times": [{"days": "Mon-Sat", "time": "12:30pm"}, {"days": "Sun", "time": "Closed"}], "id": "2543800011", "name": "USPS COLLECTION BOX - BLUE BOX", "address": {"city": "RANSON", "state": "WV", "street": "425 S MILDRED ST", "postcode": "25438"}}},
{"geometry": {"type": "Point", "coordinates": [-77.8588218745, 39.3041624939]}, "type": "Feature", "properties": {"collection_times": [{"days": "Mon-Sat", "time": "11:00am"}, {"days": "Sun", "time": "Closed"}], "id": "2543800013", "name": "USPS COLLECTION BOX - BLUE BOX", "address": {"city": "RANSON", "state": "WV", "street": "178 FLOWING SPRINGS RD", "postcode": "25438"}}},
{"geometry": {"type": "Point", "coordinates": [-77.9054818751, 39.217640949]}, "type": "Feature", "properties": {"collection_times": [{"days": "Mon-Fri", "time": "1:45pm"}, {"days": "Sat", "time": "11:30am"}, {"days": "Sun", "time": "Closed"}], "id": "2544100000", "name": "USPS COLLECTION BOX - BLUE BOX", "address": {"city": "RIPPON", "state": "WV", "street": "2468 BERRYVILLE PIKE", "postcode": "25441"}}},
{"geometry": {"type": "Point", "coordinates": [-77.9054818751, 39.217640949]}, "type": "Feature", "properties": {"collection_times": [{"days": "Mon-Fri", "time": "2:00pm"}, {"days": "Sat", "time": "11:30am"}, {"days": "Sun", "time": "Closed"}], "id": "2544100001", "name": "USPS COLLECTION BOX - PO LOBBY", "address": {"city": "RIPPON", "state": "WV", "street": "2468 BERRYVILLE PIKE", "postcode": "25441"}}},
{"geometry": {"type": "Point", "coordinates": [-77.8286565194, 39.364771537]}, "type": "Feature", "properties": {"collection_times": [{"days": "Mon-Fri", "time": "3:00pm"}, {"days": "Sat", "time": "11:15am"}, {"days": "Sun", "time": "Closed"}], "id": "2544200002", "name": "USPS COLLECTION BOX - BLUE BOX", "address": {"city": "SHENANDOAH JCT", "state": "WV", "street": "360 1ST ST", "postcode": "25442"}}},
{"geometry": {"type": "Point", "coordinates": [-77.8440115006, 39.3583734167]}, "type": "Feature", "properties": {"collection_times": [{"days": "Mon-Fri", "time": "3:00pm"}, {"days": "Sat", "time": "11:15am"}, {"days": "Sun", "time": "Closed"}], "id": "2544200003", "name": "USPS COLLECTION BOX - PO LOBBY", "address": {"city": "SHENANDOAH JCT", "state": "WV", "street": "360 1ST ST", "postcode": "25442"}}},
{"geometry": {"type": "Point", "coordinates": [-77.8067346463, 39.4291243729]}, "type": "Feature", "properties": {"collection_times": [{"days": "Mon-Fri", "time": "4:30pm"}, {"days": "Sat", "time": "12:00pm"}, {"days": "Sun", "time": "Closed"}], "id": "2544300000", "name": "USPS COLLECTION BOX - BLUE BOX", "address": {"city": "SHEPHERDSTOWN", "state": "WV", "street": "301 S KING ST", "postcode": "25443"}}},
{"geometry": {"type": "Point", "coordinates": [-77.8067346463, 39.4291243729]}, "type": "Feature", "properties": {"collection_times": [{"days": "Mon-Fri", "time": "4:30pm"}, {"days": "Sat", "time": "12:00pm"}, {"days": "Sun", "time": "Closed"}], "id": "2544300001", "name": "USPS COLLECTION BOX - BLUE BOX", "address": {"city": "SHEPHERDSTOWN", "state": "WV", "street": "301 S KING ST", "postcode": "25443"}}},
{"geometry": {"type": "Point", "coordinates": [-77.8125270157, 39.446182743]}, "type": "Feature", "properties": {"collection_times": [{"days": "Mon-Sat", "time": "10:00am"}, {"days": "Sun", "time": "Closed"}], "id": "2544300002", "name": "USPS COLLECTION BOX - BLUE BOX", "address": {"city": "SHEPHERDSTOWN", "state": "WV", "street": "26 MADDEX SQUARE DR", "postcode": "25443"}}},
{"geometry": {"type": "Point", "coordinates": [-77.8125270157, 39.446182743]}, "type": "Feature", "properties": {"collection_times": [{"days": "Mon-Sat", "time": "11:30am"}, {"days": "Sun", "time": "Closed"}], "id": "2544300004", "name": "USPS COLLECTION BOX - BLUE BOX", "address": {"city": "SHEPHERDSTOWN", "state": "WV", "street": "301 N KING ST", "postcode": "25443"}}},
{"geometry": {"type": "Point", "coordinates": [-77.8067346463, 39.4291243729]}, "type": "Feature", "properties": {"collection_times": [{"days": "Mon-Fri", "time": "5:00pm"}, {"days": "Sat", "time": "12:00pm"}, {"days": "Sun", "time": "Closed"}], "id": "2544300005", "name": "USPS COLLECTION BOX - PO LOBBY", "address": {"city": "SHEPHERDSTOWN", "state": "WV", "street": "301 S KING ST", "postcode": "25443"}}},
{"geometry": {"type": "Point", "coordinates": [-78.5077185431, 39.4028530624]}, "type": "Feature", "properties": {"collection_times": [{"days": "Mon-Fri", "time": "3:00pm"}, {"days": "Sat", "time": "1:45pm"}, {"days": "Sun", "time": "Closed"}], "id": "2544400000", "name": "USPS COLLECTION BOX - BLUE BOX", "address": {"city": "SLANESVILLE", "state": "WV", "street": "41 SLANESVILLE PIKE", "postcode": "25444"}}},
{"geometry": {"type": "Point", "coordinates": [-78.5077185431, 39.4028530624]}, "type": "Feature", "properties": {"collection_times": [{"days": "Mon-Fri", "time": "3:00pm"}, {"days": "Sat", "time": "1:45pm"}, {"days": "Sun", "time": "Closed"}], "id": "2544400001", "name": "USPS COLLECTION BOX - PO LOBBY", "address": {"city": "SLANESVILLE", "state": "WV", "street": "41 SLANESVILLE PIKE", "postcode": "25444"}}},
{"geometry": {"type": "Point", "coordinates": [-77.9574747032, 39.249091422]}, "type": "Feature", "properties": {"collection_times": [{"days": "Mon-Fri", "time": "4:00pm"}, {"days": "Sat", "time": "12:00pm"}, {"days": "Sun", "time": "Closed"}], "id": "2544600000", "name": "USPS COLLECTION BOX - BLUE BOX", "address": {"city": "SUMMIT POINT", "state": "WV", "street": "117 HAWTHORNE AVE", "postcode": "25446"}}},
{"geometry": {"type": "Point", "coordinates": [-77.9605344528, 39.2376697553]}, "type": "Feature", "properties": {"collection_times": [{"days": "Mon-Sat", "time": "11:00am"}, {"days": "Sun", "time": "Closed"}], "id": "2544600001", "name": "USPS COLLECTION BOX - BLUE BOX", "address": {"city": "SUMMIT POINT", "state": "WV", "street": "148 QUAIL RUN RD", "postcode": "25446"}}},
{"geometry": {"type": "Point", "coordinates": [-77.9605344528, 39.2376697553]}, "type": "Feature", "properties": {"collection_times": [{"days": "Mon-Sat", "time": "11:00am"}, {"days": "Sun", "time": "Closed"}], "id": "2544600002", "name": "USPS COLLECTION BOX - BLUE BOX", "address": {"city": "SUMMIT POINT", "state": "WV", "street": "37 DOVETAIL CT", "postcode": "25446"}}},
{"geometry": {"type": "Point", "coordinates": [-77.9513448797, 39.2523282437]}, "type": "Feature", "properties": {"collection_times": [{"days": "Mon-Fri", "time": "4:00pm"}, {"days": "Sat", "time": "12:00pm"}, {"days": "Sun", "time": "Closed"}], "id": "2544600003", "name": "USPS COLLECTION BOX - PO LOBBY", "address": {"city": "SUMMIT POINT", "state": "WV", "street": "117 HAWTHORNE AVE", "postcode": "25446"}}}
]}
