{"type": "FeatureCollection", "features": [
{"geometry": {"type": "Point", "coordinates": [-82.0205349894, 38.1264298399]}, "type": "Feature", "properties": {"collection_times": [{"days": "Mon-Fri", "time": "3:45pm"}, {"days": "Sat", "time": "10:30am"}, {"days": "Sun", "time": "Closed"}], "id": "2550100000", "name": "USPS COLLECTION BOX - BLUE BOX", "address": {"city": "ALKOL", "state": "WV", "street": "5 BULGER RD", "postcode": "25501"}}},
{"geometry": {"type": "Point", "coordinates": [-82.0205349894, 38.1264298399]}, "type": "Feature", "properties": {"collection_times": [{"days": "Mon-Fri", "time": "3:45pm"}, {"days": "Sat", "time": "10:30am"}, {"days": "Sun", "time": "Closed"}], "id": "2550100001", "name": "USPS COLLECTION BOX - PO LOBBY", "address": {"city": "ALKOL", "state": "WV", "street": "5 BULGER RD", "postcode": "25501"}}},
{"geometry": {"type": "Point", "coordinates": [-82.1119162351, 38.6748726588]}, "type": "Feature", "properties": {"collection_times": [{"days": "Mon-Fri", "time": "4:15pm"}, {"days": "Sat", "time": "11:15am"}, {"days": "Sun", "time": "Closed"}], "id": "2550200000", "name": "USPS COLLECTION BOX - BLUE BOX", "address": {"city": "APPLE GROVE", "state": "WV", "street": "27799 HUNTINGTON RD", "postcode": "25502"}}},
{"geometry": {"type": "Point", "coordinates": [-82.1119162351, 38.6748726588]}, "type": "Feature", "properties": {"collection_times": [{"days": "Mon-Fri", "time": "1:45pm"}, {"days": "Sat", "time": "11:15am"}, {"days": "Sun", "time": "Closed"}], "id": "2550200001", "name": "USPS COLLECTION BOX - PO LOBBY", "address": {"city": "APPLE GROVE", "state": "WV", "street": "27799 HUNTINGTON RD", "postcode": "25502"}}},
{"geometry": {"type": "Point", "coordinates": [-82.1047668451, 38.6037595271]}, "type": "Feature", "properties": {"collection_times": [{"days": "Mon-Sat", "time": "11:45am"}, {"days": "Sun", "time": "Closed"}], "id": "2550300000", "name": "USPS COLLECTION BOX - BLUE BOX", "address": {"city": "ASHTON", "state": "WV", "street": "3948 HUNTINGTON RD", "postcode": "25503"}}},
{"geometry": {"type": "Point", "coordinates": [-82.1047668451, 38.6037595271]}, "type": "Feature", "properties": {"collection_times": [{"days": "Mon-Sat", "time": "11:45am"}, {"days": "Sun", "time": "Closed"}], "id": "2550300001", "name": "USPS COLLECTION BOX - PO LOBBY", "address": {"city": "ASHTON", "state": "WV", "street": "3948 HUNTINGTON RD", "postcode": "25503"}}},
{"geometry": {"type": "Point", "coordinates": [-82.2954469417, 38.4085957189]}, "type": "Feature", "properties": {"collection_times": [{"days": "Mon-Sat", "time": "5:00pm"}, {"days": "Sun", "time": "Closed"}], "id": "2550400006", "name": "USPS COLLECTION BOX - BLUE BOX", "address": {"city": "BARBOURSVILLE", "state": "WV", "street": "680 CENTRAL AVE", "postcode": "25504"}}},
{"geometry": {"type": "Point", "coordinates": [-82.2954469417, 38.4085957189]}, "type": "Feature", "properties": {"collection_times": [{"days": "Mon-Sat", "time": "5:00pm"}, {"days": "Sun", "time": "Closed"}], "id": "2550400007", "name": "USPS COLLECTION BOX - BLUE BOX", "address": {"city": "BARBOURSVILLE", "state": "WV", "street": "680 CENTRAL AVE", "postcode": "25504"}}},
{"geometry": {"type": "Point", "coordinates": [-82.2954469417, 38.4085957189]}, "type": "Feature", "properties": {"collection_times": [{"days": "Mon-Sat", "time": "5:00pm"}, {"days": "Sun", "time": "Closed"}], "id": "2550400009", "name": "USPS COLLECTION BOX - BLUE BOX", "address": {"city": "BARBOURSVILLE", "state": "WV", "street": "680 CENTRAL AVE", "postcode": "25504"}}},
{"geometry": {"type": "Point", "coordinates": [-82.3198717452, 38.4033061334]}, "type": "Feature", "properties": {"collection_times": [{"days": "Mon-Sat", "time": "11:00am"}, {"days": "Sun", "time": "Closed"}], "id": "2550400010", "name": "USPS COLLECTION BOX - BLUE BOX", "address": {"city": "BARBOURSVILLE", "state": "WV", "street": "1 BARTOW DR", "postcode": "25504"}}},
{"geometry": {"type": "Point", "coordinates": [-82.3038040716, 38.4140963358]}, "type": "Feature", "properties": {"collection_times": [{"days": "Mon-Sat", "time": "1:00pm"}, {"days": "Sun", "time": "Closed"}], "id": "2550400012", "name": "USPS COLLECTION BOX - BLUE BOX", "address": {"city": "BARBOURSVILLE", "state": "WV", "street": "6419 US ROUTE 60 E", "postcode": "25504"}}},
{"geometry": {"type": "Point", "coordinates": [-82.2954469417, 38.4085957189]}, "type": "Feature", "properties": {"collection_times": [{"days": "Mon-Sat", "time": "5:00pm"}, {"days": "Sun", "time": "Closed"}], "id": "2550400017", "name": "USPS COLLECTION BOX - PO LOBBY", "address": {"city": "BARBOURSVILLE", "state": "WV", "street": "680 CENTRAL AVE", "postcode": "25504"}}},
{"geometry": {"type": "Point", "coordinates": [-82.2595252587, 38.4152701967]}, "type": "Feature", "properties": {"collection_times": [{"days": "Mon-Fri", "time": "4:00pm"}, {"days": "Sat", "time": "8:30am"}, {"days": "Sun", "time": "Closed"}], "id": "2550400018", "name": "USPS COLLECTION BOX - PO LOBBY", "address": {"city": "BARBOURSVILLE", "state": "WV", "street": "1 MALL RD", "postcode": "25504"}}},
{"geometry": {"type": "Point", "coordinates": [-82.2617802219, 38.4135850205]}, "type": "Feature", "properties": {"collection_times": [{"days": "Mon-Sat", "time": "9:00am"}, {"days": "Sun", "time": "Closed"}], "id": "2550400020", "name": "USPS COLLECTION BOX - BLUE BOX", "address": {"city": "BARBOURSVILLE", "state": "WV", "street": "3570 US ROUTE 60 E", "postcode": "25504"}}},
{"geometry": {"type": "Point", "coordinates": [-82.0335386301, 38.009460785]}, "type": "Feature", "properties": {"collection_times": [{"days": "Mon-Fri", "time": "11:45am"}, {"days": "Sat", "time": "12:00pm"}, {"days": "Sun", "time": "Closed"}], "id": "2550500000", "name": "USPS COLLECTION BOX - BLUE BOX", "address": {"city": "BIG CREEK", "state": "WV", "street": "150 BIG CREEK RD", "postcode": "25505"}}},
{"geometry": {"type": "Point", "coordinates": [-82.0335386301, 38.009460785]}, "type": "Feature", "properties": {"collection_times": [{"days": "Mon-Fri", "time": "11:45am"}, {"days": "Sat", "time": "12:00pm"}, {"days": "Sun", "time": "Closed"}], "id": "2550500001", "name": "USPS COLLECTION BOX - PO LOBBY", "address": {"city": "BIG CREEK", "state": "WV", "street": "150 BIG CREEK RD", "postcode": "25505"}}},
{"geometry": {"type": "Point", "coordinates": [-82.2039568185, 38.2294113809]}, "type": "Feature", "properties": {"collection_times": [{"days": "Mon-Fri", "time": "4:30pm"}, {"days": "Sat", "time": "12:00pm"}, {"days": "Sun", "time": "Closed"}], "id": "2550600000", "name": "USPS COLLECTION BOX - BLUE BOX", "address": {"city": "BRANCHLAND", "state": "WV", "street": "4934 MCCLELLAN HWY", "postcode": "25506"}}},
{"geometry": {"type": "Point", "coordinates": [-82.2060544922, 38.266181136]}, "type": "Feature", "properties": {"collection_times": [{"days": "Mon-Sat", "time": "9:30am"}, {"days": "Sun", "time": "Closed"}], "id": "2550600001", "name": "USPS COLLECTION BOX - BLUE BOX", "address": {"city": "BRANCHLAND", "state": "WV", "street": "7 LINCOLN PLZ", "postcode": "25506"}}},
{"geometry": {"type": "Point", "coordinates": [-82.2039568185, 38.2294113809]}, "type": "Feature", "properties": {"collection_times": [{"days": "Mon-Fri", "time": "4:30pm"}, {"days": "Sat", "time": "12:00pm"}, {"days": "Sun", "time": "Closed"}], "id": "2550600002", "name": "USPS COLLECTION BOX - PO LOBBY", "address": {"city": "BRANCHLAND", "state": "WV", "street": "4934 MCCLELLAN HWY", "postcode": "25506"}}},
{"geometry": {"type": "Point", "coordinates": [-82.5620045095, 38.3969818784]}, "type": "Feature", "properties": {"collection_times": [{"days": "Mon-Fri", "time": "4:30pm"}, {"days": "Sat", "time": "12:00pm"}, {"days": "Sun", "time": "Closed"}], "id": "2550700000", "name": "USPS COLLECTION BOX - BLUE BOX", "address": {"city": "CEREDO", "state": "WV", "street": "371 C ST", "postcode": "25507"}}},
{"geometry": {"type": "Point", "coordinates": [-82.5620045095, 38.3969818784]}, "type": "Feature", "properties": {"collection_times": [{"days": "Mon-Fri", "time": "4:30pm"}, {"days": "Sat", "time": "12:00pm"}, {"days": "Sun", "time": "Closed"}], "id": "2550700001", "name": "USPS COLLECTION BOX - PO LOBBY", "address": {"city": "CEREDO", "state": "WV", "street": "371 C ST", "postcode": "25507"}}},
{"geometry": {"type": "Point", "coordinates": [-82.5620045095, 38.3969818784]}, "type": "Feature", "properties": {"collection_times": [{"days": "Mon-Fri", "time": "4:30pm"}, {"days": "Sat", "time": "12:00pm"}, {"days": "Sun", "time": "Closed"}], "id": "2550700002", "name": "USPS COLLECTION BOX - PO LOBBY", "address": {"city": "CEREDO", "state": "WV", "street": "371 C ST", "postcode": "25507"}}},
{"geometry": {"type": "Point", "coordinates": [-82.0189905955, 37.9753821529]}, "type": "Feature", "properties": {"collection_times": [{"days": "Mon-Fri", "time": "4:00pm"}, {"days": "Sat", "time": "10:45am"}, {"days": "Sun", "time": "Closed"}], "id": "2550800003", "name": "USPS COLLECTION BOX - PO LOBBY", "address": {"city": "CHAPMANVILLE", "state": "WV", "street": "2705 S MAIN ST", "postcode": "25508"}}},
{"geometry": {"type": "Point", "coordinates": [-82.0189905955, 37.9753821529]}, "type": "Feature", "properties": {"collection_times": [{"days": "Mon-Fri", "time": "4:00pm"}, {"days": "Sat", "time": "10:45am"}, {"days": "Sun", "time": "Closed"}], "id": "2550800004", "name": "USPS COLLECTION BOX - BLUE BOX", "address": {"city": "CHAPMANVILLE", "state": "WV", "street": "2705 S MAIN ST", "postcode": "25508"}}},
{"geometry": {"type": "Point", "coordinates": [-82.0677233375, 38.4187776067]}, "type": "Feature", "properties": {"collection_times": [{"days": "Mon-Fri", "time": "4:00pm"}, {"days": "Sat", "time": "11:00am"}, {"days": "Sun", "time": "Closed"}], "id": "2551000000", "name": "USPS COLLECTION BOX - BLUE BOX", "address": {"city": "CULLODEN", "state": "WV", "street": "2000 US HIGHWAY 60", "postcode": "25510"}}},
{"geometry": {"type": "Point", "coordinates": [-82.0677233375, 38.4187776067]}, "type": "Feature", "properties": {"collection_times": [{"days": "Mon-Fri", "time": "4:00pm"}, {"days": "Sat", "time": "11:00am"}, {"days": "Sun", "time": "Closed"}], "id": "2551000001", "name": "USPS COLLECTION BOX - PO LOBBY", "address": {"city": "CULLODEN", "state": "WV", "street": "2000 US HIGHWAY 60", "postcode": "25510"}}},
{"geometry": {"type": "Point", "coordinates": [-82.0677233375, 38.4187776067]}, "type": "Feature", "properties": {"collection_times": [{"days": "Mon-Fri", "time": "4:00pm"}, {"days": "Sat", "time": "11:00am"}, {"days": "Sun", "time": "Closed"}], "id": "2551000003", "name": "USPS COLLECTION BOX - PO LOBBY", "address": {"city": "CULLODEN", "state": "WV", "street": "2000 US HIGHWAY 60", "postcode": "25510"}}},
{"geometry": {"type": "Point", "coordinates": [-82.3420251551, 38.0340744645]}, "type": "Feature", "properties": {"collection_times": [{"days": "Mon-Fri", "time": "12:00pm"}, {"days": "Sat", "time": "10:00am"}, {"days": "Sun", "time": "Closed"}], "id": "2551100000", "name": "USPS COLLECTION BOX - BLUE BOX", "address": {"city": "DUNLOW", "state": "WV", "street": "1 MAIN ST", "postcode": "25511"}}},
{"geometry": {"type": "Point", "coordinates": [-82.3420251551, 38.0340744645]}, "type": "Feature", "properties": {"collection_times": [{"days": "Mon-Fri", "time": "12:00pm"}, {"days": "Sat", "time": "10:00am"}, {"days": "Sun", "time": "Closed"}], "id": "2551100001", "name": "USPS COLLECTION BOX - PO LOBBY", "address": {"city": "DUNLOW", "state": "WV", "street": "1 MAIN ST", "postcode": "25511"}}},
{"geometry": {"type": "Point", "coordinates": [-82.327136749, 38.1905242062]}, "type": "Feature", "properties": {"collection_times": [{"days": "Mon-Fri", "time": "3:00pm"}, {"days": "Sat", "time": "11:00am"}, {"days": "Sun", "time": "Closed"}], "id": "2551200000", "name": "USPS COLLECTION BOX - BLUE BOX", "address": {"city": "EAST LYNN", "state": "WV", "street": "2687 TWELVE POLE CRK", "postcode": "25512"}}},
{"geometry": {"type": "Point", "coordinates": [-82.327136749, 38.1905242062]}, "type": "Feature", "properties": {"collection_times": [{"days": "Mon-Fri", "time": "3:00pm"}, {"days": "Sat", "time": "11:00am"}, {"days": "Sun", "time": "Closed"}], "id": "2551200001", "name": "USPS COLLECTION BOX - PO LOBBY", "address": {"city": "EAST LYNN", "state": "WV", "street": "2687 TWELVE POLE CRK", "postcode": "25512"}}},
{"geometry": {"type": "Point", "coordinates": [-82.5933826262, 38.1179633134]}, "type": "Feature", "properties": {"collection_times": [{"days": "Mon-Fri", "time": "4:15pm"}, {"days": "Sat", "time": "10:15am"}, {"days": "Sun", "time": "Closed"}], "id": "2551400000", "name": "USPS COLLECTION BOX - BLUE BOX", "address": {"city": "FORT GAY", "state": "WV", "street": "3204 COURT ST", "postcode": "25514"}}},
{"geometry": {"type": "Point", "coordinates": [-82.5933826262, 38.1179633134]}, "type": "Feature", "properties": {"collection_times": [{"days": "Mon-Fri", "time": "4:15pm"}, {"days": "Sat", "time": "10:15am"}, {"days": "Sun", "time": "Closed"}], "id": "2551400001", "name": "USPS COLLECTION BOX - PO LOBBY", "address": {"city": "FORT GAY", "state": "WV", "street": "3204 COURT ST", "postcode": "25514"}}},
{"geometry": {"type": "Point", "coordinates": [-82.1307274289, 38.7640112894]}, "type": "Feature", "properties": {"collection_times": [{"days": "Mon-Fri", "time": "3:30pm"}, {"days": "Sat", "time": "9:00am"}, {"days": "Sun", "time": "Closed"}], "id": "2551500000", "name": "USPS COLLECTION BOX - BLUE BOX", "address": {"city": "GALLIPOLIS FERRY", "state": "WV", "street": "11945 HUNTINGTON RD", "postcode": "25515"}}},
{"geometry": {"type": "Point", "coordinates": [-82.1307274289, 38.7640112894]}, "type": "Feature", "properties": {"collection_times": [{"days": "Mon-Fri", "time": "3:30pm"}, {"days": "Sat", "time": "9:00am"}, {"days": "Sun", "time": "Closed"}], "id": "2551500001", "name": "USPS COLLECTION BOX - PO LOBBY", "address": {"city": "GALLIPOLIS FERRY", "state": "WV", "street": "11945 HUNTINGTON RD", "postcode": "25515"}}},
{"geometry": {"type": "Point", "coordinates": [-82.4574568335, 38.0767093812]}, "type": "Feature", "properties": {"collection_times": [{"days": "Mon-Fri", "time": "12:00pm"}, {"days": "Sat", "time": "11:15am"}, {"days": "Sun", "time": "Closed"}], "id": "2551700000", "name": "USPS COLLECTION BOX - BLUE BOX", "address": {"city": "GENOA", "state": "WV", "street": "PO BOX 9998", "postcode": "25517"}}},
{"geometry": {"type": "Point", "coordinates": [-82.4574568335, 38.0767093812]}, "type": "Feature", "properties": {"collection_times": [{"days": "Mon-Fri", "time": "12:00pm"}, {"days": "Sat", "time": "11:15am"}, {"days": "Sun", "time": "Closed"}], "id": "2551700001", "name": "USPS COLLECTION BOX - PO LOBBY", "address": {"city": "GENOA", "state": "WV", "street": "PO BOX 9998", "postcode": "25517"}}},
{"geometry": {"type": "Point", "coordinates": [-82.1121776597, 38.5388651716]}, "type": "Feature", "properties": {"collection_times": [{"days": "Mon-Sat", "time": "11:45am"}, {"days": "Sun", "time": "Closed"}], "id": "2552000000", "name": "USPS COLLECTION BOX - BLUE BOX", "address": {"city": "GLENWOOD", "state": "WV", "street": "39272 HUNTINGTON RD", "postcode": "25520"}}},
{"geometry": {"type": "Point", "coordinates": [-82.1121776597, 38.5388651716]}, "type": "Feature", "properties": {"collection_times": [{"days": "Mon-Sat", "time": "11:45am"}, {"days": "Sun", "time": "Closed"}], "id": "2552000001", "name": "USPS COLLECTION BOX - PO LOBBY", "address": {"city": "GLENWOOD", "state": "WV", "street": "39272 HUNTINGTON RD", "postcode": "25520"}}},
{"geometry": {"type": "Point", "coordinates": [-81.9826944176, 38.2483657848]}, "type": "Feature", "properties": {"collection_times": [{"days": "Mon-Fri", "time": "12:00pm"}, {"days": "Sat", "time": "11:45am"}, {"days": "Sun", "time": "Closed"}], "id": "2552100000", "name": "USPS COLLECTION BOX - BLUE BOX", "address": {"city": "GRIFFITHSVILLE", "state": "WV", "street": "5290 STRAIGHT FRK", "postcode": "25521"}}},
{"geometry": {"type": "Point", "coordinates": [-81.9866849415, 38.2369086977]}, "type": "Feature", "properties": {"collection_times": [{"days": "Mon-Fri", "time": "12:00pm"}, {"days": "Sat", "time": "11:45am"}, {"days": "Sun", "time": "Closed"}], "id": "2552100001", "name": "USPS COLLECTION BOX - PO LOBBY", "address": {"city": "GRIFFITHSVILLE", "state": "WV", "street": "5290 STRAIGHT FRK", "postcode": "25521"}}},
{"geometry": {"type": "Point", "coordinates": [-82.1044537932, 38.2786278307]}, "type": "Feature", "properties": {"collection_times": [{"days": "Mon-Fri", "time": "4:00pm"}, {"days": "Sat", "time": "12:00pm"}, {"days": "Sun", "time": "Closed"}], "id": "2552300000", "name": "USPS COLLECTION BOX - BLUE BOX", "address": {"city": "HAMLIN", "state": "WV", "street": "8111 COURT AVE", "postcode": "25523"}}},
{"geometry": {"type": "Point", "coordinates": [-82.1044537932, 38.2786278307]}, "type": "Feature", "properties": {"collection_times": [{"days": "Mon-Fri", "time": "4:45pm"}, {"days": "Sat", "time": "12:00pm"}, {"days": "Sun", "time": "Closed"}], "id": "2552300001", "name": "USPS COLLECTION BOX - PO LOBBY", "address": {"city": "HAMLIN", "state": "WV", "street": "8111 COURT AVE", "postcode": "25523"}}},
{"geometry": {"type": "Point", "coordinates": [-82.1354174402, 38.027145296]}, "type": "Feature", "properties": {"collection_times": [{"days": "Mon-Fri", "time": "4:15pm"}, {"days": "Sat", "time": "10:30am"}, {"days": "Sun", "time": "Closed"}], "id": "2552400000", "name": "USPS COLLECTION BOX - BLUE BOX", "address": {"city": "HARTS", "state": "WV", "street": "1074 MCCLELLAN HWY", "postcode": "25524"}}},
{"geometry": {"type": "Point", "coordinates": [-82.1354174402, 38.027145296]}, "type": "Feature", "properties": {"collection_times": [{"days": "Mon-Fri", "time": "4:15pm"}, {"days": "Sat", "time": "10:30am"}, {"days": "Sun", "time": "Closed"}], "id": "2552400001", "name": "USPS COLLECTION BOX - PO LOBBY", "address": {"city": "HARTS", "state": "WV", "street": "1074 MCCLELLAN HWY", "postcode": "25524"}}},
{"geometry": {"type": "Point", "coordinates": [-82.0121483686, 38.4352041037]}, "type": "Feature", "properties": {"collection_times": [{"days": "Mon-Fri", "time": "4:00pm"}, {"days": "Sat", "time": "3:30pm"}, {"days": "Sun", "time": "Closed"}], "id": "2552600001", "name": "USPS COLLECTION BOX - BLUE BOX", "address": {"city": "HURRICANE", "state": "WV", "street": "3225 TEAYS VALLEY RD", "postcode": "25526"}}},
{"geometry": {"type": "Point", "coordinates": [-82.0121483686, 38.4352041037]}, "type": "Feature", "properties": {"collection_times": [{"days": "Mon-Fri", "time": "4:00pm"}, {"days": "Sat", "time": "3:30pm"}, {"days": "Sun", "time": "Closed"}], "id": "2552600002", "name": "USPS COLLECTION BOX - BLUE BOX", "address": {"city": "HURRICANE", "state": "WV", "street": "3225 TEAYS VALLEY RD", "postcode": "25526"}}},
{"geometry": {"type": "Point", "coordinates": [-81.9513126835, 38.4474364327]}, "type": "Feature", "properties": {"collection_times": [{"days": "Mon-Sat", "time": "11:00am"}, {"days": "Sun", "time": "Closed"}], "id": "2552600003", "name": "USPS COLLECTION BOX - BLUE BOX", "address": {"city": "HURRICANE", "state": "WV", "street": "3890 TEAYS VALLEY RD", "postcode": "25526"}}},
{"geometry": {"type": "Point", "coordinates": [-81.9514730173, 38.4512773534]}, "type": "Feature", "properties": {"collection_times": [{"days": "Mon-Sat", "time": "9:30am"}, {"days": "Sun", "time": "Closed"}], "id": "2552600004", "name": "USPS COLLECTION BOX - BLUE BOX", "address": {"city": "HURRICANE", "state": "WV", "street": "1400 HOSPITAL DR", "postcode": "25526"}}},
{"geometry": {"type": "Point", "coordinates": [-82.0252046645, 38.4312782598]}, "type": "Feature", "properties": {"collection_times": [{"days": "Mon-Sat", "time": "2:30pm"}, {"days": "Sun", "time": "Closed"}], "id": "2552600005", "name": "USPS COLLECTION BOX - BLUE BOX", "address": {"city": "HURRICANE", "state": "WV", "street": "2761 MAIN ST", "postcode": "25526"}}},
{"geometry": {"type": "Point", "coordinates": [-81.9412023716, 38.4491566332]}, "type": "Feature", "properties": {"collection_times": [{"days": "Mon-Sat", "time": "10:00am"}, {"days": "Sun", "time": "Closed"}], "id": "2552600008", "name": "USPS COLLECTION BOX - BLUE BOX", "address": {"city": "HURRICANE", "state": "WV", "street": "4000 STATE ROUTE 34", "postcode": "25526"}}},
{"geometry": {"type": "Point", "coordinates": [-81.9455269113, 38.4479294421]}, "type": "Feature", "properties": {"collection_times": [{"days": "Mon-Sat", "time": "9:00am"}, {"days": "Sun", "time": "Closed"}], "id": "2552600009", "name": "USPS COLLECTION BOX - BLUE BOX", "address": {"city": "HURRICANE", "state": "WV", "street": "101 CARRIAGE PT", "postcode": "25526"}}},
{"geometry": {"type": "Point", "coordinates": [-81.9776222151, 38.3727001021]}, "type": "Feature", "properties": {"collection_times": [{"days": "Mon-Sat", "time": "10:00am"}, {"days": "Sun", "time": "Closed"}], "id": "2552600011", "name": "USPS COLLECTION BOX - BLUE BOX", "address": {"city": "HURRICANE", "state": "WV", "street": "110 LIBERTY SQ", "postcode": "25526"}}},
{"geometry": {"type": "Point", "coordinates": [-82.0190779502, 38.4323280891]}, "type": "Feature", "properties": {"collection_times": [{"days": "Mon-Sat", "time": "2:30pm"}, {"days": "Sun", "time": "Closed"}], "id": "2552600013", "name": "USPS COLLECTION BOX - BLUE BOX", "address": {"city": "HURRICANE", "state": "WV", "street": "145 MIDLAND TRL", "postcode": "25526"}}},
{"geometry": {"type": "Point", "coordinates": [-81.9651768011, 38.4462332116]}, "type": "Feature", "properties": {"collection_times": [{"days": "Mon-Sat", "time": "9:00am"}, {"days": "Sun", "time": "Closed"}], "id": "2552600014", "name": "USPS COLLECTION BOX - BLUE BOX", "address": {"city": "HURRICANE", "state": "WV", "street": "3751 TEAYS VALLEY RD", "postcode": "25526"}}},
{"geometry": {"type": "Point", "coordinates": [-82.0121483686, 38.4352041037]}, "type": "Feature", "properties": {"collection_times": [{"days": "Mon-Fri", "time": "4:00pm"}, {"days": "Sat", "time": "3:30pm"}, {"days": "Sun", "time": "Closed"}], "id": "2552600015", "name": "USPS COLLECTION BOX - PO LOBBY", "address": {"city": "HURRICANE", "state": "WV", "street": "3225 TEAYS VALLEY RD", "postcode": "25526"}}},
{"geometry": {"type": "Point", "coordinates": [-81.9536871179, 38.4473034236]}, "type": "Feature", "properties": {"collection_times": [{"days": "Mon-Sat", "time": "9:00am"}, {"days": "Sun", "time": "Closed"}], "id": "2552600017", "name": "USPS COLLECTION BOX - BLUE BOX", "address": {"city": "HURRICANE", "state": "WV", "street": "3857 TEAYS VALLEY RD", "postcode": "25526"}}},
{"geometry": {"type": "Point", "coordinates": [-81.8612656057, 38.1426238603]}, "type": "Feature", "properties": {"collection_times": [{"days": "Mon-Fri", "time": "3:30pm"}, {"days": "Sat", "time": "12:00pm"}, {"days": "Sun", "time": "Closed"}], "id": "2552900000", "name": "USPS COLLECTION BOX - BLUE BOX", "address": {"city": "JULIAN", "state": "WV", "street": "33 SUTPHIN DR", "postcode": "25529"}}},
{"geometry": {"type": "Point", "coordinates": [-81.8612656057, 38.1426238603]}, "type": "Feature", "properties": {"collection_times": [{"days": "Mon-Fri", "time": "3:30pm"}, {"days": "Sat", "time": "12:00pm"}, {"days": "Sun", "time": "Closed"}], "id": "2552900001", "name": "USPS COLLECTION BOX - PO LOBBY", "address": {"city": "JULIAN", "state": "WV", "street": "33 SUTPHIN DR", "postcode": "25529"}}},
{"geometry": {"type": "Point", "coordinates": [-82.5769529638, 38.3988566823]}, "type": "Feature", "properties": {"collection_times": [{"days": "Mon-Fri", "time": "4:00pm"}, {"days": "Sat", "time": "2:30pm"}, {"days": "Sun", "time": "Closed"}], "id": "2553000012", "name": "USPS COLLECTION BOX - BLUE BOX", "address": {"city": "KENOVA", "state": "WV", "street": "605 13TH ST", "postcode": "25530"}}},
{"geometry": {"type": "Point", "coordinates": [-82.5769529638, 38.3988566823]}, "type": "Feature", "properties": {"collection_times": [{"days": "Mon-Fri", "time": "4:00pm"}, {"days": "Sat", "time": "2:30pm"}, {"days": "Sun", "time": "Closed"}], "id": "2553000023", "name": "USPS COLLECTION BOX - BLUE BOX", "address": {"city": "KENOVA", "state": "WV", "street": "605 13TH ST", "postcode": "25530"}}},
{"geometry": {"type": "Point", "coordinates": [-82.5769019677, 38.3989051538]}, "type": "Feature", "properties": {"collection_times": [{"days": "Mon-Fri", "time": "4:00pm"}, {"days": "Sat", "time": "2:30pm"}, {"days": "Sun", "time": "Closed"}], "id": "2553000024", "name": "USPS COLLECTION BOX - PO LOBBY", "address": {"city": "KENOVA", "state": "WV", "street": "1300 CHESTNUT ST", "postcode": "25530"}}},
{"geometry": {"type": "Point", "coordinates": [-82.2813164323, 38.084674302]}, "type": "Feature", "properties": {"collection_times": [{"days": "Mon-Sat", "time": "12:30pm"}, {"days": "Sun", "time": "Closed"}], "id": "2553400000", "name": "USPS COLLECTION BOX - BLUE BOX", "address": {"city": "KIAHSVILLE", "state": "WV", "street": "7862 EAST LYNN RD", "postcode": "25534"}}},
{"geometry": {"type": "Point", "coordinates": [-82.2813164323, 38.084674302]}, "type": "Feature", "properties": {"collection_times": [{"days": "Mon-Sat", "time": "12:30pm"}, {"days": "Sun", "time": "Closed"}], "id": "2553400001", "name": "USPS COLLECTION BOX - PO LOBBY", "address": {"city": "KIAHSVILLE", "state": "WV", "street": "7862 EAST LYNN RD", "postcode": "25534"}}},
{"geometry": {"type": "Point", "coordinates": [-82.4500983307, 38.325229509]}, "type": "Feature", "properties": {"collection_times": [{"days": "Mon-Fri", "time": "4:00pm"}, {"days": "Sat", "time": "11:00am"}, {"days": "Sun", "time": "Closed"}], "id": "2553500000", "name": "USPS COLLECTION BOX - BLUE BOX", "address": {"city": "LAVALETTE", "state": "WV", "street": "4642 LYNN CREEK RD", "postcode": "25535"}}},
{"geometry": {"type": "Point", "coordinates": [-82.4487449332, 38.3249549571]}, "type": "Feature", "properties": {"collection_times": [{"days": "Mon-Sat", "time": "10:00am"}, {"days": "Sun", "time": "Closed"}], "id": "2553500001", "name": "USPS COLLECTION BOX - BLUE BOX", "address": {"city": "LAVALETTE", "state": "WV", "street": "4749 ROUTE 152", "postcode": "25535"}}},
{"geometry": {"type": "Point", "coordinates": [-82.4500983307, 38.325229509]}, "type": "Feature", "properties": {"collection_times": [{"days": "Mon-Fri", "time": "4:00pm"}, {"days": "Sat", "time": "11:00am"}, {"days": "Sun", "time": "Closed"}], "id": "2553500002", "name": "USPS COLLECTION BOX - PO LOBBY", "address": {"city": "LAVALETTE", "state": "WV", "street": "4642 LYNN CREEK RD", "postcode": "25535"}}},
{"geometry": {"type": "Point", "coordinates": [-82.3008650866, 38.4857955207]}, "type": "Feature", "properties": {"collection_times": [{"days": "Mon-Fri", "time": "3:45pm"}, {"days": "Sat", "time": "10:30am"}, {"days": "Sun", "time": "Closed"}], "id": "2553700000", "name": "USPS COLLECTION BOX - BLUE BOX", "address": {"city": "LESAGE", "state": "WV", "street": "6596 OHIO RIVER RD", "postcode": "25537"}}},
{"geometry": {"type": "Point", "coordinates": [-82.3008650866, 38.4857955207]}, "type": "Feature", "properties": {"collection_times": [{"days": "Mon-Fri", "time": "3:45pm"}, {"days": "Sat", "time": "10:30am"}, {"days": "Sun", "time": "Closed"}], "id": "2553700001", "name": "USPS COLLECTION BOX - PO LOBBY", "address": {"city": "LESAGE", "state": "WV", "street": "6596 OHIO RIVER RD", "postcode": "25537"}}},
{"geometry": {"type": "Point", "coordinates": [-82.3008650866, 38.4857955207]}, "type": "Feature", "properties": {"collection_times": [{"days": "Mon-Fri", "time": "3:45pm"}, {"days": "Sat", "time": "10:30am"}, {"days": "Sun", "time": "Closed"}], "id": "2553700002", "name": "USPS COLLECTION BOX - PO LOBBY", "address": {"city": "LESAGE", "state": "WV", "street": "6596 OHIO RIVER RD", "postcode": "25537"}}},
{"geometry": {"type": "Point", "coordinates": [-82.1161515954, 38.1415128064]}, "type": "Feature", "properties": {"collection_times": [{"days": "Mon-Fri", "time": "12:00pm"}, {"days": "Sat", "time": "10:00am"}, {"days": "Sun", "time": "Closed"}], "id": "2554000000", "name": "USPS COLLECTION BOX - BLUE BOX", "address": {"city": "MIDKIFF", "state": "WV", "street": "43 NINE MILE CRK", "postcode": "25540"}}},
{"geometry": {"type": "Point", "coordinates": [-82.1161515954, 38.1415128064]}, "type": "Feature", "properties": {"collection_times": [{"days": "Mon-Fri", "time": "12:00pm"}, {"days": "Sat", "time": "10:00am"}, {"days": "Sun", "time": "Closed"}], "id": "2554000001", "name": "USPS COLLECTION BOX - PO LOBBY", "address": {"city": "MIDKIFF", "state": "WV", "street": "43 NINE MILE CRK", "postcode": "25540"}}},
{"geometry": {"type": "Point", "coordinates": [-82.1363897704, 38.4340794831]}, "type": "Feature", "properties": {"collection_times": [{"days": "Mon-Fri", "time": "4:30pm"}, {"days": "Sat", "time": "12:00pm"}, {"days": "Sun", "time": "Closed"}], "id": "2554100001", "name": "USPS COLLECTION BOX - PO LOBBY", "address": {"city": "MILTON", "state": "WV", "street": "1177 MAIN ST", "postcode": "25541"}}},
{"geometry": {"type": "Point", "coordinates": [-82.1363897704, 38.4340794831]}, "type": "Feature", "properties": {"collection_times": [{"days": "Mon-Fri", "time": "4:30pm"}, {"days": "Sat", "time": "12:00pm"}, {"days": "Sun", "time": "Closed"}], "id": "2554100004", "name": "USPS COLLECTION BOX - BLUE BOX", "address": {"city": "MILTON", "state": "WV", "street": "1177 MAIN ST", "postcode": "25541"}}},
{"geometry": {"type": "Point", "coordinates": [-82.205733289, 38.427168987]}, "type": "Feature", "properties": {"collection_times": [{"days": "Mon-Fri", "time": "5:00pm"}, {"days": "Sat", "time": "11:00am"}, {"days": "Sun", "time": "Closed"}], "id": "2554500001", "name": "USPS COLLECTION BOX - PO LOBBY", "address": {"city": "ONA", "state": "WV", "street": "2628 ROUTE 60", "postcode": "25545"}}},
{"geometry": {"type": "Point", "coordinates": [-82.2266276365, 38.432594057]}, "type": "Feature", "properties": {"collection_times": [{"days": "Mon-Fri", "time": "5:00pm"}, {"days": "Sat", "time": "11:00am"}, {"days": "Sun", "time": "Closed"}], "id": "2554500002", "name": "USPS COLLECTION BOX - BLUE BOX", "address": {"city": "ONA", "state": "WV", "street": "2632 US ROUTE 60", "postcode": "25545"}}},
{"geometry": {"type": "Point", "coordinates": [-81.9643236674, 37.9070903833]}, "type": "Feature", "properties": {"collection_times": [{"days": "Mon-Fri", "time": "3:15pm"}, {"days": "Sat", "time": "11:30am"}, {"days": "Sun", "time": "Closed"}], "id": "2554700000", "name": "USPS COLLECTION BOX - BLUE BOX", "address": {"city": "PECKS MILL", "state": "WV", "street": "105 THUNDER RD", "postcode": "25547"}}},
{"geometry": {"type": "Point", "coordinates": [-81.9643236674, 37.9070903833]}, "type": "Feature", "properties": {"collection_times": [{"days": "Mon-Fri", "time": "3:15pm"}, {"days": "Sat", "time": "11:30am"}, {"days": "Sun", "time": "Closed"}], "id": "2554700001", "name": "USPS COLLECTION BOX - PO LOBBY", "address": {"city": "PECKS MILL", "state": "WV", "street": "105 THUNDER RD", "postcode": "25547"}}},
{"geometry": {"type": "Point", "coordinates": [-82.137954563, 38.84466695]}, "type": "Feature", "properties": {"collection_times": [{"days": "Mon-Fri", "time": "3:00pm"}, {"days": "Sat", "time": "1:00pm"}, {"days": "Sun", "time": "Closed"}], "id": "2555000005", "name": "USPS COLLECTION BOX - BLUE BOX", "address": {"city": "POINT PLEASANT", "state": "WV", "street": "200 6TH ST", "postcode": "25550"}}},
{"geometry": {"type": "Point", "coordinates": [-82.1257651211, 38.8685850291]}, "type": "Feature", "properties": {"collection_times": [{"days": "Mon-Sat", "time": "2:30pm"}, {"days": "Sun", "time": "Closed"}], "id": "2555000011", "name": "USPS COLLECTION BOX - BLUE BOX", "address": {"city": "POINT PLEASANT", "state": "WV", "street": "2501 JACKSON AVE", "postcode": "25550"}}},
{"geometry": {"type": "Point", "coordinates": [-82.1390859871, 38.8419574671]}, "type": "Feature", "properties": {"collection_times": [{"days": "Mon-Fri", "time": "4:45pm"}, {"days": "Sat", "time": "3:00pm"}, {"days": "Sun", "time": "Closed"}], "id": "2555000020", "name": "USPS COLLECTION BOX - BLUE BOX", "address": {"city": "POINT PLEASANT", "state": "WV", "street": "329 MAIN ST", "postcode": "25550"}}},
{"geometry": {"type": "Point", "coordinates": [-82.1390766875, 38.8419900634]}, "type": "Feature", "properties": {"collection_times": [{"days": "Mon-Fri", "time": "4:45pm"}, {"days": "Sat", "time": "3:00pm"}, {"days": "Sun", "time": "Closed"}], "id": "2555000021", "name": "USPS COLLECTION BOX - BLUE BOX", "address": {"city": "POINT PLEASANT", "state": "WV", "street": "329 MAIN ST", "postcode": "25550"}}},
{"geometry": {"type": "Point", "coordinates": [-82.1390766875, 38.8419900634]}, "type": "Feature", "properties": {"collection_times": [{"days": "Mon-Fri", "time": "4:45pm"}, {"days": "Sat", "time": "3:00pm"}, {"days": "Sun", "time": "Closed"}], "id": "2555000022", "name": "USPS COLLECTION BOX - PO LOBBY", "address": {"city": "POINT PLEASANT", "state": "WV", "street": "329 MAIN ST", "postcode": "25550"}}},
{"geometry": {"type": "Point", "coordinates": [-82.5617495573, 38.2195622103]}, "type": "Feature", "properties": {"collection_times": [{"days": "Mon-Fri", "time": "12:00pm"}, {"days": "Sat", "time": "11:15am"}, {"days": "Sun", "time": "Closed"}], "id": "2555500000", "name": "USPS COLLECTION BOX - BLUE BOX", "address": {"city": "PRICHARD", "state": "WV", "street": "295 PRICHARD RD", "postcode": "25555"}}},
{"geometry": {"type": "Point", "coordinates": [-82.5992657992, 38.2328437916]}, "type": "Feature", "properties": {"collection_times": [{"days": "Mon-Fri", "time": "12:00pm"}, {"days": "Sat", "time": "11:15am"}, {"days": "Sun", "time": "Closed"}], "id": "2555500001", "name": "USPS COLLECTION BOX - PO LOBBY", "address": {"city": "PRICHARD", "state": "WV", "street": "295 PRICHARD RD", "postcode": "25555"}}},
{"geometry": {"type": "Point", "coordinates": [-82.1866579309, 38.0951522399]}, "type": "Feature", "properties": {"collection_times": [{"days": "Mon-Fri", "time": "2:45pm"}, {"days": "Sat", "time": "11:00am"}, {"days": "Sun", "time": "Closed"}], "id": "2555700000", "name": "USPS COLLECTION BOX - BLUE BOX", "address": {"city": "RANGER", "state": "WV", "street": "25 VANATTERS CRK", "postcode": "25557"}}},
{"geometry": {"type": "Point", "coordinates": [-82.1866579309, 38.0951522399]}, "type": "Feature", "properties": {"collection_times": [{"days": "Mon-Fri", "time": "2:45pm"}, {"days": "Sat", "time": "11:00am"}, {"days": "Sun", "time": "Closed"}], "id": "2555700001", "name": "USPS COLLECTION BOX - PO LOBBY", "address": {"city": "RANGER", "state": "WV", "street": "25 VANATTERS CRK", "postcode": "25557"}}},
{"geometry": {"type": "Point", "coordinates": [-82.2207314495, 38.3229564568]}, "type": "Feature", "properties": {"collection_times": [{"days": "Mon-Fri", "time": "3:15pm"}, {"days": "Sat", "time": "10:30am"}, {"days": "Sun", "time": "Closed"}], "id": "2555900001", "name": "USPS COLLECTION BOX - PO LOBBY", "address": {"city": "SALT ROCK", "state": "WV", "street": "5577 MADISON CREEK RD", "postcode": "25559"}}},
{"geometry": {"type": "Point", "coordinates": [-82.2207314495, 38.3229564568]}, "type": "Feature", "properties": {"collection_times": [{"days": "Mon-Fri", "time": "3:15pm"}, {"days": "Sat", "time": "10:30am"}, {"days": "Sun", "time": "Closed"}], "id": "2555900002", "name": "USPS COLLECTION BOX - BLUE BOX", "address": {"city": "SALT ROCK", "state": "WV", "street": "5577 MADISON CREEK RD", "postcode": "25559"}}},
{"geometry": {"type": "Point", "coordinates": [-81.9373647221, 38.4517507208]}, "type": "Feature", "properties": {"collection_times": [{"days": "Mon-Sat", "time": "9:30am"}, {"days": "Sun", "time": "Closed"}], "id": "2556000000", "name": "USPS COLLECTION BOX - BLUE BOX", "address": {"city": "SCOTT DEPOT", "state": "WV", "street": "302 GREAT TEAYS BLVD", "postcode": "25560"}}},
{"geometry": {"type": "Point", "coordinates": [-81.935454787, 38.4498273469]}, "type": "Feature", "properties": {"collection_times": [{"days": "Mon-Fri", "time": "4:30pm"}, {"days": "Sat", "time": "12:00pm"}, {"days": "Sun", "time": "Closed"}], "id": "2556000001", "name": "USPS COLLECTION BOX - BLUE BOX", "address": {"city": "SCOTT DEPOT", "state": "WV", "street": "4034 TEAYS VALLEY RD", "postcode": "25560"}}},
{"geometry": {"type": "Point", "coordinates": [-81.9373170029, 38.4518538015]}, "type": "Feature", "properties": {"collection_times": [{"days": "Mon-Sat", "time": "9:15am"}, {"days": "Sun", "time": "Closed"}], "id": "2556000003", "name": "USPS COLLECTION BOX - BLUE BOX", "address": {"city": "SCOTT DEPOT", "state": "WV", "street": "303 GREAT TEAYS BLVD", "postcode": "25560"}}},
{"geometry": {"type": "Point", "coordinates": [-81.935454787, 38.4498273469]}, "type": "Feature", "properties": {"collection_times": [{"days": "Mon-Fri", "time": "4:30pm"}, {"days": "Sat", "time": "12:00pm"}, {"days": "Sun", "time": "Closed"}], "id": "2556000004", "name": "USPS COLLECTION BOX - BLUE BOX", "address": {"city": "SCOTT DEPOT", "state": "WV", "street": "4034 TEAYS VALLEY RD", "postcode": "25560"}}},
{"geometry": {"type": "Point", "coordinates": [-81.935454787, 38.4498273469]}, "type": "Feature", "properties": {"collection_times": [{"days": "Mon-Fri", "time": "4:30pm"}, {"days": "Sat", "time": "12:00pm"}, {"days": "Sun", "time": "Closed"}], "id": "2556000006", "name": "USPS COLLECTION BOX - PO LOBBY", "address": {"city": "SCOTT DEPOT", "state": "WV", "street": "4034 TEAYS VALLEY RD", "postcode": "25560"}}},
{"geometry": {"type": "Point", "coordinates": [-82.5181442445, 38.3567020628]}, "type": "Feature", "properties": {"collection_times": [{"days": "Mon-Fri", "time": "12:00pm"}, {"days": "Sat", "time": "10:15am"}, {"days": "Sun", "time": "Closed"}], "id": "2556200000", "name": "USPS COLLECTION BOX - BLUE BOX", "address": {"city": "SHOALS", "state": "WV", "street": "3712 ROUTE 75", "postcode": "25562"}}},
{"geometry": {"type": "Point", "coordinates": [-82.5181442445, 38.3567020628]}, "type": "Feature", "properties": {"collection_times": [{"days": "Mon-Fri", "time": "12:00pm"}, {"days": "Sat", "time": "10:15am"}, {"days": "Sun", "time": "Closed"}], "id": "2556200001", "name": "USPS COLLECTION BOX - PO LOBBY", "address": {"city": "SHOALS", "state": "WV", "street": "3712 ROUTE 75", "postcode": "25562"}}},
{"geometry": {"type": "Point", "coordinates": [-81.8999166412, 38.2674284573]}, "type": "Feature", "properties": {"collection_times": [{"days": "Mon-Fri", "time": "3:00pm"}, {"days": "Sat", "time": "11:30am"}, {"days": "Sun", "time": "Closed"}], "id": "2556400000", "name": "USPS COLLECTION BOX - BLUE BOX", "address": {"city": "SOD", "state": "WV", "street": "2584 GARRETTS BND", "postcode": "25564"}}},
{"geometry": {"type": "Point", "coordinates": [-81.8999166412, 38.2674284573]}, "type": "Feature", "properties": {"collection_times": [{"days": "Mon-Fri", "time": "3:00pm"}, {"days": "Sat", "time": "11:30am"}, {"days": "Sun", "time": "Closed"}], "id": "2556400001", "name": "USPS COLLECTION BOX - PO LOBBY", "address": {"city": "SOD", "state": "WV", "street": "2584 GARRETTS BND", "postcode": "25564"}}},
{"geometry": {"type": "Point", "coordinates": [-81.9941161083, 38.0434431209]}, "type": "Feature", "properties": {"collection_times": [{"days": "Mon-Sat", "time": "11:45am"}, {"days": "Sun", "time": "Closed"}], "id": "2556500000", "name": "USPS COLLECTION BOX - BLUE BOX", "address": {"city": "SPURLOCKVILLE", "state": "WV", "street": "3182 BULGER RD", "postcode": "25565"}}},
{"geometry": {"type": "Point", "coordinates": [-81.9941161083, 38.0434431209]}, "type": "Feature", "properties": {"collection_times": [{"days": "Mon-Sat", "time": "11:45am"}, {"days": "Sun", "time": "Closed"}], "id": "2556500001", "name": "USPS COLLECTION BOX - PO LOBBY", "address": {"city": "SPURLOCKVILLE", "state": "WV", "street": "3182 BULGER RD", "postcode": "25565"}}},
{"geometry": {"type": "Point", "coordinates": [-81.8817362762, 38.199169683]}, "type": "Feature", "properties": {"collection_times": [{"days": "Mon-Fri", "time": "11:45am"}, {"days": "Sat", "time": "10:15am"}, {"days": "Sun", "time": "Closed"}], "id": "2556700000", "name": "USPS COLLECTION BOX - BLUE BOX", "address": {"city": "SUMERCO", "state": "WV", "street": "2003 MIDWAY RD", "postcode": "25567"}}},
{"geometry": {"type": "Point", "coordinates": [-81.8817362762, 38.199169683]}, "type": "Feature", "properties": {"collection_times": [{"days": "Mon-Fri", "time": "11:45am"}, {"days": "Sat", "time": "10:15am"}, {"days": "Sun", "time": "Closed"}], "id": "2556700001", "name": "USPS COLLECTION BOX - PO LOBBY", "address": {"city": "SUMERCO", "state": "WV", "street": "2003 MIDWAY RD", "postcode": "25567"}}},
{"geometry": {"type": "Point", "coordinates": [-81.9337071711, 38.4656109174]}, "type": "Feature", "properties": {"collection_times": [{"days": "Mon-Fri", "time": "12:00pm"}, {"days": "Sat", "time": "10:45am"}, {"days": "Sun", "time": "Closed"}], "id": "2556900000", "name": "USPS COLLECTION BOX - BLUE BOX", "address": {"city": "TEAYS", "state": "WV", "street": "31 PUTNAM VILLAGE SHOPPING CTR", "postcode": "25569"}}},
{"geometry": {"type": "Point", "coordinates": [-81.9337071712, 38.4656109172]}, "type": "Feature", "properties": {"collection_times": [{"days": "Mon-Fri", "time": "12:00pm"}, {"days": "Sat", "time": "10:45am"}, {"days": "Sun", "time": "Closed"}], "id": "2556900001", "name": "USPS COLLECTION BOX - PO LOBBY", "address": {"city": "TEAYS", "state": "WV", "street": "31 PUTNAM VILLAGE SHOPPING CTR", "postcode": "25569"}}},
{"geometry": {"type": "Point", "coordinates": [-82.4428009954, 38.2220914495]}, "type": "Feature", "properties": {"collection_times": [{"days": "Mon-Fri", "time": "4:30pm"}, {"days": "Sat", "time": "11:00am"}, {"days": "Sun", "time": "Closed"}], "id": "2557000000", "name": "USPS COLLECTION BOX - BLUE BOX", "address": {"city": "WAYNE", "state": "WV", "street": "218 KEYSER ST", "postcode": "25570"}}},
{"geometry": {"type": "Point", "coordinates": [-82.4428009954, 38.2220914495]}, "type": "Feature", "properties": {"collection_times": [{"days": "Mon-Fri", "time": "4:30pm"}, {"days": "Sat", "time": "11:00am"}, {"days": "Sun", "time": "Closed"}], "id": "2557000001", "name": "USPS COLLECTION BOX - BLUE BOX", "address": {"city": "WAYNE", "state": "WV", "street": "218 KEYSER ST", "postcode": "25570"}}},
{"geometry": {"type": "Point", "coordinates": [-82.4428009954, 38.2220914495]}, "type": "Feature", "properties": {"collection_times": [{"days": "Mon-Fri", "time": "4:30pm"}, {"days": "Sat", "time": "11:00am"}, {"days": "Sun", "time": "Closed"}], "id": "2557000002", "name": "USPS COLLECTION BOX - PO LOBBY", "address": {"city": "WAYNE", "state": "WV", "street": "218 KEYSER ST", "postcode": "25570"}}},
{"geometry": {"type": "Point", "coordinates": [-82.1825875026, 38.2930167954]}, "type": "Feature", "properties": {"collection_times": [{"days": "Mon-Fri", "time": "4:00pm"}, {"days": "Sat", "time": "12:00pm"}, {"days": "Sun", "time": "Closed"}], "id": "2557100000", "name": "USPS COLLECTION BOX - BLUE BOX", "address": {"city": "WEST HAMLIN", "state": "WV", "street": "6017 MCCLELLAN HWY", "postcode": "25571"}}},
{"geometry": {"type": "Point", "coordinates": [-82.1825875026, 38.2930167954]}, "type": "Feature", "properties": {"collection_times": [{"days": "Mon-Fri", "time": "4:00pm"}, {"days": "Sat", "time": "12:00pm"}, {"days": "Sun", "time": "Closed"}], "id": "2557100001", "name": "USPS COLLECTION BOX - PO LOBBY", "address": {"city": "WEST HAMLIN", "state": "WV", "street": "6017 MCCLELLAN HWY", "postcode": "25571"}}}
]}
