{"type": "FeatureCollection", "features": [
{"geometry": {"type": "Point", "coordinates": [-81.9719939856, 37.8421777962]}, "type": "Feature", "properties": {"collection_times": [{"days": "Mon-Sat", "time": "12:00pm"}, {"days": "Sun", "time": "Closed"}], "id": "2560100007", "name": "USPS COLLECTION BOX - BLUE BOX", "address": {"city": "LOGAN", "state": "WV", "street": "141 NIGHBERT AVE", "postcode": "25601"}}},
{"geometry": {"type": "Point", "coordinates": [-81.9913519638, 37.8471959361]}, "type": "Feature", "properties": {"collection_times": [{"days": "Mon-Fri", "time": "3:00pm"}, {"days": "Sat", "time": "2:30pm"}, {"days": "Sun", "time": "Closed"}], "id": "2560100012", "name": "USPS COLLECTION BOX - BLUE BOX", "address": {"city": "LOGAN", "state": "WV", "street": "220 STRATTON ST", "postcode": "25601"}}},
{"geometry": {"type": "Point", "coordinates": [-81.9827490205, 37.9076537356]}, "type": "Feature", "properties": {"collection_times": [{"days": "Mon-Sat", "time": "10:00am"}, {"days": "Sun", "time": "Closed"}], "id": "2560100015", "name": "USPS COLLECTION BOX - BLUE BOX", "address": {"city": "LOGAN", "state": "WV", "street": "305 CENTRAL AVE", "postcode": "25601"}}},
{"geometry": {"type": "Point", "coordinates": [-81.991325604, 37.8477871267]}, "type": "Feature", "properties": {"collection_times": [{"days": "Mon-Fri", "time": "5:00pm"}, {"days": "Sat", "time": "3:30pm"}, {"days": "Sun", "time": "Closed"}], "id": "2560100016", "name": "USPS COLLECTION BOX - PO LOBBY", "address": {"city": "LOGAN", "state": "WV", "street": "400 HUDGINS ST", "postcode": "25601"}}},
{"geometry": {"type": "Point", "coordinates": [-82.0467025418, 37.8602332367]}, "type": "Feature", "properties": {"collection_times": [{"days": "Mon-Sat", "time": "9:00am"}, {"days": "Sun", "time": "Closed"}], "id": "2560100017", "name": "USPS COLLECTION BOX - BLUE BOX", "address": {"city": "LOGAN", "state": "WV", "street": "116 NICK SAVAS DR", "postcode": "25601"}}},
{"geometry": {"type": "Point", "coordinates": [-81.9985138322, 37.8499455341]}, "type": "Feature", "properties": {"collection_times": [{"days": "Mon-Sat", "time": "8:00am"}, {"days": "Sun", "time": "Closed"}], "id": "2560100018", "name": "USPS COLLECTION BOX - BLUE BOX", "address": {"city": "LOGAN", "state": "WV", "street": "1 MAIN AVE", "postcode": "25601"}}},
{"geometry": {"type": "Point", "coordinates": [-81.991325604, 37.8477871267]}, "type": "Feature", "properties": {"collection_times": [{"days": "Mon-Fri", "time": "4:30pm"}, {"days": "Sat", "time": "3:00pm"}, {"days": "Sun", "time": "Closed"}], "id": "2560100020", "name": "USPS COLLECTION BOX - PO LOBBY", "address": {"city": "LOGAN", "state": "WV", "street": "400 HUDGINS ST", "postcode": "25601"}}},
{"geometry": {"type": "Point", "coordinates": [-81.991325604, 37.8477871267]}, "type": "Feature", "properties": {"collection_times": [{"days": "Mon-Fri", "time": "4:30pm"}, {"days": "Sat", "time": "3:30pm"}, {"days": "Sun", "time": "Closed"}], "id": "2560100024", "name": "USPS COLLECTION BOX - PO LOBBY", "address": {"city": "LOGAN", "state": "WV", "street": "400 HUDGINS ST", "postcode": "25601"}}},
{"geometry": {"type": "Point", "coordinates": [-81.991325604, 37.8477871267]}, "type": "Feature", "properties": {"collection_times": [{"days": "Mon-Fri", "time": "5:00pm"}, {"days": "Sat", "time": "3:30pm"}, {"days": "Sun", "time": "Closed"}], "id": "2560100025", "name": "USPS COLLECTION BOX - BLUE BOX", "address": {"city": "LOGAN", "state": "WV", "street": "400 HUDGINS ST", "postcode": "25601"}}},
{"geometry": {"type": "Point", "coordinates": [-81.9786835415, 37.844362725]}, "type": "Feature", "properties": {"collection_times": [{"days": "Mon-Sat", "time": "9:00am"}, {"days": "Sun", "time": "Closed"}], "id": "2560100026", "name": "USPS COLLECTION BOX - BLUE BOX", "address": {"city": "LOGAN", "state": "WV", "street": "127 PROSPERITY LN", "postcode": "25601"}}},
{"geometry": {"type": "Point", "coordinates": [-81.8400902259, 37.7673604396]}, "type": "Feature", "properties": {"collection_times": [{"days": "Mon-Fri", "time": "11:45am"}, {"days": "Sat", "time": "11:30am"}, {"days": "Sun", "time": "Closed"}], "id": "2560600000", "name": "USPS COLLECTION BOX - BLUE BOX", "address": {"city": "ACCOVILLE", "state": "WV", "street": "1983 BUFFALO CREEK RD", "postcode": "25606"}}},
{"geometry": {"type": "Point", "coordinates": [-81.8400902259, 37.7673604396]}, "type": "Feature", "properties": {"collection_times": [{"days": "Mon-Fri", "time": "11:45am"}, {"days": "Sat", "time": "11:30am"}, {"days": "Sun", "time": "Closed"}], "id": "2560600001", "name": "USPS COLLECTION BOX - PO LOBBY", "address": {"city": "ACCOVILLE", "state": "WV", "street": "1983 BUFFALO CREEK RD", "postcode": "25606"}}},
{"geometry": {"type": "Point", "coordinates": [-81.7835032004, 37.8295865608]}, "type": "Feature", "properties": {"collection_times": [{"days": "Mon-Fri", "time": "3:30pm"}, {"days": "Sat", "time": "11:30am"}, {"days": "Sun", "time": "Closed"}], "id": "2560700000", "name": "USPS COLLECTION BOX - BLUE BOX", "address": {"city": "AMHERSTDALE", "state": "WV", "street": "25 GARRISON DR", "postcode": "25607"}}},
{"geometry": {"type": "Point", "coordinates": [-81.7835032004, 37.8295865608]}, "type": "Feature", "properties": {"collection_times": [{"days": "Mon-Fri", "time": "3:45pm"}, {"days": "Sat", "time": "11:30am"}, {"days": "Sun", "time": "Closed"}], "id": "2560700001", "name": "USPS COLLECTION BOX - PO LOBBY", "address": {"city": "AMHERSTDALE", "state": "WV", "street": "25 GARRISON DR", "postcode": "25607"}}},
{"geometry": {"type": "Point", "coordinates": [-81.8929038813, 37.5754499781]}, "type": "Feature", "properties": {"collection_times": [{"days": "Mon-Fri", "time": "12:45pm"}, {"days": "Sat", "time": "2:00pm"}, {"days": "Sun", "time": "Closed"}], "id": "2560800000", "name": "USPS COLLECTION BOX - BLUE BOX", "address": {"city": "BAISDEN", "state": "WV", "street": "4082 GILBERT CREEK RD", "postcode": "25608"}}},
{"geometry": {"type": "Point", "coordinates": [-81.9110783283, 37.5596288837]}, "type": "Feature", "properties": {"collection_times": [{"days": "Mon-Fri", "time": "12:45pm"}, {"days": "Sat", "time": "2:15pm"}, {"days": "Sun", "time": "Closed"}], "id": "2560800001", "name": "USPS COLLECTION BOX - PO LOBBY", "address": {"city": "BAISDEN", "state": "WV", "street": "4082 GILBERT CREEK RD", "postcode": "25608"}}},
{"geometry": {"type": "Point", "coordinates": [-81.8658575829, 37.6915075694]}, "type": "Feature", "properties": {"collection_times": [{"days": "Mon-Sat", "time": "10:15am"}, {"days": "Sun", "time": "Closed"}], "id": "2561100000", "name": "USPS COLLECTION BOX - BLUE BOX", "address": {"city": "BRUNO", "state": "WV", "street": "242 SANDLICK BRANCH RD", "postcode": "25611"}}},
{"geometry": {"type": "Point", "coordinates": [-81.8690988591, 37.6904957725]}, "type": "Feature", "properties": {"collection_times": [{"days": "Mon-Fri", "time": "11:15am"}, {"days": "Sat", "time": "10:15am"}, {"days": "Sun", "time": "Closed"}], "id": "2561100001", "name": "USPS COLLECTION BOX - PO LOBBY", "address": {"city": "BRUNO", "state": "WV", "street": "242 SANDLICK BRANCH RD", "postcode": "25611"}}},
{"geometry": {"type": "Point", "coordinates": [-81.7906838479, 37.7150826551]}, "type": "Feature", "properties": {"collection_times": [{"days": "Mon-Fri", "time": "2:15pm"}, {"days": "Sat", "time": "11:45am"}, {"days": "Sun", "time": "Closed"}], "id": "2561700000", "name": "USPS COLLECTION BOX - BLUE BOX", "address": {"city": "DAVIN", "state": "WV", "street": "2687 HUFF CREEK HWY", "postcode": "25617"}}},
{"geometry": {"type": "Point", "coordinates": [-81.7906838479, 37.7150826551]}, "type": "Feature", "properties": {"collection_times": [{"days": "Mon-Fri", "time": "2:15pm"}, {"days": "Sat", "time": "11:45am"}, {"days": "Sun", "time": "Closed"}], "id": "2561700001", "name": "USPS COLLECTION BOX - PO LOBBY", "address": {"city": "DAVIN", "state": "WV", "street": "2687 HUFF CREEK HWY", "postcode": "25617"}}},
{"geometry": {"type": "Point", "coordinates": [-81.956819081, 37.6167572283]}, "type": "Feature", "properties": {"collection_times": [{"days": "Mon-Fri", "time": "3:45pm"}, {"days": "Sat", "time": "11:15am"}, {"days": "Sun", "time": "Closed"}], "id": "2562100000", "name": "USPS COLLECTION BOX - BLUE BOX", "address": {"city": "GILBERT", "state": "WV", "street": "PO BOX 9998", "postcode": "25621"}}},
{"geometry": {"type": "Point", "coordinates": [-81.956819081, 37.6167572283]}, "type": "Feature", "properties": {"collection_times": [{"days": "Mon-Fri", "time": "4:00pm"}, {"days": "Sat", "time": "12:00pm"}, {"days": "Sun", "time": "Closed"}], "id": "2562100001", "name": "USPS COLLECTION BOX - PO LOBBY", "address": {"city": "GILBERT", "state": "WV", "street": "PO BOX 9998", "postcode": "25621"}}},
{"geometry": {"type": "Point", "coordinates": [-81.956819081, 37.6167572283]}, "type": "Feature", "properties": {"collection_times": [{"days": "Mon-Fri", "time": "4:00pm"}, {"days": "Sat", "time": "12:00pm"}, {"days": "Sun", "time": "Closed"}], "id": "2562100002", "name": "USPS COLLECTION BOX - PO LOBBY", "address": {"city": "GILBERT", "state": "WV", "street": "PO BOX 9998", "postcode": "25621"}}},
{"geometry": {"type": "Point", "coordinates": [-81.9894199665, 37.9040633211]}, "type": "Feature", "properties": {"collection_times": [{"days": "Mon-Fri", "time": "12:00pm"}, {"days": "Sat", "time": "11:15am"}, {"days": "Sun", "time": "Closed"}], "id": "2562400000", "name": "USPS COLLECTION BOX - BLUE BOX", "address": {"city": "HENLAWSON", "state": "WV", "street": "17 VETERANS AVE", "postcode": "25624"}}},
{"geometry": {"type": "Point", "coordinates": [-81.9894199665, 37.9040633211]}, "type": "Feature", "properties": {"collection_times": [{"days": "Mon-Fri", "time": "12:00pm"}, {"days": "Sat", "time": "11:15am"}, {"days": "Sun", "time": "Closed"}], "id": "2562400001", "name": "USPS COLLECTION BOX - PO LOBBY", "address": {"city": "HENLAWSON", "state": "WV", "street": "17 VETERANS AVE", "postcode": "25624"}}},
{"geometry": {"type": "Point", "coordinates": [-82.0656352621, 37.8147213292]}, "type": "Feature", "properties": {"collection_times": [{"days": "Mon-Fri", "time": "3:45pm"}, {"days": "Sat", "time": "11:45am"}, {"days": "Sun", "time": "Closed"}], "id": "2562500000", "name": "USPS COLLECTION BOX - BLUE BOX", "address": {"city": "HOLDEN", "state": "WV", "street": "603 BEE BEE ST", "postcode": "25625"}}},
{"geometry": {"type": "Point", "coordinates": [-82.0656352621, 37.8147213292]}, "type": "Feature", "properties": {"collection_times": [{"days": "Mon-Fri", "time": "3:45pm"}, {"days": "Sat", "time": "11:45am"}, {"days": "Sun", "time": "Closed"}], "id": "2562500001", "name": "USPS COLLECTION BOX - PO LOBBY", "address": {"city": "HOLDEN", "state": "WV", "street": "603 BEE BEE ST", "postcode": "25625"}}},
{"geometry": {"type": "Point", "coordinates": [-81.8668862313, 37.7511322332]}, "type": "Feature", "properties": {"collection_times": [{"days": "Mon-Fri", "time": "11:45am"}, {"days": "Sat", "time": "11:30am"}, {"days": "Sun", "time": "Closed"}], "id": "2562800000", "name": "USPS COLLECTION BOX - BLUE BOX", "address": {"city": "KISTLER", "state": "WV", "street": "PO BOX 9998", "postcode": "25628"}}},
{"geometry": {"type": "Point", "coordinates": [-81.8668862313, 37.7511322332]}, "type": "Feature", "properties": {"collection_times": [{"days": "Mon-Fri", "time": "11:45am"}, {"days": "Sat", "time": "11:30am"}, {"days": "Sun", "time": "Closed"}], "id": "2562800001", "name": "USPS COLLECTION BOX - PO LOBBY", "address": {"city": "KISTLER", "state": "WV", "street": "PO BOX 9998", "postcode": "25628"}}},
{"geometry": {"type": "Point", "coordinates": [-81.7157161267, 37.7967309074]}, "type": "Feature", "properties": {"collection_times": [{"days": "Mon-Fri", "time": "11:45am"}, {"days": "Sat", "time": "12:00pm"}, {"days": "Sun", "time": "Closed"}], "id": "2563000001", "name": "USPS COLLECTION BOX - PO LOBBY", "address": {"city": "LORADO", "state": "WV", "street": "9964 BUFFALO CREEK RD", "postcode": "25630"}}},
{"geometry": {"type": "Point", "coordinates": [-81.898849111, 37.759259829]}, "type": "Feature", "properties": {"collection_times": [{"days": "Mon-Sat", "time": "12:00pm"}, {"days": "Sun", "time": "Closed"}], "id": "2563200001", "name": "USPS COLLECTION BOX - BLUE BOX", "address": {"city": "LOGAN", "state": "WV", "street": "3818 HANGING ROCK HWY", "postcode": "25632"}}},
{"geometry": {"type": "Point", "coordinates": [-81.8441621958, 37.7291043824]}, "type": "Feature", "properties": {"collection_times": [{"days": "Mon-Fri", "time": "11:45am"}, {"days": "Sat", "time": "11:30am"}, {"days": "Sun", "time": "Closed"}], "id": "2563400000", "name": "USPS COLLECTION BOX - BLUE BOX", "address": {"city": "MALLORY", "state": "WV", "street": "1453 HUFF CREEK HWY", "postcode": "25634"}}},
{"geometry": {"type": "Point", "coordinates": [-81.8441621958, 37.7291043824]}, "type": "Feature", "properties": {"collection_times": [{"days": "Mon-Sat", "time": "11:45am"}, {"days": "Sun", "time": "Closed"}], "id": "2563400001", "name": "USPS COLLECTION BOX - PO LOBBY", "address": {"city": "MALLORY", "state": "WV", "street": "1453 HUFF CREEK HWY", "postcode": "25634"}}},
{"geometry": {"type": "Point", "coordinates": [-81.8739236013, 37.7426571091]}, "type": "Feature", "properties": {"collection_times": [{"days": "Mon-Fri", "time": "4:00pm"}, {"days": "Sat", "time": "11:30am"}, {"days": "Sun", "time": "Closed"}], "id": "2563500001", "name": "USPS COLLECTION BOX - BLUE BOX", "address": {"city": "MAN", "state": "WV", "street": "125 MARKET ST", "postcode": "25635"}}},
{"geometry": {"type": "Point", "coordinates": [-81.8739236013, 37.7426571091]}, "type": "Feature", "properties": {"collection_times": [{"days": "Mon-Fri", "time": "4:00pm"}, {"days": "Sat", "time": "12:00pm"}, {"days": "Sun", "time": "Closed"}], "id": "2563500004", "name": "USPS COLLECTION BOX - PO LOBBY", "address": {"city": "MAN", "state": "WV", "street": "125 MARKET ST", "postcode": "25635"}}},
{"geometry": {"type": "Point", "coordinates": [-82.0101813104, 37.8457584013]}, "type": "Feature", "properties": {"collection_times": [{"days": "Mon-Fri", "time": "3:45pm"}, {"days": "Sat", "time": "11:00am"}, {"days": "Sun", "time": "Closed"}], "id": "2563700000", "name": "USPS COLLECTION BOX - BLUE BOX", "address": {"city": "MOUNT GAY", "state": "WV", "street": "352 MOUNT GAY RD", "postcode": "25637"}}},
{"geometry": {"type": "Point", "coordinates": [-82.0101813104, 37.8457584013]}, "type": "Feature", "properties": {"collection_times": [{"days": "Mon-Fri", "time": "3:45pm"}, {"days": "Sat", "time": "11:00am"}, {"days": "Sun", "time": "Closed"}], "id": "2563700001", "name": "USPS COLLECTION BOX - PO LOBBY", "address": {"city": "MOUNT GAY", "state": "WV", "street": "352 MOUNT GAY RD", "postcode": "25637"}}},
{"geometry": {"type": "Point", "coordinates": [-82.0469963057, 37.5756908583]}, "type": "Feature", "properties": {"collection_times": [{"days": "Mon-Fri", "time": "3:00pm"}, {"days": "Sat", "time": "11:30am"}, {"days": "Sun", "time": "Closed"}], "id": "2563800000", "name": "USPS COLLECTION BOX - BLUE BOX", "address": {"city": "OMAR", "state": "WV", "street": "8296 JERRY WEST HWY", "postcode": "25638"}}},
{"geometry": {"type": "Point", "coordinates": [-82.0469963057, 37.5756908583]}, "type": "Feature", "properties": {"collection_times": [{"days": "Mon-Fri", "time": "3:00pm"}, {"days": "Sat", "time": "12:00pm"}, {"days": "Sun", "time": "Closed"}], "id": "2563800001", "name": "USPS COLLECTION BOX - PO LOBBY", "address": {"city": "OMAR", "state": "WV", "street": "8296 JERRY WEST HWY", "postcode": "25638"}}},
{"geometry": {"type": "Point", "coordinates": [-81.987762732, 37.8736777738]}, "type": "Feature", "properties": {"collection_times": [{"days": "Mon-Fri", "time": "12:00pm"}, {"days": "Sat", "time": "11:00am"}, {"days": "Sun", "time": "Closed"}], "id": "2563900000", "name": "USPS COLLECTION BOX - BLUE BOX", "address": {"city": "PEACH CREEK", "state": "WV", "street": "PO BOX 9998", "postcode": "25639"}}},
{"geometry": {"type": "Point", "coordinates": [-81.987762732, 37.8736777738]}, "type": "Feature", "properties": {"collection_times": [{"days": "Mon-Fri", "time": "12:00pm"}, {"days": "Sat", "time": "11:00am"}, {"days": "Sun", "time": "Closed"}], "id": "2563900001", "name": "USPS COLLECTION BOX - PO LOBBY", "address": {"city": "PEACH CREEK", "state": "WV", "street": "PO BOX 9998", "postcode": "25639"}}},
{"geometry": {"type": "Point", "coordinates": [-81.9872508752, 37.7110263139]}, "type": "Feature", "properties": {"collection_times": [{"days": "Mon-Sat", "time": "9:45am"}, {"days": "Sun", "time": "Closed"}], "id": "2564400000", "name": "USPS COLLECTION BOX - BLUE BOX", "address": {"city": "SARAH ANN", "state": "WV", "street": "11765 JERRY WEST HWY", "postcode": "25644"}}},
{"geometry": {"type": "Point", "coordinates": [-81.9872508752, 37.7110263139]}, "type": "Feature", "properties": {"collection_times": [{"days": "Mon-Sat", "time": "9:45am"}, {"days": "Sun", "time": "Closed"}], "id": "2564400001", "name": "USPS COLLECTION BOX - PO LOBBY", "address": {"city": "SARAH ANN", "state": "WV", "street": "11765 JERRY WEST HWY", "postcode": "25644"}}},
{"geometry": {"type": "Point", "coordinates": [-81.9645876852, 37.8380100649]}, "type": "Feature", "properties": {"collection_times": [{"days": "Mon-Fri", "time": "4:30pm"}, {"days": "Sat", "time": "11:30am"}, {"days": "Sun", "time": "Closed"}], "id": "2564600000", "name": "USPS COLLECTION BOX - BLUE BOX", "address": {"city": "STOLLINGS", "state": "WV", "street": "768 HANGING ROCK HWY", "postcode": "25646"}}},
{"geometry": {"type": "Point", "coordinates": [-81.9645876852, 37.8380100649]}, "type": "Feature", "properties": {"collection_times": [{"days": "Mon-Fri", "time": "4:30pm"}, {"days": "Sat", "time": "11:30am"}, {"days": "Sun", "time": "Closed"}], "id": "2564600001", "name": "USPS COLLECTION BOX - PO LOBBY", "address": {"city": "STOLLINGS", "state": "WV", "street": "768 HANGING ROCK HWY", "postcode": "25646"}}},
{"geometry": {"type": "Point", "coordinates": [-81.990430592, 37.7904837157]}, "type": "Feature", "properties": {"collection_times": [{"days": "Mon-Fri", "time": "11:45am"}, {"days": "Sat", "time": "12:00pm"}, {"days": "Sun", "time": "Closed"}], "id": "2564700000", "name": "USPS COLLECTION BOX - BLUE BOX", "address": {"city": "SWITZER", "state": "WV", "street": "5468 JERRY WEST HWY", "postcode": "25647"}}},
{"geometry": {"type": "Point", "coordinates": [-81.990430592, 37.7904837157]}, "type": "Feature", "properties": {"collection_times": [{"days": "Mon-Fri", "time": "11:45am"}, {"days": "Sat", "time": "12:00pm"}, {"days": "Sun", "time": "Closed"}], "id": "2564700001", "name": "USPS COLLECTION BOX - PO LOBBY", "address": {"city": "SWITZER", "state": "WV", "street": "5468 JERRY WEST HWY", "postcode": "25647"}}},
{"geometry": {"type": "Point", "coordinates": [-82.0491630029, 37.8466871292]}, "type": "Feature", "properties": {"collection_times": [{"days": "Mon-Fri", "time": "2:45pm"}, {"days": "Sat", "time": "11:45am"}, {"days": "Sun", "time": "Closed"}], "id": "2564900000", "name": "USPS COLLECTION BOX - BLUE BOX", "address": {"city": "VERDUNVILLE", "state": "WV", "street": "2571 MUD FORK RD", "postcode": "25649"}}},
{"geometry": {"type": "Point", "coordinates": [-82.0491630029, 37.8466871292]}, "type": "Feature", "properties": {"collection_times": [{"days": "Mon-Fri", "time": "2:45pm"}, {"days": "Sat", "time": "11:45am"}, {"days": "Sun", "time": "Closed"}], "id": "2564900001", "name": "USPS COLLECTION BOX - PO LOBBY", "address": {"city": "VERDUNVILLE", "state": "WV", "street": "2571 MUD FORK RD", "postcode": "25649"}}},
{"geometry": {"type": "Point", "coordinates": [-81.8596572771, 37.6436043819]}, "type": "Feature", "properties": {"collection_times": [{"days": "Mon-Fri", "time": "2:15pm"}, {"days": "Sat", "time": "11:15am"}, {"days": "Sun", "time": "Closed"}], "id": "2565000000", "name": "USPS COLLECTION BOX - BLUE BOX", "address": {"city": "VERNER", "state": "WV", "street": "6151 RT 80", "postcode": "25650"}}},
{"geometry": {"type": "Point", "coordinates": [-81.8596572771, 37.6436043819]}, "type": "Feature", "properties": {"collection_times": [{"days": "Mon-Fri", "time": "2:15pm"}, {"days": "Sat", "time": "11:15am"}, {"days": "Sun", "time": "Closed"}], "id": "2565000001", "name": "USPS COLLECTION BOX - PO LOBBY", "address": {"city": "VERNER", "state": "WV", "street": "PO BOX 9998", "postcode": "25650"}}},
{"geometry": {"type": "Point", "coordinates": [-82.0103983046, 37.5536587451]}, "type": "Feature", "properties": {"collection_times": [{"days": "Mon-Fri", "time": "2:30pm"}, {"days": "Sat", "time": "1:45pm"}, {"days": "Sun", "time": "Closed"}], "id": "2565100000", "name": "USPS COLLECTION BOX - BLUE BOX", "address": {"city": "WHARNCLIFFE", "state": "WV", "street": "PO BOX 9998", "postcode": "25651"}}},
{"geometry": {"type": "Point", "coordinates": [-82.0103983046, 37.5536587451]}, "type": "Feature", "properties": {"collection_times": [{"days": "Mon-Fri", "time": "2:30pm"}, {"days": "Sat", "time": "1:45pm"}, {"days": "Sun", "time": "Closed"}], "id": "2565100001", "name": "USPS COLLECTION BOX - PO LOBBY", "address": {"city": "WHARNCLIFFE", "state": "WV", "street": "PO BOX 9998", "postcode": "25651"}}},
{"geometry": {"type": "Point", "coordinates": [-82.0245192309, 37.8148437634]}, "type": "Feature", "properties": {"collection_times": [{"days": "Mon-Sat", "time": "11:45am"}, {"days": "Sun", "time": "Closed"}], "id": "2565200000", "name": "USPS COLLECTION BOX - BLUE BOX", "address": {"city": "WHITMAN", "state": "WV", "street": "1125 WHITMAN CREEK RD", "postcode": "25652"}}},
{"geometry": {"type": "Point", "coordinates": [-82.0245192309, 37.8148437634]}, "type": "Feature", "properties": {"collection_times": [{"days": "Mon-Sat", "time": "11:45am"}, {"days": "Sun", "time": "Closed"}], "id": "2565200001", "name": "USPS COLLECTION BOX - PO LOBBY", "address": {"city": "WHITMAN", "state": "WV", "street": "1125 WHITMAN CREEK RD", "postcode": "25652"}}},
{"geometry": {"type": "Point", "coordinates": [-81.9912986917, 37.8478592769]}, "type": "Feature", "properties": {"collection_times": [{"days": "Mon-Fri", "time": "3:15pm"}, {"days": "Sat", "time": "11:30am"}, {"days": "Sun", "time": "Closed"}], "id": "2565300000", "name": "USPS COLLECTION BOX - BLUE BOX", "address": {"city": "WILKINSON", "state": "WV", "street": "1604 JERRY WEST HWY", "postcode": "25653"}}},
{"geometry": {"type": "Point", "coordinates": [-81.9912986917, 37.8478592769]}, "type": "Feature", "properties": {"collection_times": [{"days": "Mon-Fri", "time": "3:15pm"}, {"days": "Sat", "time": "11:30am"}, {"days": "Sun", "time": "Closed"}], "id": "2565300001", "name": "USPS COLLECTION BOX - PO LOBBY", "address": {"city": "WILKINSON", "state": "WV", "street": "1604 JERRY WEST HWY", "postcode": "25653"}}},
{"geometry": {"type": "Point", "coordinates": [-82.2724175018, 37.6750081577]}, "type": "Feature", "properties": {"collection_times": [{"days": "Mon-Sat", "time": "9:30am"}, {"days": "Sun", "time": "Closed"}], "id": "2566100025", "name": "USPS COLLECTION BOX - BLUE BOX", "address": {"city": "WILLIAMSON", "state": "WV", "street": "260 HOSPITAL DR", "postcode": "25661"}}},
{"geometry": {"type": "Point", "coordinates": [-81.4427082169, 39.4015329453]}, "type": "Feature", "properties": {"collection_times": [{"days": "Mon-Sat", "time": "9:00am"}, {"days": "Sun", "time": "Closed"}], "id": "2566100026", "name": "USPS COLLECTION BOX - BLUE BOX", "address": {"city": "WILLIAMSON", "state": "WV", "street": "412 CENTRAL AVE", "postcode": "25661"}}},
{"geometry": {"type": "Point", "coordinates": [-82.2611697009, 37.7162917431]}, "type": "Feature", "properties": {"collection_times": [{"days": "Mon-Sat", "time": "10:30am"}, {"days": "Sun", "time": "Closed"}], "id": "2566100027", "name": "USPS COLLECTION BOX - BLUE BOX", "address": {"city": "WILLIAMSON", "state": "WV", "street": "501 THOMPSON PLZ", "postcode": "25661"}}},
{"geometry": {"type": "Point", "coordinates": [-82.2611697009, 37.7162917431]}, "type": "Feature", "properties": {"collection_times": [{"days": "Mon-Sat", "time": "10:30am"}, {"days": "Sun", "time": "Closed"}], "id": "2566100028", "name": "USPS COLLECTION BOX - BLUE BOX", "address": {"city": "WILLIAMSON", "state": "WV", "street": "275 SOUTHSIDE MALL RD", "postcode": "25661"}}},
{"geometry": {"type": "Point", "coordinates": [-82.2922840012, 37.6725099326]}, "type": "Feature", "properties": {"collection_times": [{"days": "Mon-Sat", "time": "2:30pm"}, {"days": "Sun", "time": "Closed"}], "id": "2566100031", "name": "USPS COLLECTION BOX - BLUE BOX", "address": {"city": "WILLIAMSON", "state": "WV", "street": "1429 W 3RD AVE", "postcode": "25661"}}},
{"geometry": {"type": "Point", "coordinates": [-82.2657577861, 37.6639264747]}, "type": "Feature", "properties": {"collection_times": [{"days": "Mon-Sat", "time": "11:30am"}, {"days": "Sun", "time": "Closed"}], "id": "2566100032", "name": "USPS COLLECTION BOX - BLUE BOX", "address": {"city": "WILLIAMSON", "state": "WV", "street": "730 E 4TH AVE", "postcode": "25661"}}},
{"geometry": {"type": "Point", "coordinates": [-82.2696276697, 37.6740572734]}, "type": "Feature", "properties": {"collection_times": [{"days": "Mon-Sat", "time": "9:30am"}, {"days": "Sun", "time": "Closed"}], "id": "2566100034", "name": "USPS COLLECTION BOX - BLUE BOX", "address": {"city": "WILLIAMSON", "state": "WV", "street": "717 VINSON ST", "postcode": "25661"}}},
{"geometry": {"type": "Point", "coordinates": [-82.2725889323, 37.6768356308]}, "type": "Feature", "properties": {"collection_times": [{"days": "Mon-Sat", "time": "11:00am"}, {"days": "Sun", "time": "Closed"}], "id": "2566100037", "name": "USPS COLLECTION BOX - BLUE BOX", "address": {"city": "WILLIAMSON", "state": "WV", "street": "859 ALDERSON ST", "postcode": "25661"}}},
{"geometry": {"type": "Point", "coordinates": [-82.2787933182, 37.6721833569]}, "type": "Feature", "properties": {"collection_times": [{"days": "Mon-Sat", "time": "3:30pm"}, {"days": "Sun", "time": "Closed"}], "id": "2566100041", "name": "USPS COLLECTION BOX - BLUE BOX", "address": {"city": "WILLIAMSON", "state": "WV", "street": "108 LOGAN ST", "postcode": "25661"}}},
{"geometry": {"type": "Point", "coordinates": [-82.2779377772, 37.6723257165]}, "type": "Feature", "properties": {"collection_times": [{"days": "Mon-Sat", "time": "3:30pm"}, {"days": "Sun", "time": "Closed"}], "id": "2566100042", "name": "USPS COLLECTION BOX - BLUE BOX", "address": {"city": "WILLIAMSON", "state": "WV", "street": "116 E 2ND AVE", "postcode": "25661"}}},
{"geometry": {"type": "Point", "coordinates": [-82.2771453326, 37.6713164047]}, "type": "Feature", "properties": {"collection_times": [{"days": "Mon-Sat", "time": "3:30pm"}, {"days": "Sun", "time": "Closed"}], "id": "2566100044", "name": "USPS COLLECTION BOX - BLUE BOX", "address": {"city": "WILLIAMSON", "state": "WV", "street": "212 E 2ND AVE", "postcode": "25661"}}},
{"geometry": {"type": "Point", "coordinates": [-82.2773183189, 37.6727185172]}, "type": "Feature", "properties": {"collection_times": [{"days": "Mon-Sat", "time": "3:30pm"}, {"days": "Sun", "time": "Closed"}], "id": "2566100045", "name": "USPS COLLECTION BOX - BLUE BOX", "address": {"city": "WILLIAMSON", "state": "WV", "street": "151 E 3RD AVE", "postcode": "25661"}}},
{"geometry": {"type": "Point", "coordinates": [-82.2779336194, 37.6736314211]}, "type": "Feature", "properties": {"collection_times": [{"days": "Mon-Sat", "time": "3:30pm"}, {"days": "Sun", "time": "Closed"}], "id": "2566100046", "name": "USPS COLLECTION BOX - BLUE BOX", "address": {"city": "WILLIAMSON", "state": "WV", "street": "31 E 3RD AVE", "postcode": "25661"}}},
{"geometry": {"type": "Point", "coordinates": [-82.2788669404, 37.6736024264]}, "type": "Feature", "properties": {"collection_times": [{"days": "Mon-Fri", "time": "5:00pm"}, {"days": "Sat", "time": "4:00pm"}, {"days": "Sun", "time": "Closed"}], "id": "2566100047", "name": "USPS COLLECTION BOX - BLUE BOX", "address": {"city": "WILLIAMSON", "state": "WV", "street": "201 HARVEY ST", "postcode": "25661"}}},
{"geometry": {"type": "Point", "coordinates": [-82.2788064673, 37.6736081046]}, "type": "Feature", "properties": {"collection_times": [{"days": "Mon-Fri", "time": "5:00pm"}, {"days": "Sat", "time": "4:00pm"}, {"days": "Sun", "time": "Closed"}], "id": "2566100050", "name": "USPS COLLECTION BOX - PO LOBBY", "address": {"city": "WILLIAMSON", "state": "WV", "street": "2 W 2ND AVE", "postcode": "25661"}}},
{"geometry": {"type": "Point", "coordinates": [-82.2718499464, 37.6751377166]}, "type": "Feature", "properties": {"collection_times": [{"days": "Mon-Sat", "time": "9:30am"}, {"days": "Sun", "time": "Closed"}], "id": "2566100051", "name": "USPS COLLECTION BOX - BLUE BOX", "address": {"city": "WILLIAMSON", "state": "WV", "street": "306 HOSPITAL DR", "postcode": "25661"}}},
{"geometry": {"type": "Point", "coordinates": [-82.2701064386, 37.9208208496]}, "type": "Feature", "properties": {"collection_times": [{"days": "Mon-Fri", "time": "12:00pm"}, {"days": "Sat", "time": "1:00pm"}, {"days": "Sun", "time": "Closed"}], "id": "2566600000", "name": "USPS COLLECTION BOX - BLUE BOX", "address": {"city": "BREEDEN", "state": "WV", "street": "PO BOX 9998", "postcode": "25666"}}},
{"geometry": {"type": "Point", "coordinates": [-82.2695756744, 37.7046442293]}, "type": "Feature", "properties": {"collection_times": [{"days": "Mon-Fri", "time": "12:00pm"}, {"days": "Sat", "time": "11:30am"}, {"days": "Sun", "time": "Closed"}], "id": "2566700000", "name": "USPS COLLECTION BOX - BLUE BOX", "address": {"city": "CHATTAROY", "state": "WV", "street": "PO BOX 9998", "postcode": "25667"}}},
{"geometry": {"type": "Point", "coordinates": [-82.2695756744, 37.7046442293]}, "type": "Feature", "properties": {"collection_times": [{"days": "Mon-Fri", "time": "12:00pm"}, {"days": "Sat", "time": "11:30am"}, {"days": "Sun", "time": "Closed"}], "id": "2566700002", "name": "USPS COLLECTION BOX - PO LOBBY", "address": {"city": "CHATTAROY", "state": "WV", "street": "PO BOX 9998", "postcode": "25667"}}},
{"geometry": {"type": "Point", "coordinates": [-82.4589941229, 37.9469505068]}, "type": "Feature", "properties": {"collection_times": [{"days": "Mon-Fri", "time": "11:00am"}, {"days": "Sat", "time": "12:00pm"}, {"days": "Sun", "time": "Closed"}], "id": "2566900000", "name": "USPS COLLECTION BOX - BLUE BOX", "address": {"city": "CRUM", "state": "WV", "street": "44573 ROUTE 52", "postcode": "25669"}}},
{"geometry": {"type": "Point", "coordinates": [-82.4589941229, 37.9469505068]}, "type": "Feature", "properties": {"collection_times": [{"days": "Mon-Fri", "time": "11:00am"}, {"days": "Sat", "time": "12:00pm"}, {"days": "Sun", "time": "Closed"}], "id": "2566900001", "name": "USPS COLLECTION BOX - PO LOBBY", "address": {"city": "CRUM", "state": "WV", "street": "44573 ROUTE 52", "postcode": "25669"}}},
{"geometry": {"type": "Point", "coordinates": [-82.1289770217, 37.7090755761]}, "type": "Feature", "properties": {"collection_times": [{"days": "Mon-Fri", "time": "3:30pm"}, {"days": "Sat", "time": "9:30am"}, {"days": "Sun", "time": "Closed"}], "id": "2567000000", "name": "USPS COLLECTION BOX - BLUE BOX", "address": {"city": "DELBARTON", "state": "WV", "street": "128 GRACE ST", "postcode": "25670"}}},
{"geometry": {"type": "Point", "coordinates": [-82.1289770217, 37.7090755761]}, "type": "Feature", "properties": {"collection_times": [{"days": "Mon-Fri", "time": "3:30pm"}, {"days": "Sat", "time": "9:30am"}, {"days": "Sun", "time": "Closed"}], "id": "2567000001", "name": "USPS COLLECTION BOX - PO LOBBY", "address": {"city": "DELBARTON", "state": "WV", "street": "128 GRACE ST", "postcode": "25670"}}},
{"geometry": {"type": "Point", "coordinates": [-82.1894342656, 37.8795967725]}, "type": "Feature", "properties": {"collection_times": [{"days": "Mon-Fri", "time": "11:45am"}, {"days": "Sat", "time": "11:15am"}, {"days": "Sun", "time": "Closed"}], "id": "2567100000", "name": "USPS COLLECTION BOX - BLUE BOX", "address": {"city": "DINGESS", "state": "WV", "street": "227 MOUNT HOPE DR", "postcode": "25671"}}},
{"geometry": {"type": "Point", "coordinates": [-82.1686956781, 37.8800075321]}, "type": "Feature", "properties": {"collection_times": [{"days": "Mon-Fri", "time": "11:45am"}, {"days": "Sat", "time": "11:15am"}, {"days": "Sun", "time": "Closed"}], "id": "2567100001", "name": "USPS COLLECTION BOX - PO LOBBY", "address": {"city": "DINGESS", "state": "WV", "street": "227 MOUNT HOPE DR", "postcode": "25671"}}},
{"geometry": {"type": "Point", "coordinates": [-82.166116342, 37.6108680744]}, "type": "Feature", "properties": {"collection_times": [{"days": "Mon-Sat", "time": "11:45am"}, {"days": "Sun", "time": "Closed"}], "id": "2567200000", "name": "USPS COLLECTION BOX - BLUE BOX", "address": {"city": "EDGARTON", "state": "WV", "street": "5501 RT 49", "postcode": "25672"}}},
{"geometry": {"type": "Point", "coordinates": [-82.1420781746, 37.5692657739]}, "type": "Feature", "properties": {"collection_times": [{"days": "Mon-Sat", "time": "11:45am"}, {"days": "Sun", "time": "Closed"}], "id": "2567200001", "name": "USPS COLLECTION BOX - PO LOBBY", "address": {"city": "EDGARTON", "state": "WV", "street": "5501 RT 49", "postcode": "25672"}}},
{"geometry": {"type": "Point", "coordinates": [-82.3436221175, 37.8686538863]}, "type": "Feature", "properties": {"collection_times": [{"days": "Mon-Fri", "time": "4:00pm"}, {"days": "Sat", "time": "10:45am"}, {"days": "Sun", "time": "Closed"}], "id": "2567400000", "name": "USPS COLLECTION BOX - BLUE BOX", "address": {"city": "KERMIT", "state": "WV", "street": "101 OHIO AVE", "postcode": "25674"}}},
{"geometry": {"type": "Point", "coordinates": [-82.3436221175, 37.8686538863]}, "type": "Feature", "properties": {"collection_times": [{"days": "Mon-Fri", "time": "4:00pm"}, {"days": "Sat", "time": "10:45am"}, {"days": "Sun", "time": "Closed"}], "id": "2567400001", "name": "USPS COLLECTION BOX - PO LOBBY", "address": {"city": "KERMIT", "state": "WV", "street": "101 OHIO AVE", "postcode": "25674"}}},
{"geometry": {"type": "Point", "coordinates": [-82.3092760606, 37.8214312548]}, "type": "Feature", "properties": {"collection_times": [{"days": "Mon-Fri", "time": "3:15pm"}, {"days": "Sat", "time": "11:30am"}, {"days": "Sun", "time": "Closed"}], "id": "2567600000", "name": "USPS COLLECTION BOX - BLUE BOX", "address": {"city": "LENORE", "state": "WV", "street": "PO BOX 9998", "postcode": "25676"}}},
{"geometry": {"type": "Point", "coordinates": [-82.3092760606, 37.8214312548]}, "type": "Feature", "properties": {"collection_times": [{"days": "Mon-Fri", "time": "3:15pm"}, {"days": "Sat", "time": "11:30am"}, {"days": "Sun", "time": "Closed"}], "id": "2567600001", "name": "USPS COLLECTION BOX - PO LOBBY", "address": {"city": "LENORE", "state": "WV", "street": "PO BOX 9998", "postcode": "25676"}}},
{"geometry": {"type": "Point", "coordinates": [-82.1289514476, 37.6354135563]}, "type": "Feature", "properties": {"collection_times": [{"days": "Mon-Fri", "time": "2:45pm"}, {"days": "Sat", "time": "11:30am"}, {"days": "Sun", "time": "Closed"}], "id": "2567800000", "name": "USPS COLLECTION BOX - BLUE BOX", "address": {"city": "MATEWAN", "state": "WV", "street": "181 MATE ST", "postcode": "25678"}}},
{"geometry": {"type": "Point", "coordinates": [-82.1289514476, 37.6354135563]}, "type": "Feature", "properties": {"collection_times": [{"days": "Mon-Fri", "time": "2:45pm"}, {"days": "Sat", "time": "11:30am"}, {"days": "Sun", "time": "Closed"}], "id": "2567800001", "name": "USPS COLLECTION BOX - PO LOBBY", "address": {"city": "MATEWAN", "state": "WV", "street": "181 MATE ST", "postcode": "25678"}}},
{"geometry": {"type": "Point", "coordinates": [-82.038966849, 37.598613748]}, "type": "Feature", "properties": {"collection_times": [{"days": "Mon-Sat", "time": "12:00pm"}, {"days": "Sun", "time": "Closed"}], "id": "2567800003", "name": "USPS COLLECTION BOX - BLUE BOX", "address": {"city": "MATEWAN", "state": "WV", "street": "65 RED JACKET RD", "postcode": "25678"}}},
{"geometry": {"type": "Point", "coordinates": [-82.3476244689, 37.7911912666]}, "type": "Feature", "properties": {"collection_times": [{"days": "Mon-Fri", "time": "12:00pm"}, {"days": "Sat", "time": "11:15am"}, {"days": "Sun", "time": "Closed"}], "id": "2568500000", "name": "USPS COLLECTION BOX - BLUE BOX", "address": {"city": "NAUGATUCK", "state": "WV", "street": "PO BOX 9998", "postcode": "25685"}}},
{"geometry": {"type": "Point", "coordinates": [-82.1426366679, 37.6450538802]}, "type": "Feature", "properties": {"collection_times": [{"days": "Mon-Fri", "time": "12:00pm"}, {"days": "Sat", "time": "11:45am"}, {"days": "Sun", "time": "Closed"}], "id": "2568800000", "name": "USPS COLLECTION BOX - BLUE BOX", "address": {"city": "NORTH MATEWAN", "state": "WV", "street": "567 RT 65", "postcode": "25688"}}},
{"geometry": {"type": "Point", "coordinates": [-82.1426366679, 37.6450538802]}, "type": "Feature", "properties": {"collection_times": [{"days": "Mon-Fri", "time": "12:00pm"}, {"days": "Sat", "time": "11:45am"}, {"days": "Sun", "time": "Closed"}], "id": "2568800001", "name": "USPS COLLECTION BOX - PO LOBBY", "address": {"city": "NORTH MATEWAN", "state": "WV", "street": "567 RT 65", "postcode": "25688"}}},
{"geometry": {"type": "Point", "coordinates": [-82.1252929262, 37.6997083405]}, "type": "Feature", "properties": {"collection_times": [{"days": "Mon-Fri", "time": "12:00pm"}, {"days": "Sat", "time": "10:30am"}, {"days": "Sun", "time": "Closed"}], "id": "2569000000", "name": "USPS COLLECTION BOX - BLUE BOX", "address": {"city": "RAGLAND", "state": "WV", "street": "PO BOX 9998", "postcode": "25690"}}},
{"geometry": {"type": "Point", "coordinates": [-82.1252929262, 37.6997083405]}, "type": "Feature", "properties": {"collection_times": [{"days": "Mon-Fri", "time": "12:00pm"}, {"days": "Sat", "time": "10:30am"}, {"days": "Sun", "time": "Closed"}], "id": "2569000001", "name": "USPS COLLECTION BOX - PO LOBBY", "address": {"city": "RAGLAND", "state": "WV", "street": "PO BOX 9998", "postcode": "25690"}}},
{"geometry": {"type": "Point", "coordinates": [-82.2213890676, 37.6507075872]}, "type": "Feature", "properties": {"collection_times": [{"days": "Mon-Fri", "time": "12:00pm"}, {"days": "Sat", "time": "10:45am"}, {"days": "Sun", "time": "Closed"}], "id": "2569100000", "name": "USPS COLLECTION BOX - BLUE BOX", "address": {"city": "RAWL", "state": "WV", "street": "PO BOX 9998", "postcode": "25691"}}},
{"geometry": {"type": "Point", "coordinates": [-82.2213890676, 37.6507075872]}, "type": "Feature", "properties": {"collection_times": [{"days": "Mon-Fri", "time": "12:00pm"}, {"days": "Sat", "time": "10:45am"}, {"days": "Sun", "time": "Closed"}], "id": "2569100001", "name": "USPS COLLECTION BOX - PO LOBBY", "address": {"city": "RAWL", "state": "WV", "street": "PO BOX 9998", "postcode": "25691"}}},
{"geometry": {"type": "Point", "coordinates": [-82.1401864138, 37.6483023259]}, "type": "Feature", "properties": {"collection_times": [{"days": "Mon-Fri", "time": "12:45pm"}, {"days": "Sat", "time": "11:45am"}, {"days": "Sun", "time": "Closed"}], "id": "2569200000", "name": "USPS COLLECTION BOX - BLUE BOX", "address": {"city": "RED JACKET", "state": "WV", "street": "1 MATE CREEK RD", "postcode": "25692"}}},
{"geometry": {"type": "Point", "coordinates": [-82.1369263139, 37.6483100219]}, "type": "Feature", "properties": {"collection_times": [{"days": "Mon-Fri", "time": "12:45pm"}, {"days": "Sat", "time": "11:45am"}, {"days": "Sun", "time": "Closed"}], "id": "2569200001", "name": "USPS COLLECTION BOX - PO LOBBY", "address": {"city": "RED JACKET", "state": "WV", "street": "1 MATE CREEK RD", "postcode": "25692"}}},
{"geometry": {"type": "Point", "coordinates": [-82.1258640818, 37.6694811393]}, "type": "Feature", "properties": {"collection_times": [{"days": "Mon-Fri", "time": "11:45am"}, {"days": "Sat", "time": "11:00am"}, {"days": "Sun", "time": "Closed"}], "id": "2569600000", "name": "USPS COLLECTION BOX - BLUE BOX", "address": {"city": "VARNEY", "state": "WV", "street": "1135 RA WEST HWY", "postcode": "25696"}}},
{"geometry": {"type": "Point", "coordinates": [-82.1159560015, 37.6739586816]}, "type": "Feature", "properties": {"collection_times": [{"days": "Mon-Fri", "time": "11:45am"}, {"days": "Sat", "time": "11:00am"}, {"days": "Sun", "time": "Closed"}], "id": "2569600001", "name": "USPS COLLECTION BOX - PO LOBBY", "address": {"city": "VARNEY", "state": "WV", "street": "1135 RA WEST HWY", "postcode": "25696"}}},
{"geometry": {"type": "Point", "coordinates": [-82.3844981023, 37.9488614626]}, "type": "Feature", "properties": {"collection_times": [{"days": "Mon-Sat", "time": "1:00pm"}, {"days": "Sun", "time": "Closed"}], "id": "2569900000", "name": "USPS COLLECTION BOX - BLUE BOX", "address": {"city": "WILSONDALE", "state": "WV", "street": "7478 CABWAYLINGO PARK RD", "postcode": "25699"}}},
{"geometry": {"type": "Point", "coordinates": [-82.3844981023, 37.9488614626]}, "type": "Feature", "properties": {"collection_times": [{"days": "Mon-Sat", "time": "1:00pm"}, {"days": "Sun", "time": "Closed"}], "id": "2569900001", "name": "USPS COLLECTION BOX - PO LOBBY", "address": {"city": "WILSONDALE", "state": "WV", "street": "7478 CABWAYLINGO PARK RD", "postcode": "25699"}}}
]}
