{"type": "FeatureCollection", "features": [
{"geometry": {"type": "Point", "coordinates": [-82.4389046661, 38.4237833807]}, "type": "Feature", "properties": {"collection_times": [{"days": "Mon-Fri", "time": "3:00pm"}, {"days": "Sat", "time": "1:00pm"}, {"days": "Sun", "time": "Closed"}], "id": "2570100000", "name": "USPS COLLECTION BOX - BLUE BOX", "address": {"city": "HUNTINGTON", "state": "WV", "street": "1200 VETERANS MEMORIAL BLVD", "postcode": "25701"}}},
{"geometry": {"type": "Point", "coordinates": [-82.4389046661, 38.4237833807]}, "type": "Feature", "properties": {"collection_times": [{"days": "Mon-Fri", "time": "3:00pm"}, {"days": "Sat", "time": "1:00pm"}, {"days": "Sun", "time": "Closed"}], "id": "2570100001", "name": "USPS COLLECTION BOX - BLUE BOX", "address": {"city": "HUNTINGTON", "state": "WV", "street": "1200 VETERANS MEMORIAL BLVD", "postcode": "25701"}}},
{"geometry": {"type": "Point", "coordinates": [-82.4499779632, 38.4167402787]}, "type": "Feature", "properties": {"collection_times": [{"days": "Mon-Fri", "time": "1:30pm"}, {"days": "Sat", "time": "10:00am"}, {"days": "Sun", "time": "Closed"}], "id": "2570100008", "name": "USPS COLLECTION BOX - BLUE BOX", "address": {"city": "HUNTINGTON", "state": "WV", "street": "601 5TH ST", "postcode": "25701"}}},
{"geometry": {"type": "Point", "coordinates": [-82.4478245372, 38.4185402499]}, "type": "Feature", "properties": {"collection_times": [{"days": "Mon-Fri", "time": "1:30pm"}, {"days": "Sat", "time": "10:00am"}, {"days": "Sun", "time": "Closed"}], "id": "2570100009", "name": "USPS COLLECTION BOX - BLUE BOX", "address": {"city": "HUNTINGTON", "state": "WV", "street": "645 5TH AVE", "postcode": "25701"}}},
{"geometry": {"type": "Point", "coordinates": [-82.443175371, 38.4208961058]}, "type": "Feature", "properties": {"collection_times": [{"days": "Mon-Fri", "time": "2:00pm"}, {"days": "Sat", "time": "8:00am"}, {"days": "Sun", "time": "Closed"}], "id": "2570100013", "name": "USPS COLLECTION BOX - BLUE BOX", "address": {"city": "HUNTINGTON", "state": "WV", "street": "940 4TH AVE", "postcode": "25701"}}},
{"geometry": {"type": "Point", "coordinates": [-82.4454847757, 38.4203964159]}, "type": "Feature", "properties": {"collection_times": [{"days": "Mon-Fri", "time": "2:00pm"}, {"days": "Sat", "time": "10:00am"}, {"days": "Sun", "time": "Closed"}], "id": "2570100015", "name": "USPS COLLECTION BOX - BLUE BOX", "address": {"city": "HUNTINGTON", "state": "WV", "street": "400 8TH ST", "postcode": "25701"}}},
{"geometry": {"type": "Point", "coordinates": [-82.4422810327, 38.4180580569]}, "type": "Feature", "properties": {"collection_times": [{"days": "Mon-Fri", "time": "1:30pm"}, {"days": "Sat", "time": "10:30am"}, {"days": "Sun", "time": "Closed"}], "id": "2570100020", "name": "USPS COLLECTION BOX - BLUE BOX", "address": {"city": "HUNTINGTON", "state": "WV", "street": "949 6TH AVE", "postcode": "25701"}}},
{"geometry": {"type": "Point", "coordinates": [-82.4395510732, 38.4185275394]}, "type": "Feature", "properties": {"collection_times": [{"days": "Mon-Fri", "time": "1:30pm"}, {"days": "Sat", "time": "10:30am"}, {"days": "Sun", "time": "Closed"}], "id": "2570100021", "name": "USPS COLLECTION BOX - BLUE BOX", "address": {"city": "HUNTINGTON", "state": "WV", "street": "1101 6TH AVE", "postcode": "25701"}}},
{"geometry": {"type": "Point", "coordinates": [-82.4446987377, 38.4131245118]}, "type": "Feature", "properties": {"collection_times": [{"days": "Mon-Sat", "time": "9:30am"}, {"days": "Sun", "time": "Closed"}], "id": "2570100025", "name": "USPS COLLECTION BOX - BLUE BOX", "address": {"city": "HUNTINGTON", "state": "WV", "street": "735 9TH AVE", "postcode": "25701"}}},
{"geometry": {"type": "Point", "coordinates": [-82.4541096731, 38.4086474997]}, "type": "Feature", "properties": {"collection_times": [{"days": "Mon-Sat", "time": "9:00am"}, {"days": "Sun", "time": "Closed"}], "id": "2570100030", "name": "USPS COLLECTION BOX - BLUE BOX", "address": {"city": "HUNTINGTON", "state": "WV", "street": "1106 1ST ST", "postcode": "25701"}}},
{"geometry": {"type": "Point", "coordinates": [-82.4424031827, 38.4087987987]}, "type": "Feature", "properties": {"collection_times": [{"days": "Mon-Sat", "time": "11:00am"}, {"days": "Sun", "time": "Closed"}], "id": "2570100032", "name": "USPS COLLECTION BOX - BLUE BOX", "address": {"city": "HUNTINGTON", "state": "WV", "street": "1241 8TH ST", "postcode": "25701"}}},
{"geometry": {"type": "Point", "coordinates": [-82.4367211938, 38.4103942582]}, "type": "Feature", "properties": {"collection_times": [{"days": "Mon-Sat", "time": "8:30am"}, {"days": "Sun", "time": "Closed"}], "id": "2570100034", "name": "USPS COLLECTION BOX - BLUE BOX", "address": {"city": "HUNTINGTON", "state": "WV", "street": "1130 12TH AVE", "postcode": "25701"}}},
{"geometry": {"type": "Point", "coordinates": [-82.3173589477, 38.4143189145]}, "type": "Feature", "properties": {"collection_times": [{"days": "Mon-Sat", "time": "10:00am"}, {"days": "Sun", "time": "Closed"}], "id": "2570100037", "name": "USPS COLLECTION BOX - BLUE BOX", "address": {"city": "HUNTINGTON", "state": "WV", "street": "99 WILSON CT", "postcode": "25701"}}},
{"geometry": {"type": "Point", "coordinates": [-82.4283383924, 38.4106961855]}, "type": "Feature", "properties": {"collection_times": [{"days": "Mon-Sat", "time": "8:45am"}, {"days": "Sun", "time": "Closed"}], "id": "2570100038", "name": "USPS COLLECTION BOX - BLUE BOX", "address": {"city": "HUNTINGTON", "state": "WV", "street": "1602 13TH AVE", "postcode": "25701"}}},
{"geometry": {"type": "Point", "coordinates": [-82.4566492533, 38.4142464711]}, "type": "Feature", "properties": {"collection_times": [{"days": "Mon-Sat", "time": "1:30pm"}, {"days": "Sun", "time": "Closed"}], "id": "2570100039", "name": "USPS COLLECTION BOX - BLUE BOX", "address": {"city": "HUNTINGTON", "state": "WV", "street": "19 7TH AVE W", "postcode": "25701"}}},
{"geometry": {"type": "Point", "coordinates": [-82.4386595599, 38.4052118324]}, "type": "Feature", "properties": {"collection_times": [{"days": "Mon-Fri", "time": "1:30pm"}, {"days": "Sat-Sun", "time": "Closed"}], "id": "2570100041", "name": "USPS COLLECTION BOX - BLUE BOX", "address": {"city": "HUNTINGTON", "state": "WV", "street": "1600 MEDICAL CENTER DR", "postcode": "25701"}}},
{"geometry": {"type": "Point", "coordinates": [-82.4440857152, 38.4218228484]}, "type": "Feature", "properties": {"collection_times": [{"days": "Mon-Fri", "time": "1:30pm"}, {"days": "Sat", "time": "10:00am"}, {"days": "Sun", "time": "Closed"}], "id": "2570100047", "name": "USPS COLLECTION BOX - BLUE BOX", "address": {"city": "HUNTINGTON", "state": "WV", "street": "901 3RD AVE", "postcode": "25701"}}},
{"geometry": {"type": "Point", "coordinates": [-82.4433447595, 38.4219642756]}, "type": "Feature", "properties": {"collection_times": [{"days": "Mon-Fri", "time": "1:30pm"}, {"days": "Sat", "time": "10:00am"}, {"days": "Sun", "time": "Closed"}], "id": "2570100049", "name": "USPS COLLECTION BOX - BLUE BOX", "address": {"city": "HUNTINGTON", "state": "WV", "street": "949 3RD AVE", "postcode": "25701"}}},
{"geometry": {"type": "Point", "coordinates": [-82.4438169588, 38.4207831864]}, "type": "Feature", "properties": {"collection_times": [{"days": "Mon-Fri", "time": "2:00pm"}, {"days": "Sat", "time": "10:00am"}, {"days": "Sun", "time": "Closed"}], "id": "2570100055", "name": "USPS COLLECTION BOX - BLUE BOX", "address": {"city": "HUNTINGTON", "state": "WV", "street": "900 4TH AVE", "postcode": "25701"}}},
{"geometry": {"type": "Point", "coordinates": [-82.4444336723, 38.4191326607]}, "type": "Feature", "properties": {"collection_times": [{"days": "Mon-Fri", "time": "1:30pm"}, {"days": "Sat", "time": "10:00am"}, {"days": "Sun", "time": "Closed"}], "id": "2570100059", "name": "USPS COLLECTION BOX - BLUE BOX", "address": {"city": "HUNTINGTON", "state": "WV", "street": "845 5TH AVE", "postcode": "25701"}}},
{"geometry": {"type": "Point", "coordinates": [-82.4418230323, 38.4196972626]}, "type": "Feature", "properties": {"collection_times": [{"days": "Mon-Fri", "time": "1:30pm"}, {"days": "Sat", "time": "10:00am"}, {"days": "Sun", "time": "Closed"}], "id": "2570100061", "name": "USPS COLLECTION BOX - BLUE BOX", "address": {"city": "HUNTINGTON", "state": "WV", "street": "1000 5TH AVE", "postcode": "25701"}}},
{"geometry": {"type": "Point", "coordinates": [-82.4047854915, 38.3712906833]}, "type": "Feature", "properties": {"collection_times": [{"days": "Mon-Fri", "time": "3:00pm"}, {"days": "Sat-Sun", "time": "Closed"}], "id": "2570100062", "name": "USPS COLLECTION BOX - BLUE BOX", "address": {"city": "HUNTINGTON", "state": "WV", "street": "999999 OLD MAIN-MARSHALL UNIVERSITY", "postcode": "25701"}}},
{"geometry": {"type": "Point", "coordinates": [-80.6136149343, 38.6424169896]}, "type": "Feature", "properties": {"collection_times": [{"days": "Mon-Fri", "time": "1:00pm"}, {"days": "Sat", "time": "10:00am"}, {"days": "Sun", "time": "Closed"}], "id": "2570100065", "name": "USPS COLLECTION BOX - BLUE BOX", "address": {"city": "HUNTINGTON", "state": "WV", "street": "600 6TH AVE", "postcode": "25701"}}},
{"geometry": {"type": "Point", "coordinates": [-82.4431899457, 38.4179125675]}, "type": "Feature", "properties": {"collection_times": [{"days": "Mon-Fri", "time": "1:30pm"}, {"days": "Sat", "time": "11:00am"}, {"days": "Sun", "time": "Closed"}], "id": "2570100073", "name": "USPS COLLECTION BOX - BLUE BOX", "address": {"city": "HUNTINGTON", "state": "WV", "street": "601 9TH ST", "postcode": "25701"}}},
{"geometry": {"type": "Point", "coordinates": [-82.4402825183, 38.4210026149]}, "type": "Feature", "properties": {"collection_times": [{"days": "Mon-Fri", "time": "1:30pm"}, {"days": "Sat", "time": "10:00am"}, {"days": "Sun", "time": "Closed"}], "id": "2570100078", "name": "USPS COLLECTION BOX - BLUE BOX", "address": {"city": "HUNTINGTON", "state": "WV", "street": "422 11TH ST", "postcode": "25701"}}},
{"geometry": {"type": "Point", "coordinates": [-82.4434986329, 38.4194097994]}, "type": "Feature", "properties": {"collection_times": [{"days": "Mon-Fri", "time": "2:00pm"}, {"days": "Sat", "time": "10:00am"}, {"days": "Sun", "time": "Closed"}], "id": "2570100080", "name": "USPS COLLECTION BOX - BLUE BOX", "address": {"city": "HUNTINGTON", "state": "WV", "street": "900 5TH AVE", "postcode": "25701"}}},
{"geometry": {"type": "Point", "coordinates": [-82.4434986329, 38.4194097994]}, "type": "Feature", "properties": {"collection_times": [{"days": "Mon-Fri", "time": "2:00pm"}, {"days": "Sat", "time": "10:00am"}, {"days": "Sun", "time": "Closed"}], "id": "2570100081", "name": "USPS COLLECTION BOX - BLUE BOX", "address": {"city": "HUNTINGTON", "state": "WV", "street": "900 5TH AVE", "postcode": "25701"}}},
{"geometry": {"type": "Point", "coordinates": [-82.4434986329, 38.4194097994]}, "type": "Feature", "properties": {"collection_times": [{"days": "Mon-Fri", "time": "2:00pm"}, {"days": "Sat", "time": "10:00am"}, {"days": "Sun", "time": "Closed"}], "id": "2570100082", "name": "USPS COLLECTION BOX - BLUE BOX", "address": {"city": "HUNTINGTON", "state": "WV", "street": "900 5TH AVE", "postcode": "25701"}}},
{"geometry": {"type": "Point", "coordinates": [-82.4420239738, 38.4206952119]}, "type": "Feature", "properties": {"collection_times": [{"days": "Mon-Fri", "time": "1:30pm"}, {"days": "Sat", "time": "10:00am"}, {"days": "Sun", "time": "Closed"}], "id": "2570100090", "name": "USPS COLLECTION BOX - BLUE BOX", "address": {"city": "HUNTINGTON", "state": "WV", "street": "422 10TH ST", "postcode": "25701"}}},
{"geometry": {"type": "Point", "coordinates": [-82.4409058689, 38.4123971682]}, "type": "Feature", "properties": {"collection_times": [{"days": "Mon-Sat", "time": "12:00pm"}, {"days": "Sun", "time": "Closed"}], "id": "2570100115", "name": "USPS COLLECTION BOX - BLUE BOX", "address": {"city": "HUNTINGTON", "state": "WV", "street": "935 10TH AVE", "postcode": "25701"}}},
{"geometry": {"type": "Point", "coordinates": [-82.4386595599, 38.4052118324]}, "type": "Feature", "properties": {"collection_times": [{"days": "Mon-Sat", "time": "8:45am"}, {"days": "Sun", "time": "Closed"}], "id": "2570100119", "name": "USPS COLLECTION BOX - BLUE BOX", "address": {"city": "HUNTINGTON", "state": "WV", "street": "4541 5TH STREET RD", "postcode": "25701"}}},
{"geometry": {"type": "Point", "coordinates": [-82.4360641299, 38.4192591636]}, "type": "Feature", "properties": {"collection_times": [{"days": "Mon-Fri", "time": "3:00pm"}, {"days": "Sat", "time": "10:00am"}, {"days": "Sun", "time": "Closed"}], "id": "2570100120", "name": "USPS COLLECTION BOX - BLUE BOX", "address": {"city": "HUNTINGTON", "state": "WV", "street": "1302 6TH AVE", "postcode": "25701"}}},
{"geometry": {"type": "Point", "coordinates": [-82.464070567, 38.416819102]}, "type": "Feature", "properties": {"collection_times": [{"days": "Mon-Fri", "time": "2:00pm"}, {"days": "Sat", "time": "10:00am"}, {"days": "Sun", "time": "Closed"}], "id": "2570100121", "name": "USPS COLLECTION BOX - BLUE BOX", "address": {"city": "HUNTINGTON", "state": "WV", "street": "447 WASHINGTON AVE", "postcode": "25701"}}},
{"geometry": {"type": "Point", "coordinates": [-82.4389046661, 38.4237833807]}, "type": "Feature", "properties": {"collection_times": [{"days": "Mon-Fri", "time": "4:15pm"}, {"days": "Sat", "time": "11:45am"}, {"days": "Sun", "time": "Closed"}], "id": "2570100123", "name": "USPS COLLECTION BOX - PO LOBBY", "address": {"city": "HUNTINGTON", "state": "WV", "street": "1200 VETERANS MEMORIAL BLVD", "postcode": "25701"}}},
{"geometry": {"type": "Point", "coordinates": [-82.4389046661, 38.4237833807]}, "type": "Feature", "properties": {"collection_times": [{"days": "Mon-Fri", "time": "3:00pm"}, {"days": "Sat", "time": "1:00pm"}, {"days": "Sun", "time": "Closed"}], "id": "2570100128", "name": "USPS COLLECTION BOX - APC", "address": {"city": "HUNTINGTON", "state": "WV", "street": "1200 VETERANS MEMORIAL BLVD", "postcode": "25701"}}},
{"geometry": {"type": "Point", "coordinates": [-82.4047854915, 38.3712906833]}, "type": "Feature", "properties": {"collection_times": [{"days": "Mon-Fri", "time": "4:00pm"}, {"days": "Sat-Sun", "time": "Closed"}], "id": "2570100130", "name": "USPS COLLECTION BOX - BLUE BOX", "address": {"city": "HUNTINGTON", "state": "WV", "street": "999999 OLD MAIN-MARSHALL UNIVERSITY", "postcode": "25701"}}},
{"geometry": {"type": "Point", "coordinates": [-82.4297556972, 38.4109573277]}, "type": "Feature", "properties": {"collection_times": [{"days": "Mon-Fri", "time": "10:00am"}, {"days": "Sat-Sun", "time": "Closed"}], "id": "2570100131", "name": "USPS COLLECTION BOX - BLUE BOX", "address": {"city": "HUNTINGTON", "state": "WV", "street": "1249 15TH ST", "postcode": "25701"}}},
{"geometry": {"type": "Point", "coordinates": [-82.4337748904, 38.419649116]}, "type": "Feature", "properties": {"collection_times": [{"days": "Mon-Fri", "time": "3:00pm"}, {"days": "Sat", "time": "10:00am"}, {"days": "Sun", "time": "Closed"}], "id": "2570100132", "name": "USPS COLLECTION BOX - BLUE BOX", "address": {"city": "HUNTINGTON", "state": "WV", "street": "1438 6TH AVE", "postcode": "25701"}}},
{"geometry": {"type": "Point", "coordinates": [-82.4386595599, 38.4052118324]}, "type": "Feature", "properties": {"collection_times": [{"days": "Mon-Fri", "time": "2:30pm"}, {"days": "Sat", "time": "10:00am"}, {"days": "Sun", "time": "Closed"}], "id": "2570100133", "name": "USPS COLLECTION BOX - BLUE BOX", "address": {"city": "HUNTINGTON", "state": "WV", "street": "1415 4TH AVE", "postcode": "25701"}}},
{"geometry": {"type": "Point", "coordinates": [-82.4386595599, 38.4052118324]}, "type": "Feature", "properties": {"collection_times": [{"days": "Mon-Fri", "time": "1:30pm"}, {"days": "Sat-Sun", "time": "Closed"}], "id": "2570100135", "name": "USPS COLLECTION BOX - BLUE BOX", "address": {"city": "HUNTINGTON", "state": "WV", "street": "1600 MEDICAL CENTER DR", "postcode": "25701"}}},
{"geometry": {"type": "Point", "coordinates": [-82.401439238, 38.431947694]}, "type": "Feature", "properties": {"collection_times": [{"days": "Mon-Fri", "time": "1:45pm"}, {"days": "Sat", "time": "9:00am"}, {"days": "Sun", "time": "Closed"}], "id": "2570200000", "name": "USPS COLLECTION BOX - BLUE BOX", "address": {"city": "HUNTINGTON", "state": "WV", "street": "2900 1ST AVE", "postcode": "25702"}}},
{"geometry": {"type": "Point", "coordinates": [-82.401439238, 38.431947694]}, "type": "Feature", "properties": {"collection_times": [{"days": "Mon-Fri", "time": "1:45pm"}, {"days": "Sat", "time": "9:00am"}, {"days": "Sun", "time": "Closed"}], "id": "2570200001", "name": "USPS COLLECTION BOX - BLUE BOX", "address": {"city": "HUNTINGTON", "state": "WV", "street": "2900 1ST AVE", "postcode": "25702"}}},
{"geometry": {"type": "Point", "coordinates": [-82.3898749384, 38.4300290486]}, "type": "Feature", "properties": {"collection_times": [{"days": "Mon-Fri", "time": "1:45pm"}, {"days": "Sat", "time": "1:00pm"}, {"days": "Sun", "time": "Closed"}], "id": "2570200002", "name": "USPS COLLECTION BOX - BLUE BOX", "address": {"city": "HUNTINGTON", "state": "WV", "street": "130 BRIDGE ST", "postcode": "25702"}}},
{"geometry": {"type": "Point", "coordinates": [-82.3895962822, 38.424709153]}, "type": "Feature", "properties": {"collection_times": [{"days": "Mon-Sat", "time": "1:00pm"}, {"days": "Sun", "time": "Closed"}], "id": "2570200012", "name": "USPS COLLECTION BOX - BLUE BOX", "address": {"city": "HUNTINGTON", "state": "WV", "street": "416 MAIN ST", "postcode": "25702"}}},
{"geometry": {"type": "Point", "coordinates": [-82.3898749384, 38.4300290486]}, "type": "Feature", "properties": {"collection_times": [{"days": "Mon-Fri", "time": "12:00pm"}, {"days": "Sat-Sun", "time": "Closed"}], "id": "2570200016", "name": "USPS COLLECTION BOX - PO LOBBY", "address": {"city": "HUNTINGTON", "state": "WV", "street": "130 BRIDGE ST", "postcode": "25702"}}},
{"geometry": {"type": "Point", "coordinates": [-82.4007160013, 38.4295251314]}, "type": "Feature", "properties": {"collection_times": [{"days": "Mon-Fri", "time": "1:45pm"}, {"days": "Sat", "time": "9:00am"}, {"days": "Sun", "time": "Closed"}], "id": "2570200017", "name": "USPS COLLECTION BOX - BLUE BOX", "address": {"city": "HUNTINGTON", "state": "WV", "street": "2860 3RD AVE", "postcode": "25702"}}},
{"geometry": {"type": "Point", "coordinates": [-82.4265184978, 38.4249721819]}, "type": "Feature", "properties": {"collection_times": [{"days": "Mon-Fri", "time": "1:45pm"}, {"days": "Sat-Sun", "time": "Closed"}], "id": "2570300000", "name": "USPS COLLECTION BOX - BLUE BOX", "address": {"city": "HUNTINGTON", "state": "WV", "street": "1802 3RD AVE", "postcode": "25703"}}},
{"geometry": {"type": "Point", "coordinates": [-82.4119461722, 38.4202254923]}, "type": "Feature", "properties": {"collection_times": [{"days": "Mon-Sat", "time": "9:30am"}, {"days": "Sun", "time": "Closed"}], "id": "2570300001", "name": "USPS COLLECTION BOX - BLUE BOX", "address": {"city": "HUNTINGTON", "state": "WV", "street": "2545 8TH AVE", "postcode": "25703"}}},
{"geometry": {"type": "Point", "coordinates": [-82.4102954665, 38.4303524022]}, "type": "Feature", "properties": {"collection_times": [{"days": "Mon-Sat", "time": "12:30pm"}, {"days": "Sun", "time": "Closed"}], "id": "2570300002", "name": "USPS COLLECTION BOX - BLUE BOX", "address": {"city": "HUNTINGTON", "state": "WV", "street": "101 26TH ST", "postcode": "25703"}}},
{"geometry": {"type": "Point", "coordinates": [-82.4229120339, 38.4256498328]}, "type": "Feature", "properties": {"collection_times": [{"days": "Mon-Fri", "time": "1:45pm"}, {"days": "Sat", "time": "9:00am"}, {"days": "Sun", "time": "Closed"}], "id": "2570300005", "name": "USPS COLLECTION BOX - BLUE BOX", "address": {"city": "HUNTINGTON", "state": "WV", "street": "2016 3RD AVE", "postcode": "25703"}}},
{"geometry": {"type": "Point", "coordinates": [-82.4099977412, 38.4277692863]}, "type": "Feature", "properties": {"collection_times": [{"days": "Mon-Fri", "time": "1:45pm"}, {"days": "Sat", "time": "1:00pm"}, {"days": "Sun", "time": "Closed"}], "id": "2570300010", "name": "USPS COLLECTION BOX - BLUE BOX", "address": {"city": "HUNTINGTON", "state": "WV", "street": "2585 3RD AVE", "postcode": "25703"}}},
{"geometry": {"type": "Point", "coordinates": [-82.4202085446, 38.4145948159]}, "type": "Feature", "properties": {"collection_times": [{"days": "Mon-Fri", "time": "2:00pm"}, {"days": "Sat", "time": "12:00pm"}, {"days": "Sun", "time": "Closed"}], "id": "2570300013", "name": "USPS COLLECTION BOX - BLUE BOX", "address": {"city": "HUNTINGTON", "state": "WV", "street": "1115 20TH ST", "postcode": "25703"}}},
{"geometry": {"type": "Point", "coordinates": [-82.4254207535, 38.4210830867]}, "type": "Feature", "properties": {"collection_times": [{"days": "Mon-Fri", "time": "2:00pm"}, {"days": "Sat", "time": "10:00am"}, {"days": "Sun", "time": "Closed"}], "id": "2570300018", "name": "USPS COLLECTION BOX - BLUE BOX", "address": {"city": "HUNTINGTON", "state": "WV", "street": "1802 6TH AVE", "postcode": "25703"}}},
{"geometry": {"type": "Point", "coordinates": [-82.4287748272, 38.417367094]}, "type": "Feature", "properties": {"collection_times": [{"days": "Mon-Sat", "time": "8:30am"}, {"days": "Sun", "time": "Closed"}], "id": "2570300021", "name": "USPS COLLECTION BOX - BLUE BOX", "address": {"city": "HUNTINGTON", "state": "WV", "street": "1632 8TH AVE", "postcode": "25703"}}},
{"geometry": {"type": "Point", "coordinates": [-82.4197196809, 38.4213622178]}, "type": "Feature", "properties": {"collection_times": [{"days": "Mon-Fri", "time": "1:45pm"}, {"days": "Sat", "time": "1:00pm"}, {"days": "Sun", "time": "Closed"}], "id": "2570300025", "name": "USPS COLLECTION BOX - BLUE BOX", "address": {"city": "HUNTINGTON", "state": "WV", "street": "2585 3RD AVE", "postcode": "25703"}}},
{"geometry": {"type": "Point", "coordinates": [-82.4760626305, 38.4151586115]}, "type": "Feature", "properties": {"collection_times": [{"days": "Mon-Sat", "time": "5:00pm"}, {"days": "Sun", "time": "Closed"}], "id": "2570400001", "name": "USPS COLLECTION BOX - BLUE BOX", "address": {"city": "HUNTINGTON", "state": "WV", "street": "1000 VIRGINIA AVE W", "postcode": "25704"}}},
{"geometry": {"type": "Point", "coordinates": [-82.4771135617, 38.4126303152]}, "type": "Feature", "properties": {"collection_times": [{"days": "Mon-Fri", "time": "1:30pm"}, {"days": "Sat", "time": "1:00pm"}, {"days": "Sun", "time": "Closed"}], "id": "2570400006", "name": "USPS COLLECTION BOX - BLUE BOX", "address": {"city": "HUNTINGTON", "state": "WV", "street": "1220 ADAMS AVE", "postcode": "25704"}}},
{"geometry": {"type": "Point", "coordinates": [-82.4786650422, 38.4091199822]}, "type": "Feature", "properties": {"collection_times": [{"days": "Mon-Sat", "time": "10:00am"}, {"days": "Sun", "time": "Closed"}], "id": "2570400008", "name": "USPS COLLECTION BOX - BLUE BOX", "address": {"city": "HUNTINGTON", "state": "WV", "street": "810 14TH ST W", "postcode": "25704"}}},
{"geometry": {"type": "Point", "coordinates": [-82.5016372714, 38.4034519983]}, "type": "Feature", "properties": {"collection_times": [{"days": "Mon-Fri", "time": "2:30pm"}, {"days": "Sat", "time": "10:00am"}, {"days": "Sun", "time": "Closed"}], "id": "2570400017", "name": "USPS COLLECTION BOX - BLUE BOX", "address": {"city": "HUNTINGTON", "state": "WV", "street": "500 CAMDEN RD", "postcode": "25704"}}},
{"geometry": {"type": "Point", "coordinates": [-82.5111508228, 38.3995813024]}, "type": "Feature", "properties": {"collection_times": [{"days": "Mon-Sat", "time": "8:15am"}, {"days": "Sun", "time": "Closed"}], "id": "2570400019", "name": "USPS COLLECTION BOX - BLUE BOX", "address": {"city": "HUNTINGTON", "state": "WV", "street": "3800 PIEDMONT RD", "postcode": "25704"}}},
{"geometry": {"type": "Point", "coordinates": [-82.4879978466, 38.4096489808]}, "type": "Feature", "properties": {"collection_times": [{"days": "Mon-Fri", "time": "2:30pm"}, {"days": "Sat", "time": "10:00am"}, {"days": "Sun", "time": "Closed"}], "id": "2570400021", "name": "USPS COLLECTION BOX - BLUE BOX", "address": {"city": "HUNTINGTON", "state": "WV", "street": "1925 ADAMS AVE", "postcode": "25704"}}},
{"geometry": {"type": "Point", "coordinates": [-82.4760626305, 38.4151586115]}, "type": "Feature", "properties": {"collection_times": [{"days": "Mon-Sat", "time": "5:00pm"}, {"days": "Sun", "time": "Closed"}], "id": "2570400023", "name": "USPS COLLECTION BOX - PO LOBBY", "address": {"city": "HUNTINGTON", "state": "WV", "street": "1000 VIRGINIA AVE W", "postcode": "25704"}}},
{"geometry": {"type": "Point", "coordinates": [-82.5052380791, 38.3873929648]}, "type": "Feature", "properties": {"collection_times": [{"days": "Mon-Fri", "time": "2:00pm"}, {"days": "Sat-Sun", "time": "Closed"}], "id": "2570400025", "name": "USPS COLLECTION BOX - BLUE BOX", "address": {"city": "HUNTINGTON", "state": "WV", "street": "500 VIRGINIA AVE", "postcode": "25704"}}},
{"geometry": {"type": "Point", "coordinates": [-82.5054857445, 38.3873712862]}, "type": "Feature", "properties": {"collection_times": [{"days": "Mon-Sat", "time": "5:00pm"}, {"days": "Sun", "time": "Closed"}], "id": "2570400027", "name": "USPS COLLECTION BOX - PO LOBBY", "address": {"city": "HUNTINGTON", "state": "WV", "street": "1000 VIRGINIA AVE W", "postcode": "25704"}}},
{"geometry": {"type": "Point", "coordinates": [-82.5054857445, 38.3873712862]}, "type": "Feature", "properties": {"collection_times": [{"days": "Mon-Sat", "time": "5:00pm"}, {"days": "Sun", "time": "Closed"}], "id": "2570400028", "name": "USPS COLLECTION BOX - PO LOBBY", "address": {"city": "HUNTINGTON", "state": "WV", "street": "1000 VIRGINIA AVE W", "postcode": "25704"}}},
{"geometry": {"type": "Point", "coordinates": [-82.4963033642, 38.4003503762]}, "type": "Feature", "properties": {"collection_times": [{"days": "Mon-Fri", "time": "2:30pm"}, {"days": "Sat-Sun", "time": "Closed"}], "id": "2570400029", "name": "USPS COLLECTION BOX - BLUE BOX", "address": {"city": "HUNTINGTON", "state": "WV", "street": "2699 PARK AVE", "postcode": "25704"}}},
{"geometry": {"type": "Point", "coordinates": [-82.468980716, 38.4118960523]}, "type": "Feature", "properties": {"collection_times": [{"days": "Mon-Fri", "time": "1:30pm"}, {"days": "Sat-Sun", "time": "Closed"}], "id": "2570400031", "name": "USPS COLLECTION BOX - BLUE BOX", "address": {"city": "HUNTINGTON", "state": "WV", "street": "810 MADISON AVE", "postcode": "25704"}}},
{"geometry": {"type": "Point", "coordinates": [-82.5179724288, 38.384134045]}, "type": "Feature", "properties": {"collection_times": [{"days": "Mon-Sat", "time": "10:00am"}, {"days": "Sun", "time": "Closed"}], "id": "2570400033", "name": "USPS COLLECTION BOX - BLUE BOX", "address": {"city": "HUNTINGTON", "state": "WV", "street": "1542 SPRING VALLEY DR", "postcode": "25704"}}},
{"geometry": {"type": "Point", "coordinates": [-82.3369444984, 38.41594601]}, "type": "Feature", "properties": {"collection_times": [{"days": "Mon-Sat", "time": "9:45am"}, {"days": "Sun", "time": "Closed"}], "id": "2570500000", "name": "USPS COLLECTION BOX - BLUE BOX", "address": {"city": "HUNTINGTON", "state": "WV", "street": "6275 COUNTRY CLUB DR", "postcode": "25705"}}},
{"geometry": {"type": "Point", "coordinates": [-82.3878643234, 38.4016354243]}, "type": "Feature", "properties": {"collection_times": [{"days": "Mon-Sat", "time": "1:00pm"}, {"days": "Sun", "time": "Closed"}], "id": "2570500001", "name": "USPS COLLECTION BOX - BLUE BOX", "address": {"city": "HUNTINGTON", "state": "WV", "street": "860 NORWAY AVE", "postcode": "25705"}}},
{"geometry": {"type": "Point", "coordinates": [-82.3263287004, 38.4108540902]}, "type": "Feature", "properties": {"collection_times": [{"days": "Mon-Sat", "time": "10:00am"}, {"days": "Sun", "time": "Closed"}], "id": "2570500002", "name": "USPS COLLECTION BOX - BLUE BOX", "address": {"city": "HUNTINGTON", "state": "WV", "street": "5636 US ROUTE 60", "postcode": "25705"}}},
{"geometry": {"type": "Point", "coordinates": [-82.4101836828, 38.4065882942]}, "type": "Feature", "properties": {"collection_times": [{"days": "Mon-Sat", "time": "10:00am"}, {"days": "Sun", "time": "Closed"}], "id": "2570500004", "name": "USPS COLLECTION BOX - BLUE BOX", "address": {"city": "HUNTINGTON", "state": "WV", "street": "131 WOODLAND DR", "postcode": "25705"}}},
{"geometry": {"type": "Point", "coordinates": [-82.3915637697, 38.4192787741]}, "type": "Feature", "properties": {"collection_times": [{"days": "Mon-Fri", "time": "1:45pm"}, {"days": "Sat", "time": "9:00am"}, {"days": "Sun", "time": "Closed"}], "id": "2570500007", "name": "USPS COLLECTION BOX - BLUE BOX", "address": {"city": "HUNTINGTON", "state": "WV", "street": "1419 US ROUTE 60", "postcode": "25705"}}},
{"geometry": {"type": "Point", "coordinates": [-82.3644811384, 38.4120186916]}, "type": "Feature", "properties": {"collection_times": [{"days": "Mon-Fri", "time": "1:00pm"}, {"days": "Sat", "time": "9:00am"}, {"days": "Sun", "time": "Closed"}], "id": "2570500009", "name": "USPS COLLECTION BOX - BLUE BOX", "address": {"city": "HUNTINGTON", "state": "WV", "street": "4341 US ROUTE 60", "postcode": "25705"}}},
{"geometry": {"type": "Point", "coordinates": [-82.4026868369, 38.4090810824]}, "type": "Feature", "properties": {"collection_times": [{"days": "Mon-Fri", "time": "1:30pm"}, {"days": "Sat", "time": "10:00am"}, {"days": "Sun", "time": "Closed"}], "id": "2570500016", "name": "USPS COLLECTION BOX - BLUE BOX", "address": {"city": "HUNTINGTON", "state": "WV", "street": "323 OLIVE ST", "postcode": "25705"}}},
{"geometry": {"type": "Point", "coordinates": [-82.3415949211, 38.4122308683]}, "type": "Feature", "properties": {"collection_times": [{"days": "Mon-Sat", "time": "8:30am"}, {"days": "Sun", "time": "Closed"}], "id": "2570500020", "name": "USPS COLLECTION BOX - BLUE BOX", "address": {"city": "HUNTINGTON", "state": "WV", "street": "5187 US ROUTE 60", "postcode": "25705"}}}
]}
