{"type": "FeatureCollection", "features": [
{"geometry": {"type": "Point", "coordinates": [-81.2008774127, 37.7778202264]}, "type": "Feature", "properties": {"collection_times": [{"days": "Mon-Fri", "time": "12:00pm"}, {"days": "Sat", "time": "9:30am"}, {"days": "Sun", "time": "Closed"}], "id": "2580100011", "name": "USPS COLLECTION BOX - BLUE BOX", "address": {"city": "BECKLEY", "state": "WV", "street": "1200 HARPER RD", "postcode": "25801"}}},
{"geometry": {"type": "Point", "coordinates": [-81.1830729096, 37.8024134945]}, "type": "Feature", "properties": {"collection_times": [{"days": "Mon-Fri", "time": "2:45pm"}, {"days": "Sat", "time": "9:00am"}, {"days": "Sun", "time": "Closed"}], "id": "2580100017", "name": "USPS COLLECTION BOX - BLUE BOX", "address": {"city": "BECKLEY", "state": "WV", "street": "413 BECKLEY CROSSING SHPG CTR", "postcode": "25801"}}},
{"geometry": {"type": "Point", "coordinates": [-81.1875549691, 37.8147059633]}, "type": "Feature", "properties": {"collection_times": [{"days": "Mon-Fri", "time": "11:00am"}, {"days": "Sat", "time": "9:30am"}, {"days": "Sun", "time": "Closed"}], "id": "2580100021", "name": "USPS COLLECTION BOX - BLUE BOX", "address": {"city": "BECKLEY", "state": "WV", "street": "51 RALEIGH MALL", "postcode": "25801"}}},
{"geometry": {"type": "Point", "coordinates": [-81.1725471642, 37.7902946293]}, "type": "Feature", "properties": {"collection_times": [{"days": "Mon-Fri", "time": "2:45pm"}, {"days": "Sat", "time": "9:30am"}, {"days": "Sun", "time": "Closed"}], "id": "2580100022", "name": "USPS COLLECTION BOX - BLUE BOX", "address": {"city": "BECKLEY", "state": "WV", "street": "503 N EISENHOWER DR", "postcode": "25801"}}},
{"geometry": {"type": "Point", "coordinates": [-81.1705500312, 37.7978533339]}, "type": "Feature", "properties": {"collection_times": [{"days": "Mon-Fri", "time": "10:00am"}, {"days": "Sat", "time": "9:30am"}, {"days": "Sun", "time": "Closed"}], "id": "2580100023", "name": "USPS COLLECTION BOX - BLUE BOX", "address": {"city": "BECKLEY", "state": "WV", "street": "306 STANAFORD RD", "postcode": "25801"}}},
{"geometry": {"type": "Point", "coordinates": [-81.1675965496, 37.7813483872]}, "type": "Feature", "properties": {"collection_times": [{"days": "Mon-Fri", "time": "2:45pm"}, {"days": "Sat", "time": "10:30am"}, {"days": "Sun", "time": "Closed"}], "id": "2580100039", "name": "USPS COLLECTION BOX - BLUE BOX", "address": {"city": "BECKLEY", "state": "WV", "street": "105 S EISENHOWER DR", "postcode": "25801"}}},
{"geometry": {"type": "Point", "coordinates": [-81.190836998, 37.7676469372]}, "type": "Feature", "properties": {"collection_times": [{"days": "Mon-Fri", "time": "2:30pm"}, {"days": "Sat", "time": "11:00am"}, {"days": "Sun", "time": "Closed"}], "id": "2580100041", "name": "USPS COLLECTION BOX - BLUE BOX", "address": {"city": "BECKLEY", "state": "WV", "street": "200 VETERANS AVE", "postcode": "25801"}}},
{"geometry": {"type": "Point", "coordinates": [-81.1955367204, 37.7706795117]}, "type": "Feature", "properties": {"collection_times": [{"days": "Mon-Sat", "time": "12:00pm"}, {"days": "Sun", "time": "Closed"}], "id": "2580100042", "name": "USPS COLLECTION BOX - BLUE BOX", "address": {"city": "BECKLEY", "state": "WV", "street": "2810 ROBERT C BYRD DR", "postcode": "25801"}}},
{"geometry": {"type": "Point", "coordinates": [-81.1945465611, 37.7767399464]}, "type": "Feature", "properties": {"collection_times": [{"days": "Mon-Fri", "time": "1:00pm"}, {"days": "Sat", "time": "10:00am"}, {"days": "Sun", "time": "Closed"}], "id": "2580100043", "name": "USPS COLLECTION BOX - BLUE BOX", "address": {"city": "BECKLEY", "state": "WV", "street": "2987 ROBERT C BYRD DR", "postcode": "25801"}}},
{"geometry": {"type": "Point", "coordinates": [-81.2030338474, 37.7865069621]}, "type": "Feature", "properties": {"collection_times": [{"days": "Mon-Fri", "time": "2:45pm"}, {"days": "Sat", "time": "9:30am"}, {"days": "Sun", "time": "Closed"}], "id": "2580100044", "name": "USPS COLLECTION BOX - BLUE BOX", "address": {"city": "BECKLEY", "state": "WV", "street": "1710 HARPER RD", "postcode": "25801"}}},
{"geometry": {"type": "Point", "coordinates": [-81.2029717135, 37.7793608362]}, "type": "Feature", "properties": {"collection_times": [{"days": "Mon-Fri", "time": "12:45pm"}, {"days": "Sat", "time": "9:00am"}, {"days": "Sun", "time": "Closed"}], "id": "2580100045", "name": "USPS COLLECTION BOX - BLUE BOX", "address": {"city": "BECKLEY", "state": "WV", "street": "1334 HARPER RD", "postcode": "25801"}}},
{"geometry": {"type": "Point", "coordinates": [-81.1934282216, 37.7755595408]}, "type": "Feature", "properties": {"collection_times": [{"days": "Mon-Fri", "time": "2:45pm"}, {"days": "Sat", "time": "9:00am"}, {"days": "Sun", "time": "Closed"}], "id": "2580100046", "name": "USPS COLLECTION BOX - BLUE BOX", "address": {"city": "BECKLEY", "state": "WV", "street": "622 NEVILLE ST", "postcode": "25801"}}},
{"geometry": {"type": "Point", "coordinates": [-81.1904534926, 37.7762190676]}, "type": "Feature", "properties": {"collection_times": [{"days": "Mon-Fri", "time": "2:45pm"}, {"days": "Sat", "time": "9:00am"}, {"days": "Sun", "time": "Closed"}], "id": "2580100049", "name": "USPS COLLECTION BOX - BLUE BOX", "address": {"city": "BECKLEY", "state": "WV", "street": "400 NEVILLE ST", "postcode": "25801"}}},
{"geometry": {"type": "Point", "coordinates": [-81.189050235, 37.7774276103]}, "type": "Feature", "properties": {"collection_times": [{"days": "Mon-Fri", "time": "2:45pm"}, {"days": "Sat", "time": "9:00am"}, {"days": "Sun", "time": "Closed"}], "id": "2580100050", "name": "USPS COLLECTION BOX - BLUE BOX", "address": {"city": "BECKLEY", "state": "WV", "street": "215 MAIN ST", "postcode": "25801"}}},
{"geometry": {"type": "Point", "coordinates": [-81.187766314, 37.7777758972]}, "type": "Feature", "properties": {"collection_times": [{"days": "Mon-Fri", "time": "2:45pm"}, {"days": "Sat", "time": "9:00am"}, {"days": "Sun", "time": "Closed"}], "id": "2580100053", "name": "USPS COLLECTION BOX - BLUE BOX", "address": {"city": "BECKLEY", "state": "WV", "street": "100 MAIN ST", "postcode": "25801"}}},
{"geometry": {"type": "Point", "coordinates": [-81.1904534926, 37.7762190676]}, "type": "Feature", "properties": {"collection_times": [{"days": "Mon-Fri", "time": "2:45pm"}, {"days": "Sat", "time": "9:00am"}, {"days": "Sun", "time": "Closed"}], "id": "2580100057", "name": "USPS COLLECTION BOX - BLUE BOX", "address": {"city": "BECKLEY", "state": "WV", "street": "400 NEVILLE ST", "postcode": "25801"}}},
{"geometry": {"type": "Point", "coordinates": [-81.1885270275, 37.7876830557]}, "type": "Feature", "properties": {"collection_times": [{"days": "Mon-Fri", "time": "1:45pm"}, {"days": "Sat", "time": "9:30am"}, {"days": "Sun", "time": "Closed"}], "id": "2580100061", "name": "USPS COLLECTION BOX - BLUE BOX", "address": {"city": "BECKLEY", "state": "WV", "street": "3361 ROBERT C BYRD DR", "postcode": "25801"}}},
{"geometry": {"type": "Point", "coordinates": [-81.1904534926, 37.7762190676]}, "type": "Feature", "properties": {"collection_times": [{"days": "Mon-Fri", "time": "2:45pm"}, {"days": "Sat", "time": "9:00am"}, {"days": "Sun", "time": "Closed"}], "id": "2580100073", "name": "USPS COLLECTION BOX - BLUE BOX", "address": {"city": "BECKLEY", "state": "WV", "street": "400 NEVILLE ST", "postcode": "25801"}}},
{"geometry": {"type": "Point", "coordinates": [-81.2196089154, 37.7913304842]}, "type": "Feature", "properties": {"collection_times": [{"days": "Mon-Fri", "time": "11:30am"}, {"days": "Sat", "time": "9:30am"}, {"days": "Sun", "time": "Closed"}], "id": "2580100076", "name": "USPS COLLECTION BOX - BLUE BOX", "address": {"city": "BECKLEY", "state": "WV", "street": "200 HARPER PARK DR", "postcode": "25801"}}},
{"geometry": {"type": "Point", "coordinates": [-81.2196089154, 37.7913304842]}, "type": "Feature", "properties": {"collection_times": [{"days": "Mon-Fri", "time": "11:30am"}, {"days": "Sat", "time": "9:30am"}, {"days": "Sun", "time": "Closed"}], "id": "2580100077", "name": "USPS COLLECTION BOX - BLUE BOX", "address": {"city": "BECKLEY", "state": "WV", "street": "200 HARPER PARK DR", "postcode": "25801"}}},
{"geometry": {"type": "Point", "coordinates": [-81.2030898847, 37.7873978588]}, "type": "Feature", "properties": {"collection_times": [{"days": "Mon-Fri", "time": "2:30pm"}, {"days": "Sat", "time": "9:30am"}, {"days": "Sun", "time": "Closed"}], "id": "2580100078", "name": "USPS COLLECTION BOX - BLUE BOX", "address": {"city": "BECKLEY", "state": "WV", "street": "1732 HARPER RD", "postcode": "25801"}}},
{"geometry": {"type": "Point", "coordinates": [-81.1592170946, 37.7702038402]}, "type": "Feature", "properties": {"collection_times": [{"days": "Mon-Fri", "time": "10:00am"}, {"days": "Sat", "time": "9:00am"}, {"days": "Sun", "time": "Closed"}], "id": "2580100081", "name": "USPS COLLECTION BOX - BLUE BOX", "address": {"city": "BECKLEY", "state": "WV", "street": "50 BROOKSHIRE LN", "postcode": "25801"}}},
{"geometry": {"type": "Point", "coordinates": [-81.1786118769, 37.8116372527]}, "type": "Feature", "properties": {"collection_times": [{"days": "Mon-Sat", "time": "5:00pm"}, {"days": "Sun", "time": "Closed"}], "id": "2580100082", "name": "USPS COLLECTION BOX - PO LOBBY", "address": {"city": "BECKLEY", "state": "WV", "street": "134 INDUSTRIAL DR", "postcode": "25801"}}},
{"geometry": {"type": "Point", "coordinates": [-81.1786118769, 37.8116372527]}, "type": "Feature", "properties": {"collection_times": [{"days": "Mon-Sat", "time": "5:00pm"}, {"days": "Sun", "time": "Closed"}], "id": "2580100083", "name": "USPS COLLECTION BOX - PO LOBBY", "address": {"city": "BECKLEY", "state": "WV", "street": "134 INDUSTRIAL DR", "postcode": "25801"}}},
{"geometry": {"type": "Point", "coordinates": [-81.1786118769, 37.8116372527]}, "type": "Feature", "properties": {"collection_times": [{"days": "Mon-Sat", "time": "5:00pm"}, {"days": "Sun", "time": "Closed"}], "id": "2580100084", "name": "USPS COLLECTION BOX - BLUE BOX", "address": {"city": "BECKLEY", "state": "WV", "street": "134 INDUSTRIAL DR", "postcode": "25801"}}},
{"geometry": {"type": "Point", "coordinates": [-81.1786118769, 37.8116372527]}, "type": "Feature", "properties": {"collection_times": [{"days": "Mon-Sat", "time": "5:00pm"}, {"days": "Sun", "time": "Closed"}], "id": "2580100085", "name": "USPS COLLECTION BOX - BLUE BOX", "address": {"city": "BECKLEY", "state": "WV", "street": "134 INDUSTRIAL DR", "postcode": "25801"}}},
{"geometry": {"type": "Point", "coordinates": [-81.1786118769, 37.8116372527]}, "type": "Feature", "properties": {"collection_times": [{"days": "Mon-Sat", "time": "5:00pm"}, {"days": "Sun", "time": "Closed"}], "id": "2580100086", "name": "USPS COLLECTION BOX - BLUE BOX", "address": {"city": "BECKLEY", "state": "WV", "street": "134 INDUSTRIAL DR", "postcode": "25801"}}},
{"geometry": {"type": "Point", "coordinates": [-81.1786118769, 37.8116372527]}, "type": "Feature", "properties": {"collection_times": [{"days": "Mon-Sat", "time": "5:00pm"}, {"days": "Sun", "time": "Closed"}], "id": "2580100088", "name": "USPS COLLECTION BOX - BLUE BOX", "address": {"city": "BECKLEY", "state": "WV", "street": "134 INDUSTRIAL DR", "postcode": "25801"}}},
{"geometry": {"type": "Point", "coordinates": [-81.1904731734, 37.777941407]}, "type": "Feature", "properties": {"collection_times": [{"days": "Mon-Fri", "time": "4:30pm"}, {"days": "Sat", "time": "10:00am"}, {"days": "Sun", "time": "Closed"}], "id": "2580100089", "name": "USPS COLLECTION BOX - BLUE BOX", "address": {"city": "BECKLEY", "state": "WV", "street": "305 PRINCE ST", "postcode": "25801"}}},
{"geometry": {"type": "Point", "coordinates": [-81.1680000231, 37.7704809924]}, "type": "Feature", "properties": {"collection_times": [{"days": "Mon-Fri", "time": "4:30pm"}, {"days": "Sat", "time": "9:00am"}, {"days": "Sun", "time": "Closed"}], "id": "2580100090", "name": "USPS COLLECTION BOX - BLUE BOX", "address": {"city": "BECKLEY", "state": "WV", "street": "1821 1/2 S KANAWHA ST", "postcode": "25801"}}},
{"geometry": {"type": "Point", "coordinates": [-81.2318066969, 37.788538661]}, "type": "Feature", "properties": {"collection_times": [{"days": "Mon-Sat", "time": "9:30am"}, {"days": "Sun", "time": "Closed"}], "id": "2580100091", "name": "USPS COLLECTION BOX - BLUE BOX", "address": {"city": "BECKLEY", "state": "WV", "street": "300 GALLERIA PLZ", "postcode": "25801"}}},
{"geometry": {"type": "Point", "coordinates": [-81.2077509077, 37.7998125683]}, "type": "Feature", "properties": {"collection_times": [{"days": "Mon-Sat", "time": "11:00am"}, {"days": "Sun", "time": "Closed"}], "id": "2580100094", "name": "USPS COLLECTION BOX - BLUE BOX", "address": {"city": "BECKLEY", "state": "WV", "street": "315 MANOR DR", "postcode": "25801"}}},
{"geometry": {"type": "Point", "coordinates": [-81.2029679291, 37.767280006]}, "type": "Feature", "properties": {"collection_times": [{"days": "Mon-Sat", "time": "11:00am"}, {"days": "Sun", "time": "Closed"}], "id": "2580100095", "name": "USPS COLLECTION BOX - BLUE BOX", "address": {"city": "BECKLEY", "state": "WV", "street": "1007 S OAKWOOD AVE", "postcode": "25801"}}},
{"geometry": {"type": "Point", "coordinates": [-81.1904731734, 37.777941407]}, "type": "Feature", "properties": {"collection_times": [{"days": "Mon-Fri", "time": "4:30pm"}, {"days": "Sat-Sun", "time": "Closed"}], "id": "2580100096", "name": "USPS COLLECTION BOX - PO LOBBY", "address": {"city": "BECKLEY", "state": "WV", "street": "305 PRINCE ST", "postcode": "25801"}}},
{"geometry": {"type": "Point", "coordinates": [-81.1679836506, 37.7705898714]}, "type": "Feature", "properties": {"collection_times": [{"days": "Mon-Fri", "time": "4:30pm"}, {"days": "Sat-Sun", "time": "Closed"}], "id": "2580100097", "name": "USPS COLLECTION BOX - PO LOBBY", "address": {"city": "BECKLEY", "state": "WV", "street": "1821 S KANAWHA ST", "postcode": "25801"}}},
{"geometry": {"type": "Point", "coordinates": [-81.1934282216, 37.7755595408]}, "type": "Feature", "properties": {"collection_times": [{"days": "Mon-Fri", "time": "2:45pm"}, {"days": "Sat", "time": "9:00am"}, {"days": "Sun", "time": "Closed"}], "id": "2580100098", "name": "USPS COLLECTION BOX - BLUE BOX", "address": {"city": "BECKLEY", "state": "WV", "street": "622 NEVILLE ST", "postcode": "25801"}}},
{"geometry": {"type": "Point", "coordinates": [-81.3507961879, 37.589096379]}, "type": "Feature", "properties": {"collection_times": [{"days": "Mon-Fri", "time": "9:45am"}, {"days": "Sat", "time": "10:45am"}, {"days": "Sun", "time": "Closed"}], "id": "2581000000", "name": "USPS COLLECTION BOX - BLUE BOX", "address": {"city": "ALLEN JUNCTION", "state": "WV", "street": "3891 GULF RD", "postcode": "25810"}}},
{"geometry": {"type": "Point", "coordinates": [-81.3410380695, 37.5808838275]}, "type": "Feature", "properties": {"collection_times": [{"days": "Mon-Fri", "time": "9:45am"}, {"days": "Sat", "time": "10:45am"}, {"days": "Sun", "time": "Closed"}], "id": "2581000001", "name": "USPS COLLECTION BOX - PO LOBBY", "address": {"city": "ALLEN JUNCTION", "state": "WV", "street": "3891 GULF RD", "postcode": "25810"}}},
{"geometry": {"type": "Point", "coordinates": [-81.0960772984, 38.1343073043]}, "type": "Feature", "properties": {"collection_times": [{"days": "Mon-Fri", "time": "4:00pm"}, {"days": "Sat", "time": "11:00am"}, {"days": "Sun", "time": "Closed"}], "id": "2581200000", "name": "USPS COLLECTION BOX - BLUE BOX", "address": {"city": "ANSTED", "state": "WV", "street": "80 JAMES RIVER AND KANAWHA TPKE", "postcode": "25812"}}},
{"geometry": {"type": "Point", "coordinates": [-81.0960772984, 38.1343073043]}, "type": "Feature", "properties": {"collection_times": [{"days": "Mon-Fri", "time": "4:00pm"}, {"days": "Sat", "time": "11:00am"}, {"days": "Sun", "time": "Closed"}], "id": "2581200001", "name": "USPS COLLECTION BOX - PO LOBBY", "address": {"city": "ANSTED", "state": "WV", "street": "80 JAMES RIVER AND KANAWHA TPKE", "postcode": "25812"}}},
{"geometry": {"type": "Point", "coordinates": [-81.1269367435, 37.7487300133]}, "type": "Feature", "properties": {"collection_times": [{"days": "Mon-Fri", "time": "4:30pm"}, {"days": "Sat", "time": "12:00pm"}, {"days": "Sun", "time": "Closed"}], "id": "2581300001", "name": "USPS COLLECTION BOX - BLUE BOX", "address": {"city": "BEAVER", "state": "WV", "street": "123 BEAVER PLZ", "postcode": "25813"}}},
{"geometry": {"type": "Point", "coordinates": [-81.1269367435, 37.7487300133]}, "type": "Feature", "properties": {"collection_times": [{"days": "Mon-Fri", "time": "4:30pm"}, {"days": "Sat", "time": "12:00pm"}, {"days": "Sun", "time": "Closed"}], "id": "2581300003", "name": "USPS COLLECTION BOX - PO LOBBY", "address": {"city": "BEAVER", "state": "WV", "street": "123 BEAVER PLZ", "postcode": "25813"}}},
{"geometry": {"type": "Point", "coordinates": [-81.4117946203, 37.7621171534]}, "type": "Feature", "properties": {"collection_times": [{"days": "Mon-Fri", "time": "1:15pm"}, {"days": "Sat", "time": "10:30am"}, {"days": "Sun", "time": "Closed"}], "id": "2581700000", "name": "USPS COLLECTION BOX - BLUE BOX", "address": {"city": "BOLT", "state": "WV", "street": "2214 BOLT RD", "postcode": "25817"}}},
{"geometry": {"type": "Point", "coordinates": [-81.4117946203, 37.7621171534]}, "type": "Feature", "properties": {"collection_times": [{"days": "Mon-Fri", "time": "1:15pm"}, {"days": "Sat", "time": "10:30am"}, {"days": "Sun", "time": "Closed"}], "id": "2581700001", "name": "USPS COLLECTION BOX - PO LOBBY", "address": {"city": "BOLT", "state": "WV", "street": "2214 BOLT RD", "postcode": "25817"}}},
{"geometry": {"type": "Point", "coordinates": [-81.1863827966, 37.8739337347]}, "type": "Feature", "properties": {"collection_times": [{"days": "Mon-Fri", "time": "3:45pm"}, {"days": "Sat", "time": "11:30am"}, {"days": "Sun", "time": "Closed"}], "id": "2581800000", "name": "USPS COLLECTION BOX - BLUE BOX", "address": {"city": "BRADLEY", "state": "WV", "street": "6147 ROBERT C BRYD DR", "postcode": "25818"}}},
{"geometry": {"type": "Point", "coordinates": [-81.1863827966, 37.8739337347]}, "type": "Feature", "properties": {"collection_times": [{"days": "Mon-Fri", "time": "3:45pm"}, {"days": "Sat", "time": "11:30am"}, {"days": "Sun", "time": "Closed"}], "id": "2581800001", "name": "USPS COLLECTION BOX - PO LOBBY", "address": {"city": "BRADLEY", "state": "WV", "street": "6147 ROBERT C BRYD DR", "postcode": "25818"}}},
{"geometry": {"type": "Point", "coordinates": [-81.2187233845, 37.6867735865]}, "type": "Feature", "properties": {"collection_times": [{"days": "Mon-Fri", "time": "4:15pm"}, {"days": "Sat", "time": "11:30am"}, {"days": "Sun", "time": "Closed"}], "id": "2582300001", "name": "USPS COLLECTION BOX - BLUE BOX", "address": {"city": "COAL CITY", "state": "WV", "street": "114 TINGLER AVE", "postcode": "25823"}}},
{"geometry": {"type": "Point", "coordinates": [-81.2187233845, 37.6867735865]}, "type": "Feature", "properties": {"collection_times": [{"days": "Mon-Fri", "time": "4:15pm"}, {"days": "Sat", "time": "11:30am"}, {"days": "Sun", "time": "Closed"}], "id": "2582300003", "name": "USPS COLLECTION BOX - PO LOBBY", "address": {"city": "COAL CITY", "state": "WV", "street": "114 TINGLER AVE", "postcode": "25823"}}},
{"geometry": {"type": "Point", "coordinates": [-81.2187233845, 37.6867735865]}, "type": "Feature", "properties": {"collection_times": [{"days": "Mon-Fri", "time": "4:15pm"}, {"days": "Sat", "time": "11:30am"}, {"days": "Sun", "time": "Closed"}], "id": "2582300004", "name": "USPS COLLECTION BOX - PO LOBBY", "address": {"city": "COAL CITY", "state": "WV", "street": "114 TINGLER AVE", "postcode": "25823"}}},
{"geometry": {"type": "Point", "coordinates": [-81.0962020401, 37.658757842]}, "type": "Feature", "properties": {"collection_times": [{"days": "Mon-Fri", "time": "4:15pm"}, {"days": "Sat", "time": "11:00am"}, {"days": "Sun", "time": "Closed"}], "id": "2582500000", "name": "USPS COLLECTION BOX - BLUE BOX", "address": {"city": "COOL RIDGE", "state": "WV", "street": "1902 FLAT TOP RD", "postcode": "25825"}}},
{"geometry": {"type": "Point", "coordinates": [-81.0962020401, 37.658757842]}, "type": "Feature", "properties": {"collection_times": [{"days": "Mon-Fri", "time": "4:15pm"}, {"days": "Sat", "time": "11:00am"}, {"days": "Sun", "time": "Closed"}], "id": "2582500001", "name": "USPS COLLECTION BOX - PO LOBBY", "address": {"city": "COOL RIDGE", "state": "WV", "street": "1902 FLAT TOP RD", "postcode": "25825"}}},
{"geometry": {"type": "Point", "coordinates": [-81.3580690194, 37.5724912505]}, "type": "Feature", "properties": {"collection_times": [{"days": "Mon-Fri", "time": "9:15am"}, {"days": "Sat", "time": "10:15am"}, {"days": "Sun", "time": "Closed"}], "id": "2582600000", "name": "USPS COLLECTION BOX - BLUE BOX", "address": {"city": "CORINNE", "state": "WV", "street": "2064 GULF RD", "postcode": "25826"}}},
{"geometry": {"type": "Point", "coordinates": [-81.3580690194, 37.5724912505]}, "type": "Feature", "properties": {"collection_times": [{"days": "Mon-Fri", "time": "9:15am"}, {"days": "Sat", "time": "10:15am"}, {"days": "Sun", "time": "Closed"}], "id": "2582600001", "name": "USPS COLLECTION BOX - PO LOBBY", "address": {"city": "CORINNE", "state": "WV", "street": "2064 GULF RD", "postcode": "25826"}}},
{"geometry": {"type": "Point", "coordinates": [-81.2310081929, 37.7404671056]}, "type": "Feature", "properties": {"collection_times": [{"days": "Mon-Fri", "time": "4:30pm"}, {"days": "Sat", "time": "12:00pm"}, {"days": "Sun", "time": "Closed"}], "id": "2582700000", "name": "USPS COLLECTION BOX - BLUE BOX", "address": {"city": "CRAB ORCHARD", "state": "WV", "street": "1325 ROBERT C BYRD DR", "postcode": "25827"}}},
{"geometry": {"type": "Point", "coordinates": [-81.2310081929, 37.7404671056]}, "type": "Feature", "properties": {"collection_times": [{"days": "Mon-Fri", "time": "4:00pm"}, {"days": "Sat", "time": "11:30am"}, {"days": "Sun", "time": "Closed"}], "id": "2582700001", "name": "USPS COLLECTION BOX - BLUE BOX", "address": {"city": "CRAB ORCHARD", "state": "WV", "street": "1325 ROBERT C BYRD DR", "postcode": "25827"}}},
{"geometry": {"type": "Point", "coordinates": [-81.2310081929, 37.7404671056]}, "type": "Feature", "properties": {"collection_times": [{"days": "Mon-Fri", "time": "5:00pm"}, {"days": "Sat", "time": "12:00pm"}, {"days": "Sun", "time": "Closed"}], "id": "2582700002", "name": "USPS COLLECTION BOX - PO LOBBY", "address": {"city": "CRAB ORCHARD", "state": "WV", "street": "1325 ROBERT C BYRD DR", "postcode": "25827"}}},
{"geometry": {"type": "Point", "coordinates": [-80.9788970192, 37.8838932264]}, "type": "Feature", "properties": {"collection_times": [{"days": "Mon-Fri", "time": "12:45pm"}, {"days": "Sat", "time": "11:30am"}, {"days": "Sun", "time": "Closed"}], "id": "2583100000", "name": "USPS COLLECTION BOX - BLUE BOX", "address": {"city": "DANESE", "state": "WV", "street": "17629 STANAFORD RD", "postcode": "25831"}}},
{"geometry": {"type": "Point", "coordinates": [-80.9788970192, 37.8838932264]}, "type": "Feature", "properties": {"collection_times": [{"days": "Mon-Fri", "time": "12:45pm"}, {"days": "Sat", "time": "11:30am"}, {"days": "Sun", "time": "Closed"}], "id": "2583100001", "name": "USPS COLLECTION BOX - PO LOBBY", "address": {"city": "DANESE", "state": "WV", "street": "17629 STANAFORD RD", "postcode": "25831"}}},
{"geometry": {"type": "Point", "coordinates": [-81.1241545181, 37.741523495]}, "type": "Feature", "properties": {"collection_times": [{"days": "Mon-Fri", "time": "4:00pm"}, {"days": "Sat", "time": "12:00pm"}, {"days": "Sun", "time": "Closed"}], "id": "2583200001", "name": "USPS COLLECTION BOX - BLUE BOX", "address": {"city": "DANIELS", "state": "WV", "street": "124 BURGESS DR", "postcode": "25832"}}},
{"geometry": {"type": "Point", "coordinates": [-81.1241545181, 37.741523495]}, "type": "Feature", "properties": {"collection_times": [{"days": "Mon-Fri", "time": "4:00pm"}, {"days": "Sat", "time": "12:00pm"}, {"days": "Sun", "time": "Closed"}], "id": "2583200003", "name": "USPS COLLECTION BOX - PO LOBBY", "address": {"city": "DANIELS", "state": "WV", "street": "124 BURGESS DR", "postcode": "25832"}}},
{"geometry": {"type": "Point", "coordinates": [-81.2669398687, 37.7838699615]}, "type": "Feature", "properties": {"collection_times": [{"days": "Mon-Sat", "time": "11:45am"}, {"days": "Sun", "time": "Closed"}], "id": "2583600000", "name": "USPS COLLECTION BOX - BLUE BOX", "address": {"city": "ECCLES", "state": "WV", "street": "108 SHAWNEE RD", "postcode": "25836"}}},
{"geometry": {"type": "Point", "coordinates": [-81.2669398687, 37.7838699615]}, "type": "Feature", "properties": {"collection_times": [{"days": "Mon-Sat", "time": "11:45am"}, {"days": "Sun", "time": "Closed"}], "id": "2583600001", "name": "USPS COLLECTION BOX - PO LOBBY", "address": {"city": "ECCLES", "state": "WV", "street": "108 SHAWNEE RD", "postcode": "25836"}}},
{"geometry": {"type": "Point", "coordinates": [-81.0422071994, 38.0552157455]}, "type": "Feature", "properties": {"collection_times": [{"days": "Mon-Fri", "time": "11:45am"}, {"days": "Sat", "time": "11:30am"}, {"days": "Sun", "time": "Closed"}], "id": "2583700000", "name": "USPS COLLECTION BOX - BLUE BOX", "address": {"city": "EDMOND", "state": "WV", "street": "3524 LANSING EDMOND RD", "postcode": "25837"}}},
{"geometry": {"type": "Point", "coordinates": [-81.0422071994, 38.0552157455]}, "type": "Feature", "properties": {"collection_times": [{"days": "Mon-Fri", "time": "11:45am"}, {"days": "Sat", "time": "11:30am"}, {"days": "Sun", "time": "Closed"}], "id": "2583700001", "name": "USPS COLLECTION BOX - PO LOBBY", "address": {"city": "EDMOND", "state": "WV", "street": "3524 LANSING EDMOND RD", "postcode": "25837"}}},
{"geometry": {"type": "Point", "coordinates": [-81.3960735977, 37.7852935881]}, "type": "Feature", "properties": {"collection_times": [{"days": "Mon-Fri", "time": "3:45pm"}, {"days": "Sat", "time": "10:30am"}, {"days": "Sun", "time": "Closed"}], "id": "2583900000", "name": "USPS COLLECTION BOX - PO LOBBY", "address": {"city": "FAIRDALE", "state": "WV", "street": "698 BOLT RD", "postcode": "25839"}}},
{"geometry": {"type": "Point", "coordinates": [-81.3960735977, 37.7852935881]}, "type": "Feature", "properties": {"collection_times": [{"days": "Mon-Fri", "time": "3:45pm"}, {"days": "Sat", "time": "10:30am"}, {"days": "Sun", "time": "Closed"}], "id": "2583900001", "name": "USPS COLLECTION BOX - BLUE BOX", "address": {"city": "FAIRDALE", "state": "WV", "street": "698 BOLT RD", "postcode": "25839"}}},
{"geometry": {"type": "Point", "coordinates": [-81.1039672944, 38.0526813334]}, "type": "Feature", "properties": {"collection_times": [{"days": "Mon-Sat", "time": "4:00pm"}, {"days": "Sun", "time": "Closed"}], "id": "2584000000", "name": "USPS COLLECTION BOX - BLUE BOX", "address": {"city": "FAYETTEVILLE", "state": "WV", "street": "120 W MAPLE AVE", "postcode": "25840"}}},
{"geometry": {"type": "Point", "coordinates": [-81.1039672944, 38.0526813334]}, "type": "Feature", "properties": {"collection_times": [{"days": "Mon-Sat", "time": "4:00pm"}, {"days": "Sun", "time": "Closed"}], "id": "2584000001", "name": "USPS COLLECTION BOX - BLUE BOX", "address": {"city": "FAYETTEVILLE", "state": "WV", "street": "120 W MAPLE AVE", "postcode": "25840"}}},
{"geometry": {"type": "Point", "coordinates": [-81.1039672944, 38.0526813334]}, "type": "Feature", "properties": {"collection_times": [{"days": "Mon-Sat", "time": "4:00pm"}, {"days": "Sun", "time": "Closed"}], "id": "2584000014", "name": "USPS COLLECTION BOX - PO LOBBY", "address": {"city": "FAYETTEVILLE", "state": "WV", "street": "120 W MAPLE AVE", "postcode": "25840"}}},
{"geometry": {"type": "Point", "coordinates": [-81.1171881184, 37.5821649923]}, "type": "Feature", "properties": {"collection_times": [{"days": "Mon-Fri", "time": "11:30am"}, {"days": "Sat", "time": "11:15am"}, {"days": "Sun", "time": "Closed"}], "id": "2584100000", "name": "USPS COLLECTION BOX - BLUE BOX", "address": {"city": "FLAT TOP", "state": "WV", "street": "21629 BECKLEY RD", "postcode": "25841"}}},
{"geometry": {"type": "Point", "coordinates": [-81.1171881184, 37.5821649923]}, "type": "Feature", "properties": {"collection_times": [{"days": "Mon-Fri", "time": "11:30am"}, {"days": "Sat", "time": "11:15am"}, {"days": "Sun", "time": "Closed"}], "id": "2584100001", "name": "USPS COLLECTION BOX - PO LOBBY", "address": {"city": "FLAT TOP", "state": "WV", "street": "21629 BECKLEY RD", "postcode": "25841"}}},
{"geometry": {"type": "Point", "coordinates": [-81.1152135753, 37.6166995511]}, "type": "Feature", "properties": {"collection_times": [{"days": "Mon-Fri", "time": "3:45pm"}, {"days": "Sat", "time": "10:00am"}, {"days": "Sun", "time": "Closed"}], "id": "2584300000", "name": "USPS COLLECTION BOX - BLUE BOX", "address": {"city": "GHENT", "state": "WV", "street": "121 ODD RD", "postcode": "25843"}}},
{"geometry": {"type": "Point", "coordinates": [-81.1152135753, 37.6166995511]}, "type": "Feature", "properties": {"collection_times": [{"days": "Mon-Fri", "time": "4:00pm"}, {"days": "Sat", "time": "10:30am"}, {"days": "Sun", "time": "Closed"}], "id": "2584300001", "name": "USPS COLLECTION BOX - PO LOBBY", "address": {"city": "GHENT", "state": "WV", "street": "121 ODD RD", "postcode": "25843"}}},
{"geometry": {"type": "Point", "coordinates": [-81.3316175698, 37.7757297447]}, "type": "Feature", "properties": {"collection_times": [{"days": "Mon-Fri", "time": "3:30pm"}, {"days": "Sat", "time": "11:45am"}, {"days": "Sun", "time": "Closed"}], "id": "2584400000", "name": "USPS COLLECTION BOX - BLUE BOX", "address": {"city": "GLEN DANIEL", "state": "WV", "street": "7134 HARPER RD", "postcode": "25844"}}},
{"geometry": {"type": "Point", "coordinates": [-81.3316175698, 37.7757297447]}, "type": "Feature", "properties": {"collection_times": [{"days": "Mon-Fri", "time": "3:30pm"}, {"days": "Sat", "time": "11:45am"}, {"days": "Sun", "time": "Closed"}], "id": "2584400001", "name": "USPS COLLECTION BOX - PO LOBBY", "address": {"city": "GLEN DANIEL", "state": "WV", "street": "7134 HARPER RD", "postcode": "25844"}}},
{"geometry": {"type": "Point", "coordinates": [-81.3425192028, 37.7790252865]}, "type": "Feature", "properties": {"collection_times": [{"days": "Mon-Fri", "time": "1:00pm"}, {"days": "Sat", "time": "10:00am"}, {"days": "Sun", "time": "Closed"}], "id": "2584400003", "name": "USPS COLLECTION BOX - BLUE BOX", "address": {"city": "GLEN DANIEL", "state": "WV", "street": "109 BOLT RD", "postcode": "25844"}}},
{"geometry": {"type": "Point", "coordinates": [-81.515193634, 37.6600670178]}, "type": "Feature", "properties": {"collection_times": [{"days": "Mon-Fri", "time": "2:30pm"}, {"days": "Sat", "time": "11:30am"}, {"days": "Sun", "time": "Closed"}], "id": "2584500000", "name": "USPS COLLECTION BOX - BLUE BOX", "address": {"city": "GLEN FORK", "state": "WV", "street": "4200 POPLAR GAP RD", "postcode": "25845"}}},
{"geometry": {"type": "Point", "coordinates": [-81.515193634, 37.6600670178]}, "type": "Feature", "properties": {"collection_times": [{"days": "Mon-Fri", "time": "2:30pm"}, {"days": "Sat", "time": "11:30am"}, {"days": "Sun", "time": "Closed"}], "id": "2584500001", "name": "USPS COLLECTION BOX - PO LOBBY", "address": {"city": "GLEN FORK", "state": "WV", "street": "4200 POPLAR GAP RD", "postcode": "25845"}}},
{"geometry": {"type": "Point", "coordinates": [-81.1651917708, 37.8946897717]}, "type": "Feature", "properties": {"collection_times": [{"days": "Mon-Fri", "time": "2:45pm"}, {"days": "Sat", "time": "11:45am"}, {"days": "Sun", "time": "Closed"}], "id": "2584600000", "name": "USPS COLLECTION BOX - BLUE BOX", "address": {"city": "GLEN JEAN", "state": "WV", "street": "102 MAIN ST", "postcode": "25846"}}},
{"geometry": {"type": "Point", "coordinates": [-81.1651917708, 37.8946897717]}, "type": "Feature", "properties": {"collection_times": [{"days": "Mon-Fri", "time": "2:45pm"}, {"days": "Sat", "time": "11:45am"}, {"days": "Sun", "time": "Closed"}], "id": "2584600001", "name": "USPS COLLECTION BOX - PO LOBBY", "address": {"city": "GLEN JEAN", "state": "WV", "street": "102 MAIN ST", "postcode": "25846"}}},
{"geometry": {"type": "Point", "coordinates": [-81.4421752298, 37.7327728493]}, "type": "Feature", "properties": {"collection_times": [{"days": "Mon-Fri", "time": "1:00pm"}, {"days": "Sat", "time": "10:45am"}, {"days": "Sun", "time": "Closed"}], "id": "2584800000", "name": "USPS COLLECTION BOX - BLUE BOX", "address": {"city": "GLEN ROGERS", "state": "WV", "street": "2517 GLEN ROGERS RD", "postcode": "25848"}}},
{"geometry": {"type": "Point", "coordinates": [-81.4421752298, 37.7327728493]}, "type": "Feature", "properties": {"collection_times": [{"days": "Mon-Fri", "time": "1:00pm"}, {"days": "Sat", "time": "10:45am"}, {"days": "Sun", "time": "Closed"}], "id": "2584800001", "name": "USPS COLLECTION BOX - PO LOBBY", "address": {"city": "GLEN ROGERS", "state": "WV", "street": "2517 GLEN ROGERS RD", "postcode": "25848"}}},
{"geometry": {"type": "Point", "coordinates": [-81.2566860633, 37.8030590839]}, "type": "Feature", "properties": {"collection_times": [{"days": "Mon-Fri", "time": "11:45am"}, {"days": "Sat", "time": "10:45am"}, {"days": "Sun", "time": "Closed"}], "id": "2585100000", "name": "USPS COLLECTION BOX - BLUE BOX", "address": {"city": "HARPER", "state": "WV", "street": "3520 HARPER RD", "postcode": "25851"}}},
{"geometry": {"type": "Point", "coordinates": [-81.2566860633, 37.8030590839]}, "type": "Feature", "properties": {"collection_times": [{"days": "Mon-Fri", "time": "11:45am"}, {"days": "Sat", "time": "10:45am"}, {"days": "Sun", "time": "Closed"}], "id": "2585100001", "name": "USPS COLLECTION BOX - PO LOBBY", "address": {"city": "HARPER", "state": "WV", "street": "3520 HARPER RD", "postcode": "25851"}}},
{"geometry": {"type": "Point", "coordinates": [-81.3133341825, 37.6360870084]}, "type": "Feature", "properties": {"collection_times": [{"days": "Mon-Fri", "time": "10:15am"}, {"days": "Sat", "time": "9:45am"}, {"days": "Sun", "time": "Closed"}], "id": "2585300000", "name": "USPS COLLECTION BOX - BLUE BOX", "address": {"city": "HELEN", "state": "WV", "street": "5011 TAMS HWY", "postcode": "25853"}}},
{"geometry": {"type": "Point", "coordinates": [-81.3133341825, 37.6360870084]}, "type": "Feature", "properties": {"collection_times": [{"days": "Mon-Fri", "time": "10:15am"}, {"days": "Sat", "time": "9:45am"}, {"days": "Sun", "time": "Closed"}], "id": "2585300001", "name": "USPS COLLECTION BOX - PO LOBBY", "address": {"city": "HELEN", "state": "WV", "street": "5011 TAMS HWY", "postcode": "25853"}}},
{"geometry": {"type": "Point", "coordinates": [-80.9479338514, 38.111598178]}, "type": "Feature", "properties": {"collection_times": [{"days": "Mon-Fri", "time": "3:30pm"}, {"days": "Sat", "time": "11:15am"}, {"days": "Sun", "time": "Closed"}], "id": "2585400000", "name": "USPS COLLECTION BOX - BLUE BOX", "address": {"city": "HICO", "state": "WV", "street": "27 WILLIAM BEAN RD", "postcode": "25854"}}},
{"geometry": {"type": "Point", "coordinates": [-80.9479338514, 38.111598178]}, "type": "Feature", "properties": {"collection_times": [{"days": "Mon-Fri", "time": "3:30pm"}, {"days": "Sat", "time": "11:15am"}, {"days": "Sun", "time": "Closed"}], "id": "2585400001", "name": "USPS COLLECTION BOX - PO LOBBY", "address": {"city": "HICO", "state": "WV", "street": "27 WILLIAM BEAN RD", "postcode": "25854"}}},
{"geometry": {"type": "Point", "coordinates": [-81.1510893907, 37.9427025095]}, "type": "Feature", "properties": {"collection_times": [{"days": "Mon-Fri", "time": "11:45am"}, {"days": "Sat", "time": "11:15am"}, {"days": "Sun", "time": "Closed"}], "id": "2585500000", "name": "USPS COLLECTION BOX - PO LOBBY", "address": {"city": "HILLTOP", "state": "WV", "street": "102 HILLTOP LOOP RD", "postcode": "25855"}}},
{"geometry": {"type": "Point", "coordinates": [-81.1510893907, 37.9427025095]}, "type": "Feature", "properties": {"collection_times": [{"days": "Mon-Fri", "time": "11:45am"}, {"days": "Sat", "time": "11:15am"}, {"days": "Sun", "time": "Closed"}], "id": "2585500001", "name": "USPS COLLECTION BOX - BLUE BOX", "address": {"city": "HILLTOP", "state": "WV", "street": "102 HILLTOP LOOP RD", "postcode": "25855"}}},
{"geometry": {"type": "Point", "coordinates": [-81.2170799608, 37.6204250821]}, "type": "Feature", "properties": {"collection_times": [{"days": "Mon-Fri", "time": "11:15am"}, {"days": "Sat", "time": "9:45am"}, {"days": "Sun", "time": "Closed"}], "id": "2585700000", "name": "USPS COLLECTION BOX - BLUE BOX", "address": {"city": "JOSEPHINE", "state": "WV", "street": "4282 ODD RD", "postcode": "25857"}}},
{"geometry": {"type": "Point", "coordinates": [-81.2170799608, 37.6204250821]}, "type": "Feature", "properties": {"collection_times": [{"days": "Mon-Fri", "time": "11:15am"}, {"days": "Sat", "time": "9:45am"}, {"days": "Sun", "time": "Closed"}], "id": "2585700001", "name": "USPS COLLECTION BOX - PO LOBBY", "address": {"city": "JOSEPHINE", "state": "WV", "street": "4282 ODD RD", "postcode": "25857"}}},
{"geometry": {"type": "Point", "coordinates": [-81.0317672711, 38.1090279779]}, "type": "Feature", "properties": {"collection_times": [{"days": "Mon-Fri", "time": "11:45am"}, {"days": "Sat", "time": "10:00am"}, {"days": "Sun", "time": "Closed"}], "id": "2586200000", "name": "USPS COLLECTION BOX - BLUE BOX", "address": {"city": "LANSING", "state": "WV", "street": "59 FAYETTE MINE RD", "postcode": "25862"}}},
{"geometry": {"type": "Point", "coordinates": [-81.0722683, 38.0829279793]}, "type": "Feature", "properties": {"collection_times": [{"days": "Mon-Fri", "time": "11:45am"}, {"days": "Sat", "time": "10:00am"}, {"days": "Sun", "time": "Closed"}], "id": "2586200001", "name": "USPS COLLECTION BOX - PO LOBBY", "address": {"city": "LANSING", "state": "WV", "street": "59 FAYETTE MINE RD", "postcode": "25862"}}},
{"geometry": {"type": "Point", "coordinates": [-81.0863694599, 37.8684592388]}, "type": "Feature", "properties": {"collection_times": [{"days": "Mon-Fri", "time": "11:45am"}, {"days": "Sat", "time": "10:15am"}, {"days": "Sun", "time": "Closed"}], "id": "2586400000", "name": "USPS COLLECTION BOX - BLUE BOX", "address": {"city": "LAYLAND", "state": "WV", "street": "13891 STANAFORD RD", "postcode": "25864"}}},
{"geometry": {"type": "Point", "coordinates": [-81.0863694599, 37.8684592388]}, "type": "Feature", "properties": {"collection_times": [{"days": "Mon-Fri", "time": "11:45am"}, {"days": "Sat", "time": "10:15am"}, {"days": "Sun", "time": "Closed"}], "id": "2586400001", "name": "USPS COLLECTION BOX - PO LOBBY", "address": {"city": "LAYLAND", "state": "WV", "street": "13891 STANAFORD RD", "postcode": "25864"}}},
{"geometry": {"type": "Point", "coordinates": [-81.297019128, 37.7340713162]}, "type": "Feature", "properties": {"collection_times": [{"days": "Mon-Fri", "time": "3:00pm"}, {"days": "Sat", "time": "10:45am"}, {"days": "Sun", "time": "Closed"}], "id": "2586500000", "name": "USPS COLLECTION BOX - PO LOBBY", "address": {"city": "LESTER", "state": "WV", "street": "1711 LESTER HWY", "postcode": "25865"}}},
{"geometry": {"type": "Point", "coordinates": [-81.297019128, 37.7340713162]}, "type": "Feature", "properties": {"collection_times": [{"days": "Mon-Fri", "time": "3:00pm"}, {"days": "Sat", "time": "10:45am"}, {"days": "Sun", "time": "Closed"}], "id": "2586500001", "name": "USPS COLLECTION BOX - BLUE BOX", "address": {"city": "LESTER", "state": "WV", "street": "1711 LESTER HWY", "postcode": "25865"}}},
{"geometry": {"type": "Point", "coordinates": [-81.1452837313, 38.0107750111]}, "type": "Feature", "properties": {"collection_times": [{"days": "Mon-Fri", "time": "11:45am"}, {"days": "Sat", "time": "9:45am"}, {"days": "Sun", "time": "Closed"}], "id": "2586600000", "name": "USPS COLLECTION BOX - BLUE BOX", "address": {"city": "LOCHGELLY", "state": "WV", "street": "3746 SUMMERLEE RD", "postcode": "25866"}}},
{"geometry": {"type": "Point", "coordinates": [-81.1452837313, 38.0107750111]}, "type": "Feature", "properties": {"collection_times": [{"days": "Mon-Fri", "time": "11:30am"}, {"days": "Sat", "time": "10:45am"}, {"days": "Sun", "time": "Closed"}], "id": "2586600001", "name": "USPS COLLECTION BOX - PO LOBBY", "address": {"city": "LOCHGELLY", "state": "WV", "street": "3746 SUMMERLEE RD", "postcode": "25866"}}},
{"geometry": {"type": "Point", "coordinates": [-80.8964488649, 38.0521425875]}, "type": "Feature", "properties": {"collection_times": [{"days": "Mon-Sat", "time": "11:45am"}, {"days": "Sun", "time": "Closed"}], "id": "2586800000", "name": "USPS COLLECTION BOX - BLUE BOX", "address": {"city": "LOOKOUT", "state": "WV", "street": "31085 MIDLAND TRL", "postcode": "25868"}}},
{"geometry": {"type": "Point", "coordinates": [-80.8964488649, 38.0521425875]}, "type": "Feature", "properties": {"collection_times": [{"days": "Mon-Sat", "time": "11:45am"}, {"days": "Sun", "time": "Closed"}], "id": "2586800001", "name": "USPS COLLECTION BOX - PO LOBBY", "address": {"city": "LOOKOUT", "state": "WV", "street": "31085 MIDLAND TRL", "postcode": "25868"}}},
{"geometry": {"type": "Point", "coordinates": [-81.2073370935, 37.7695760771]}, "type": "Feature", "properties": {"collection_times": [{"days": "Mon-Fri", "time": "4:30pm"}, {"days": "Sat", "time": "11:30am"}, {"days": "Sun", "time": "Closed"}], "id": "2587100000", "name": "USPS COLLECTION BOX - BLUE BOX", "address": {"city": "MABSCOTT", "state": "WV", "street": "113 CHESTNUT ST", "postcode": "25871"}}},
{"geometry": {"type": "Point", "coordinates": [-81.2073370935, 37.7695760771]}, "type": "Feature", "properties": {"collection_times": [{"days": "Mon-Fri", "time": "4:30pm"}, {"days": "Sat", "time": "11:30am"}, {"days": "Sun", "time": "Closed"}], "id": "2587100001", "name": "USPS COLLECTION BOX - PO LOBBY", "address": {"city": "MABSCOTT", "state": "WV", "street": "113 CHESTNUT ST", "postcode": "25871"}}},
{"geometry": {"type": "Point", "coordinates": [-81.2181510285, 37.7537491992]}, "type": "Feature", "properties": {"collection_times": [{"days": "Mon-Fri", "time": "3:45pm"}, {"days": "Sat", "time": "10:30am"}, {"days": "Sun", "time": "Closed"}], "id": "2587300000", "name": "USPS COLLECTION BOX - BLUE BOX", "address": {"city": "MACARTHUR", "state": "WV", "street": "1902 ROBERT C BYRD DR", "postcode": "25873"}}},
{"geometry": {"type": "Point", "coordinates": [-81.2181510285, 37.7537491992]}, "type": "Feature", "properties": {"collection_times": [{"days": "Mon-Fri", "time": "3:45pm"}, {"days": "Sat", "time": "10:30am"}, {"days": "Sun", "time": "Closed"}], "id": "2587300001", "name": "USPS COLLECTION BOX - PO LOBBY", "address": {"city": "MACARTHUR", "state": "WV", "street": "1902 ROBERT C BYRD DR", "postcode": "25873"}}},
{"geometry": {"type": "Point", "coordinates": [-81.4679297997, 37.6774631095]}, "type": "Feature", "properties": {"collection_times": [{"days": "Mon-Fri", "time": "1:15pm"}, {"days": "Sat", "time": "11:45am"}, {"days": "Sun", "time": "Closed"}], "id": "2587500000", "name": "USPS COLLECTION BOX - BLUE BOX", "address": {"city": "MC GRAWS", "state": "WV", "street": "2487 MCGRAWS RD", "postcode": "25875"}}},
{"geometry": {"type": "Point", "coordinates": [-81.4679297997, 37.6774631095]}, "type": "Feature", "properties": {"collection_times": [{"days": "Mon-Fri", "time": "1:15pm"}, {"days": "Sat", "time": "11:45am"}, {"days": "Sun", "time": "Closed"}], "id": "2587500001", "name": "USPS COLLECTION BOX - PO LOBBY", "address": {"city": "MC GRAWS", "state": "WV", "street": "2487 MCGRAWS RD", "postcode": "25875"}}},
{"geometry": {"type": "Point", "coordinates": [-81.2392828677, 37.7103187629]}, "type": "Feature", "properties": {"collection_times": [{"days": "Mon-Fri", "time": "11:45am"}, {"days": "Sat", "time": "11:15am"}, {"days": "Sun", "time": "Closed"}], "id": "2587800000", "name": "USPS COLLECTION BOX - BLUE BOX", "address": {"city": "MIDWAY", "state": "WV", "street": "1158 MIDWAY RD", "postcode": "25878"}}},
{"geometry": {"type": "Point", "coordinates": [-81.2392828677, 37.7103187629]}, "type": "Feature", "properties": {"collection_times": [{"days": "Mon-Fri", "time": "11:45am"}, {"days": "Sat", "time": "11:15am"}, {"days": "Sun", "time": "Closed"}], "id": "2587800001", "name": "USPS COLLECTION BOX - PO LOBBY", "address": {"city": "MIDWAY", "state": "WV", "street": "1158 MIDWAY RD", "postcode": "25878"}}},
{"geometry": {"type": "Point", "coordinates": [-81.1209030604, 37.977098144]}, "type": "Feature", "properties": {"collection_times": [{"days": "Mon-Fri", "time": "11:45am"}, {"days": "Sat", "time": "10:30am"}, {"days": "Sun", "time": "Closed"}], "id": "2587900000", "name": "USPS COLLECTION BOX - BLUE BOX", "address": {"city": "MINDEN", "state": "WV", "street": "1679 MINDEN RD", "postcode": "25879"}}},
{"geometry": {"type": "Point", "coordinates": [-81.1209030604, 37.977098144]}, "type": "Feature", "properties": {"collection_times": [{"days": "Mon-Fri", "time": "11:45am"}, {"days": "Sat", "time": "10:30am"}, {"days": "Sun", "time": "Closed"}], "id": "2587900001", "name": "USPS COLLECTION BOX - PO LOBBY", "address": {"city": "MINDEN", "state": "WV", "street": "1679 MINDEN RD", "postcode": "25879"}}},
{"geometry": {"type": "Point", "coordinates": [-81.1646463403, 37.8953491238]}, "type": "Feature", "properties": {"collection_times": [{"days": "Mon-Fri", "time": "3:45pm"}, {"days": "Sat", "time": "10:00am"}, {"days": "Sun", "time": "Closed"}], "id": "2588000000", "name": "USPS COLLECTION BOX - BLUE BOX", "address": {"city": "MOUNT HOPE", "state": "WV", "street": "415 MAIN ST", "postcode": "25880"}}},
{"geometry": {"type": "Point", "coordinates": [-81.1683729967, 37.8926374123]}, "type": "Feature", "properties": {"collection_times": [{"days": "Mon-Sat", "time": "9:30am"}, {"days": "Sun", "time": "Closed"}], "id": "2588000001", "name": "USPS COLLECTION BOX - BLUE BOX", "address": {"city": "MOUNT HOPE", "state": "WV", "street": "707 MAIN ST", "postcode": "25880"}}},
{"geometry": {"type": "Point", "coordinates": [-81.1632165495, 37.8974673883]}, "type": "Feature", "properties": {"collection_times": [{"days": "Mon-Sat", "time": "8:45am"}, {"days": "Sun", "time": "Closed"}], "id": "2588000004", "name": "USPS COLLECTION BOX - BLUE BOX", "address": {"city": "MOUNT HOPE", "state": "WV", "street": "300 N FAYETTE AVE", "postcode": "25880"}}},
{"geometry": {"type": "Point", "coordinates": [-81.1936899639, 37.8425878116]}, "type": "Feature", "properties": {"collection_times": [{"days": "Mon-Sat", "time": "9:30am"}, {"days": "Sun", "time": "Closed"}], "id": "2588000005", "name": "USPS COLLECTION BOX - BLUE BOX", "address": {"city": "MOUNT HOPE", "state": "WV", "street": "5475 ROBERT C BYRD DR", "postcode": "25880"}}},
{"geometry": {"type": "Point", "coordinates": [-81.1646463403, 37.8953491238]}, "type": "Feature", "properties": {"collection_times": [{"days": "Mon-Fri", "time": "3:45pm"}, {"days": "Sat", "time": "10:00am"}, {"days": "Sun", "time": "Closed"}], "id": "2588000010", "name": "USPS COLLECTION BOX - PO LOBBY", "address": {"city": "MOUNT HOPE", "state": "WV", "street": "415 MAIN ST", "postcode": "25880"}}},
{"geometry": {"type": "Point", "coordinates": [-81.3898574787, 37.5854346308]}, "type": "Feature", "properties": {"collection_times": [{"days": "Mon-Sat", "time": "12:30pm"}, {"days": "Sun", "time": "Closed"}], "id": "2588200000", "name": "USPS COLLECTION BOX - BLUE BOX", "address": {"city": "MULLENS", "state": "WV", "street": "901 COLLIER AVE", "postcode": "25882"}}},
{"geometry": {"type": "Point", "coordinates": [-81.3823312194, 37.5977867728]}, "type": "Feature", "properties": {"collection_times": [{"days": "Mon-Sat", "time": "2:00pm"}, {"days": "Sun", "time": "Closed"}], "id": "2588200001", "name": "USPS COLLECTION BOX - BLUE BOX", "address": {"city": "MULLENS", "state": "WV", "street": "208 TRACE ST", "postcode": "25882"}}},
{"geometry": {"type": "Point", "coordinates": [-81.3811937336, 37.5847212923]}, "type": "Feature", "properties": {"collection_times": [{"days": "Mon-Sat", "time": "4:00pm"}, {"days": "Sun", "time": "Closed"}], "id": "2588200004", "name": "USPS COLLECTION BOX - BLUE BOX", "address": {"city": "MULLENS", "state": "WV", "street": "101 4TH ST", "postcode": "25882"}}},
{"geometry": {"type": "Point", "coordinates": [-81.3812377041, 37.5822245912]}, "type": "Feature", "properties": {"collection_times": [{"days": "Mon-Sat", "time": "2:00pm"}, {"days": "Sun", "time": "Closed"}], "id": "2588200005", "name": "USPS COLLECTION BOX - BLUE BOX", "address": {"city": "MULLENS", "state": "WV", "street": "100 HOWARD AVE", "postcode": "25882"}}},
{"geometry": {"type": "Point", "coordinates": [-81.3778323802, 37.5864304401]}, "type": "Feature", "properties": {"collection_times": [{"days": "Mon-Sat", "time": "11:00am"}, {"days": "Sun", "time": "Closed"}], "id": "2588200006", "name": "USPS COLLECTION BOX - BLUE BOX", "address": {"city": "MULLENS", "state": "WV", "street": "235 BLACK EAGLE RD", "postcode": "25882"}}},
{"geometry": {"type": "Point", "coordinates": [-81.3811937336, 37.5847212923]}, "type": "Feature", "properties": {"collection_times": [{"days": "Mon-Sat", "time": "4:00pm"}, {"days": "Sun", "time": "Closed"}], "id": "2588200007", "name": "USPS COLLECTION BOX - PO LOBBY", "address": {"city": "MULLENS", "state": "WV", "street": "101 4TH ST", "postcode": "25882"}}}
]}
