{"type": "FeatureCollection", "features": [
{"geometry": {"type": "Point", "coordinates": [-81.1450140483, 37.9740374805]}, "type": "Feature", "properties": {"collection_times": [{"days": "Mon-Fri", "time": "4:30pm"}, {"days": "Sat", "time": "2:30pm"}, {"days": "Sun", "time": "Closed"}], "id": "2590100001", "name": "USPS COLLECTION BOX - BLUE BOX", "address": {"city": "OAK HILL", "state": "WV", "street": "208 MAIN ST E", "postcode": "25901"}}},
{"geometry": {"type": "Point", "coordinates": [-81.1295148623, 38.011581431]}, "type": "Feature", "properties": {"collection_times": [{"days": "Mon-Sat", "time": "9:15am"}, {"days": "Sun", "time": "Closed"}], "id": "2590100005", "name": "USPS COLLECTION BOX - BLUE BOX", "address": {"city": "OAK HILL", "state": "WV", "street": "617 FAYETTE SQ", "postcode": "25901"}}},
{"geometry": {"type": "Point", "coordinates": [-81.1450140483, 37.9740374805]}, "type": "Feature", "properties": {"collection_times": [{"days": "Mon-Fri", "time": "4:30pm"}, {"days": "Sat", "time": "2:30pm"}, {"days": "Sun", "time": "Closed"}], "id": "2590100006", "name": "USPS COLLECTION BOX - BLUE BOX", "address": {"city": "OAK HILL", "state": "WV", "street": "208 MAIN ST E", "postcode": "25901"}}},
{"geometry": {"type": "Point", "coordinates": [-81.1330853748, 37.9913086477]}, "type": "Feature", "properties": {"collection_times": [{"days": "Mon-Sat", "time": "2:00pm"}, {"days": "Sun", "time": "Closed"}], "id": "2590100011", "name": "USPS COLLECTION BOX - BLUE BOX", "address": {"city": "OAK HILL", "state": "WV", "street": "1556 MAIN ST E", "postcode": "25901"}}},
{"geometry": {"type": "Point", "coordinates": [-81.1486108205, 37.972432976]}, "type": "Feature", "properties": {"collection_times": [{"days": "Mon-Sat", "time": "2:00pm"}, {"days": "Sun", "time": "Closed"}], "id": "2590100012", "name": "USPS COLLECTION BOX - BLUE BOX", "address": {"city": "OAK HILL", "state": "WV", "street": "106 JONES AVE", "postcode": "25901"}}},
{"geometry": {"type": "Point", "coordinates": [-81.1450140483, 37.9740374805]}, "type": "Feature", "properties": {"collection_times": [{"days": "Mon-Fri", "time": "4:30pm"}, {"days": "Sat", "time": "2:30pm"}, {"days": "Sun", "time": "Closed"}], "id": "2590100016", "name": "USPS COLLECTION BOX - PO LOBBY", "address": {"city": "OAK HILL", "state": "WV", "street": "208 MAIN ST E", "postcode": "25901"}}},
{"geometry": {"type": "Point", "coordinates": [-81.1386573576, 37.9801942794]}, "type": "Feature", "properties": {"collection_times": [{"days": "Mon-Sat", "time": "11:00am"}, {"days": "Sun", "time": "Closed"}], "id": "2590100017", "name": "USPS COLLECTION BOX - BLUE BOX", "address": {"city": "OAK HILL", "state": "WV", "street": "803 MAIN ST E", "postcode": "25901"}}},
{"geometry": {"type": "Point", "coordinates": [-81.194246401, 37.5945032308]}, "type": "Feature", "properties": {"collection_times": [{"days": "Mon-Fri", "time": "1:00pm"}, {"days": "Sat", "time": "10:45am"}, {"days": "Sun", "time": "Closed"}], "id": "2590200000", "name": "USPS COLLECTION BOX - BLUE BOX", "address": {"city": "ODD", "state": "WV", "street": "2803 ODD RD", "postcode": "25902"}}},
{"geometry": {"type": "Point", "coordinates": [-81.194246401, 37.5945032308]}, "type": "Feature", "properties": {"collection_times": [{"days": "Mon-Fri", "time": "1:15pm"}, {"days": "Sat", "time": "10:45am"}, {"days": "Sun", "time": "Closed"}], "id": "2590200001", "name": "USPS COLLECTION BOX - PO LOBBY", "address": {"city": "ODD", "state": "WV", "street": "2803 ODD RD", "postcode": "25902"}}},
{"geometry": {"type": "Point", "coordinates": [-81.2643820667, 37.9088994724]}, "type": "Feature", "properties": {"collection_times": [{"days": "Mon-Fri", "time": "11:45am"}, {"days": "Sat", "time": "10:45am"}, {"days": "Sun", "time": "Closed"}], "id": "2590400000", "name": "USPS COLLECTION BOX - BLUE BOX", "address": {"city": "PAX", "state": "WV", "street": "251 MAIN ST", "postcode": "25904"}}},
{"geometry": {"type": "Point", "coordinates": [-81.2643820667, 37.9088994724]}, "type": "Feature", "properties": {"collection_times": [{"days": "Mon-Fri", "time": "11:45am"}, {"days": "Sat", "time": "10:45am"}, {"days": "Sun", "time": "Closed"}], "id": "2590400001", "name": "USPS COLLECTION BOX - PO LOBBY", "address": {"city": "PAX", "state": "WV", "street": "251 MAIN ST", "postcode": "25904"}}},
{"geometry": {"type": "Point", "coordinates": [-81.1337962612, 37.8358513706]}, "type": "Feature", "properties": {"collection_times": [{"days": "Mon-Fri", "time": "11:45am"}, {"days": "Sat", "time": "10:30am"}, {"days": "Sun", "time": "Closed"}], "id": "2590600000", "name": "USPS COLLECTION BOX - BLUE BOX", "address": {"city": "PINEY VIEW", "state": "WV", "street": "133 STONEWALL RD", "postcode": "25906"}}},
{"geometry": {"type": "Point", "coordinates": [-81.1337962612, 37.8358513706]}, "type": "Feature", "properties": {"collection_times": [{"days": "Mon-Fri", "time": "11:45am"}, {"days": "Sat", "time": "10:30am"}, {"days": "Sun", "time": "Closed"}], "id": "2590600001", "name": "USPS COLLECTION BOX - PO LOBBY", "address": {"city": "PINEY VIEW", "state": "WV", "street": "133 STONEWALL RD", "postcode": "25906"}}},
{"geometry": {"type": "Point", "coordinates": [-81.0441224176, 37.8525592337]}, "type": "Feature", "properties": {"collection_times": [{"days": "Mon-Fri", "time": "11:00am"}, {"days": "Sat", "time": "11:45am"}, {"days": "Sun", "time": "Closed"}], "id": "2590700000", "name": "USPS COLLECTION BOX - PO LOBBY", "address": {"city": "PRINCE", "state": "WV", "street": "4827 STANAFORD RD", "postcode": "25907"}}},
{"geometry": {"type": "Point", "coordinates": [-81.0441224176, 37.8525592337]}, "type": "Feature", "properties": {"collection_times": [{"days": "Mon-Fri", "time": "11:00am"}, {"days": "Sat", "time": "11:45am"}, {"days": "Sun", "time": "Closed"}], "id": "2590700001", "name": "USPS COLLECTION BOX - BLUE BOX", "address": {"city": "PRINCE", "state": "WV", "street": "4827 STANAFORD RD", "postcode": "25907"}}},
{"geometry": {"type": "Point", "coordinates": [-81.0441224176, 37.8525592337]}, "type": "Feature", "properties": {"collection_times": [{"days": "Mon-Fri", "time": "11:00am"}, {"days": "Sat", "time": "11:45am"}, {"days": "Sun", "time": "Closed"}], "id": "2590700002", "name": "USPS COLLECTION BOX - PO LOBBY", "address": {"city": "PRINCE", "state": "WV", "street": "4827 STANAFORD RD", "postcode": "25907"}}},
{"geometry": {"type": "Point", "coordinates": [-81.2259551219, 37.6598710213]}, "type": "Feature", "properties": {"collection_times": [{"days": "Mon-Fri", "time": "12:00pm"}, {"days": "Sat", "time": "9:30am"}, {"days": "Sun", "time": "Closed"}], "id": "2590800000", "name": "USPS COLLECTION BOX - BLUE BOX", "address": {"city": "PRINCEWICK", "state": "WV", "street": "127 EPPERLY RD", "postcode": "25908"}}},
{"geometry": {"type": "Point", "coordinates": [-81.2259551219, 37.6598710213]}, "type": "Feature", "properties": {"collection_times": [{"days": "Mon-Fri", "time": "12:00pm"}, {"days": "Sat", "time": "9:30am"}, {"days": "Sun", "time": "Closed"}], "id": "2590800001", "name": "USPS COLLECTION BOX - PO LOBBY", "address": {"city": "PRINCEWICK", "state": "WV", "street": "127 EPPERLY RD", "postcode": "25908"}}},
{"geometry": {"type": "Point", "coordinates": [-81.2116670694, 37.8407326192]}, "type": "Feature", "properties": {"collection_times": [{"days": "Mon-Fri", "time": "3:00pm"}, {"days": "Sat", "time": "11:45am"}, {"days": "Sun", "time": "Closed"}], "id": "2590900000", "name": "USPS COLLECTION BOX - BLUE BOX", "address": {"city": "PROSPERITY", "state": "WV", "street": "578 PROSPERITY RD", "postcode": "25909"}}},
{"geometry": {"type": "Point", "coordinates": [-81.2116670694, 37.8407326192]}, "type": "Feature", "properties": {"collection_times": [{"days": "Mon-Fri", "time": "3:00pm"}, {"days": "Sat", "time": "11:45am"}, {"days": "Sun", "time": "Closed"}], "id": "2590900001", "name": "USPS COLLECTION BOX - PO LOBBY", "address": {"city": "PROSPERITY", "state": "WV", "street": "578 PROSPERITY RD", "postcode": "25909"}}},
{"geometry": {"type": "Point", "coordinates": [-81.1694967494, 37.7570441197]}, "type": "Feature", "properties": {"collection_times": [{"days": "Mon-Fri", "time": "9:45am"}, {"days": "Sat", "time": "10:45am"}, {"days": "Sun", "time": "Closed"}], "id": "2591100000", "name": "USPS COLLECTION BOX - BLUE BOX", "address": {"city": "RALEIGH", "state": "WV", "street": "1 BURMEISTER AVE", "postcode": "25911"}}},
{"geometry": {"type": "Point", "coordinates": [-81.1694967494, 37.7570441197]}, "type": "Feature", "properties": {"collection_times": [{"days": "Mon-Fri", "time": "9:45am"}, {"days": "Sat", "time": "10:45am"}, {"days": "Sun", "time": "Closed"}], "id": "2591100001", "name": "USPS COLLECTION BOX - PO LOBBY", "address": {"city": "RALEIGH", "state": "WV", "street": "1 BURMEISTER AVE", "postcode": "25911"}}},
{"geometry": {"type": "Point", "coordinates": [-81.3049180421, 37.6084653448]}, "type": "Feature", "properties": {"collection_times": [{"days": "Mon-Fri", "time": "11:15am"}, {"days": "Sat", "time": "10:30am"}, {"days": "Sun", "time": "Closed"}], "id": "2591500000", "name": "USPS COLLECTION BOX - BLUE BOX", "address": {"city": "RHODELL", "state": "WV", "street": "7230 COAL CITY RD", "postcode": "25915"}}},
{"geometry": {"type": "Point", "coordinates": [-81.3049180421, 37.6084653448]}, "type": "Feature", "properties": {"collection_times": [{"days": "Mon-Fri", "time": "11:15am"}, {"days": "Sat", "time": "10:30am"}, {"days": "Sun", "time": "Closed"}], "id": "2591500001", "name": "USPS COLLECTION BOX - PO LOBBY", "address": {"city": "RHODELL", "state": "WV", "street": "7230 COAL CITY RD", "postcode": "25915"}}},
{"geometry": {"type": "Point", "coordinates": [-81.2076874506, 37.9778738926]}, "type": "Feature", "properties": {"collection_times": [{"days": "Mon-Fri", "time": "3:00pm"}, {"days": "Sat", "time": "11:30am"}, {"days": "Sun", "time": "Closed"}], "id": "2591700000", "name": "USPS COLLECTION BOX - BLUE BOX", "address": {"city": "SCARBRO", "state": "WV", "street": "1379 SCARBRO RD", "postcode": "25917"}}},
{"geometry": {"type": "Point", "coordinates": [-81.2076874506, 37.9778738926]}, "type": "Feature", "properties": {"collection_times": [{"days": "Mon-Fri", "time": "3:00pm"}, {"days": "Sat", "time": "11:30am"}, {"days": "Sun", "time": "Closed"}], "id": "2591700001", "name": "USPS COLLECTION BOX - PO LOBBY", "address": {"city": "SCARBRO", "state": "WV", "street": "1379 SCARBRO RD", "postcode": "25917"}}},
{"geometry": {"type": "Point", "coordinates": [-81.0944380534, 37.704582783]}, "type": "Feature", "properties": {"collection_times": [{"days": "Mon-Fri", "time": "4:30pm"}, {"days": "Sat", "time": "11:00am"}, {"days": "Sun", "time": "Closed"}], "id": "2591800000", "name": "USPS COLLECTION BOX - BLUE BOX", "address": {"city": "SHADY SPRING", "state": "WV", "street": "218 HINTON RD", "postcode": "25918"}}},
{"geometry": {"type": "Point", "coordinates": [-81.0944380534, 37.704582783]}, "type": "Feature", "properties": {"collection_times": [{"days": "Mon-Fri", "time": "4:30pm"}, {"days": "Sat", "time": "11:00am"}, {"days": "Sun", "time": "Closed"}], "id": "2591800001", "name": "USPS COLLECTION BOX - PO LOBBY", "address": {"city": "SHADY SPRING", "state": "WV", "street": "218 HINTON RD", "postcode": "25918"}}},
{"geometry": {"type": "Point", "coordinates": [-81.0944380534, 37.704582783]}, "type": "Feature", "properties": {"collection_times": [{"days": "Mon-Fri", "time": "4:30pm"}, {"days": "Sat", "time": "11:00am"}, {"days": "Sun", "time": "Closed"}], "id": "2591800002", "name": "USPS COLLECTION BOX - PO LOBBY", "address": {"city": "SHADY SPRING", "state": "WV", "street": "218 HINTON RD", "postcode": "25918"}}},
{"geometry": {"type": "Point", "coordinates": [-81.1956803964, 37.8256950307]}, "type": "Feature", "properties": {"collection_times": [{"days": "Mon-Fri", "time": "4:00pm"}, {"days": "Sat", "time": "11:30am"}, {"days": "Sun", "time": "Closed"}], "id": "2591900000", "name": "USPS COLLECTION BOX - PO LOBBY", "address": {"city": "SKELTON", "state": "WV", "street": "112 BECKLEY PLAZA MALL", "postcode": "25919"}}},
{"geometry": {"type": "Point", "coordinates": [-81.2497701521, 37.7088351412]}, "type": "Feature", "properties": {"collection_times": [{"days": "Mon-Fri", "time": "4:30pm"}, {"days": "Sat", "time": "10:30am"}, {"days": "Sun", "time": "Closed"}], "id": "2592100000", "name": "USPS COLLECTION BOX - BLUE BOX", "address": {"city": "SOPHIA", "state": "WV", "street": "221 RIFFE ST", "postcode": "25921"}}},
{"geometry": {"type": "Point", "coordinates": [-81.2497701521, 37.7088351412]}, "type": "Feature", "properties": {"collection_times": [{"days": "Mon-Fri", "time": "4:30pm"}, {"days": "Sat", "time": "10:30am"}, {"days": "Sun", "time": "Closed"}], "id": "2592100001", "name": "USPS COLLECTION BOX - PO LOBBY", "address": {"city": "SOPHIA", "state": "WV", "street": "221 RIFFE ST", "postcode": "25921"}}},
{"geometry": {"type": "Point", "coordinates": [-81.1219144723, 37.4446745721]}, "type": "Feature", "properties": {"collection_times": [{"days": "Mon-Fri", "time": "3:15pm"}, {"days": "Sat", "time": "11:00am"}, {"days": "Sun", "time": "Closed"}], "id": "2592200000", "name": "USPS COLLECTION BOX - BLUE BOX", "address": {"city": "SPANISHBURG", "state": "WV", "street": "8781 BECKLEY RD", "postcode": "25922"}}},
{"geometry": {"type": "Point", "coordinates": [-81.1219144723, 37.4446745721]}, "type": "Feature", "properties": {"collection_times": [{"days": "Mon-Fri", "time": "3:15pm"}, {"days": "Sat", "time": "11:00am"}, {"days": "Sun", "time": "Closed"}], "id": "2592200001", "name": "USPS COLLECTION BOX - PO LOBBY", "address": {"city": "SPANISHBURG", "state": "WV", "street": "8781 BECKLEY RD", "postcode": "25922"}}},
{"geometry": {"type": "Point", "coordinates": [-81.155257642, 37.8118878419]}, "type": "Feature", "properties": {"collection_times": [{"days": "Mon-Fri", "time": "11:45am"}, {"days": "Sat", "time": "11:30am"}, {"days": "Sun", "time": "Closed"}], "id": "2592700000", "name": "USPS COLLECTION BOX - BLUE BOX", "address": {"city": "STANAFORD", "state": "WV", "street": "909 RAGLAND RD", "postcode": "25927"}}},
{"geometry": {"type": "Point", "coordinates": [-81.155257642, 37.8118878419]}, "type": "Feature", "properties": {"collection_times": [{"days": "Mon-Fri", "time": "11:45am"}, {"days": "Sat", "time": "11:30am"}, {"days": "Sun", "time": "Closed"}], "id": "2592700001", "name": "USPS COLLECTION BOX - PO LOBBY", "address": {"city": "STANAFORD", "state": "WV", "street": "909 RAGLAND RD", "postcode": "25927"}}},
{"geometry": {"type": "Point", "coordinates": [-81.3305668839, 37.5767692341]}, "type": "Feature", "properties": {"collection_times": [{"days": "Mon-Fri", "time": "11:45am"}, {"days": "Sat", "time": "10:00am"}, {"days": "Sun", "time": "Closed"}], "id": "2592800000", "name": "USPS COLLECTION BOX - BLUE BOX", "address": {"city": "STEPHENSON", "state": "WV", "street": "5869 GULF RD", "postcode": "25928"}}},
{"geometry": {"type": "Point", "coordinates": [-81.3305668839, 37.5767692341]}, "type": "Feature", "properties": {"collection_times": [{"days": "Mon-Fri", "time": "11:45am"}, {"days": "Sat", "time": "10:00am"}, {"days": "Sun", "time": "Closed"}], "id": "2592800001", "name": "USPS COLLECTION BOX - PO LOBBY", "address": {"city": "STEPHENSON", "state": "WV", "street": "5869 GULF RD", "postcode": "25928"}}},
{"geometry": {"type": "Point", "coordinates": [-81.2995232471, 37.7660259734]}, "type": "Feature", "properties": {"collection_times": [{"days": "Mon-Fri", "time": "11:45am"}, {"days": "Sat", "time": "10:30am"}, {"days": "Sun", "time": "Closed"}], "id": "2593200000", "name": "USPS COLLECTION BOX - BLUE BOX", "address": {"city": "SURVEYOR", "state": "WV", "street": "6429 HARPER RD", "postcode": "25932"}}},
{"geometry": {"type": "Point", "coordinates": [-81.2995232471, 37.7660259734]}, "type": "Feature", "properties": {"collection_times": [{"days": "Mon-Fri", "time": "11:45am"}, {"days": "Sat", "time": "10:30am"}, {"days": "Sun", "time": "Closed"}], "id": "2593200001", "name": "USPS COLLECTION BOX - PO LOBBY", "address": {"city": "SURVEYOR", "state": "WV", "street": "6429 HARPER RD", "postcode": "25932"}}},
{"geometry": {"type": "Point", "coordinates": [-81.021497837, 38.1743897716]}, "type": "Feature", "properties": {"collection_times": [{"days": "Mon-Fri", "time": "2:15pm"}, {"days": "Sat", "time": "10:30am"}, {"days": "Sun", "time": "Closed"}], "id": "2593800000", "name": "USPS COLLECTION BOX - BLUE BOX", "address": {"city": "VICTOR", "state": "WV", "street": "21313 MIDLAND TRL", "postcode": "25938"}}},
{"geometry": {"type": "Point", "coordinates": [-81.021497837, 38.1743897716]}, "type": "Feature", "properties": {"collection_times": [{"days": "Mon-Fri", "time": "2:15pm"}, {"days": "Sat", "time": "10:45am"}, {"days": "Sun", "time": "Closed"}], "id": "2593800001", "name": "USPS COLLECTION BOX - PO LOBBY", "address": {"city": "VICTOR", "state": "WV", "street": "21313 MIDLAND TRL", "postcode": "25938"}}},
{"geometry": {"type": "Point", "coordinates": [-81.3470110497, 37.5935444428]}, "type": "Feature", "properties": {"collection_times": [{"days": "Mon-Fri", "time": "11:45am"}, {"days": "Sat", "time": "9:45am"}, {"days": "Sun", "time": "Closed"}], "id": "2594300000", "name": "USPS COLLECTION BOX - BLUE BOX", "address": {"city": "WYCO", "state": "WV", "street": "1006 WYCO HOLLOW RD", "postcode": "25943"}}},
{"geometry": {"type": "Point", "coordinates": [-81.3470110497, 37.5935444428]}, "type": "Feature", "properties": {"collection_times": [{"days": "Mon-Fri", "time": "11:45am"}, {"days": "Sat", "time": "9:45am"}, {"days": "Sun", "time": "Closed"}], "id": "2594300001", "name": "USPS COLLECTION BOX - PO LOBBY", "address": {"city": "WYCO", "state": "WV", "street": "1006 WYCO HOLLOW RD", "postcode": "25943"}}},
{"geometry": {"type": "Point", "coordinates": [-80.8832538759, 37.6768039351]}, "type": "Feature", "properties": {"collection_times": [{"days": "Mon-Sat", "time": "12:00pm"}, {"days": "Sun", "time": "Closed"}], "id": "2595100000", "name": "USPS COLLECTION BOX - BLUE BOX", "address": {"city": "HINTON", "state": "WV", "street": "800 TEMPLE ST", "postcode": "25951"}}},
{"geometry": {"type": "Point", "coordinates": [-80.8883896616, 37.673559264]}, "type": "Feature", "properties": {"collection_times": [{"days": "Mon-Sat", "time": "9:00am"}, {"days": "Sun", "time": "Closed"}], "id": "2595100001", "name": "USPS COLLECTION BOX - BLUE BOX", "address": {"city": "HINTON", "state": "WV", "street": "422 4TH AVE", "postcode": "25951"}}},
{"geometry": {"type": "Point", "coordinates": [-80.8848298103, 37.6520922753]}, "type": "Feature", "properties": {"collection_times": [{"days": "Mon-Sat", "time": "11:00am"}, {"days": "Sun", "time": "Closed"}], "id": "2595100003", "name": "USPS COLLECTION BOX - BLUE BOX", "address": {"city": "HINTON", "state": "WV", "street": "308 STOKES DR", "postcode": "25951"}}},
{"geometry": {"type": "Point", "coordinates": [-80.8906572915, 37.6729048296]}, "type": "Feature", "properties": {"collection_times": [{"days": "Mon-Fri", "time": "4:45pm"}, {"days": "Sat", "time": "4:30pm"}, {"days": "Sun", "time": "Closed"}], "id": "2595100004", "name": "USPS COLLECTION BOX - BLUE BOX", "address": {"city": "HINTON", "state": "WV", "street": "128 BALLENGEE ST", "postcode": "25951"}}},
{"geometry": {"type": "Point", "coordinates": [-80.8762652765, 37.6814796235]}, "type": "Feature", "properties": {"collection_times": [{"days": "Mon-Sat", "time": "2:30pm"}, {"days": "Sun", "time": "Closed"}], "id": "2595100006", "name": "USPS COLLECTION BOX - BLUE BOX", "address": {"city": "HINTON", "state": "WV", "street": "1700 TEMPLE ST", "postcode": "25951"}}},
{"geometry": {"type": "Point", "coordinates": [-80.8912091398, 37.6694300386]}, "type": "Feature", "properties": {"collection_times": [{"days": "Mon-Sat", "time": "9:30am"}, {"days": "Sun", "time": "Closed"}], "id": "2595100007", "name": "USPS COLLECTION BOX - BLUE BOX", "address": {"city": "HINTON", "state": "WV", "street": "126 MAIN ST", "postcode": "25951"}}},
{"geometry": {"type": "Point", "coordinates": [-80.8821610852, 37.6469315579]}, "type": "Feature", "properties": {"collection_times": [{"days": "Mon-Sat", "time": "2:00pm"}, {"days": "Sun", "time": "Closed"}], "id": "2595100008", "name": "USPS COLLECTION BOX - BLUE BOX", "address": {"city": "HINTON", "state": "WV", "street": "400 MILLER AVE", "postcode": "25951"}}},
{"geometry": {"type": "Point", "coordinates": [-80.8859495563, 37.67463656]}, "type": "Feature", "properties": {"collection_times": [{"days": "Mon-Sat", "time": "12:30pm"}, {"days": "Sun", "time": "Closed"}], "id": "2595100013", "name": "USPS COLLECTION BOX - BLUE BOX", "address": {"city": "HINTON", "state": "WV", "street": "601 BALLENGEE ST", "postcode": "25951"}}},
{"geometry": {"type": "Point", "coordinates": [-80.8906572915, 37.6729048296]}, "type": "Feature", "properties": {"collection_times": [{"days": "Mon-Fri", "time": "4:45pm"}, {"days": "Sat", "time": "4:30pm"}, {"days": "Sun", "time": "Closed"}], "id": "2595100014", "name": "USPS COLLECTION BOX - PO LOBBY", "address": {"city": "HINTON", "state": "WV", "street": "128 BALLENGEE ST", "postcode": "25951"}}},
{"geometry": {"type": "Point", "coordinates": [-80.7294308487, 37.987624286]}, "type": "Feature", "properties": {"collection_times": [{"days": "Mon-Fri", "time": "11:45am"}, {"days": "Sat", "time": "10:30am"}, {"days": "Sun", "time": "Closed"}], "id": "2595800000", "name": "USPS COLLECTION BOX - BLUE BOX", "address": {"city": "CHARMCO", "state": "WV", "street": "5170 MIDLAND TRL W", "postcode": "25958"}}},
{"geometry": {"type": "Point", "coordinates": [-80.6969365504, 37.9981229206]}, "type": "Feature", "properties": {"collection_times": [{"days": "Mon-Fri", "time": "11:45am"}, {"days": "Sat", "time": "10:30am"}, {"days": "Sun", "time": "Closed"}], "id": "2595800001", "name": "USPS COLLECTION BOX - PO LOBBY", "address": {"city": "CHARMCO", "state": "WV", "street": "5170 MIDLAND TRL W", "postcode": "25958"}}},
{"geometry": {"type": "Point", "coordinates": [-80.7667696345, 37.9688715091]}, "type": "Feature", "properties": {"collection_times": [{"days": "Mon-Fri", "time": "3:00pm"}, {"days": "Sat", "time": "12:00pm"}, {"days": "Sun", "time": "Closed"}], "id": "2596200002", "name": "USPS COLLECTION BOX - BLUE BOX", "address": {"city": "RAINELLE", "state": "WV", "street": "28 MAIN ST", "postcode": "25962"}}},
{"geometry": {"type": "Point", "coordinates": [-80.7650677214, 37.9698813863]}, "type": "Feature", "properties": {"collection_times": [{"days": "Mon-Sat", "time": "12:00pm"}, {"days": "Sun", "time": "Closed"}], "id": "2596200004", "name": "USPS COLLECTION BOX - BLUE BOX", "address": {"city": "RAINELLE", "state": "WV", "street": "406 JOHN RAINE DR", "postcode": "25962"}}},
{"geometry": {"type": "Point", "coordinates": [-80.7670611822, 37.9688583004]}, "type": "Feature", "properties": {"collection_times": [{"days": "Mon-Fri", "time": "4:00pm"}, {"days": "Sat", "time": "12:00pm"}, {"days": "Sun", "time": "Closed"}], "id": "2596200005", "name": "USPS COLLECTION BOX - PO LOBBY", "address": {"city": "RAINELLE", "state": "WV", "street": "202 KANAWHA AVE", "postcode": "25962"}}},
{"geometry": {"type": "Point", "coordinates": [-81.0198340978, 37.6099616136]}, "type": "Feature", "properties": {"collection_times": [{"days": "Mon-Fri", "time": "11:45am"}, {"days": "Sat", "time": "11:15am"}, {"days": "Sun", "time": "Closed"}], "id": "2596900000", "name": "USPS COLLECTION BOX - BLUE BOX", "address": {"city": "JUMPING BRANCH", "state": "WV", "street": "PO BOX 9998", "postcode": "25969"}}},
{"geometry": {"type": "Point", "coordinates": [-81.0198340978, 37.6099616136]}, "type": "Feature", "properties": {"collection_times": [{"days": "Mon-Fri", "time": "11:45am"}, {"days": "Sat", "time": "11:15am"}, {"days": "Sun", "time": "Closed"}], "id": "2596900001", "name": "USPS COLLECTION BOX - PO LOBBY", "address": {"city": "JUMPING BRANCH", "state": "WV", "street": "PO BOX 9998", "postcode": "25969"}}},
{"geometry": {"type": "Point", "coordinates": [-80.9875794364, 37.5022021743]}, "type": "Feature", "properties": {"collection_times": [{"days": "Mon-Fri", "time": "3:30pm"}, {"days": "Sat", "time": "12:00pm"}, {"days": "Sun", "time": "Closed"}], "id": "2597100000", "name": "USPS COLLECTION BOX - BLUE BOX", "address": {"city": "LERONA", "state": "WV", "street": "6832 HINTON RD", "postcode": "25971"}}},
{"geometry": {"type": "Point", "coordinates": [-80.9875794364, 37.5022021743]}, "type": "Feature", "properties": {"collection_times": [{"days": "Mon-Fri", "time": "3:30pm"}, {"days": "Sat", "time": "12:00pm"}, {"days": "Sun", "time": "Closed"}], "id": "2597100001", "name": "USPS COLLECTION BOX - PO LOBBY", "address": {"city": "LERONA", "state": "WV", "street": "6832 HINTON RD", "postcode": "25971"}}},
{"geometry": {"type": "Point", "coordinates": [-80.8593416749, 37.866303549]}, "type": "Feature", "properties": {"collection_times": [{"days": "Mon-Fri", "time": "4:00pm"}, {"days": "Sat", "time": "12:00pm"}, {"days": "Sun", "time": "Closed"}], "id": "2597600000", "name": "USPS COLLECTION BOX - BLUE BOX", "address": {"city": "MEADOW BRIDGE", "state": "WV", "street": "9245 SEWELL CREEK RD", "postcode": "25976"}}},
{"geometry": {"type": "Point", "coordinates": [-80.8593416749, 37.866303549]}, "type": "Feature", "properties": {"collection_times": [{"days": "Mon-Fri", "time": "4:00pm"}, {"days": "Sat", "time": "12:00pm"}, {"days": "Sun", "time": "Closed"}], "id": "2597600001", "name": "USPS COLLECTION BOX - PO LOBBY", "address": {"city": "MEADOW BRIDGE", "state": "WV", "street": "9245 SEWELL CREEK RD", "postcode": "25976"}}},
{"geometry": {"type": "Point", "coordinates": [-80.9130720496, 37.798471369]}, "type": "Feature", "properties": {"collection_times": [{"days": "Mon-Fri", "time": "12:00pm"}, {"days": "Sat", "time": "11:00am"}, {"days": "Sun", "time": "Closed"}], "id": "2597700000", "name": "USPS COLLECTION BOX - BLUE BOX", "address": {"city": "MEADOW CREEK", "state": "WV", "street": "PO BOX 9998", "postcode": "25977"}}},
{"geometry": {"type": "Point", "coordinates": [-80.9130720496, 37.798471369]}, "type": "Feature", "properties": {"collection_times": [{"days": "Mon-Fri", "time": "12:00pm"}, {"days": "Sat", "time": "11:00am"}, {"days": "Sun", "time": "Closed"}], "id": "2597700001", "name": "USPS COLLECTION BOX - PO LOBBY", "address": {"city": "MEADOW CREEK", "state": "WV", "street": "PO BOX 9998", "postcode": "25977"}}},
{"geometry": {"type": "Point", "coordinates": [-80.9392485927, 37.6303143589]}, "type": "Feature", "properties": {"collection_times": [{"days": "Mon-Fri", "time": "11:15am"}, {"days": "Sat", "time": "10:45am"}, {"days": "Sun", "time": "Closed"}], "id": "2597800000", "name": "USPS COLLECTION BOX - BLUE BOX", "address": {"city": "NIMITZ", "state": "WV", "street": "7394 BEECH RUN RD", "postcode": "25978"}}},
{"geometry": {"type": "Point", "coordinates": [-80.9392485927, 37.6303143589]}, "type": "Feature", "properties": {"collection_times": [{"days": "Mon-Fri", "time": "11:15am"}, {"days": "Sat", "time": "10:45am"}, {"days": "Sun", "time": "Closed"}], "id": "2597800001", "name": "USPS COLLECTION BOX - PO LOBBY", "address": {"city": "NIMITZ", "state": "WV", "street": "7394 BEECH RUN RD", "postcode": "25978"}}},
{"geometry": {"type": "Point", "coordinates": [-80.9221196086, 37.5141268229]}, "type": "Feature", "properties": {"collection_times": [{"days": "Mon-Fri", "time": "11:45am"}, {"days": "Sat", "time": "10:45am"}, {"days": "Sun", "time": "Closed"}], "id": "2597900000", "name": "USPS COLLECTION BOX - BLUE BOX", "address": {"city": "PIPESTEM", "state": "WV", "street": "1 MAIN ST", "postcode": "25979"}}},
{"geometry": {"type": "Point", "coordinates": [-80.9221196086, 37.5141268229]}, "type": "Feature", "properties": {"collection_times": [{"days": "Mon-Fri", "time": "11:45am"}, {"days": "Sat", "time": "10:45am"}, {"days": "Sun", "time": "Closed"}], "id": "2597900001", "name": "USPS COLLECTION BOX - PO LOBBY", "address": {"city": "PIPESTEM", "state": "WV", "street": "1 MAIN ST", "postcode": "25979"}}},
{"geometry": {"type": "Point", "coordinates": [-80.6737706507, 38.0539853457]}, "type": "Feature", "properties": {"collection_times": [{"days": "Mon-Fri", "time": "2:30pm"}, {"days": "Sat", "time": "11:45am"}, {"days": "Sun", "time": "Closed"}], "id": "2598100000", "name": "USPS COLLECTION BOX - BLUE BOX", "address": {"city": "QUINWOOD", "state": "WV", "street": "115 AMICK ST W", "postcode": "25981"}}},
{"geometry": {"type": "Point", "coordinates": [-80.6737706507, 38.0539853457]}, "type": "Feature", "properties": {"collection_times": [{"days": "Mon-Fri", "time": "2:30pm"}, {"days": "Sat", "time": "11:45am"}, {"days": "Sun", "time": "Closed"}], "id": "2598100001", "name": "USPS COLLECTION BOX - PO LOBBY", "address": {"city": "QUINWOOD", "state": "WV", "street": "115 AMICK ST W", "postcode": "25981"}}},
{"geometry": {"type": "Point", "coordinates": [-80.6893153777, 37.9631491305]}, "type": "Feature", "properties": {"collection_times": [{"days": "Mon-Fri", "time": "4:00pm"}, {"days": "Sat", "time": "11:45am"}, {"days": "Sun", "time": "Closed"}], "id": "2598400000", "name": "USPS COLLECTION BOX - BLUE BOX", "address": {"city": "RUPERT", "state": "WV", "street": "703 NICHOLAS ST", "postcode": "25984"}}},
{"geometry": {"type": "Point", "coordinates": [-80.6893153777, 37.9631491305]}, "type": "Feature", "properties": {"collection_times": [{"days": "Mon-Fri", "time": "4:00pm"}, {"days": "Sat", "time": "12:00pm"}, {"days": "Sun", "time": "Closed"}], "id": "2598400001", "name": "USPS COLLECTION BOX - PO LOBBY", "address": {"city": "RUPERT", "state": "WV", "street": "703 NICHOLAS ST", "postcode": "25984"}}},
{"geometry": {"type": "Point", "coordinates": [-80.8659545562, 37.7598331206]}, "type": "Feature", "properties": {"collection_times": [{"days": "Mon-Fri", "time": "11:15am"}, {"days": "Sat", "time": "11:45am"}, {"days": "Sun", "time": "Closed"}], "id": "2598500000", "name": "USPS COLLECTION BOX - BLUE BOX", "address": {"city": "SANDSTONE", "state": "WV", "street": "38 RIVER RD", "postcode": "25985"}}},
{"geometry": {"type": "Point", "coordinates": [-80.8659545562, 37.7598331206]}, "type": "Feature", "properties": {"collection_times": [{"days": "Mon-Fri", "time": "11:15am"}, {"days": "Sat", "time": "11:45am"}, {"days": "Sun", "time": "Closed"}], "id": "2598500001", "name": "USPS COLLECTION BOX - PO LOBBY", "address": {"city": "SANDSTONE", "state": "WV", "street": "38 RIVER RD", "postcode": "25985"}}},
{"geometry": {"type": "Point", "coordinates": [-80.8021840417, 37.8509821623]}, "type": "Feature", "properties": {"collection_times": [{"days": "Mon-Fri", "time": "9:45am"}, {"days": "Sat", "time": "9:30am"}, {"days": "Sun", "time": "Closed"}], "id": "2598600000", "name": "USPS COLLECTION BOX - BLUE BOX", "address": {"city": "SPRINGDALE", "state": "WV", "street": "5130 SEWELL CREEK RD", "postcode": "25986"}}},
{"geometry": {"type": "Point", "coordinates": [-80.8021840417, 37.8509821623]}, "type": "Feature", "properties": {"collection_times": [{"days": "Mon-Fri", "time": "9:45am"}, {"days": "Sat", "time": "9:30am"}, {"days": "Sun", "time": "Closed"}], "id": "2598600001", "name": "USPS COLLECTION BOX - PO LOBBY", "address": {"city": "SPRINGDALE", "state": "WV", "street": "5130 SEWELL CREEK RD", "postcode": "25986"}}},
{"geometry": {"type": "Point", "coordinates": [-81.0764782636, 37.694110928]}, "type": "Feature", "properties": {"collection_times": [{"days": "Mon-Sat", "time": "11:45am"}, {"days": "Sun", "time": "Closed"}], "id": "2598900000", "name": "USPS COLLECTION BOX - BLUE BOX", "address": {"city": "WHITE OAK", "state": "WV", "street": "809 HINTON RD", "postcode": "25989"}}},
{"geometry": {"type": "Point", "coordinates": [-81.0764782636, 37.694110928]}, "type": "Feature", "properties": {"collection_times": [{"days": "Mon-Sat", "time": "11:45am"}, {"days": "Sun", "time": "Closed"}], "id": "2598900001", "name": "USPS COLLECTION BOX - PO LOBBY", "address": {"city": "WHITE OAK", "state": "WV", "street": "809 HINTON RD", "postcode": "25989"}}}
]}
