{"type": "FeatureCollection", "features": [
{"geometry": {"type": "Point", "coordinates": [-80.7248871632, 40.0559548728]}, "type": "Feature", "properties": {"collection_times": [{"days": "Mon-Sat", "time": "6:00pm"}, {"days": "Sun", "time": "Closed"}], "id": "2600300001", "name": "USPS COLLECTION BOX - BLUE BOX", "address": {"city": "WHEELING", "state": "WV", "street": "2501 CHAPLINE ST", "postcode": "26003"}}},
{"geometry": {"type": "Point", "coordinates": [-80.7224079172, 40.0662668596]}, "type": "Feature", "properties": {"collection_times": [{"days": "Mon-Fri", "time": "4:30pm"}, {"days": "Sat", "time": "3:00pm"}, {"days": "Sun", "time": "Closed"}], "id": "2600300006", "name": "USPS COLLECTION BOX - BLUE BOX", "address": {"city": "WHEELING", "state": "WV", "street": "1329 MARKET ST", "postcode": "26003"}}},
{"geometry": {"type": "Point", "coordinates": [-80.7225200887, 40.0672810964]}, "type": "Feature", "properties": {"collection_times": [{"days": "Mon-Fri", "time": "4:30pm"}, {"days": "Sat", "time": "3:00pm"}, {"days": "Sun", "time": "Closed"}], "id": "2600300009", "name": "USPS COLLECTION BOX - BLUE BOX", "address": {"city": "WHEELING", "state": "WV", "street": "40 12TH ST", "postcode": "26003"}}},
{"geometry": {"type": "Point", "coordinates": [-80.7228002852, 40.0687323204]}, "type": "Feature", "properties": {"collection_times": [{"days": "Mon-Fri", "time": "4:30pm"}, {"days": "Sat", "time": "3:00pm"}, {"days": "Sun", "time": "Closed"}], "id": "2600300012", "name": "USPS COLLECTION BOX - BLUE BOX", "address": {"city": "WHEELING", "state": "WV", "street": "1101 MARKET ST", "postcode": "26003"}}},
{"geometry": {"type": "Point", "coordinates": [-80.7241782237, 40.0699217415]}, "type": "Feature", "properties": {"collection_times": [{"days": "Mon-Fri", "time": "4:30pm"}, {"days": "Sat", "time": "3:00pm"}, {"days": "Sun", "time": "Closed"}], "id": "2600300015", "name": "USPS COLLECTION BOX - BLUE BOX", "address": {"city": "WHEELING", "state": "WV", "street": "1025 MAIN ST", "postcode": "26003"}}},
{"geometry": {"type": "Point", "coordinates": [-80.7231277011, 40.0673201516]}, "type": "Feature", "properties": {"collection_times": [{"days": "Mon-Fri", "time": "4:30pm"}, {"days": "Sat", "time": "3:00pm"}, {"days": "Sun", "time": "Closed"}], "id": "2600300019", "name": "USPS COLLECTION BOX - BLUE BOX", "address": {"city": "WHEELING", "state": "WV", "street": "25 12TH ST", "postcode": "26003"}}},
{"geometry": {"type": "Point", "coordinates": [-80.7227196944, 40.061847544]}, "type": "Feature", "properties": {"collection_times": [{"days": "Mon-Fri", "time": "4:30pm"}, {"days": "Sat", "time": "3:00pm"}, {"days": "Sun", "time": "Closed"}], "id": "2600300021", "name": "USPS COLLECTION BOX - BLUE BOX", "address": {"city": "WHEELING", "state": "WV", "street": "32 20TH ST", "postcode": "26003"}}},
{"geometry": {"type": "Point", "coordinates": [-80.7202513931, 40.0659105521]}, "type": "Feature", "properties": {"collection_times": [{"days": "Mon-Fri", "time": "5:00pm"}, {"days": "Sat", "time": "3:00pm"}, {"days": "Sun", "time": "Closed"}], "id": "2600300025", "name": "USPS COLLECTION BOX - BLUE BOX", "address": {"city": "WHEELING", "state": "WV", "street": "61 14TH ST", "postcode": "26003"}}},
{"geometry": {"type": "Point", "coordinates": [-80.6949089176, 40.06632047]}, "type": "Feature", "properties": {"collection_times": [{"days": "Mon-Fri", "time": "4:30pm"}, {"days": "Sat", "time": "3:00pm"}, {"days": "Sun", "time": "Closed"}], "id": "2600300029", "name": "USPS COLLECTION BOX - BLUE BOX", "address": {"city": "WHEELING", "state": "WV", "street": "51 11TH ST", "postcode": "26003"}}},
{"geometry": {"type": "Point", "coordinates": [-80.7257689592, 40.0798401647]}, "type": "Feature", "properties": {"collection_times": [{"days": "Mon-Fri", "time": "5:00pm"}, {"days": "Sat", "time": "3:00pm"}, {"days": "Sun", "time": "Closed"}], "id": "2600300048", "name": "USPS COLLECTION BOX - BLUE BOX", "address": {"city": "WHEELING", "state": "WV", "street": "401 MAIN ST", "postcode": "26003"}}},
{"geometry": {"type": "Point", "coordinates": [-80.6909295112, 40.0779062519]}, "type": "Feature", "properties": {"collection_times": [{"days": "Mon-Fri", "time": "4:30pm"}, {"days": "Sat", "time": "4:00pm"}, {"days": "Sun", "time": "Closed"}], "id": "2600300054", "name": "USPS COLLECTION BOX - BLUE BOX", "address": {"city": "WHEELING", "state": "WV", "street": "957 NATIONAL RD", "postcode": "26003"}}},
{"geometry": {"type": "Point", "coordinates": [-80.6982640976, 40.1145023956]}, "type": "Feature", "properties": {"collection_times": [{"days": "Mon-Fri", "time": "5:00pm"}, {"days": "Sat", "time": "3:00pm"}, {"days": "Sun", "time": "Closed"}], "id": "2600300061", "name": "USPS COLLECTION BOX - BLUE BOX", "address": {"city": "WHEELING", "state": "WV", "street": "1233 WARWOOD AVE", "postcode": "26003"}}},
{"geometry": {"type": "Point", "coordinates": [-80.6548543191, 40.0753120296]}, "type": "Feature", "properties": {"collection_times": [{"days": "Mon-Fri", "time": "5:00pm"}, {"days": "Sat", "time": "3:00pm"}, {"days": "Sun", "time": "Closed"}], "id": "2600300064", "name": "USPS COLLECTION BOX - BLUE BOX", "address": {"city": "WHEELING", "state": "WV", "street": "605 WARWOOD AVE", "postcode": "26003"}}},
{"geometry": {"type": "Point", "coordinates": [-80.6949089176, 40.06632047]}, "type": "Feature", "properties": {"collection_times": [{"days": "Mon-Fri", "time": "4:30pm"}, {"days": "Sat", "time": "4:00pm"}, {"days": "Sun", "time": "Closed"}], "id": "2600300075", "name": "USPS COLLECTION BOX - BLUE BOX", "address": {"city": "WHEELING", "state": "WV", "street": "316 WASHINGTON AVE", "postcode": "26003"}}},
{"geometry": {"type": "Point", "coordinates": [-80.6846422888, 40.061465584]}, "type": "Feature", "properties": {"collection_times": [{"days": "Mon-Fri", "time": "4:30pm"}, {"days": "Sat", "time": "4:00pm"}, {"days": "Sun", "time": "Closed"}], "id": "2600300077", "name": "USPS COLLECTION BOX - BLUE BOX", "address": {"city": "WHEELING", "state": "WV", "street": "600 MEDICAL PARK", "postcode": "26003"}}},
{"geometry": {"type": "Point", "coordinates": [-80.685745764, 40.0710297425]}, "type": "Feature", "properties": {"collection_times": [{"days": "Mon-Fri", "time": "4:30pm"}, {"days": "Sat", "time": "4:00pm"}, {"days": "Sun", "time": "Closed"}], "id": "2600300082", "name": "USPS COLLECTION BOX - BLUE BOX", "address": {"city": "WHEELING", "state": "WV", "street": "1200 VALLEY VIEW AVE", "postcode": "26003"}}},
{"geometry": {"type": "Point", "coordinates": [-80.6486667656, 40.0472395563]}, "type": "Feature", "properties": {"collection_times": [{"days": "Mon-Fri", "time": "3:00pm"}, {"days": "Sat", "time": "4:00pm"}, {"days": "Sun", "time": "Closed"}], "id": "2600300092", "name": "USPS COLLECTION BOX - BLUE BOX", "address": {"city": "WHEELING", "state": "WV", "street": "2485 NATIONAL RD", "postcode": "26003"}}},
{"geometry": {"type": "Point", "coordinates": [-80.6949089176, 40.06632047]}, "type": "Feature", "properties": {"collection_times": [{"days": "Mon-Fri", "time": "3:00pm"}, {"days": "Sat", "time": "4:30pm"}, {"days": "Sun", "time": "Closed"}], "id": "2600300106", "name": "USPS COLLECTION BOX - BLUE BOX", "address": {"city": "WHEELING", "state": "WV", "street": "30 ELM LN", "postcode": "26003"}}},
{"geometry": {"type": "Point", "coordinates": [-80.6607370492, 40.0434808592]}, "type": "Feature", "properties": {"collection_times": [{"days": "Mon-Fri", "time": "3:00pm"}, {"days": "Sat", "time": "4:30pm"}, {"days": "Sun", "time": "Closed"}], "id": "2600300107", "name": "USPS COLLECTION BOX - BLUE BOX", "address": {"city": "WHEELING", "state": "WV", "street": "87 BRIDGE STREET PLZ", "postcode": "26003"}}},
{"geometry": {"type": "Point", "coordinates": [-80.6591909919, 40.0444164252]}, "type": "Feature", "properties": {"collection_times": [{"days": "Mon-Fri", "time": "5:00pm"}, {"days": "Sat", "time": "4:30pm"}, {"days": "Sun", "time": "Closed"}], "id": "2600300108", "name": "USPS COLLECTION BOX - BLUE BOX", "address": {"city": "WHEELING", "state": "WV", "street": "2209 NATIONAL RD", "postcode": "26003"}}},
{"geometry": {"type": "Point", "coordinates": [-80.6909048094, 40.0444686704]}, "type": "Feature", "properties": {"collection_times": [{"days": "Mon-Fri", "time": "3:00pm"}, {"days": "Sat", "time": "4:30pm"}, {"days": "Sun", "time": "Closed"}], "id": "2600300137", "name": "USPS COLLECTION BOX - BLUE BOX", "address": {"city": "WHEELING", "state": "WV", "street": "7 CHAPEL RD", "postcode": "26003"}}},
{"geometry": {"type": "Point", "coordinates": [-80.7214868639, 40.067937966]}, "type": "Feature", "properties": {"collection_times": [{"days": "Mon-Fri", "time": "5:00pm"}, {"days": "Sat", "time": "3:00pm"}, {"days": "Sun", "time": "Closed"}], "id": "2600300152", "name": "USPS COLLECTION BOX - BLUE BOX", "address": {"city": "WHEELING", "state": "WV", "street": "1125 CHAPLINE ST", "postcode": "26003"}}},
{"geometry": {"type": "Point", "coordinates": [-80.6986495125, 40.1094602666]}, "type": "Feature", "properties": {"collection_times": [{"days": "Mon-Fri", "time": "5:00pm"}, {"days": "Sat", "time": "2:30pm"}, {"days": "Sun", "time": "Closed"}], "id": "2600300160", "name": "USPS COLLECTION BOX - PO LOBBY", "address": {"city": "WHEELING", "state": "WV", "street": "605 WARWOOD AVE LBBY", "postcode": "26003"}}},
{"geometry": {"type": "Point", "coordinates": [-80.721538554, 40.0684691764]}, "type": "Feature", "properties": {"collection_times": [{"days": "Mon-Fri", "time": "5:00pm"}, {"days": "Sat-Sun", "time": "Closed"}], "id": "2600300161", "name": "USPS COLLECTION BOX - PO LOBBY", "address": {"city": "WHEELING", "state": "WV", "street": "1125 CHAPLINE ST LBBY", "postcode": "26003"}}},
{"geometry": {"type": "Point", "coordinates": [-80.6591909915, 40.0444164252]}, "type": "Feature", "properties": {"collection_times": [{"days": "Mon-Fri", "time": "5:00pm"}, {"days": "Sat", "time": "1:15pm"}, {"days": "Sun", "time": "Closed"}], "id": "2600300162", "name": "USPS COLLECTION BOX - PO LOBBY", "address": {"city": "WHEELING", "state": "WV", "street": "2209 NATIONAL RD LBBY", "postcode": "26003"}}},
{"geometry": {"type": "Point", "coordinates": [-80.7248871632, 40.0559548728]}, "type": "Feature", "properties": {"collection_times": [{"days": "Mon-Sat", "time": "6:00pm"}, {"days": "Sun", "time": "Closed"}], "id": "2600300163", "name": "USPS COLLECTION BOX - PO LOBBY", "address": {"city": "WHEELING", "state": "WV", "street": "2501 CHAPLINE ST LBBY", "postcode": "26003"}}},
{"geometry": {"type": "Point", "coordinates": [-80.7010995012, 40.0746777161]}, "type": "Feature", "properties": {"collection_times": [{"days": "Mon-Fri", "time": "5:00pm"}, {"days": "Sat", "time": "4:00pm"}, {"days": "Sun", "time": "Closed"}], "id": "2600300164", "name": "USPS COLLECTION BOX - BLUE BOX", "address": {"city": "WHEELING", "state": "WV", "street": "200 MOUNT DE CHANTAL RD", "postcode": "26003"}}},
{"geometry": {"type": "Point", "coordinates": [-80.7208819611, 40.0649698772]}, "type": "Feature", "properties": {"collection_times": [{"days": "Mon-Sat", "time": "4:00pm"}, {"days": "Sun", "time": "Closed"}], "id": "2600300172", "name": "USPS COLLECTION BOX - BLUE BOX", "address": {"city": "WHEELING", "state": "WV", "street": "1500 CHAPLINE ST", "postcode": "26003"}}},
{"geometry": {"type": "Point", "coordinates": [-80.610841241, 40.2719429922]}, "type": "Feature", "properties": {"collection_times": [{"days": "Mon-Fri", "time": "4:30pm"}, {"days": "Sat", "time": "11:45am"}, {"days": "Sun", "time": "Closed"}], "id": "2603000001", "name": "USPS COLLECTION BOX - BLUE BOX", "address": {"city": "BEECH BOTTOM", "state": "WV", "street": "15 3RD ST", "postcode": "26030"}}},
{"geometry": {"type": "Point", "coordinates": [-80.610841241, 40.2719429922]}, "type": "Feature", "properties": {"collection_times": [{"days": "Mon-Fri", "time": "11:55am"}, {"days": "Sat", "time": "11:45am"}, {"days": "Sun", "time": "Closed"}], "id": "2603000002", "name": "USPS COLLECTION BOX - PO LOBBY", "address": {"city": "BEECH BOTTOM", "state": "WV", "street": "15 3RD ST", "postcode": "26030"}}},
{"geometry": {"type": "Point", "coordinates": [-80.610841241, 40.2719429922]}, "type": "Feature", "properties": {"collection_times": [{"days": "Mon-Fri", "time": "11:55am"}, {"days": "Sat", "time": "11:45am"}, {"days": "Sun", "time": "Closed"}], "id": "2603000003", "name": "USPS COLLECTION BOX - PO LOBBY", "address": {"city": "BEECH BOTTOM", "state": "WV", "street": "15 3RD ST", "postcode": "26030"}}},
{"geometry": {"type": "Point", "coordinates": [-80.7269176383, 40.0258119971]}, "type": "Feature", "properties": {"collection_times": [{"days": "Mon-Sat", "time": "1:45pm"}, {"days": "Sun", "time": "Closed"}], "id": "2603100004", "name": "USPS COLLECTION BOX - BLUE BOX", "address": {"city": "BENWOOD", "state": "WV", "street": "100 MARSHALL ST N", "postcode": "26031"}}},
{"geometry": {"type": "Point", "coordinates": [-80.7313766808, 39.9953366563]}, "type": "Feature", "properties": {"collection_times": [{"days": "Mon-Sat", "time": "10:45am"}, {"days": "Sun", "time": "Closed"}], "id": "2603100006", "name": "USPS COLLECTION BOX - BLUE BOX", "address": {"city": "BENWOOD", "state": "WV", "street": "1 22ND ST", "postcode": "26031"}}},
{"geometry": {"type": "Point", "coordinates": [-80.7314613617, 40.021255699]}, "type": "Feature", "properties": {"collection_times": [{"days": "Mon-Fri", "time": "4:30pm"}, {"days": "Sat", "time": "12:00pm"}, {"days": "Sun", "time": "Closed"}], "id": "2603100010", "name": "USPS COLLECTION BOX - BLUE BOX", "address": {"city": "BENWOOD", "state": "WV", "street": "401 MCMECHEN ST", "postcode": "26031"}}},
{"geometry": {"type": "Point", "coordinates": [-80.7314613617, 40.021255699]}, "type": "Feature", "properties": {"collection_times": [{"days": "Mon-Fri", "time": "12:25pm"}, {"days": "Sat", "time": "12:00pm"}, {"days": "Sun", "time": "Closed"}], "id": "2603100011", "name": "USPS COLLECTION BOX - PO LOBBY", "address": {"city": "BENWOOD", "state": "WV", "street": "401 MCMECHEN ST LBBY", "postcode": "26031"}}},
{"geometry": {"type": "Point", "coordinates": [-80.5680387562, 40.2049404111]}, "type": "Feature", "properties": {"collection_times": [{"days": "Mon-Fri", "time": "4:45pm"}, {"days": "Sat", "time": "11:45am"}, {"days": "Sun", "time": "Closed"}], "id": "2603200001", "name": "USPS COLLECTION BOX - BLUE BOX", "address": {"city": "BETHANY", "state": "WV", "street": "1 ROSS ST", "postcode": "26032"}}},
{"geometry": {"type": "Point", "coordinates": [-80.5561546146, 40.205659821]}, "type": "Feature", "properties": {"collection_times": [{"days": "Mon-Fri", "time": "12:25pm"}, {"days": "Sat", "time": "11:45am"}, {"days": "Sun", "time": "Closed"}], "id": "2603200002", "name": "USPS COLLECTION BOX - PO LOBBY", "address": {"city": "BETHANY", "state": "WV", "street": "1 ROSS ST", "postcode": "26032"}}},
{"geometry": {"type": "Point", "coordinates": [-80.5685850968, 39.8254600956]}, "type": "Feature", "properties": {"collection_times": [{"days": "Mon-Fri", "time": "4:45pm"}, {"days": "Sat", "time": "4:00pm"}, {"days": "Sun", "time": "Closed"}], "id": "2603300001", "name": "USPS COLLECTION BOX - BLUE BOX", "address": {"city": "CAMERON", "state": "WV", "street": "73 HIGH ST", "postcode": "26033"}}},
{"geometry": {"type": "Point", "coordinates": [-80.5666720283, 39.8269932088]}, "type": "Feature", "properties": {"collection_times": [{"days": "Mon-Sat", "time": "10:30am"}, {"days": "Sun", "time": "Closed"}], "id": "2603300002", "name": "USPS COLLECTION BOX - BLUE BOX", "address": {"city": "CAMERON", "state": "WV", "street": "20 MAIN ST", "postcode": "26033"}}},
{"geometry": {"type": "Point", "coordinates": [-80.5650363897, 39.8254003377]}, "type": "Feature", "properties": {"collection_times": [{"days": "Mon-Sat", "time": "11:00am"}, {"days": "Sun", "time": "Closed"}], "id": "2603300003", "name": "USPS COLLECTION BOX - BLUE BOX", "address": {"city": "CAMERON", "state": "WV", "street": "2 MAPLE AVE", "postcode": "26033"}}},
{"geometry": {"type": "Point", "coordinates": [-80.5685850968, 39.8254600956]}, "type": "Feature", "properties": {"collection_times": [{"days": "Mon-Fri", "time": "4:45pm"}, {"days": "Sat", "time": "4:00pm"}, {"days": "Sun", "time": "Closed"}], "id": "2603300004", "name": "USPS COLLECTION BOX - PO LOBBY", "address": {"city": "CAMERON", "state": "WV", "street": "73 HIGH ST LBBY", "postcode": "26033"}}},
{"geometry": {"type": "Point", "coordinates": [-80.5411715989, 40.3674103073]}, "type": "Feature", "properties": {"collection_times": [{"days": "Mon-Fri", "time": "4:00pm"}, {"days": "Sat", "time": "11:30am"}, {"days": "Sun", "time": "Closed"}], "id": "2603500001", "name": "USPS COLLECTION BOX - BLUE BOX", "address": {"city": "COLLIERS", "state": "WV", "street": "327 PENNSYLVANIA AVE", "postcode": "26035"}}},
{"geometry": {"type": "Point", "coordinates": [-80.5411715989, 40.3674103073]}, "type": "Feature", "properties": {"collection_times": [{"days": "Mon-Fri", "time": "4:00pm"}, {"days": "Sat", "time": "11:30am"}, {"days": "Sun", "time": "Closed"}], "id": "2603500002", "name": "USPS COLLECTION BOX - PO LOBBY", "address": {"city": "COLLIERS", "state": "WV", "street": "327 PENNSYLVANIA AVE LBBY", "postcode": "26035"}}},
{"geometry": {"type": "Point", "coordinates": [-80.555400789, 39.9648403118]}, "type": "Feature", "properties": {"collection_times": [{"days": "Mon-Fri", "time": "10:50am"}, {"days": "Sat", "time": "12:15pm"}, {"days": "Sun", "time": "Closed"}], "id": "2603600001", "name": "USPS COLLECTION BOX - BLUE BOX", "address": {"city": "DALLAS", "state": "WV", "street": "9 MAIN ST", "postcode": "26036"}}},
{"geometry": {"type": "Point", "coordinates": [-80.555400789, 39.9648403118]}, "type": "Feature", "properties": {"collection_times": [{"days": "Mon-Fri", "time": "10:50am"}, {"days": "Sat", "time": "12:15pm"}, {"days": "Sun", "time": "Closed"}], "id": "2603600002", "name": "USPS COLLECTION BOX - PO LOBBY", "address": {"city": "DALLAS", "state": "WV", "street": "9 MAIN ST LBBY", "postcode": "26036"}}},
{"geometry": {"type": "Point", "coordinates": [-80.5962130108, 40.3291756223]}, "type": "Feature", "properties": {"collection_times": [{"days": "Mon-Fri", "time": "5:00pm"}, {"days": "Sat", "time": "3:30pm"}, {"days": "Sun", "time": "Closed"}], "id": "2603700001", "name": "USPS COLLECTION BOX - BLUE BOX", "address": {"city": "FOLLANSBEE", "state": "WV", "street": "1005 MAIN ST", "postcode": "26037"}}},
{"geometry": {"type": "Point", "coordinates": [-80.5748364303, 40.3275450749]}, "type": "Feature", "properties": {"collection_times": [{"days": "Mon-Fri", "time": "2:30pm"}, {"days": "Sat", "time": "2:00pm"}, {"days": "Sun", "time": "Closed"}], "id": "2603700002", "name": "USPS COLLECTION BOX - BLUE BOX", "address": {"city": "FOLLANSBEE", "state": "WV", "street": "2003 ELDERSVILLE RD", "postcode": "26037"}}},
{"geometry": {"type": "Point", "coordinates": [-80.5957491324, 40.3271829451]}, "type": "Feature", "properties": {"collection_times": [{"days": "Mon-Fri", "time": "3:30pm"}, {"days": "Sat", "time": "2:00pm"}, {"days": "Sun", "time": "Closed"}], "id": "2603700003", "name": "USPS COLLECTION BOX - BLUE BOX", "address": {"city": "FOLLANSBEE", "state": "WV", "street": "872 MAIN ST", "postcode": "26037"}}},
{"geometry": {"type": "Point", "coordinates": [-80.5960335135, 40.3350426811]}, "type": "Feature", "properties": {"collection_times": [{"days": "Mon-Sat", "time": "11:30am"}, {"days": "Sun", "time": "Closed"}], "id": "2603700004", "name": "USPS COLLECTION BOX - BLUE BOX", "address": {"city": "FOLLANSBEE", "state": "WV", "street": "1500 MAIN ST", "postcode": "26037"}}},
{"geometry": {"type": "Point", "coordinates": [-80.5813642143, 40.338209826]}, "type": "Feature", "properties": {"collection_times": [{"days": "Mon-Fri", "time": "5:00pm"}, {"days": "Sat", "time": "3:30pm"}, {"days": "Sun", "time": "Closed"}], "id": "2603700005", "name": "USPS COLLECTION BOX - PO LOBBY", "address": {"city": "FOLLANSBEE", "state": "WV", "street": "1005 MAIN ST - LOBBY #1", "postcode": "26037"}}},
{"geometry": {"type": "Point", "coordinates": [-80.5813642143, 40.338209826]}, "type": "Feature", "properties": {"collection_times": [{"days": "Mon-Fri", "time": "5:00pm"}, {"days": "Sat", "time": "3:30pm"}, {"days": "Sun", "time": "Closed"}], "id": "2603700007", "name": "USPS COLLECTION BOX - PO LOBBY", "address": {"city": "FOLLANSBEE", "state": "WV", "street": "1005 MAIN ST - LOBBY #2", "postcode": "26037"}}},
{"geometry": {"type": "Point", "coordinates": [-80.7539286689, 39.9532189075]}, "type": "Feature", "properties": {"collection_times": [{"days": "Mon-Sat", "time": "10:00am"}, {"days": "Sun", "time": "Closed"}], "id": "2603800002", "name": "USPS COLLECTION BOX - BLUE BOX", "address": {"city": "GLEN DALE", "state": "WV", "street": "201 WHEELING AVE", "postcode": "26038"}}},
{"geometry": {"type": "Point", "coordinates": [-80.7563773021, 39.9478898568]}, "type": "Feature", "properties": {"collection_times": [{"days": "Mon-Sat", "time": "12:30pm"}, {"days": "Sun", "time": "Closed"}], "id": "2603800003", "name": "USPS COLLECTION BOX - BLUE BOX", "address": {"city": "GLEN DALE", "state": "WV", "street": "701 TOMLINSON AVE", "postcode": "26038"}}},
{"geometry": {"type": "Point", "coordinates": [-80.757604419, 39.9435353393]}, "type": "Feature", "properties": {"collection_times": [{"days": "Mon-Sat", "time": "10:15am"}, {"days": "Sun", "time": "Closed"}], "id": "2603800004", "name": "USPS COLLECTION BOX - BLUE BOX", "address": {"city": "GLEN DALE", "state": "WV", "street": "201 LEE ST", "postcode": "26038"}}},
{"geometry": {"type": "Point", "coordinates": [-80.7543217238, 39.9417563273]}, "type": "Feature", "properties": {"collection_times": [{"days": "Mon-Sat", "time": "9:45am"}, {"days": "Sun", "time": "Closed"}], "id": "2603800005", "name": "USPS COLLECTION BOX - BLUE BOX", "address": {"city": "GLEN DALE", "state": "WV", "street": "1301 WHEELING AVE", "postcode": "26038"}}},
{"geometry": {"type": "Point", "coordinates": [-80.7542015971, 39.9455611365]}, "type": "Feature", "properties": {"collection_times": [{"days": "Mon-Sat", "time": "11:15am"}, {"days": "Sun", "time": "Closed"}], "id": "2603800006", "name": "USPS COLLECTION BOX - BLUE BOX", "address": {"city": "GLEN DALE", "state": "WV", "street": "901 WHEELING AVE", "postcode": "26038"}}},
{"geometry": {"type": "Point", "coordinates": [-80.7527262882, 39.9493719178]}, "type": "Feature", "properties": {"collection_times": [{"days": "Mon-Sat", "time": "10:30am"}, {"days": "Sun", "time": "Closed"}], "id": "2603800007", "name": "USPS COLLECTION BOX - BLUE BOX", "address": {"city": "GLEN DALE", "state": "WV", "street": "600 WASHINGTON AVE", "postcode": "26038"}}},
{"geometry": {"type": "Point", "coordinates": [-80.7533268929, 39.951459188]}, "type": "Feature", "properties": {"collection_times": [{"days": "Mon-Fri", "time": "4:00pm"}, {"days": "Sat", "time": "11:45am"}, {"days": "Sun", "time": "Closed"}], "id": "2603800009", "name": "USPS COLLECTION BOX - PO LOBBY", "address": {"city": "GLEN DALE", "state": "WV", "street": "401 4TH ST", "postcode": "26038"}}},
{"geometry": {"type": "Point", "coordinates": [-80.7533268929, 39.951459188]}, "type": "Feature", "properties": {"collection_times": [{"days": "Mon-Fri", "time": "4:15pm"}, {"days": "Sat", "time": "2:00pm"}, {"days": "Sun", "time": "Closed"}], "id": "2603800010", "name": "USPS COLLECTION BOX - BLUE BOX", "address": {"city": "GLEN DALE", "state": "WV", "street": "401 4TH ST", "postcode": "26038"}}},
{"geometry": {"type": "Point", "coordinates": [-80.7302077423, 39.9865505141]}, "type": "Feature", "properties": {"collection_times": [{"days": "Mon-Fri", "time": "4:00pm"}, {"days": "Sat", "time": "11:45am"}, {"days": "Sun", "time": "Closed"}], "id": "2604000001", "name": "USPS COLLECTION BOX - BLUE BOX", "address": {"city": "MCMECHEN", "state": "WV", "street": "717 MARSHALL ST", "postcode": "26040"}}},
{"geometry": {"type": "Point", "coordinates": [-80.7309317304, 39.987463213]}, "type": "Feature", "properties": {"collection_times": [{"days": "Mon-Sat", "time": "9:30am"}, {"days": "Sun", "time": "Closed"}], "id": "2604000002", "name": "USPS COLLECTION BOX - BLUE BOX", "address": {"city": "MCMECHEN", "state": "WV", "street": "1024 GARFIELD ST", "postcode": "26040"}}},
{"geometry": {"type": "Point", "coordinates": [-80.7296132989, 39.9835673563]}, "type": "Feature", "properties": {"collection_times": [{"days": "Mon-Sat", "time": "11:30am"}, {"days": "Sun", "time": "Closed"}], "id": "2604000003", "name": "USPS COLLECTION BOX - BLUE BOX", "address": {"city": "MCMECHEN", "state": "WV", "street": "1309 MARSHALL ST", "postcode": "26040"}}},
{"geometry": {"type": "Point", "coordinates": [-80.7329895916, 39.9914951912]}, "type": "Feature", "properties": {"collection_times": [{"days": "Mon-Sat", "time": "11:30am"}, {"days": "Sun", "time": "Closed"}], "id": "2604000005", "name": "USPS COLLECTION BOX - BLUE BOX", "address": {"city": "MCMECHEN", "state": "WV", "street": "436 LINCOLN ST", "postcode": "26040"}}},
{"geometry": {"type": "Point", "coordinates": [-80.7304530944, 39.9920793932]}, "type": "Feature", "properties": {"collection_times": [{"days": "Mon-Fri", "time": "12:00pm"}, {"days": "Sat", "time": "11:30am"}, {"days": "Sun", "time": "Closed"}], "id": "2604000007", "name": "USPS COLLECTION BOX - BLUE BOX", "address": {"city": "MCMECHEN", "state": "WV", "street": "28 4TH ST", "postcode": "26040"}}},
{"geometry": {"type": "Point", "coordinates": [-80.7289538213, 39.9892237641]}, "type": "Feature", "properties": {"collection_times": [{"days": "Mon-Sat", "time": "11:45am"}, {"days": "Sun", "time": "Closed"}], "id": "2604000012", "name": "USPS COLLECTION BOX - PO LOBBY", "address": {"city": "MCMECHEN", "state": "WV", "street": "717 MARSHALL ST", "postcode": "26040"}}},
{"geometry": {"type": "Point", "coordinates": [-80.7350393879, 39.9199242456]}, "type": "Feature", "properties": {"collection_times": [{"days": "Mon-Fri", "time": "5:00pm"}, {"days": "Sat", "time": "4:00pm"}, {"days": "Sun", "time": "Closed"}], "id": "2604100001", "name": "USPS COLLECTION BOX - BLUE BOX", "address": {"city": "MOUNDSVILLE", "state": "WV", "street": "1214 3RD ST", "postcode": "26041"}}},
{"geometry": {"type": "Point", "coordinates": [-80.7188919412, 39.89113851]}, "type": "Feature", "properties": {"collection_times": [{"days": "Mon-Sat", "time": "2:00pm"}, {"days": "Sun", "time": "Closed"}], "id": "2604100004", "name": "USPS COLLECTION BOX - BLUE BOX", "address": {"city": "MOUNDSVILLE", "state": "WV", "street": "10 WALMART DR", "postcode": "26041"}}},
{"geometry": {"type": "Point", "coordinates": [-80.747870843, 39.9129844625]}, "type": "Feature", "properties": {"collection_times": [{"days": "Mon-Fri", "time": "2:00pm"}, {"days": "Sat", "time": "10:30am"}, {"days": "Sun", "time": "Closed"}], "id": "2604100008", "name": "USPS COLLECTION BOX - BLUE BOX", "address": {"city": "MOUNDSVILLE", "state": "WV", "street": "1216 LAFAYETTE AVE", "postcode": "26041"}}},
{"geometry": {"type": "Point", "coordinates": [-80.7460942732, 39.9186738822]}, "type": "Feature", "properties": {"collection_times": [{"days": "Mon-Sat", "time": "2:00pm"}, {"days": "Sun", "time": "Closed"}], "id": "2604100010", "name": "USPS COLLECTION BOX - BLUE BOX", "address": {"city": "MOUNDSVILLE", "state": "WV", "street": "600 7TH ST", "postcode": "26041"}}},
{"geometry": {"type": "Point", "coordinates": [-80.7428556798, 39.9219408416]}, "type": "Feature", "properties": {"collection_times": [{"days": "Mon-Sat", "time": "2:00pm"}, {"days": "Sun", "time": "Closed"}], "id": "2604100011", "name": "USPS COLLECTION BOX - BLUE BOX", "address": {"city": "MOUNDSVILLE", "state": "WV", "street": "301 JEFFERSON AVE", "postcode": "26041"}}},
{"geometry": {"type": "Point", "coordinates": [-80.7297051659, 39.927595991]}, "type": "Feature", "properties": {"collection_times": [{"days": "Mon-Sat", "time": "2:00pm"}, {"days": "Sun", "time": "Closed"}], "id": "2604100014", "name": "USPS COLLECTION BOX - BLUE BOX", "address": {"city": "MOUNDSVILLE", "state": "WV", "street": "101 OLIVE AVE", "postcode": "26041"}}},
{"geometry": {"type": "Point", "coordinates": [-80.7470670816, 39.9169804334]}, "type": "Feature", "properties": {"collection_times": [{"days": "Mon-Sat", "time": "2:00pm"}, {"days": "Sun", "time": "Closed"}], "id": "2604100016", "name": "USPS COLLECTION BOX - BLUE BOX", "address": {"city": "MOUNDSVILLE", "state": "WV", "street": "901 LAFAYETTE AVE", "postcode": "26041"}}},
{"geometry": {"type": "Point", "coordinates": [-80.7519198551, 39.930906759]}, "type": "Feature", "properties": {"collection_times": [{"days": "Mon-Sat", "time": "2:00pm"}, {"days": "Sun", "time": "Closed"}], "id": "2604100017", "name": "USPS COLLECTION BOX - BLUE BOX", "address": {"city": "MOUNDSVILLE", "state": "WV", "street": "134 LAFAYETTE AVE", "postcode": "26041"}}},
{"geometry": {"type": "Point", "coordinates": [-80.737410294, 39.9256667094]}, "type": "Feature", "properties": {"collection_times": [{"days": "Mon-Sat", "time": "2:00pm"}, {"days": "Sun", "time": "Closed"}], "id": "2604100018", "name": "USPS COLLECTION BOX - BLUE BOX", "address": {"city": "MOUNDSVILLE", "state": "WV", "street": "1302 1ST ST", "postcode": "26041"}}},
{"geometry": {"type": "Point", "coordinates": [-80.7460599769, 39.919369271]}, "type": "Feature", "properties": {"collection_times": [{"days": "Mon-Sat", "time": "2:00pm"}, {"days": "Sun", "time": "Closed"}], "id": "2604100020", "name": "USPS COLLECTION BOX - BLUE BOX", "address": {"city": "MOUNDSVILLE", "state": "WV", "street": "509 6TH ST", "postcode": "26041"}}},
{"geometry": {"type": "Point", "coordinates": [-80.7350393879, 39.9199242456]}, "type": "Feature", "properties": {"collection_times": [{"days": "Mon-Fri", "time": "5:00pm"}, {"days": "Sat", "time": "4:00pm"}, {"days": "Sun", "time": "Closed"}], "id": "2604100021", "name": "USPS COLLECTION BOX - BLUE BOX", "address": {"city": "MOUNDSVILLE", "state": "WV", "street": "1214 3RD ST", "postcode": "26041"}}},
{"geometry": {"type": "Point", "coordinates": [-80.7479623914, 39.9121945084]}, "type": "Feature", "properties": {"collection_times": [{"days": "Mon-Fri", "time": "2:00pm"}, {"days": "Sat", "time": "10:30am"}, {"days": "Sun", "time": "Closed"}], "id": "2604100025", "name": "USPS COLLECTION BOX - BLUE BOX", "address": {"city": "MOUNDSVILLE", "state": "WV", "street": "1300 LAFAYETTE AVE", "postcode": "26041"}}},
{"geometry": {"type": "Point", "coordinates": [-80.7381045391, 39.921868366]}, "type": "Feature", "properties": {"collection_times": [{"days": "Mon-Fri", "time": "5:00pm"}, {"days": "Sat", "time": "4:00pm"}, {"days": "Sun", "time": "Closed"}], "id": "2604100028", "name": "USPS COLLECTION BOX - PO LOBBY", "address": {"city": "MOUNDSVILLE", "state": "WV", "street": "1214 3RD ST-OUTSIDE LOBBY", "postcode": "26041"}}},
{"geometry": {"type": "Point", "coordinates": [-80.7381045391, 39.921868366]}, "type": "Feature", "properties": {"collection_times": [{"days": "Mon-Fri", "time": "5:00pm"}, {"days": "Sat", "time": "4:00pm"}, {"days": "Sun", "time": "Closed"}], "id": "2604100029", "name": "USPS COLLECTION BOX - PO LOBBY", "address": {"city": "MOUNDSVILLE", "state": "WV", "street": "1214 3RD ST-OUTSIDE LOBBY", "postcode": "26041"}}},
{"geometry": {"type": "Point", "coordinates": [-80.5561367556, 40.5138145912]}, "type": "Feature", "properties": {"collection_times": [{"days": "Mon-Fri", "time": "4:45pm"}, {"days": "Sat", "time": "12:00pm"}, {"days": "Sun", "time": "Closed"}], "id": "2604700001", "name": "USPS COLLECTION BOX - BLUE BOX", "address": {"city": "NEW CUMBERLAND", "state": "WV", "street": "504 RIDGE AVE", "postcode": "26047"}}},
{"geometry": {"type": "Point", "coordinates": [-80.5561367556, 40.5138145912]}, "type": "Feature", "properties": {"collection_times": [{"days": "Mon-Fri", "time": "4:45pm"}, {"days": "Sat", "time": "12:00pm"}, {"days": "Sun", "time": "Closed"}], "id": "2604700003", "name": "USPS COLLECTION BOX - BLUE BOX", "address": {"city": "NEW CUMBERLAND", "state": "WV", "street": "504 RIDGE AVE", "postcode": "26047"}}},
{"geometry": {"type": "Point", "coordinates": [-80.6065517887, 40.4967328996]}, "type": "Feature", "properties": {"collection_times": [{"days": "Mon-Fri", "time": "4:45pm"}, {"days": "Sat", "time": "12:00pm"}, {"days": "Sun", "time": "Closed"}], "id": "2604700005", "name": "USPS COLLECTION BOX - PO LOBBY", "address": {"city": "NEW CUMBERLAND", "state": "WV", "street": "504 RIDGE AVE LBBY", "postcode": "26047"}}},
{"geometry": {"type": "Point", "coordinates": [-80.6165876355, 40.5099555854]}, "type": "Feature", "properties": {"collection_times": [{"days": "Mon-Sat", "time": "12:30pm"}, {"days": "Sun", "time": "Closed"}], "id": "2604700006", "name": "USPS COLLECTION BOX - BLUE BOX", "address": {"city": "NEW CUMBERLAND", "state": "WV", "street": "1000 STATE ROUTE 2", "postcode": "26047"}}},
{"geometry": {"type": "Point", "coordinates": [-80.597614628, 40.6193626401]}, "type": "Feature", "properties": {"collection_times": [{"days": "Mon-Fri", "time": "4:30pm"}, {"days": "Sat", "time": "12:00pm"}, {"days": "Sun", "time": "Closed"}], "id": "2605000001", "name": "USPS COLLECTION BOX - BLUE BOX", "address": {"city": "NEWELL", "state": "WV", "street": "202 WASHINGTON ST", "postcode": "26050"}}},
{"geometry": {"type": "Point", "coordinates": [-80.600036047, 40.6179455026]}, "type": "Feature", "properties": {"collection_times": [{"days": "Mon-Sat", "time": "9:15am"}, {"days": "Sun", "time": "Closed"}], "id": "2605000003", "name": "USPS COLLECTION BOX - BLUE BOX", "address": {"city": "NEWELL", "state": "WV", "street": "402 JEFFERSON ST", "postcode": "26050"}}},
{"geometry": {"type": "Point", "coordinates": [-80.6113752537, 40.6170291088]}, "type": "Feature", "properties": {"collection_times": [{"days": "Mon-Sat", "time": "10:00am"}, {"days": "Sun", "time": "Closed"}], "id": "2605000007", "name": "USPS COLLECTION BOX - BLUE BOX", "address": {"city": "NEWELL", "state": "WV", "street": "928 WASHINGTON ST", "postcode": "26050"}}},
{"geometry": {"type": "Point", "coordinates": [-80.6021341228, 40.6185961631]}, "type": "Feature", "properties": {"collection_times": [{"days": "Mon-Sat", "time": "10:30am"}, {"days": "Sun", "time": "Closed"}], "id": "2605000008", "name": "USPS COLLECTION BOX - BLUE BOX", "address": {"city": "NEWELL", "state": "WV", "street": "500 WASHINGTON ST", "postcode": "26050"}}},
{"geometry": {"type": "Point", "coordinates": [-80.597614628, 40.6193626401]}, "type": "Feature", "properties": {"collection_times": [{"days": "Mon-Sat", "time": "11:45am"}, {"days": "Sun", "time": "Closed"}], "id": "2605000009", "name": "USPS COLLECTION BOX - PO LOBBY", "address": {"city": "NEWELL", "state": "WV", "street": "202 WASHINGTON ST", "postcode": "26050"}}},
{"geometry": {"type": "Point", "coordinates": [-80.7542410723, 39.7206329423]}, "type": "Feature", "properties": {"collection_times": [{"days": "Mon-Fri", "time": "4:00pm"}, {"days": "Sat", "time": "12:15pm"}, {"days": "Sun", "time": "Closed"}], "id": "2605500001", "name": "USPS COLLECTION BOX - BLUE BOX", "address": {"city": "PROCTOR", "state": "WV", "street": "1 STATE ROUTE 2", "postcode": "26055"}}},
{"geometry": {"type": "Point", "coordinates": [-80.7542410723, 39.7206329423]}, "type": "Feature", "properties": {"collection_times": [{"days": "Mon-Fri", "time": "4:00pm"}, {"days": "Sat", "time": "12:15pm"}, {"days": "Sun", "time": "Closed"}], "id": "2605500002", "name": "USPS COLLECTION BOX - PO LOBBY", "address": {"city": "PROCTOR", "state": "WV", "street": "1 STATE ROUTE 2", "postcode": "26055"}}},
{"geometry": {"type": "Point", "coordinates": [-80.5657966729, 40.611207983]}, "type": "Feature", "properties": {"collection_times": [{"days": "Mon-Fri", "time": "4:45pm"}, {"days": "Sat", "time": "11:45am"}, {"days": "Sun", "time": "Closed"}], "id": "2605600001", "name": "USPS COLLECTION BOX - BLUE BOX", "address": {"city": "NEW MANCHESTER", "state": "WV", "street": "290 HIGH ST", "postcode": "26056"}}},
{"geometry": {"type": "Point", "coordinates": [-80.5657966729, 40.611207983]}, "type": "Feature", "properties": {"collection_times": [{"days": "Mon-Fri", "time": "4:45pm"}, {"days": "Sat", "time": "11:45am"}, {"days": "Sun", "time": "Closed"}], "id": "2605600002", "name": "USPS COLLECTION BOX - PO LOBBY", "address": {"city": "NEW MANCHESTER", "state": "WV", "street": "290 HIGH ST LBBY", "postcode": "26056"}}},
{"geometry": {"type": "Point", "coordinates": [-80.6747607755, 40.1854280515]}, "type": "Feature", "properties": {"collection_times": [{"days": "Mon-Fri", "time": "4:45pm"}, {"days": "Sat", "time": "11:45am"}, {"days": "Sun", "time": "Closed"}], "id": "2605800001", "name": "USPS COLLECTION BOX - BLUE BOX", "address": {"city": "SHORT CREEK", "state": "WV", "street": "46 WINDY HILL RD", "postcode": "26058"}}},
{"geometry": {"type": "Point", "coordinates": [-80.6747607755, 40.1854280515]}, "type": "Feature", "properties": {"collection_times": [{"days": "Mon-Fri", "time": "10:45am"}, {"days": "Sat", "time": "11:30am"}, {"days": "Sun", "time": "Closed"}], "id": "2605800002", "name": "USPS COLLECTION BOX - PO LOBBY", "address": {"city": "SHORT CREEK", "state": "WV", "street": "46 WINDY HILL RD", "postcode": "26058"}}},
{"geometry": {"type": "Point", "coordinates": [-80.6327799259, 40.0518378797]}, "type": "Feature", "properties": {"collection_times": [{"days": "Mon-Fri", "time": "4:30pm"}, {"days": "Sat", "time": "12:00pm"}, {"days": "Sun", "time": "Closed"}], "id": "2605900001", "name": "USPS COLLECTION BOX - BLUE BOX", "address": {"city": "TRIADELPHIA", "state": "WV", "street": "175 NATIONAL RD", "postcode": "26059"}}},
{"geometry": {"type": "Point", "coordinates": [-80.6327799259, 40.0518378797]}, "type": "Feature", "properties": {"collection_times": [{"days": "Mon-Fri", "time": "4:30pm"}, {"days": "Sat", "time": "12:00pm"}, {"days": "Sun", "time": "Closed"}], "id": "2605900004", "name": "USPS COLLECTION BOX - PO LOBBY", "address": {"city": "TRIADELPHIA", "state": "WV", "street": "175 NATIONAL RD LBBY", "postcode": "26059"}}},
{"geometry": {"type": "Point", "coordinates": [-80.5473989278, 40.1056045869]}, "type": "Feature", "properties": {"collection_times": [{"days": "Mon-Fri", "time": "4:45pm"}, {"days": "Sat", "time": "12:15pm"}, {"days": "Sun", "time": "Closed"}], "id": "2606000001", "name": "USPS COLLECTION BOX - BLUE BOX", "address": {"city": "VALLEY GROVE", "state": "WV", "street": "8566 NATIONAL RD", "postcode": "26060"}}},
{"geometry": {"type": "Point", "coordinates": [-80.5473989278, 40.1056045869]}, "type": "Feature", "properties": {"collection_times": [{"days": "Mon-Sat", "time": "11:45am"}, {"days": "Sun", "time": "Closed"}], "id": "2606000002", "name": "USPS COLLECTION BOX - PO LOBBY", "address": {"city": "VALLEY GROVE", "state": "WV", "street": "8566 NATIONAL RD", "postcode": "26060"}}},
{"geometry": {"type": "Point", "coordinates": [-80.5450045546, 40.0844025218]}, "type": "Feature", "properties": {"collection_times": [{"days": "Mon-Fri", "time": "1:00pm"}, {"days": "Sat", "time": "12:00pm"}, {"days": "Sun", "time": "Closed"}], "id": "2606000004", "name": "USPS COLLECTION BOX - BLUE BOX", "address": {"city": "VALLEY GROVE", "state": "WV", "street": "13247 INTERSTATE 70 W", "postcode": "26060"}}},
{"geometry": {"type": "Point", "coordinates": [-80.54745, 40.083393]}, "type": "Feature", "properties": {"collection_times": [{"days": "Mon-Fri", "time": "1:00pm"}, {"days": "Sat", "time": "12:00pm"}, {"days": "Sun", "time": "Closed"}], "id": "2606000005", "name": "USPS COLLECTION BOX - BLUE BOX", "address": {"city": "VALLEY GROVE", "state": "WV", "street": "270 W ALEXANDER RD", "postcode": "26060"}}},
{"geometry": {"type": "Point", "coordinates": [-80.5884842319, 40.4054343495]}, "type": "Feature", "properties": {"collection_times": [{"days": "Mon-Fri", "time": "4:30pm"}, {"days": "Sat", "time": "3:45pm"}, {"days": "Sun", "time": "Closed"}], "id": "2606200004", "name": "USPS COLLECTION BOX - BLUE BOX", "address": {"city": "WEIRTON", "state": "WV", "street": "3200 MAIN ST", "postcode": "26062"}}},
{"geometry": {"type": "Point", "coordinates": [-80.5608354603, 40.4190144327]}, "type": "Feature", "properties": {"collection_times": [{"days": "Mon-Fri", "time": "5:00pm"}, {"days": "Sat", "time": "4:00pm"}, {"days": "Sun", "time": "Closed"}], "id": "2606200006", "name": "USPS COLLECTION BOX - BLUE BOX", "address": {"city": "WEIRTON", "state": "WV", "street": "2426 PENNSYLVANIA AVE", "postcode": "26062"}}},
{"geometry": {"type": "Point", "coordinates": [-80.6059971813, 40.3981050238]}, "type": "Feature", "properties": {"collection_times": [{"days": "Mon-Fri", "time": "4:15pm"}, {"days": "Sat", "time": "3:45pm"}, {"days": "Sun", "time": "Closed"}], "id": "2606200010", "name": "USPS COLLECTION BOX - BLUE BOX", "address": {"city": "WEIRTON", "state": "WV", "street": "3901 BRIGHTWAY ST", "postcode": "26062"}}},
{"geometry": {"type": "Point", "coordinates": [-80.5341567068, 40.3845850515]}, "type": "Feature", "properties": {"collection_times": [{"days": "Mon-Fri", "time": "4:00pm"}, {"days": "Sat", "time": "3:45pm"}, {"days": "Sun", "time": "Closed"}], "id": "2606200012", "name": "USPS COLLECTION BOX - BLUE BOX", "address": {"city": "WEIRTON", "state": "WV", "street": "601 COLLIERS WAY", "postcode": "26062"}}},
{"geometry": {"type": "Point", "coordinates": [-80.5304314266, 40.3930146227]}, "type": "Feature", "properties": {"collection_times": [{"days": "Mon-Fri", "time": "4:00pm"}, {"days": "Sat", "time": "3:45pm"}, {"days": "Sun", "time": "Closed"}], "id": "2606200013", "name": "USPS COLLECTION BOX - BLUE BOX", "address": {"city": "WEIRTON", "state": "WV", "street": "485 COLLIERS WAY", "postcode": "26062"}}},
{"geometry": {"type": "Point", "coordinates": [-80.5663097898, 40.4190741326]}, "type": "Feature", "properties": {"collection_times": [{"days": "Mon-Fri", "time": "5:00pm"}, {"days": "Sat", "time": "3:45pm"}, {"days": "Sun", "time": "Closed"}], "id": "2606200020", "name": "USPS COLLECTION BOX - BLUE BOX", "address": {"city": "WEIRTON", "state": "WV", "street": "3500 WEST ST", "postcode": "26062"}}},
{"geometry": {"type": "Point", "coordinates": [-80.5619449247, 40.4172083143]}, "type": "Feature", "properties": {"collection_times": [{"days": "Mon-Fri", "time": "5:15pm"}, {"days": "Sat", "time": "4:15pm"}, {"days": "Sun", "time": "Closed"}], "id": "2606200021", "name": "USPS COLLECTION BOX - BLUE BOX", "address": {"city": "WEIRTON", "state": "WV", "street": "317 PENCO RD", "postcode": "26062"}}},
{"geometry": {"type": "Point", "coordinates": [-80.5619449247, 40.4172083143]}, "type": "Feature", "properties": {"collection_times": [{"days": "Mon-Fri", "time": "5:15pm"}, {"days": "Sat", "time": "4:15pm"}, {"days": "Sun", "time": "Closed"}], "id": "2606200023", "name": "USPS COLLECTION BOX - BLUE BOX", "address": {"city": "WEIRTON", "state": "WV", "street": "317 PENCO RD", "postcode": "26062"}}},
{"geometry": {"type": "Point", "coordinates": [-80.5663097898, 40.4190741326]}, "type": "Feature", "properties": {"collection_times": [{"days": "Mon-Fri", "time": "5:00pm"}, {"days": "Sat", "time": "3:45pm"}, {"days": "Sun", "time": "Closed"}], "id": "2606200025", "name": "USPS COLLECTION BOX - BLUE BOX", "address": {"city": "WEIRTON", "state": "WV", "street": "3500 WEST ST", "postcode": "26062"}}},
{"geometry": {"type": "Point", "coordinates": [-80.5663097898, 40.4190741326]}, "type": "Feature", "properties": {"collection_times": [{"days": "Mon-Fri", "time": "5:00pm"}, {"days": "Sat", "time": "3:45pm"}, {"days": "Sun", "time": "Closed"}], "id": "2606200027", "name": "USPS COLLECTION BOX - BLUE BOX", "address": {"city": "WEIRTON", "state": "WV", "street": "3500 WEST ST", "postcode": "26062"}}},
{"geometry": {"type": "Point", "coordinates": [-80.5619449247, 40.4172083143]}, "type": "Feature", "properties": {"collection_times": [{"days": "Mon-Fri", "time": "4:00pm"}, {"days": "Sat", "time": "3:30pm"}, {"days": "Sun", "time": "Closed"}], "id": "2606200028", "name": "USPS COLLECTION BOX - BLUE BOX", "address": {"city": "WEIRTON", "state": "WV", "street": "100 SAINT THOMAS DR", "postcode": "26062"}}},
{"geometry": {"type": "Point", "coordinates": [-80.5470049545, 40.4093422349]}, "type": "Feature", "properties": {"collection_times": [{"days": "Mon-Fri", "time": "5:45pm"}, {"days": "Sat", "time": "4:45pm"}, {"days": "Sun", "time": "Closed"}], "id": "2606200033", "name": "USPS COLLECTION BOX - PO LOBBY", "address": {"city": "WEIRTON", "state": "WV", "street": "317 PENCO RD-MAIN LOBBY", "postcode": "26062"}}},
{"geometry": {"type": "Point", "coordinates": [-80.5909286953, 40.4009994284]}, "type": "Feature", "properties": {"collection_times": [{"days": "Mon-Fri", "time": "5:00pm"}, {"days": "Sat", "time": "3:45pm"}, {"days": "Sun", "time": "Closed"}], "id": "2606200037", "name": "USPS COLLECTION BOX - PO LOBBY", "address": {"city": "WEIRTON", "state": "WV", "street": "3500 WEST ST", "postcode": "26062"}}},
{"geometry": {"type": "Point", "coordinates": [-80.5895583027, 40.4068476557]}, "type": "Feature", "properties": {"collection_times": [{"days": "Mon-Fri", "time": "4:30pm"}, {"days": "Sat", "time": "3:45pm"}, {"days": "Sun", "time": "Closed"}], "id": "2606200039", "name": "USPS COLLECTION BOX - BLUE BOX", "address": {"city": "WEIRTON", "state": "WV", "street": "3126 WEST ST", "postcode": "26062"}}},
{"geometry": {"type": "Point", "coordinates": [-80.5888994734, 40.2702228881]}, "type": "Feature", "properties": {"collection_times": [{"days": "Mon-Fri", "time": "5:00pm"}, {"days": "Sat", "time": "3:30pm"}, {"days": "Sun", "time": "Closed"}], "id": "2607000001", "name": "USPS COLLECTION BOX - BLUE BOX", "address": {"city": "WELLSBURG", "state": "WV", "street": "931 CHARLES ST", "postcode": "26070"}}},
{"geometry": {"type": "Point", "coordinates": [-80.6088801401, 40.2893295221]}, "type": "Feature", "properties": {"collection_times": [{"days": "Mon-Sat", "time": "11:00am"}, {"days": "Sun", "time": "Closed"}], "id": "2607000006", "name": "USPS COLLECTION BOX - BLUE BOX", "address": {"city": "WELLSBURG", "state": "WV", "street": "91 27TH ST", "postcode": "26070"}}},
{"geometry": {"type": "Point", "coordinates": [-80.5832240219, 40.2311693039]}, "type": "Feature", "properties": {"collection_times": [{"days": "Mon-Sat", "time": "2:15pm"}, {"days": "Sun", "time": "Closed"}], "id": "2607000010", "name": "USPS COLLECTION BOX - BLUE BOX", "address": {"city": "WELLSBURG", "state": "WV", "street": "70 TOWN SQ", "postcode": "26070"}}},
{"geometry": {"type": "Point", "coordinates": [-80.5888994734, 40.2702228881]}, "type": "Feature", "properties": {"collection_times": [{"days": "Mon-Fri", "time": "5:00pm"}, {"days": "Sat", "time": "3:30pm"}, {"days": "Sun", "time": "Closed"}], "id": "2607000012", "name": "USPS COLLECTION BOX - BLUE BOX", "address": {"city": "WELLSBURG", "state": "WV", "street": "931 CHARLES ST", "postcode": "26070"}}},
{"geometry": {"type": "Point", "coordinates": [-80.6117503794, 40.2720747699]}, "type": "Feature", "properties": {"collection_times": [{"days": "Mon-Fri", "time": "5:00pm"}, {"days": "Sat", "time": "3:30pm"}, {"days": "Sun", "time": "Closed"}], "id": "2607000013", "name": "USPS COLLECTION BOX - PO LOBBY", "address": {"city": "WELLSBURG", "state": "WV", "street": "944 CHARLES ST LBBY", "postcode": "26070"}}},
{"geometry": {"type": "Point", "coordinates": [-80.6655670952, 40.1905311882]}, "type": "Feature", "properties": {"collection_times": [{"days": "Mon-Fri", "time": "4:45pm"}, {"days": "Sat", "time": "11:45am"}, {"days": "Sun", "time": "Closed"}], "id": "2607500001", "name": "USPS COLLECTION BOX - BLUE BOX", "address": {"city": "WINDSOR HEIGHTS", "state": "WV", "street": "728 WINDY HILL RD", "postcode": "26075"}}},
{"geometry": {"type": "Point", "coordinates": [-80.6136149343, 38.6424169896]}, "type": "Feature", "properties": {"collection_times": [{"days": "Mon-Fri", "time": "11:55am"}, {"days": "Sat", "time": "11:45am"}, {"days": "Sun", "time": "Closed"}], "id": "2607500002", "name": "USPS COLLECTION BOX - PO LOBBY", "address": {"city": "WINDSOR HEIGHTS", "state": "WV", "street": "728 WINDY HILL RD LBBY", "postcode": "26075"}}}
]}
