{"type": "FeatureCollection", "features": [
{"geometry": {"type": "Point", "coordinates": [-81.5603425468, 39.2658665004]}, "type": "Feature", "properties": {"collection_times": [{"days": "Mon-Fri", "time": "12:30pm"}, {"days": "Sat", "time": "10:00am"}, {"days": "Sun", "time": "Closed"}], "id": "2610100001", "name": "USPS COLLECTION BOX - BLUE BOX", "address": {"city": "PARKERSBURG", "state": "WV", "street": "501 MARKET ST", "postcode": "26101"}}},
{"geometry": {"type": "Point", "coordinates": [-81.5583534595, 39.2655899239]}, "type": "Feature", "properties": {"collection_times": [{"days": "Mon-Sat", "time": "8:30am"}, {"days": "Sun", "time": "Closed"}], "id": "2610100009", "name": "USPS COLLECTION BOX - BLUE BOX", "address": {"city": "PARKERSBURG", "state": "WV", "street": "601 AVERY ST", "postcode": "26101"}}},
{"geometry": {"type": "Point", "coordinates": [-81.5416432306, 39.2678146263]}, "type": "Feature", "properties": {"collection_times": [{"days": "Mon-Fri", "time": "12:15pm"}, {"days": "Sat", "time": "9:00am"}, {"days": "Sun", "time": "Closed"}], "id": "2610100017", "name": "USPS COLLECTION BOX - BLUE BOX", "address": {"city": "PARKERSBURG", "state": "WV", "street": "1210 13TH ST", "postcode": "26101"}}},
{"geometry": {"type": "Point", "coordinates": [-81.5529318814, 39.2510972753]}, "type": "Feature", "properties": {"collection_times": [{"days": "Mon-Fri", "time": "3:00pm"}, {"days": "Sat", "time": "12:30pm"}, {"days": "Sun", "time": "Closed"}], "id": "2610100018", "name": "USPS COLLECTION BOX - BLUE BOX", "address": {"city": "PARKERSBURG", "state": "WV", "street": "806 NEAL ST", "postcode": "26101"}}},
{"geometry": {"type": "Point", "coordinates": [-81.5529318814, 39.2510972753]}, "type": "Feature", "properties": {"collection_times": [{"days": "Mon-Fri", "time": "3:00pm"}, {"days": "Sat", "time": "12:30pm"}, {"days": "Sun", "time": "Closed"}], "id": "2610100019", "name": "USPS COLLECTION BOX - BLUE BOX", "address": {"city": "PARKERSBURG", "state": "WV", "street": "806 NEAL ST", "postcode": "26101"}}},
{"geometry": {"type": "Point", "coordinates": [-81.5770602966, 39.2400495702]}, "type": "Feature", "properties": {"collection_times": [{"days": "Mon-Sat", "time": "11:30am"}, {"days": "Sun", "time": "Closed"}], "id": "2610100021", "name": "USPS COLLECTION BOX - BLUE BOX", "address": {"city": "PARKERSBURG", "state": "WV", "street": "270 PARK CENTER DR", "postcode": "26101"}}},
{"geometry": {"type": "Point", "coordinates": [-81.5221676661, 39.268432078]}, "type": "Feature", "properties": {"collection_times": [{"days": "Mon-Sat", "time": "12:15pm"}, {"days": "Sun", "time": "Closed"}], "id": "2610100032", "name": "USPS COLLECTION BOX - BLUE BOX", "address": {"city": "PARKERSBURG", "state": "WV", "street": "2007 7TH ST", "postcode": "26101"}}},
{"geometry": {"type": "Point", "coordinates": [-81.5604769332, 39.2702479617]}, "type": "Feature", "properties": {"collection_times": [{"days": "Mon-Sat", "time": "9:30am"}, {"days": "Sun", "time": "Closed"}], "id": "2610100034", "name": "USPS COLLECTION BOX - BLUE BOX", "address": {"city": "PARKERSBURG", "state": "WV", "street": "800 GARFIELD AVE", "postcode": "26101"}}},
{"geometry": {"type": "Point", "coordinates": [-81.5770602966, 39.2400495702]}, "type": "Feature", "properties": {"collection_times": [{"days": "Mon-Sat", "time": "12:00pm"}, {"days": "Sun", "time": "Closed"}], "id": "2610100041", "name": "USPS COLLECTION BOX - BLUE BOX", "address": {"city": "PARKERSBURG", "state": "WV", "street": "100 GIHON VLG", "postcode": "26101"}}},
{"geometry": {"type": "Point", "coordinates": [-81.5770602966, 39.2400495702]}, "type": "Feature", "properties": {"collection_times": [{"days": "Mon-Sat", "time": "12:00pm"}, {"days": "Sun", "time": "Closed"}], "id": "2610100042", "name": "USPS COLLECTION BOX - BLUE BOX", "address": {"city": "PARKERSBURG", "state": "WV", "street": "100 GIHON VLG", "postcode": "26101"}}},
{"geometry": {"type": "Point", "coordinates": [-81.5550194644, 39.248796326]}, "type": "Feature", "properties": {"collection_times": [{"days": "Mon-Sat", "time": "12:00pm"}, {"days": "Sun", "time": "Closed"}], "id": "2610100044", "name": "USPS COLLECTION BOX - BLUE BOX", "address": {"city": "PARKERSBURG", "state": "WV", "street": "1050 DIVISION ST", "postcode": "26101"}}},
{"geometry": {"type": "Point", "coordinates": [-81.5631586582, 39.2650507912]}, "type": "Feature", "properties": {"collection_times": [{"days": "Mon-Fri", "time": "10:30am"}, {"days": "Sat", "time": "9:15am"}, {"days": "Sun", "time": "Closed"}], "id": "2610100049", "name": "USPS COLLECTION BOX - BLUE BOX", "address": {"city": "PARKERSBURG", "state": "WV", "street": "1 COURT SQ", "postcode": "26101"}}},
{"geometry": {"type": "Point", "coordinates": [-81.554677809, 39.278104188]}, "type": "Feature", "properties": {"collection_times": [{"days": "Mon-Sat", "time": "12:30pm"}, {"days": "Sun", "time": "Closed"}], "id": "2610100052", "name": "USPS COLLECTION BOX - BLUE BOX", "address": {"city": "PARKERSBURG", "state": "WV", "street": "600 18TH ST", "postcode": "26101"}}},
{"geometry": {"type": "Point", "coordinates": [-81.5629284856, 39.2644136791]}, "type": "Feature", "properties": {"collection_times": [{"days": "Mon-Fri", "time": "12:30pm"}, {"days": "Sat", "time": "9:00am"}, {"days": "Sun", "time": "Closed"}], "id": "2610100071", "name": "USPS COLLECTION BOX - BLUE BOX", "address": {"city": "PARKERSBURG", "state": "WV", "street": "2 GOVERNMENT SQ", "postcode": "26101"}}},
{"geometry": {"type": "Point", "coordinates": [-81.5768676129, 39.2636660056]}, "type": "Feature", "properties": {"collection_times": [{"days": "Mon-Sat", "time": "8:30am"}, {"days": "Sun", "time": "Closed"}], "id": "2610100080", "name": "USPS COLLECTION BOX - BLUE BOX", "address": {"city": "PARKERSBURG", "state": "WV", "street": "100 STAR AVE", "postcode": "26101"}}},
{"geometry": {"type": "Point", "coordinates": [-81.5543058583, 39.2696944854]}, "type": "Feature", "properties": {"collection_times": [{"days": "Mon-Fri", "time": "5:00pm"}, {"days": "Sat", "time": "12:00pm"}, {"days": "Sun", "time": "Closed"}], "id": "2610100087", "name": "USPS COLLECTION BOX - BLUE BOX", "address": {"city": "PARKERSBURG", "state": "WV", "street": "1050 MARKET ST", "postcode": "26101"}}},
{"geometry": {"type": "Point", "coordinates": [-81.5543058583, 39.2696944854]}, "type": "Feature", "properties": {"collection_times": [{"days": "Mon-Fri", "time": "5:00pm"}, {"days": "Sat", "time": "12:00pm"}, {"days": "Sun", "time": "Closed"}], "id": "2610100088", "name": "USPS COLLECTION BOX - BLUE BOX", "address": {"city": "PARKERSBURG", "state": "WV", "street": "1050 MARKET ST", "postcode": "26101"}}},
{"geometry": {"type": "Point", "coordinates": [-81.5543058583, 39.2696944854]}, "type": "Feature", "properties": {"collection_times": [{"days": "Mon-Fri", "time": "5:00pm"}, {"days": "Sat", "time": "12:00pm"}, {"days": "Sun", "time": "Closed"}], "id": "2610100090", "name": "USPS COLLECTION BOX - BLUE BOX", "address": {"city": "PARKERSBURG", "state": "WV", "street": "1050 MARKET ST", "postcode": "26101"}}},
{"geometry": {"type": "Point", "coordinates": [-81.5543058583, 39.2696944854]}, "type": "Feature", "properties": {"collection_times": [{"days": "Mon-Fri", "time": "5:00pm"}, {"days": "Sat", "time": "12:00pm"}, {"days": "Sun", "time": "Closed"}], "id": "2610100091", "name": "USPS COLLECTION BOX - BLUE BOX", "address": {"city": "PARKERSBURG", "state": "WV", "street": "1050 MARKET ST", "postcode": "26101"}}},
{"geometry": {"type": "Point", "coordinates": [-81.5249976876, 39.2373549303]}, "type": "Feature", "properties": {"collection_times": [{"days": "Mon-Sat", "time": "5:30pm"}, {"days": "Sun", "time": "Closed"}], "id": "2610100093", "name": "USPS COLLECTION BOX - BLUE BOX", "address": {"city": "PARKERSBURG", "state": "WV", "street": "400 RAYON DR", "postcode": "26101"}}},
{"geometry": {"type": "Point", "coordinates": [-81.5543058583, 39.2696944854]}, "type": "Feature", "properties": {"collection_times": [{"days": "Mon-Fri", "time": "5:00pm"}, {"days": "Sat", "time": "12:00pm"}, {"days": "Sun", "time": "Closed"}], "id": "2610100096", "name": "USPS COLLECTION BOX - BLUE BOX", "address": {"city": "PARKERSBURG", "state": "WV", "street": "1050 MARKET ST", "postcode": "26101"}}},
{"geometry": {"type": "Point", "coordinates": [-81.5317211348, 39.2867248601]}, "type": "Feature", "properties": {"collection_times": [{"days": "Mon-Fri", "time": "3:00pm"}, {"days": "Sat", "time": "12:00pm"}, {"days": "Sun", "time": "Closed"}], "id": "2610400005", "name": "USPS COLLECTION BOX - BLUE BOX", "address": {"city": "PARKERSBURG", "state": "WV", "street": "3505 CENTRAL AVE", "postcode": "26104"}}},
{"geometry": {"type": "Point", "coordinates": [-81.5317211348, 39.2867248601]}, "type": "Feature", "properties": {"collection_times": [{"days": "Mon-Fri", "time": "3:00pm"}, {"days": "Sat", "time": "12:00pm"}, {"days": "Sun", "time": "Closed"}], "id": "2610400006", "name": "USPS COLLECTION BOX - BLUE BOX", "address": {"city": "PARKERSBURG", "state": "WV", "street": "3505 CENTRAL AVE", "postcode": "26104"}}},
{"geometry": {"type": "Point", "coordinates": [-81.5228233302, 39.2936868709]}, "type": "Feature", "properties": {"collection_times": [{"days": "Mon-Sat", "time": "12:30pm"}, {"days": "Sun", "time": "Closed"}], "id": "2610400018", "name": "USPS COLLECTION BOX - BLUE BOX", "address": {"city": "PARKERSBURG", "state": "WV", "street": "1 ROSEMAR CIR", "postcode": "26104"}}},
{"geometry": {"type": "Point", "coordinates": [-81.5317211348, 39.2867248601]}, "type": "Feature", "properties": {"collection_times": [{"days": "Mon-Fri", "time": "3:00pm"}, {"days": "Sat", "time": "12:00pm"}, {"days": "Sun", "time": "Closed"}], "id": "2610400021", "name": "USPS COLLECTION BOX - BLUE BOX", "address": {"city": "PARKERSBURG", "state": "WV", "street": "3505 CENTRAL AVE", "postcode": "26104"}}},
{"geometry": {"type": "Point", "coordinates": [-81.5511241509, 39.306217847]}, "type": "Feature", "properties": {"collection_times": [{"days": "Mon-Sat", "time": "1:00pm"}, {"days": "Sun", "time": "Closed"}], "id": "2610500000", "name": "USPS COLLECTION BOX - BLUE BOX", "address": {"city": "PARKERSBURG", "state": "WV", "street": "800 GRAND CENTRAL AVE", "postcode": "26105"}}},
{"geometry": {"type": "Point", "coordinates": [-81.5391567551, 39.3343615903]}, "type": "Feature", "properties": {"collection_times": [{"days": "Mon-Sat", "time": "12:45pm"}, {"days": "Sun", "time": "Closed"}], "id": "2610500002", "name": "USPS COLLECTION BOX - BLUE BOX", "address": {"city": "PARKERSBURG", "state": "WV", "street": "815 46TH ST", "postcode": "26105"}}},
{"geometry": {"type": "Point", "coordinates": [-81.5484199533, 39.3249128099]}, "type": "Feature", "properties": {"collection_times": [{"days": "Mon-Sat", "time": "12:45pm"}, {"days": "Sun", "time": "Closed"}], "id": "2610500003", "name": "USPS COLLECTION BOX - BLUE BOX", "address": {"city": "PARKERSBURG", "state": "WV", "street": "609 29TH ST", "postcode": "26105"}}},
{"geometry": {"type": "Point", "coordinates": [-81.5499400259, 39.323315693]}, "type": "Feature", "properties": {"collection_times": [{"days": "Mon-Fri", "time": "4:30pm"}, {"days": "Sat", "time": "12:00pm"}, {"days": "Sun", "time": "Closed"}], "id": "2610500006", "name": "USPS COLLECTION BOX - BLUE BOX", "address": {"city": "PARKERSBURG", "state": "WV", "street": "600 27TH ST", "postcode": "26105"}}},
{"geometry": {"type": "Point", "coordinates": [-81.5499400259, 39.323315693]}, "type": "Feature", "properties": {"collection_times": [{"days": "Mon-Fri", "time": "4:30pm"}, {"days": "Sat", "time": "12:00pm"}, {"days": "Sun", "time": "Closed"}], "id": "2610500007", "name": "USPS COLLECTION BOX - BLUE BOX", "address": {"city": "PARKERSBURG", "state": "WV", "street": "600 27TH ST", "postcode": "26105"}}},
{"geometry": {"type": "Point", "coordinates": [-81.5499400259, 39.323315693]}, "type": "Feature", "properties": {"collection_times": [{"days": "Mon-Fri", "time": "4:30pm"}, {"days": "Sat", "time": "12:00pm"}, {"days": "Sun", "time": "Closed"}], "id": "2610500011", "name": "USPS COLLECTION BOX - BLUE BOX", "address": {"city": "PARKERSBURG", "state": "WV", "street": "600 27TH ST", "postcode": "26105"}}},
{"geometry": {"type": "Point", "coordinates": [-81.5499400259, 39.323315693]}, "type": "Feature", "properties": {"collection_times": [{"days": "Mon-Fri", "time": "4:30pm"}, {"days": "Sat", "time": "12:00pm"}, {"days": "Sun", "time": "Closed"}], "id": "2610500013", "name": "USPS COLLECTION BOX - PO LOBBY", "address": {"city": "PARKERSBURG", "state": "WV", "street": "600 27TH ST", "postcode": "26105"}}},
{"geometry": {"type": "Point", "coordinates": [-81.5483404825, 39.2982769491]}, "type": "Feature", "properties": {"collection_times": [{"days": "Mon-Sat", "time": "2:30pm"}, {"days": "Sun", "time": "Closed"}], "id": "2610500014", "name": "USPS COLLECTION BOX - BLUE BOX", "address": {"city": "PARKERSBURG", "state": "WV", "street": "417 GRAND PARK DR", "postcode": "26105"}}},
{"geometry": {"type": "Point", "coordinates": [-81.6683727285, 39.1089750489]}, "type": "Feature", "properties": {"collection_times": [{"days": "Mon-Fri", "time": "11:15am"}, {"days": "Sat", "time": "9:15am"}, {"days": "Sun", "time": "Closed"}], "id": "2613300000", "name": "USPS COLLECTION BOX - BLUE BOX", "address": {"city": "BELLEVILLE", "state": "WV", "street": "11293 HARRIS HWY", "postcode": "26133"}}},
{"geometry": {"type": "Point", "coordinates": [-81.6683727285, 39.1089750489]}, "type": "Feature", "properties": {"collection_times": [{"days": "Mon-Fri", "time": "11:15am"}, {"days": "Sat", "time": "9:15am"}, {"days": "Sun", "time": "Closed"}], "id": "2613300001", "name": "USPS COLLECTION BOX - PO LOBBY", "address": {"city": "BELLEVILLE", "state": "WV", "street": "11293 HARRIS HWY", "postcode": "26133"}}},
{"geometry": {"type": "Point", "coordinates": [-81.259445191, 39.3780029]}, "type": "Feature", "properties": {"collection_times": [{"days": "Mon-Fri", "time": "11:45am"}, {"days": "Sat", "time": "12:00pm"}, {"days": "Sun", "time": "Closed"}], "id": "2613400000", "name": "USPS COLLECTION BOX - BLUE BOX", "address": {"city": "BELMONT", "state": "WV", "street": "310 CLARK ST", "postcode": "26134"}}},
{"geometry": {"type": "Point", "coordinates": [-81.259445191, 39.3780029]}, "type": "Feature", "properties": {"collection_times": [{"days": "Mon-Fri", "time": "11:45am"}, {"days": "Sat", "time": "12:15pm"}, {"days": "Sun", "time": "Closed"}], "id": "2613400001", "name": "USPS COLLECTION BOX - PO LOBBY", "address": {"city": "BELMONT", "state": "WV", "street": "310 CLARK ST", "postcode": "26134"}}},
{"geometry": {"type": "Point", "coordinates": [-81.1360898314, 38.9923328617]}, "type": "Feature", "properties": {"collection_times": [{"days": "Mon-Fri", "time": "2:30pm"}, {"days": "Sat", "time": "10:45am"}, {"days": "Sun", "time": "Closed"}], "id": "2613600000", "name": "USPS COLLECTION BOX - BLUE BOX", "address": {"city": "BIGBEND", "state": "WV", "street": "6915 W LITTLE KANAWHA HWY", "postcode": "26136"}}},
{"geometry": {"type": "Point", "coordinates": [-81.1360898314, 38.9923328617]}, "type": "Feature", "properties": {"collection_times": [{"days": "Mon-Fri", "time": "2:00pm"}, {"days": "Sat", "time": "10:50am"}, {"days": "Sun", "time": "Closed"}], "id": "2613600001", "name": "USPS COLLECTION BOX - PO LOBBY", "address": {"city": "BIGBEND", "state": "WV", "street": "6915 W LITTLE KANAWHA HWY", "postcode": "26136"}}},
{"geometry": {"type": "Point", "coordinates": [-80.9899578305, 38.9755178711]}, "type": "Feature", "properties": {"collection_times": [{"days": "Mon-Fri", "time": "11:45am"}, {"days": "Sat", "time": "11:15am"}, {"days": "Sun", "time": "Closed"}], "id": "2613700000", "name": "USPS COLLECTION BOX - BLUE BOX", "address": {"city": "BIG SPRINGS", "state": "WV", "street": "6657 N CALHOUN HWY", "postcode": "26137"}}},
{"geometry": {"type": "Point", "coordinates": [-80.9899578305, 38.9755178711]}, "type": "Feature", "properties": {"collection_times": [{"days": "Mon-Fri", "time": "11:45am"}, {"days": "Sat", "time": "11:15am"}, {"days": "Sun", "time": "Closed"}], "id": "2613700001", "name": "USPS COLLECTION BOX - PO LOBBY", "address": {"city": "BIG SPRINGS", "state": "WV", "street": "6657 N CALHOUN HWY", "postcode": "26137"}}},
{"geometry": {"type": "Point", "coordinates": [-81.4526378907, 39.2160510906]}, "type": "Feature", "properties": {"collection_times": [{"days": "Mon-Fri", "time": "3:30pm"}, {"days": "Sat", "time": "9:00am"}, {"days": "Sun", "time": "Closed"}], "id": "2614200000", "name": "USPS COLLECTION BOX - BLUE BOX", "address": {"city": "DAVISVILLE", "state": "WV", "street": "6362 STAUNTON TPKE", "postcode": "26142"}}},
{"geometry": {"type": "Point", "coordinates": [-81.4526378907, 39.2160510906]}, "type": "Feature", "properties": {"collection_times": [{"days": "Mon-Fri", "time": "2:00pm"}, {"days": "Sat", "time": "9:00am"}, {"days": "Sun", "time": "Closed"}], "id": "2614200001", "name": "USPS COLLECTION BOX - PO LOBBY", "address": {"city": "DAVISVILLE", "state": "WV", "street": "6362 STAUNTON TPKE", "postcode": "26142"}}},
{"geometry": {"type": "Point", "coordinates": [-81.3968271761, 39.1139734745]}, "type": "Feature", "properties": {"collection_times": [{"days": "Mon-Fri", "time": "3:30pm"}, {"days": "Sat", "time": "11:30am"}, {"days": "Sun", "time": "Closed"}], "id": "2614300000", "name": "USPS COLLECTION BOX - BLUE BOX", "address": {"city": "ELIZABETH", "state": "WV", "street": "502 E SCHOOLVIEW ST", "postcode": "26143"}}},
{"geometry": {"type": "Point", "coordinates": [-81.3077149778, 39.0327172549]}, "type": "Feature", "properties": {"collection_times": [{"days": "Mon-Fri", "time": "3:30pm"}, {"days": "Sat", "time": "11:30am"}, {"days": "Sun", "time": "Closed"}], "id": "2614300001", "name": "USPS COLLECTION BOX - PO LOBBY", "address": {"city": "ELIZABETH", "state": "WV", "street": "502 E SCHOOLVIEW ST", "postcode": "26143"}}},
{"geometry": {"type": "Point", "coordinates": [-80.9954042385, 39.4755408859]}, "type": "Feature", "properties": {"collection_times": [{"days": "Mon-Fri", "time": "3:00pm"}, {"days": "Sat", "time": "10:45am"}, {"days": "Sun", "time": "Closed"}], "id": "2614600000", "name": "USPS COLLECTION BOX - BLUE BOX", "address": {"city": "FRIENDLY", "state": "WV", "street": "2096 FRIENDLY RD", "postcode": "26146"}}},
{"geometry": {"type": "Point", "coordinates": [-81.0730838293, 39.5061559256]}, "type": "Feature", "properties": {"collection_times": [{"days": "Mon-Fri", "time": "3:00pm"}, {"days": "Sat", "time": "10:45am"}, {"days": "Sun", "time": "Closed"}], "id": "2614600001", "name": "USPS COLLECTION BOX - PO LOBBY", "address": {"city": "FRIENDLY", "state": "WV", "street": "2096 FRIENDLY RD", "postcode": "26146"}}},
{"geometry": {"type": "Point", "coordinates": [-81.047893181, 38.9420697503]}, "type": "Feature", "properties": {"collection_times": [{"days": "Mon-Fri", "time": "3:30pm"}, {"days": "Sat", "time": "11:00am"}, {"days": "Sun", "time": "Closed"}], "id": "2614700003", "name": "USPS COLLECTION BOX - PO LOBBY", "address": {"city": "GRANTSVILLE", "state": "WV", "street": "372 MAIN ST", "postcode": "26147"}}},
{"geometry": {"type": "Point", "coordinates": [-81.047893181, 38.9420697503]}, "type": "Feature", "properties": {"collection_times": [{"days": "Mon-Fri", "time": "3:30pm"}, {"days": "Sat", "time": "11:00am"}, {"days": "Sun", "time": "Closed"}], "id": "2614700004", "name": "USPS COLLECTION BOX - BLUE BOX", "address": {"city": "GRANTSVILLE", "state": "WV", "street": "372 MAIN ST", "postcode": "26147"}}},
{"geometry": {"type": "Point", "coordinates": [-81.213459254, 39.0817900188]}, "type": "Feature", "properties": {"collection_times": [{"days": "Mon-Sat", "time": "12:00pm"}, {"days": "Sun", "time": "Closed"}], "id": "2614800000", "name": "USPS COLLECTION BOX - BLUE BOX", "address": {"city": "MACFARLAN", "state": "WV", "street": "8190 STAUNTON TPKE", "postcode": "26148"}}},
{"geometry": {"type": "Point", "coordinates": [-81.1879669546, 39.0794284038]}, "type": "Feature", "properties": {"collection_times": [{"days": "Mon-Sat", "time": "12:00pm"}, {"days": "Sun", "time": "Closed"}], "id": "2614800001", "name": "USPS COLLECTION BOX - PO LOBBY", "address": {"city": "MACFARLAN", "state": "WV", "street": "PO BOX 9998", "postcode": "26148"}}},
{"geometry": {"type": "Point", "coordinates": [-80.9033311507, 39.4955660051]}, "type": "Feature", "properties": {"collection_times": [{"days": "Mon-Fri", "time": "3:30pm"}, {"days": "Sat", "time": "9:30am"}, {"days": "Sun", "time": "Closed"}], "id": "2614900000", "name": "USPS COLLECTION BOX - BLUE BOX", "address": {"city": "MIDDLEBOURNE", "state": "WV", "street": "105 DODD ST", "postcode": "26149"}}},
{"geometry": {"type": "Point", "coordinates": [-80.904858214, 39.4926438989]}, "type": "Feature", "properties": {"collection_times": [{"days": "Mon-Fri", "time": "3:30pm"}, {"days": "Sat", "time": "9:30am"}, {"days": "Sun", "time": "Closed"}], "id": "2614900001", "name": "USPS COLLECTION BOX - PO LOBBY", "address": {"city": "MIDDLEBOURNE", "state": "WV", "street": "105 DODD ST", "postcode": "26149"}}},
{"geometry": {"type": "Point", "coordinates": [-81.5207005967, 39.1575204312]}, "type": "Feature", "properties": {"collection_times": [{"days": "Mon-Fri", "time": "4:30pm"}, {"days": "Sat", "time": "12:00pm"}, {"days": "Sun", "time": "Closed"}], "id": "2615000001", "name": "USPS COLLECTION BOX - BLUE BOX", "address": {"city": "MINERAL WELLS", "state": "WV", "street": "1259 ELIZABETH PIKE", "postcode": "26150"}}},
{"geometry": {"type": "Point", "coordinates": [-81.5207005967, 39.1575204312]}, "type": "Feature", "properties": {"collection_times": [{"days": "Mon-Fri", "time": "4:30pm"}, {"days": "Sat", "time": "12:00pm"}, {"days": "Sun", "time": "Closed"}], "id": "2615000003", "name": "USPS COLLECTION BOX - PO LOBBY", "address": {"city": "MINERAL WELLS", "state": "WV", "street": "1259 ELIZABETH PIKE", "postcode": "26150"}}},
{"geometry": {"type": "Point", "coordinates": [-80.8561796396, 39.6772638696]}, "type": "Feature", "properties": {"collection_times": [{"days": "Mon-Sat", "time": "9:30am"}, {"days": "Sun", "time": "Closed"}], "id": "2615500001", "name": "USPS COLLECTION BOX - BLUE BOX", "address": {"city": "N MARTINSVLLE", "state": "WV", "street": "28 ROSE ST", "postcode": "26155"}}},
{"geometry": {"type": "Point", "coordinates": [-80.8576564955, 39.6769924864]}, "type": "Feature", "properties": {"collection_times": [{"days": "Mon-Sat", "time": "10:30am"}, {"days": "Sun", "time": "Closed"}], "id": "2615500003", "name": "USPS COLLECTION BOX - BLUE BOX", "address": {"city": "N MARTINSVLLE", "state": "WV", "street": "296 N STATE ROUTE 2", "postcode": "26155"}}},
{"geometry": {"type": "Point", "coordinates": [-80.8574446271, 39.6756793159]}, "type": "Feature", "properties": {"collection_times": [{"days": "Mon-Sat", "time": "9:30am"}, {"days": "Sun", "time": "Closed"}], "id": "2615500004", "name": "USPS COLLECTION BOX - BLUE BOX", "address": {"city": "N MARTINSVLLE", "state": "WV", "street": "271 N STATE ROUTE 2", "postcode": "26155"}}},
{"geometry": {"type": "Point", "coordinates": [-80.8658504872, 39.6404530277]}, "type": "Feature", "properties": {"collection_times": [{"days": "Mon-Fri", "time": "4:30pm"}, {"days": "Sat", "time": "12:00pm"}, {"days": "Sun", "time": "Closed"}], "id": "2615500015", "name": "USPS COLLECTION BOX - PO LOBBY", "address": {"city": "N MARTINSVLLE", "state": "WV", "street": "230 MAIN ST", "postcode": "26155"}}},
{"geometry": {"type": "Point", "coordinates": [-80.8459143836, 39.6470945308]}, "type": "Feature", "properties": {"collection_times": [{"days": "Mon-Sat", "time": "10:30am"}, {"days": "Sun", "time": "Closed"}], "id": "2615500016", "name": "USPS COLLECTION BOX - BLUE BOX", "address": {"city": "N MARTINSVLLE", "state": "WV", "street": "RR 2 BOX 1", "postcode": "26155"}}},
{"geometry": {"type": "Point", "coordinates": [-80.8658504872, 39.6404530277]}, "type": "Feature", "properties": {"collection_times": [{"days": "Mon-Fri", "time": "4:30pm"}, {"days": "Sat", "time": "12:00pm"}, {"days": "Sun", "time": "Closed"}], "id": "2615500020", "name": "USPS COLLECTION BOX - PO LOBBY", "address": {"city": "N MARTINSVLLE", "state": "WV", "street": "230 MAIN ST", "postcode": "26155"}}},
{"geometry": {"type": "Point", "coordinates": [-80.8658504872, 39.6404530277]}, "type": "Feature", "properties": {"collection_times": [{"days": "Mon-Fri", "time": "4:30pm"}, {"days": "Sat", "time": "12:00pm"}, {"days": "Sun", "time": "Closed"}], "id": "2615500023", "name": "USPS COLLECTION BOX - BLUE BOX", "address": {"city": "N MARTINSVLLE", "state": "WV", "street": "230 MAIN ST", "postcode": "26155"}}},
{"geometry": {"type": "Point", "coordinates": [-80.8543167279, 39.6927692299]}, "type": "Feature", "properties": {"collection_times": [{"days": "Mon-Sat", "time": "9:30am"}, {"days": "Sun", "time": "Closed"}], "id": "2615500029", "name": "USPS COLLECTION BOX - BLUE BOX", "address": {"city": "N MARTINSVLLE", "state": "WV", "street": "1250 N STATE ROUTE 2", "postcode": "26155"}}},
{"geometry": {"type": "Point", "coordinates": [-80.8589771126, 39.6579582309]}, "type": "Feature", "properties": {"collection_times": [{"days": "Mon-Sat", "time": "10:15am"}, {"days": "Sun", "time": "Closed"}], "id": "2615500030", "name": "USPS COLLECTION BOX - BLUE BOX", "address": {"city": "N MARTINSVLLE", "state": "WV", "street": "130 N BRIDGE ST", "postcode": "26155"}}},
{"geometry": {"type": "Point", "coordinates": [-80.8459143836, 39.6470945308]}, "type": "Feature", "properties": {"collection_times": [{"days": "Mon-Sat", "time": "1:00pm"}, {"days": "Sun", "time": "Closed"}], "id": "2615500031", "name": "USPS COLLECTION BOX - BLUE BOX", "address": {"city": "N MARTINSVLLE", "state": "WV", "street": "101 PADEN CITY GDNS", "postcode": "26155"}}},
{"geometry": {"type": "Point", "coordinates": [-80.9348907495, 39.6046463971]}, "type": "Feature", "properties": {"collection_times": [{"days": "Mon-Fri", "time": "3:45pm"}, {"days": "Sat", "time": "10:30am"}, {"days": "Sun", "time": "Closed"}], "id": "2615900008", "name": "USPS COLLECTION BOX - BLUE BOX", "address": {"city": "PADEN CITY", "state": "WV", "street": "213 W MAIN ST", "postcode": "26159"}}},
{"geometry": {"type": "Point", "coordinates": [-80.9348907495, 39.6046463971]}, "type": "Feature", "properties": {"collection_times": [{"days": "Mon-Fri", "time": "3:45pm"}, {"days": "Sat", "time": "10:30am"}, {"days": "Sun", "time": "Closed"}], "id": "2615900009", "name": "USPS COLLECTION BOX - PO LOBBY", "address": {"city": "PADEN CITY", "state": "WV", "street": "213 W MAIN ST", "postcode": "26159"}}},
{"geometry": {"type": "Point", "coordinates": [-81.4265494363, 38.9679166713]}, "type": "Feature", "properties": {"collection_times": [{"days": "Mon-Fri", "time": "11:45am"}, {"days": "Sat", "time": "10:30am"}, {"days": "Sun", "time": "Closed"}], "id": "2616000000", "name": "USPS COLLECTION BOX - BLUE BOX", "address": {"city": "PALESTINE", "state": "WV", "street": "2841 PALESTINE RD", "postcode": "26160"}}},
{"geometry": {"type": "Point", "coordinates": [-81.4265494363, 38.9679166713]}, "type": "Feature", "properties": {"collection_times": [{"days": "Mon-Fri", "time": "11:45am"}, {"days": "Sat", "time": "10:30am"}, {"days": "Sun", "time": "Closed"}], "id": "2616000001", "name": "USPS COLLECTION BOX - PO LOBBY", "address": {"city": "PALESTINE", "state": "WV", "street": "2841 PALESTINE RD", "postcode": "26160"}}},
{"geometry": {"type": "Point", "coordinates": [-81.7672101502, 38.9554482616]}, "type": "Feature", "properties": {"collection_times": [{"days": "Mon-Sat", "time": "12:30pm"}, {"days": "Sun", "time": "Closed"}], "id": "2616400006", "name": "USPS COLLECTION BOX - BLUE BOX", "address": {"city": "RAVENSWOOD", "state": "WV", "street": "716 WASHINGTON ST", "postcode": "26164"}}},
{"geometry": {"type": "Point", "coordinates": [-81.7672101502, 38.9554482616]}, "type": "Feature", "properties": {"collection_times": [{"days": "Mon-Sat", "time": "12:30pm"}, {"days": "Sun", "time": "Closed"}], "id": "2616400007", "name": "USPS COLLECTION BOX - PO LOBBY", "address": {"city": "RAVENSWOOD", "state": "WV", "street": "716 WASHINGTON ST", "postcode": "26164"}}},
{"geometry": {"type": "Point", "coordinates": [-81.7672101502, 38.9554482616]}, "type": "Feature", "properties": {"collection_times": [{"days": "Mon-Sat", "time": "12:30pm"}, {"days": "Sun", "time": "Closed"}], "id": "2616400008", "name": "USPS COLLECTION BOX - PO LOBBY", "address": {"city": "RAVENSWOOD", "state": "WV", "street": "716 WASHINGTON ST", "postcode": "26164"}}},
{"geometry": {"type": "Point", "coordinates": [-80.7451011623, 39.5791213342]}, "type": "Feature", "properties": {"collection_times": [{"days": "Mon-Fri", "time": "2:15pm"}, {"days": "Sat", "time": "9:15am"}, {"days": "Sun", "time": "Closed"}], "id": "2616700000", "name": "USPS COLLECTION BOX - BLUE BOX", "address": {"city": "READER", "state": "WV", "street": "9599 SHORTLINE RD", "postcode": "26167"}}},
{"geometry": {"type": "Point", "coordinates": [-80.7321499597, 39.5684679795]}, "type": "Feature", "properties": {"collection_times": [{"days": "Mon-Fri", "time": "11:45am"}, {"days": "Sat", "time": "9:15am"}, {"days": "Sun", "time": "Closed"}], "id": "2616700001", "name": "USPS COLLECTION BOX - PO LOBBY", "address": {"city": "READER", "state": "WV", "street": "9599 SHORTLINE RD", "postcode": "26167"}}},
{"geometry": {"type": "Point", "coordinates": [-81.2021741263, 39.3870225956]}, "type": "Feature", "properties": {"collection_times": [{"days": "Mon-Sat", "time": "12:30pm"}, {"days": "Sun", "time": "Closed"}], "id": "2617000003", "name": "USPS COLLECTION BOX - BLUE BOX", "address": {"city": "SAINT MARYS", "state": "WV", "street": "301 COURT LN", "postcode": "26170"}}},
{"geometry": {"type": "Point", "coordinates": [-81.2037044332, 39.393936837]}, "type": "Feature", "properties": {"collection_times": [{"days": "Mon-Fri", "time": "4:00pm"}, {"days": "Sat", "time": "11:30am"}, {"days": "Sun", "time": "Closed"}], "id": "2617000013", "name": "USPS COLLECTION BOX - BLUE BOX", "address": {"city": "SAINT MARYS", "state": "WV", "street": "402 2ND ST", "postcode": "26170"}}},
{"geometry": {"type": "Point", "coordinates": [-81.2037044332, 39.393936837]}, "type": "Feature", "properties": {"collection_times": [{"days": "Mon-Fri", "time": "4:00pm"}, {"days": "Sat", "time": "11:30am"}, {"days": "Sun", "time": "Closed"}], "id": "2617000014", "name": "USPS COLLECTION BOX - PO LOBBY", "address": {"city": "SAINT MARYS", "state": "WV", "street": "402 2ND ST", "postcode": "26170"}}},
{"geometry": {"type": "Point", "coordinates": [-81.2037044332, 39.393936837]}, "type": "Feature", "properties": {"collection_times": [{"days": "Mon-Fri", "time": "4:00pm"}, {"days": "Sat", "time": "11:30am"}, {"days": "Sun", "time": "Closed"}], "id": "2617000015", "name": "USPS COLLECTION BOX - BLUE BOX", "address": {"city": "SAINT MARYS", "state": "WV", "street": "402 2ND ST", "postcode": "26170"}}},
{"geometry": {"type": "Point", "coordinates": [-80.9950172968, 39.5647091629]}, "type": "Feature", "properties": {"collection_times": [{"days": "Mon-Fri", "time": "3:45pm"}, {"days": "Sat", "time": "11:30am"}, {"days": "Sun", "time": "Closed"}], "id": "2617500000", "name": "USPS COLLECTION BOX - BLUE BOX", "address": {"city": "SISTERSVILLE", "state": "WV", "street": "521 WELLS ST", "postcode": "26175"}}},
{"geometry": {"type": "Point", "coordinates": [-80.9960969203, 39.5639977341]}, "type": "Feature", "properties": {"collection_times": [{"days": "Mon-Fri", "time": "2:00pm"}, {"days": "Sat", "time": "11:30am"}, {"days": "Sun", "time": "Closed"}], "id": "2617500016", "name": "USPS COLLECTION BOX - BLUE BOX", "address": {"city": "SISTERSVILLE", "state": "WV", "street": "726 WELLS ST", "postcode": "26175"}}},
{"geometry": {"type": "Point", "coordinates": [-80.9947406725, 39.5627657126]}, "type": "Feature", "properties": {"collection_times": [{"days": "Mon-Fri", "time": "2:00pm"}, {"days": "Sat", "time": "11:30am"}, {"days": "Sun", "time": "Closed"}], "id": "2617500022", "name": "USPS COLLECTION BOX - BLUE BOX", "address": {"city": "SISTERSVILLE", "state": "WV", "street": "520 DIAMOND ST", "postcode": "26175"}}},
{"geometry": {"type": "Point", "coordinates": [-80.9950172968, 39.5647091629]}, "type": "Feature", "properties": {"collection_times": [{"days": "Mon-Fri", "time": "3:45pm"}, {"days": "Sat", "time": "11:30am"}, {"days": "Sun", "time": "Closed"}], "id": "2617500023", "name": "USPS COLLECTION BOX - PO LOBBY", "address": {"city": "SISTERSVILLE", "state": "WV", "street": "521 WELLS ST", "postcode": "26175"}}},
{"geometry": {"type": "Point", "coordinates": [-81.0958446752, 39.0779039014]}, "type": "Feature", "properties": {"collection_times": [{"days": "Mon-Fri", "time": "3:30pm"}, {"days": "Sat", "time": "11:30am"}, {"days": "Sun", "time": "Closed"}], "id": "2617800000", "name": "USPS COLLECTION BOX - BLUE BOX", "address": {"city": "SMITHVILLE", "state": "WV", "street": "11630 SMITHVILLE RD", "postcode": "26178"}}},
{"geometry": {"type": "Point", "coordinates": [-81.0958446752, 39.0779039014]}, "type": "Feature", "properties": {"collection_times": [{"days": "Mon-Fri", "time": "3:30pm"}, {"days": "Sat", "time": "11:30am"}, {"days": "Sun", "time": "Closed"}], "id": "2617800001", "name": "USPS COLLECTION BOX - PO LOBBY", "address": {"city": "SMITHVILLE", "state": "WV", "street": "11630 SMITHVILLE RD", "postcode": "26178"}}},
{"geometry": {"type": "Point", "coordinates": [-81.3646458333, 39.1848520725]}, "type": "Feature", "properties": {"collection_times": [{"days": "Mon-Fri", "time": "11:45am"}, {"days": "Sat", "time": "10:00am"}, {"days": "Sun", "time": "Closed"}], "id": "2618000000", "name": "USPS COLLECTION BOX - BLUE BOX", "address": {"city": "WALKER", "state": "WV", "street": "3928 WALKER RD", "postcode": "26180"}}},
{"geometry": {"type": "Point", "coordinates": [-81.3646458333, 39.1848520725]}, "type": "Feature", "properties": {"collection_times": [{"days": "Mon-Fri", "time": "11:45am"}, {"days": "Sat", "time": "10:00am"}, {"days": "Sun", "time": "Closed"}], "id": "2618000001", "name": "USPS COLLECTION BOX - PO LOBBY", "address": {"city": "WALKER", "state": "WV", "street": "3928 WALKER RD", "postcode": "26180"}}},
{"geometry": {"type": "Point", "coordinates": [-81.6330077893, 39.265289744]}, "type": "Feature", "properties": {"collection_times": [{"days": "Mon-Fri", "time": "4:30pm"}, {"days": "Sat", "time": "11:00am"}, {"days": "Sun", "time": "Closed"}], "id": "2618100000", "name": "USPS COLLECTION BOX - BLUE BOX", "address": {"city": "WASHINGTON", "state": "WV", "street": "8791 DUPONT RD", "postcode": "26181"}}},
{"geometry": {"type": "Point", "coordinates": [-81.6330077893, 39.265289744]}, "type": "Feature", "properties": {"collection_times": [{"days": "Mon-Fri", "time": "4:30pm"}, {"days": "Sat", "time": "11:00am"}, {"days": "Sun", "time": "Closed"}], "id": "2618100005", "name": "USPS COLLECTION BOX - PO LOBBY", "address": {"city": "WASHINGTON", "state": "WV", "street": "8791 DUPONT RD", "postcode": "26181"}}},
{"geometry": {"type": "Point", "coordinates": [-81.6501, 39.21341]}, "type": "Feature", "properties": {"collection_times": [{"days": "Mon-Sat", "time": "2:00pm"}, {"days": "Sun", "time": "Closed"}], "id": "2618100006", "name": "USPS COLLECTION BOX - BLUE BOX", "address": {"city": "WASHINGTON", "state": "WV", "street": "34 NEW ENGLAND RIDGE RD", "postcode": "26181"}}},
{"geometry": {"type": "Point", "coordinates": [-81.3804893976, 39.3338135213]}, "type": "Feature", "properties": {"collection_times": [{"days": "Mon-Fri", "time": "2:00pm"}, {"days": "Sat", "time": "10:00am"}, {"days": "Sun", "time": "Closed"}], "id": "2618400000", "name": "USPS COLLECTION BOX - BLUE BOX", "address": {"city": "WAVERLY", "state": "WV", "street": "64 WAVERLY ST", "postcode": "26184"}}},
{"geometry": {"type": "Point", "coordinates": [-81.3804893976, 39.3338135213]}, "type": "Feature", "properties": {"collection_times": [{"days": "Mon-Fri", "time": "2:00pm"}, {"days": "Sat", "time": "10:00am"}, {"days": "Sun", "time": "Closed"}], "id": "2618400001", "name": "USPS COLLECTION BOX - PO LOBBY", "address": {"city": "WAVERLY", "state": "WV", "street": "64 WAVERLY ST", "postcode": "26184"}}},
{"geometry": {"type": "Point", "coordinates": [-81.4473019689, 39.4017434872]}, "type": "Feature", "properties": {"collection_times": [{"days": "Mon-Fri", "time": "4:00pm"}, {"days": "Sat", "time": "11:30am"}, {"days": "Sun", "time": "Closed"}], "id": "2618700000", "name": "USPS COLLECTION BOX - BLUE BOX", "address": {"city": "WILLIAMSTOWN", "state": "WV", "street": "420 OAKWOOD AVE", "postcode": "26187"}}},
{"geometry": {"type": "Point", "coordinates": [-81.4473019689, 39.4017434872]}, "type": "Feature", "properties": {"collection_times": [{"days": "Mon-Fri", "time": "4:00pm"}, {"days": "Sat", "time": "11:30am"}, {"days": "Sun", "time": "Closed"}], "id": "2618700002", "name": "USPS COLLECTION BOX - PO LOBBY", "address": {"city": "WILLIAMSTOWN", "state": "WV", "street": "420 OAKWOOD AVE", "postcode": "26187"}}}
]}
