{"type": "FeatureCollection", "features": [
{"geometry": {"type": "Point", "coordinates": [-80.2062556596, 38.9984734948]}, "type": "Feature", "properties": {"collection_times": [{"days": "Mon-Fri", "time": "12:45pm"}, {"days": "Sat", "time": "10:00am"}, {"days": "Sun", "time": "Closed"}], "id": "2620100001", "name": "USPS COLLECTION BOX - BLUE BOX", "address": {"city": "BUCKHANNON", "state": "WV", "street": "5 WESTON RD", "postcode": "26201"}}},
{"geometry": {"type": "Point", "coordinates": [-80.2306751061, 38.9939695398]}, "type": "Feature", "properties": {"collection_times": [{"days": "Mon-Fri", "time": "12:45pm"}, {"days": "Sat", "time": "10:00am"}, {"days": "Sun", "time": "Closed"}], "id": "2620100002", "name": "USPS COLLECTION BOX - BLUE BOX", "address": {"city": "BUCKHANNON", "state": "WV", "street": "2 E MAIN ST", "postcode": "26201"}}},
{"geometry": {"type": "Point", "coordinates": [-80.2266801689, 38.9940199713]}, "type": "Feature", "properties": {"collection_times": [{"days": "Mon-Fri", "time": "1:00pm"}, {"days": "Sat", "time": "9:30am"}, {"days": "Sun", "time": "Closed"}], "id": "2620100004", "name": "USPS COLLECTION BOX - BLUE BOX", "address": {"city": "BUCKHANNON", "state": "WV", "street": "70 E MAIN ST", "postcode": "26201"}}},
{"geometry": {"type": "Point", "coordinates": [-80.231276803, 38.9937852527]}, "type": "Feature", "properties": {"collection_times": [{"days": "Mon-Fri", "time": "1:00pm"}, {"days": "Sat", "time": "9:30am"}, {"days": "Sun", "time": "Closed"}], "id": "2620100021", "name": "USPS COLLECTION BOX - BLUE BOX", "address": {"city": "BUCKHANNON", "state": "WV", "street": "40 W MAIN ST", "postcode": "26201"}}},
{"geometry": {"type": "Point", "coordinates": [-80.229245608, 38.9938012984]}, "type": "Feature", "properties": {"collection_times": [{"days": "Mon-Sat", "time": "1:15pm"}, {"days": "Sun", "time": "Closed"}], "id": "2620100023", "name": "USPS COLLECTION BOX - BLUE BOX", "address": {"city": "BUCKHANNON", "state": "WV", "street": "11 S SPRING ST", "postcode": "26201"}}},
{"geometry": {"type": "Point", "coordinates": [-80.229245608, 38.9938012984]}, "type": "Feature", "properties": {"collection_times": [{"days": "Mon-Fri", "time": "4:30pm"}, {"days": "Sat", "time": "3:00pm"}, {"days": "Sun", "time": "Closed"}], "id": "2620100026", "name": "USPS COLLECTION BOX - PO LOBBY", "address": {"city": "BUCKHANNON", "state": "WV", "street": "11 S SPRING ST", "postcode": "26201"}}},
{"geometry": {"type": "Point", "coordinates": [-80.6423173121, 38.2516193825]}, "type": "Feature", "properties": {"collection_times": [{"days": "Mon-Sat", "time": "12:45pm"}, {"days": "Sun", "time": "Closed"}], "id": "2620200000", "name": "USPS COLLECTION BOX - BLUE BOX", "address": {"city": "FENWICK", "state": "WV", "street": "2643 RICHWOOD RD", "postcode": "26202"}}},
{"geometry": {"type": "Point", "coordinates": [-80.6423173121, 38.2516193825]}, "type": "Feature", "properties": {"collection_times": [{"days": "Mon-Sat", "time": "12:45pm"}, {"days": "Sun", "time": "Closed"}], "id": "2620200001", "name": "USPS COLLECTION BOX - PO LOBBY", "address": {"city": "FENWICK", "state": "WV", "street": "2643 RICHWOOD RD", "postcode": "26202"}}},
{"geometry": {"type": "Point", "coordinates": [-80.5676891586, 38.5434798813]}, "type": "Feature", "properties": {"collection_times": [{"days": "Mon-Fri", "time": "12:00pm"}, {"days": "Sat", "time": "10:00am"}, {"days": "Sun", "time": "Closed"}], "id": "2620300000", "name": "USPS COLLECTION BOX - BLUE BOX", "address": {"city": "ERBACON", "state": "WV", "street": "5776 ERBACON RD", "postcode": "26203"}}},
{"geometry": {"type": "Point", "coordinates": [-80.5676891586, 38.5434798813]}, "type": "Feature", "properties": {"collection_times": [{"days": "Mon-Fri", "time": "12:00pm"}, {"days": "Sat", "time": "10:00am"}, {"days": "Sun", "time": "Closed"}], "id": "2620300001", "name": "USPS COLLECTION BOX - PO LOBBY", "address": {"city": "ERBACON", "state": "WV", "street": "5776 ERBACON RD", "postcode": "26203"}}},
{"geometry": {"type": "Point", "coordinates": [-80.6174081093, 38.3151710961]}, "type": "Feature", "properties": {"collection_times": [{"days": "Mon-Fri", "time": "3:45pm"}, {"days": "Sat", "time": "10:30am"}, {"days": "Sun", "time": "Closed"}], "id": "2620500000", "name": "USPS COLLECTION BOX - BLUE BOX", "address": {"city": "CRAIGSVILLE", "state": "WV", "street": "25 RED OAK DR", "postcode": "26205"}}},
{"geometry": {"type": "Point", "coordinates": [-80.6174081093, 38.3151710961]}, "type": "Feature", "properties": {"collection_times": [{"days": "Mon-Fri", "time": "3:45pm"}, {"days": "Sat", "time": "10:30am"}, {"days": "Sun", "time": "Closed"}], "id": "2620500001", "name": "USPS COLLECTION BOX - PO LOBBY", "address": {"city": "CRAIGSVILLE", "state": "WV", "street": "25 RED OAK DR", "postcode": "26205"}}},
{"geometry": {"type": "Point", "coordinates": [-80.5593273615, 38.4081490785]}, "type": "Feature", "properties": {"collection_times": [{"days": "Mon-Fri", "time": "4:00pm"}, {"days": "Sat", "time": "11:00am"}, {"days": "Sun", "time": "Closed"}], "id": "2620600000", "name": "USPS COLLECTION BOX - BLUE BOX", "address": {"city": "COWEN", "state": "WV", "street": "25 ERBACON RD", "postcode": "26206"}}},
{"geometry": {"type": "Point", "coordinates": [-80.5593273615, 38.4081490785]}, "type": "Feature", "properties": {"collection_times": [{"days": "Mon-Fri", "time": "4:00pm"}, {"days": "Sat", "time": "11:00am"}, {"days": "Sun", "time": "Closed"}], "id": "2620600001", "name": "USPS COLLECTION BOX - PO LOBBY", "address": {"city": "COWEN", "state": "WV", "street": "25 ERBACON RD", "postcode": "26206"}}},
{"geometry": {"type": "Point", "coordinates": [-80.5593273615, 38.4081490785]}, "type": "Feature", "properties": {"collection_times": [{"days": "Mon-Fri", "time": "4:00pm"}, {"days": "Sat", "time": "11:00am"}, {"days": "Sun", "time": "Closed"}], "id": "2620600002", "name": "USPS COLLECTION BOX - PO LOBBY", "address": {"city": "COWEN", "state": "WV", "street": "25 ERBACON RD", "postcode": "26206"}}},
{"geometry": {"type": "Point", "coordinates": [-80.5863454866, 38.3766825624]}, "type": "Feature", "properties": {"collection_times": [{"days": "Mon-Fri", "time": "12:45pm"}, {"days": "Sat", "time": "9:30am"}, {"days": "Sun", "time": "Closed"}], "id": "2620800000", "name": "USPS COLLECTION BOX - BLUE BOX", "address": {"city": "CAMDEN ON GLY", "state": "WV", "street": "9652 WEBSTER RD", "postcode": "26208"}}},
{"geometry": {"type": "Point", "coordinates": [-80.5863454866, 38.3766825624]}, "type": "Feature", "properties": {"collection_times": [{"days": "Mon-Fri", "time": "11:45am"}, {"days": "Sat", "time": "9:30am"}, {"days": "Sun", "time": "Closed"}], "id": "2620800001", "name": "USPS COLLECTION BOX - PO LOBBY", "address": {"city": "CAMDEN ON GLY", "state": "WV", "street": "9652 WEBSTER RD", "postcode": "26208"}}},
{"geometry": {"type": "Point", "coordinates": [-80.3006014672, 38.9163421753]}, "type": "Feature", "properties": {"collection_times": [{"days": "Mon-Fri", "time": "12:00pm"}, {"days": "Sat", "time": "10:45am"}, {"days": "Sun", "time": "Closed"}], "id": "2621000000", "name": "USPS COLLECTION BOX - BLUE BOX", "address": {"city": "ADRIAN", "state": "WV", "street": "6167 ROUTE 20 SOUTH RD", "postcode": "26210"}}},
{"geometry": {"type": "Point", "coordinates": [-80.3152684068, 38.9006275988]}, "type": "Feature", "properties": {"collection_times": [{"days": "Mon-Fri", "time": "12:00pm"}, {"days": "Sat", "time": "10:45am"}, {"days": "Sun", "time": "Closed"}], "id": "2621000001", "name": "USPS COLLECTION BOX - PO LOBBY", "address": {"city": "ADRIAN", "state": "WV", "street": "6167 ROUTE 20 SOUTH RD", "postcode": "26210"}}},
{"geometry": {"type": "Point", "coordinates": [-80.4354467519, 38.6020162239]}, "type": "Feature", "properties": {"collection_times": [{"days": "Mon-Fri", "time": "2:20pm"}, {"days": "Sat", "time": "10:00am"}, {"days": "Sun", "time": "Closed"}], "id": "2621700000", "name": "USPS COLLECTION BOX - BLUE BOX", "address": {"city": "DIANA", "state": "WV", "street": "4632 DIANA DR", "postcode": "26217"}}},
{"geometry": {"type": "Point", "coordinates": [-80.4354467519, 38.6020162239]}, "type": "Feature", "properties": {"collection_times": [{"days": "Mon-Fri", "time": "2:20pm"}, {"days": "Sat", "time": "10:00am"}, {"days": "Sun", "time": "Closed"}], "id": "2621700001", "name": "USPS COLLECTION BOX - PO LOBBY", "address": {"city": "DIANA", "state": "WV", "street": "4632 DIANA DR", "postcode": "26217"}}},
{"geometry": {"type": "Point", "coordinates": [-80.2577988979, 38.8347237595]}, "type": "Feature", "properties": {"collection_times": [{"days": "Mon-Fri", "time": "2:15pm"}, {"days": "Sat", "time": "10:55am"}, {"days": "Sun", "time": "Closed"}], "id": "2621800000", "name": "USPS COLLECTION BOX - BLUE BOX", "address": {"city": "FRENCH CREEK", "state": "WV", "street": "7688 RT 20 SOUTH RD", "postcode": "26218"}}},
{"geometry": {"type": "Point", "coordinates": [-80.255698382, 38.8914466026]}, "type": "Feature", "properties": {"collection_times": [{"days": "Mon-Fri", "time": "2:15pm"}, {"days": "Sat", "time": "10:55am"}, {"days": "Sun", "time": "Closed"}], "id": "2621800001", "name": "USPS COLLECTION BOX - PO LOBBY", "address": {"city": "FRENCH CREEK", "state": "WV", "street": "7688 RT 20 SOUTH RD", "postcode": "26218"}}},
{"geometry": {"type": "Point", "coordinates": [-80.1804168161, 38.7255977425]}, "type": "Feature", "properties": {"collection_times": [{"days": "Mon-Fri", "time": "12:45pm"}, {"days": "Sat", "time": "10:45am"}, {"days": "Sun", "time": "Closed"}], "id": "2622400000", "name": "USPS COLLECTION BOX - BLUE BOX", "address": {"city": "HELVETIA", "state": "WV", "street": "4916 PICKENS RD", "postcode": "26224"}}},
{"geometry": {"type": "Point", "coordinates": [-80.1850788586, 38.7224590109]}, "type": "Feature", "properties": {"collection_times": [{"days": "Mon-Fri", "time": "12:45pm"}, {"days": "Sat", "time": "10:45am"}, {"days": "Sun", "time": "Closed"}], "id": "2622400001", "name": "USPS COLLECTION BOX - PO LOBBY", "address": {"city": "HELVETIA", "state": "WV", "street": "PO BOX 9998", "postcode": "26224"}}},
{"geometry": {"type": "Point", "coordinates": [-80.2291842878, 38.9935320043]}, "type": "Feature", "properties": {"collection_times": [{"days": "Mon-Sat", "time": "12:30pm"}, {"days": "Sun", "time": "Closed"}], "id": "2622900000", "name": "USPS COLLECTION BOX - BLUE BOX", "address": {"city": "LORENTZ", "state": "WV", "street": "PO BOX 9998", "postcode": "26229"}}},
{"geometry": {"type": "Point", "coordinates": [-80.1869329831, 38.6321496532]}, "type": "Feature", "properties": {"collection_times": [{"days": "Mon-Fri", "time": "11:45am"}, {"days": "Sat", "time": "8:00am"}, {"days": "Sun", "time": "Closed"}], "id": "2623000001", "name": "USPS COLLECTION BOX - PO LOBBY", "address": {"city": "PICKENS", "state": "WV", "street": "PO BOX 9998", "postcode": "26230"}}},
{"geometry": {"type": "Point", "coordinates": [-80.302896035, 38.7719818933]}, "type": "Feature", "properties": {"collection_times": [{"days": "Mon-Fri", "time": "3:00pm"}, {"days": "Sat", "time": "10:30am"}, {"days": "Sun", "time": "Closed"}], "id": "2623400000", "name": "USPS COLLECTION BOX - BLUE BOX", "address": {"city": "ROCK CAVE", "state": "WV", "street": "PO BOX 9998", "postcode": "26234"}}},
{"geometry": {"type": "Point", "coordinates": [-80.302896035, 38.7719818933]}, "type": "Feature", "properties": {"collection_times": [{"days": "Mon-Fri", "time": "3:00pm"}, {"days": "Sat", "time": "10:30am"}, {"days": "Sun", "time": "Closed"}], "id": "2623400001", "name": "USPS COLLECTION BOX - PO LOBBY", "address": {"city": "ROCK CAVE", "state": "WV", "street": "PO BOX 9998", "postcode": "26234"}}},
{"geometry": {"type": "Point", "coordinates": [-80.1332336736, 38.8295397119]}, "type": "Feature", "properties": {"collection_times": [{"days": "Mon-Fri", "time": "1:15pm"}, {"days": "Sat", "time": "9:45am"}, {"days": "Sun", "time": "Closed"}], "id": "2623700000", "name": "USPS COLLECTION BOX - BLUE BOX", "address": {"city": "TALLMANSVILLE", "state": "WV", "street": "6376 TALLMANSVILLE RD", "postcode": "26237"}}},
{"geometry": {"type": "Point", "coordinates": [-80.1332336736, 38.8295397119]}, "type": "Feature", "properties": {"collection_times": [{"days": "Mon-Fri", "time": "1:15pm"}, {"days": "Sat", "time": "9:45am"}, {"days": "Sun", "time": "Closed"}], "id": "2623700001", "name": "USPS COLLECTION BOX - PO LOBBY", "address": {"city": "TALLMANSVILLE", "state": "WV", "street": "6376 TALLMANSVILLE RD", "postcode": "26237"}}},
{"geometry": {"type": "Point", "coordinates": [-80.0829741437, 39.0661355392]}, "type": "Feature", "properties": {"collection_times": [{"days": "Mon-Fri", "time": "1:15pm"}, {"days": "Sat", "time": "11:30am"}, {"days": "Sun", "time": "Closed"}], "id": "2623800000", "name": "USPS COLLECTION BOX - BLUE BOX", "address": {"city": "VOLGA", "state": "WV", "street": "14271 AUDRA PARK RD", "postcode": "26238"}}},
{"geometry": {"type": "Point", "coordinates": [-80.0818798109, 39.0568908019]}, "type": "Feature", "properties": {"collection_times": [{"days": "Mon-Fri", "time": "1:15pm"}, {"days": "Sat", "time": "11:30am"}, {"days": "Sun", "time": "Closed"}], "id": "2623800001", "name": "USPS COLLECTION BOX - PO LOBBY", "address": {"city": "VOLGA", "state": "WV", "street": "14271 AUDRA PARK RD", "postcode": "26238"}}},
{"geometry": {"type": "Point", "coordinates": [-79.8466145152, 38.9249990045]}, "type": "Feature", "properties": {"collection_times": [{"days": "Mon-Sat", "time": "12:00pm"}, {"days": "Sun", "time": "Closed"}], "id": "2624100000", "name": "USPS COLLECTION BOX - BLUE BOX", "address": {"city": "ELKINS", "state": "WV", "street": "300 3RD ST", "postcode": "26241"}}},
{"geometry": {"type": "Point", "coordinates": [-79.8595973533, 38.9301098273]}, "type": "Feature", "properties": {"collection_times": [{"days": "Mon-Fri", "time": "11:00am"}, {"days": "Sat", "time": "12:00pm"}, {"days": "Sun", "time": "Closed"}], "id": "2624100002", "name": "USPS COLLECTION BOX - BLUE BOX", "address": {"city": "ELKINS", "state": "WV", "street": "1200 HARRISON AVE", "postcode": "26241"}}},
{"geometry": {"type": "Point", "coordinates": [-79.8444223643, 38.9178146418]}, "type": "Feature", "properties": {"collection_times": [{"days": "Mon-Sat", "time": "11:30am"}, {"days": "Sun", "time": "Closed"}], "id": "2624100006", "name": "USPS COLLECTION BOX - BLUE BOX", "address": {"city": "ELKINS", "state": "WV", "street": "450 11TH ST", "postcode": "26241"}}},
{"geometry": {"type": "Point", "coordinates": [-79.8496186014, 38.9252382659]}, "type": "Feature", "properties": {"collection_times": [{"days": "Mon-Sat", "time": "11:15am"}, {"days": "Sun", "time": "Closed"}], "id": "2624100008", "name": "USPS COLLECTION BOX - BLUE BOX", "address": {"city": "ELKINS", "state": "WV", "street": "301 DAVIS AVE", "postcode": "26241"}}},
{"geometry": {"type": "Point", "coordinates": [-79.8428714705, 38.922534277]}, "type": "Feature", "properties": {"collection_times": [{"days": "Mon-Sat", "time": "11:30am"}, {"days": "Sun", "time": "Closed"}], "id": "2624100011", "name": "USPS COLLECTION BOX - BLUE BOX", "address": {"city": "ELKINS", "state": "WV", "street": "4 RANDOLPH AVE", "postcode": "26241"}}},
{"geometry": {"type": "Point", "coordinates": [-79.8545199081, 38.9277323704]}, "type": "Feature", "properties": {"collection_times": [{"days": "Mon-Fri", "time": "11:00am"}, {"days": "Sat", "time": "10:00am"}, {"days": "Sun", "time": "Closed"}], "id": "2624100017", "name": "USPS COLLECTION BOX - BLUE BOX", "address": {"city": "ELKINS", "state": "WV", "street": "909 GORMAN AVE", "postcode": "26241"}}},
{"geometry": {"type": "Point", "coordinates": [-79.8495396229, 38.9263518058]}, "type": "Feature", "properties": {"collection_times": [{"days": "Mon-Sat", "time": "11:15am"}, {"days": "Sun", "time": "Closed"}], "id": "2624100018", "name": "USPS COLLECTION BOX - BLUE BOX", "address": {"city": "ELKINS", "state": "WV", "street": "401 DAVIS AVE", "postcode": "26241"}}},
{"geometry": {"type": "Point", "coordinates": [-79.8466145152, 38.9249990045]}, "type": "Feature", "properties": {"collection_times": [{"days": "Mon-Fri", "time": "5:15pm"}, {"days": "Sat", "time": "4:45pm"}, {"days": "Sun", "time": "Closed"}], "id": "2624100022", "name": "USPS COLLECTION BOX - PO LOBBY", "address": {"city": "ELKINS", "state": "WV", "street": "300 3RD ST", "postcode": "26241"}}},
{"geometry": {"type": "Point", "coordinates": [-79.8252707373, 38.9431935913]}, "type": "Feature", "properties": {"collection_times": [{"days": "Mon-Sat", "time": "11:00am"}, {"days": "Sun", "time": "Closed"}], "id": "2624100024", "name": "USPS COLLECTION BOX - BLUE BOX", "address": {"city": "ELKINS", "state": "WV", "street": "745 BEVERLY PIKE", "postcode": "26241"}}},
{"geometry": {"type": "Point", "coordinates": [-79.8252707373, 38.9431935913]}, "type": "Feature", "properties": {"collection_times": [{"days": "Mon-Sat", "time": "11:00am"}, {"days": "Sun", "time": "Closed"}], "id": "2624100025", "name": "USPS COLLECTION BOX - BLUE BOX", "address": {"city": "ELKINS", "state": "WV", "street": "761 BEVERLY PIKE", "postcode": "26241"}}},
{"geometry": {"type": "Point", "coordinates": [-79.8466145152, 38.9249990045]}, "type": "Feature", "properties": {"collection_times": [{"days": "Mon-Sat", "time": "12:00pm"}, {"days": "Sun", "time": "Closed"}], "id": "2624100026", "name": "USPS COLLECTION BOX - BLUE BOX", "address": {"city": "ELKINS", "state": "WV", "street": "300 3RD ST", "postcode": "26241"}}},
{"geometry": {"type": "Point", "coordinates": [-79.9393494845, 39.0177903694]}, "type": "Feature", "properties": {"collection_times": [{"days": "Mon-Fri", "time": "3:45pm"}, {"days": "Sat", "time": "10:45am"}, {"days": "Sun", "time": "Closed"}], "id": "2625000000", "name": "USPS COLLECTION BOX - BLUE BOX", "address": {"city": "BELINGTON", "state": "WV", "street": "801 CRIM AVE", "postcode": "26250"}}},
{"geometry": {"type": "Point", "coordinates": [-79.9393494845, 39.0177903694]}, "type": "Feature", "properties": {"collection_times": [{"days": "Mon-Fri", "time": "4:00pm"}, {"days": "Sat", "time": "10:45am"}, {"days": "Sun", "time": "Closed"}], "id": "2625000002", "name": "USPS COLLECTION BOX - PO LOBBY", "address": {"city": "BELINGTON", "state": "WV", "street": "801 CRIM AVE", "postcode": "26250"}}},
{"geometry": {"type": "Point", "coordinates": [-79.8384726717, 38.7829432497]}, "type": "Feature", "properties": {"collection_times": [{"days": "Mon-Fri", "time": "4:00pm"}, {"days": "Sat", "time": "11:00am"}, {"days": "Sun", "time": "Closed"}], "id": "2625300000", "name": "USPS COLLECTION BOX - BLUE BOX", "address": {"city": "BEVERLY", "state": "WV", "street": "PO BOX 9998", "postcode": "26253"}}},
{"geometry": {"type": "Point", "coordinates": [-79.8384726717, 38.7829432497]}, "type": "Feature", "properties": {"collection_times": [{"days": "Mon-Fri", "time": "4:00pm"}, {"days": "Sat", "time": "11:00am"}, {"days": "Sun", "time": "Closed"}], "id": "2625300001", "name": "USPS COLLECTION BOX - PO LOBBY", "address": {"city": "BEVERLY", "state": "WV", "street": "PO BOX 9998", "postcode": "26253"}}},
{"geometry": {"type": "Point", "coordinates": [-79.6438066548, 38.9499536864]}, "type": "Feature", "properties": {"collection_times": [{"days": "Mon-Fri", "time": "12:30pm"}, {"days": "Sat", "time": "8:30am"}, {"days": "Sun", "time": "Closed"}], "id": "2625400000", "name": "USPS COLLECTION BOX - BLUE BOX", "address": {"city": "BOWDEN", "state": "WV", "street": "PO BOX 9998", "postcode": "26254"}}},
{"geometry": {"type": "Point", "coordinates": [-79.6438066548, 38.9499536864]}, "type": "Feature", "properties": {"collection_times": [{"days": "Mon-Fri", "time": "12:30pm"}, {"days": "Sat", "time": "8:30am"}, {"days": "Sun", "time": "Closed"}], "id": "2625400001", "name": "USPS COLLECTION BOX - PO LOBBY", "address": {"city": "BOWDEN", "state": "WV", "street": "PO BOX 9998", "postcode": "26254"}}},
{"geometry": {"type": "Point", "coordinates": [-80.0027651466, 38.9047883516]}, "type": "Feature", "properties": {"collection_times": [{"days": "Mon-Fri", "time": "2:15pm"}, {"days": "Sat", "time": "9:45am"}, {"days": "Sun", "time": "Closed"}], "id": "2625700000", "name": "USPS COLLECTION BOX - BLUE BOX", "address": {"city": "COALTON", "state": "WV", "street": "11 CHURCH ST", "postcode": "26257"}}},
{"geometry": {"type": "Point", "coordinates": [-80.0099492152, 38.9192459474]}, "type": "Feature", "properties": {"collection_times": [{"days": "Mon-Fri", "time": "2:15pm"}, {"days": "Sat", "time": "9:45am"}, {"days": "Sun", "time": "Closed"}], "id": "2625700001", "name": "USPS COLLECTION BOX - PO LOBBY", "address": {"city": "COALTON", "state": "WV", "street": "11 CHURCH ST", "postcode": "26257"}}},
{"geometry": {"type": "Point", "coordinates": [-79.8965628877, 38.7983516632]}, "type": "Feature", "properties": {"collection_times": [{"days": "Mon-Fri", "time": "11:45am"}, {"days": "Sat", "time": "9:45am"}, {"days": "Sun", "time": "Closed"}], "id": "2625900000", "name": "USPS COLLECTION BOX - BLUE BOX", "address": {"city": "DAILEY", "state": "WV", "street": "3391 SENECA TRL", "postcode": "26259"}}},
{"geometry": {"type": "Point", "coordinates": [-79.8962969069, 38.7985981799]}, "type": "Feature", "properties": {"collection_times": [{"days": "Mon-Fri", "time": "11:45am"}, {"days": "Sat", "time": "9:45am"}, {"days": "Sun", "time": "Closed"}], "id": "2625900001", "name": "USPS COLLECTION BOX - PO LOBBY", "address": {"city": "DAILEY", "state": "WV", "street": "3391 SENECA TRL", "postcode": "26259"}}},
{"geometry": {"type": "Point", "coordinates": [-79.4037195618, 39.0848998468]}, "type": "Feature", "properties": {"collection_times": [{"days": "Mon-Fri", "time": "3:45pm"}, {"days": "Sat", "time": "11:00am"}, {"days": "Sun", "time": "Closed"}], "id": "2626000000", "name": "USPS COLLECTION BOX - BLUE BOX", "address": {"city": "DAVIS", "state": "WV", "street": "421 WILLIAM AVE", "postcode": "26260"}}},
{"geometry": {"type": "Point", "coordinates": [-79.4037195618, 39.0848998468]}, "type": "Feature", "properties": {"collection_times": [{"days": "Mon-Fri", "time": "3:45pm"}, {"days": "Sat", "time": "11:00am"}, {"days": "Sun", "time": "Closed"}], "id": "2626000002", "name": "USPS COLLECTION BOX - PO LOBBY", "address": {"city": "DAVIS", "state": "WV", "street": "421 WILLIAM AVE", "postcode": "26260"}}},
{"geometry": {"type": "Point", "coordinates": [-80.5325581076, 38.2254282417]}, "type": "Feature", "properties": {"collection_times": [{"days": "Mon-Fri", "time": "4:15pm"}, {"days": "Sat", "time": "12:00pm"}, {"days": "Sun", "time": "Closed"}], "id": "2626100007", "name": "USPS COLLECTION BOX - BLUE BOX", "address": {"city": "RICHWOOD", "state": "WV", "street": "22 E MAIN ST", "postcode": "26261"}}},
{"geometry": {"type": "Point", "coordinates": [-80.5325581076, 38.2254282417]}, "type": "Feature", "properties": {"collection_times": [{"days": "Mon-Fri", "time": "4:30pm"}, {"days": "Sat", "time": "12:00pm"}, {"days": "Sun", "time": "Closed"}], "id": "2626100009", "name": "USPS COLLECTION BOX - PO LOBBY", "address": {"city": "RICHWOOD", "state": "WV", "street": "22 E MAIN ST", "postcode": "26261"}}},
{"geometry": {"type": "Point", "coordinates": [-79.4270147528, 38.9512210266]}, "type": "Feature", "properties": {"collection_times": [{"days": "Mon-Fri", "time": "12:45pm"}, {"days": "Sat", "time": "11:15am"}, {"days": "Sun", "time": "Closed"}], "id": "2626300000", "name": "USPS COLLECTION BOX - BLUE BOX", "address": {"city": "DRY FORK", "state": "WV", "street": "PO BOX 9998", "postcode": "26263"}}},
{"geometry": {"type": "Point", "coordinates": [-79.4270147528, 38.9512210266]}, "type": "Feature", "properties": {"collection_times": [{"days": "Mon-Fri", "time": "12:45pm"}, {"days": "Sat", "time": "11:15am"}, {"days": "Sun", "time": "Closed"}], "id": "2626300001", "name": "USPS COLLECTION BOX - PO LOBBY", "address": {"city": "DRY FORK", "state": "WV", "street": "PO BOX 9998", "postcode": "26263"}}},
{"geometry": {"type": "Point", "coordinates": [-79.7802645305, 38.6400961038]}, "type": "Feature", "properties": {"collection_times": [{"days": "Mon-Fri", "time": "12:30pm"}, {"days": "Sat", "time": "11:15am"}, {"days": "Sun", "time": "Closed"}], "id": "2626400000", "name": "USPS COLLECTION BOX - BLUE BOX", "address": {"city": "DURBIN", "state": "WV", "street": "4345 STAUNTON PARKERSBURG TPKE", "postcode": "26264"}}},
{"geometry": {"type": "Point", "coordinates": [-79.8416722486, 38.5682383882]}, "type": "Feature", "properties": {"collection_times": [{"days": "Mon-Fri", "time": "12:30pm"}, {"days": "Sat", "time": "11:15am"}, {"days": "Sun", "time": "Closed"}], "id": "2626400001", "name": "USPS COLLECTION BOX - PO LOBBY", "address": {"city": "DURBIN", "state": "WV", "street": "4345 STAUNTON PARKERSBURG TPKE", "postcode": "26264"}}},
{"geometry": {"type": "Point", "coordinates": [-80.482636971, 38.4360424969]}, "type": "Feature", "properties": {"collection_times": [{"days": "Mon-Fri", "time": "11:45am"}, {"days": "Sat", "time": "9:30am"}, {"days": "Sun", "time": "Closed"}], "id": "2626600000", "name": "USPS COLLECTION BOX - BLUE BOX", "address": {"city": "UPPERGLADE", "state": "WV", "street": "85 PLEASANT RIDGE RD", "postcode": "26266"}}},
{"geometry": {"type": "Point", "coordinates": [-80.482636971, 38.4360424969]}, "type": "Feature", "properties": {"collection_times": [{"days": "Mon-Fri", "time": "11:45am"}, {"days": "Sat", "time": "9:30am"}, {"days": "Sun", "time": "Closed"}], "id": "2626600001", "name": "USPS COLLECTION BOX - PO LOBBY", "address": {"city": "UPPERGLADE", "state": "WV", "street": "85 PLEASANT RIDGE RD", "postcode": "26266"}}},
{"geometry": {"type": "Point", "coordinates": [-79.6023239947, 39.1100434792]}, "type": "Feature", "properties": {"collection_times": [{"days": "Mon-Fri", "time": "12:45pm"}, {"days": "Sat", "time": "9:00am"}, {"days": "Sun", "time": "Closed"}], "id": "2626900000", "name": "USPS COLLECTION BOX - BLUE BOX", "address": {"city": "HAMBLETON", "state": "WV", "street": "197 CENTER ST", "postcode": "26269"}}},
{"geometry": {"type": "Point", "coordinates": [-79.6023239947, 39.1100434792]}, "type": "Feature", "properties": {"collection_times": [{"days": "Mon-Fri", "time": "12:30pm"}, {"days": "Sat", "time": "9:00am"}, {"days": "Sun", "time": "Closed"}], "id": "2626900001", "name": "USPS COLLECTION BOX - PO LOBBY", "address": {"city": "HAMBLETON", "state": "WV", "street": "197 CENTER ST", "postcode": "26269"}}},
{"geometry": {"type": "Point", "coordinates": [-79.5369266814, 38.9172457946]}, "type": "Feature", "properties": {"collection_times": [{"days": "Mon-Fri", "time": "3:45pm"}, {"days": "Sat", "time": "11:30am"}, {"days": "Sun", "time": "Closed"}], "id": "2627000000", "name": "USPS COLLECTION BOX - BLUE BOX", "address": {"city": "HARMAN", "state": "WV", "street": "PO BOX 9998", "postcode": "26270"}}},
{"geometry": {"type": "Point", "coordinates": [-79.5369266814, 38.9172457946]}, "type": "Feature", "properties": {"collection_times": [{"days": "Mon-Fri", "time": "3:45pm"}, {"days": "Sat", "time": "11:30am"}, {"days": "Sun", "time": "Closed"}], "id": "2627000001", "name": "USPS COLLECTION BOX - PO LOBBY", "address": {"city": "HARMAN", "state": "WV", "street": "PO BOX 9998", "postcode": "26270"}}},
{"geometry": {"type": "Point", "coordinates": [-79.6082529306, 39.0630907969]}, "type": "Feature", "properties": {"collection_times": [{"days": "Mon-Fri", "time": "12:30pm"}, {"days": "Sat", "time": "9:15am"}, {"days": "Sun", "time": "Closed"}], "id": "2627100000", "name": "USPS COLLECTION BOX - BLUE BOX", "address": {"city": "HENDRICKS", "state": "WV", "street": "43 SECOND ST", "postcode": "26271"}}},
{"geometry": {"type": "Point", "coordinates": [-79.6082529306, 39.0630907969]}, "type": "Feature", "properties": {"collection_times": [{"days": "Mon-Fri", "time": "12:30pm"}, {"days": "Sat", "time": "9:15am"}, {"days": "Sun", "time": "Closed"}], "id": "2627100001", "name": "USPS COLLECTION BOX - PO LOBBY", "address": {"city": "HENDRICKS", "state": "WV", "street": "43 SECOND ST", "postcode": "26271"}}},
{"geometry": {"type": "Point", "coordinates": [-79.9548292811, 38.635072208]}, "type": "Feature", "properties": {"collection_times": [{"days": "Mon-Fri", "time": "3:00pm"}, {"days": "Sat", "time": "10:45am"}, {"days": "Sun", "time": "Closed"}], "id": "2627300000", "name": "USPS COLLECTION BOX - BLUE BOX", "address": {"city": "HUTTONSVILLE", "state": "WV", "street": "231 S AND P TPKE", "postcode": "26273"}}},
{"geometry": {"type": "Point", "coordinates": [-79.9548292811, 38.635072208]}, "type": "Feature", "properties": {"collection_times": [{"days": "Mon-Fri", "time": "3:00pm"}, {"days": "Sat", "time": "10:45am"}, {"days": "Sun", "time": "Closed"}], "id": "2627300001", "name": "USPS COLLECTION BOX - PO LOBBY", "address": {"city": "HUTTONSVILLE", "state": "WV", "street": "231 S AND P TPKE", "postcode": "26273"}}},
{"geometry": {"type": "Point", "coordinates": [-79.9520615918, 38.9758162359]}, "type": "Feature", "properties": {"collection_times": [{"days": "Mon-Fri", "time": "11:45am"}, {"days": "Sat", "time": "10:30am"}, {"days": "Sun", "time": "Closed"}], "id": "2627500000", "name": "USPS COLLECTION BOX - BLUE BOX", "address": {"city": "JUNIOR", "state": "WV", "street": "204 BEECH ST", "postcode": "26275"}}},
{"geometry": {"type": "Point", "coordinates": [-79.9520615918, 38.9758162359]}, "type": "Feature", "properties": {"collection_times": [{"days": "Mon-Fri", "time": "11:45am"}, {"days": "Sat", "time": "10:30am"}, {"days": "Sun", "time": "Closed"}], "id": "2627500001", "name": "USPS COLLECTION BOX - PO LOBBY", "address": {"city": "JUNIOR", "state": "WV", "street": "204 BEECH ST", "postcode": "26275"}}},
{"geometry": {"type": "Point", "coordinates": [-79.7497418061, 39.0331235994]}, "type": "Feature", "properties": {"collection_times": [{"days": "Mon-Fri", "time": "11:30am"}, {"days": "Sat", "time": "9:30am"}, {"days": "Sun", "time": "Closed"}], "id": "2627600000", "name": "USPS COLLECTION BOX - BLUE BOX", "address": {"city": "KERENS", "state": "WV", "street": "5173 PARSONS RD", "postcode": "26276"}}},
{"geometry": {"type": "Point", "coordinates": [-79.7497418061, 39.0331235994]}, "type": "Feature", "properties": {"collection_times": [{"days": "Mon-Sat", "time": "11:30am"}, {"days": "Sun", "time": "Closed"}], "id": "2627600001", "name": "USPS COLLECTION BOX - PO LOBBY", "address": {"city": "KERENS", "state": "WV", "street": "PO BOX 9998", "postcode": "26276"}}},
{"geometry": {"type": "Point", "coordinates": [-79.9870257678, 38.8684363419]}, "type": "Feature", "properties": {"collection_times": [{"days": "Mon-Fri", "time": "12:15pm"}, {"days": "Sat", "time": "10:30am"}, {"days": "Sun", "time": "Closed"}], "id": "2627800000", "name": "USPS COLLECTION BOX - BLUE BOX", "address": {"city": "MABIE", "state": "WV", "street": "1010 MABIE CASSITY RD", "postcode": "26278"}}},
{"geometry": {"type": "Point", "coordinates": [-79.9870257678, 38.8684363419]}, "type": "Feature", "properties": {"collection_times": [{"days": "Mon-Fri", "time": "12:15pm"}, {"days": "Sat", "time": "10:30am"}, {"days": "Sun", "time": "Closed"}], "id": "2627800001", "name": "USPS COLLECTION BOX - PO LOBBY", "address": {"city": "MABIE", "state": "WV", "street": "1010 MABIE CASSITY RD", "postcode": "26278"}}},
{"geometry": {"type": "Point", "coordinates": [-80.0089910265, 38.7662220309]}, "type": "Feature", "properties": {"collection_times": [{"days": "Mon-Fri", "time": "3:20pm"}, {"days": "Sat", "time": "10:30am"}, {"days": "Sun", "time": "Closed"}], "id": "2628000000", "name": "USPS COLLECTION BOX - BLUE BOX", "address": {"city": "MILL CREEK", "state": "WV", "street": "10054 SENECA TRL", "postcode": "26280"}}},
{"geometry": {"type": "Point", "coordinates": [-80.0089910265, 38.7662220309]}, "type": "Feature", "properties": {"collection_times": [{"days": "Mon-Fri", "time": "3:20pm"}, {"days": "Sat", "time": "10:30am"}, {"days": "Sun", "time": "Closed"}], "id": "2628000001", "name": "USPS COLLECTION BOX - PO LOBBY", "address": {"city": "MILL CREEK", "state": "WV", "street": "10054 SENECA TRL", "postcode": "26280"}}},
{"geometry": {"type": "Point", "coordinates": [-79.8039561206, 39.0845403882]}, "type": "Feature", "properties": {"collection_times": [{"days": "Mon-Fri", "time": "1:45pm"}, {"days": "Sat", "time": "9:00am"}, {"days": "Sun", "time": "Closed"}], "id": "2628300000", "name": "USPS COLLECTION BOX - BLUE BOX", "address": {"city": "MONTROSE", "state": "WV", "street": "9998 PARSONS RD", "postcode": "26283"}}},
{"geometry": {"type": "Point", "coordinates": [-79.8039561206, 39.0845403882]}, "type": "Feature", "properties": {"collection_times": [{"days": "Mon-Fri", "time": "1:45pm"}, {"days": "Sat", "time": "9:00am"}, {"days": "Sun", "time": "Closed"}], "id": "2628300001", "name": "USPS COLLECTION BOX - PO LOBBY", "address": {"city": "MONTROSE", "state": "WV", "street": "9998 PARSONS RD", "postcode": "26283"}}},
{"geometry": {"type": "Point", "coordinates": [-79.6829180265, 39.101248738]}, "type": "Feature", "properties": {"collection_times": [{"days": "Mon-Fri", "time": "4:15pm"}, {"days": "Sat", "time": "11:00am"}, {"days": "Sun", "time": "Closed"}], "id": "2628700000", "name": "USPS COLLECTION BOX - BLUE BOX", "address": {"city": "PARSONS", "state": "WV", "street": "235 WALNUT ST", "postcode": "26287"}}},
{"geometry": {"type": "Point", "coordinates": [-79.6829180265, 39.101248738]}, "type": "Feature", "properties": {"collection_times": [{"days": "Mon-Fri", "time": "4:30pm"}, {"days": "Sat", "time": "11:00am"}, {"days": "Sun", "time": "Closed"}], "id": "2628700004", "name": "USPS COLLECTION BOX - PO LOBBY", "address": {"city": "PARSONS", "state": "WV", "street": "235 WALNUT ST", "postcode": "26287"}}},
{"geometry": {"type": "Point", "coordinates": [-80.4128698807, 38.4788905339]}, "type": "Feature", "properties": {"collection_times": [{"days": "Mon-Fri", "time": "4:00pm"}, {"days": "Sat", "time": "10:30am"}, {"days": "Sun", "time": "Closed"}], "id": "2628800000", "name": "USPS COLLECTION BOX - BLUE BOX", "address": {"city": "WEBSTER SPRINGS", "state": "WV", "street": "100 BACK FORK ST", "postcode": "26288"}}},
{"geometry": {"type": "Point", "coordinates": [-80.4128698807, 38.4788905339]}, "type": "Feature", "properties": {"collection_times": [{"days": "Mon-Fri", "time": "4:00pm"}, {"days": "Sat", "time": "10:30am"}, {"days": "Sun", "time": "Closed"}], "id": "2628800005", "name": "USPS COLLECTION BOX - PO LOBBY", "address": {"city": "WEBSTER SPRINGS", "state": "WV", "street": "100 BACK FORK ST", "postcode": "26288"}}},
{"geometry": {"type": "Point", "coordinates": [-79.5427504792, 39.0195408947]}, "type": "Feature", "properties": {"collection_times": [{"days": "Mon-Sat", "time": "12:45pm"}, {"days": "Sun", "time": "Closed"}], "id": "2628900000", "name": "USPS COLLECTION BOX - BLUE BOX", "address": {"city": "RED CREEK", "state": "WV", "street": "94 BUTCHERS RIDGE RD", "postcode": "26289"}}},
{"geometry": {"type": "Point", "coordinates": [-79.5427504792, 39.0195408947]}, "type": "Feature", "properties": {"collection_times": [{"days": "Mon-Sat", "time": "12:45pm"}, {"days": "Sun", "time": "Closed"}], "id": "2628900001", "name": "USPS COLLECTION BOX - PO LOBBY", "address": {"city": "RED CREEK", "state": "WV", "street": "94 BUTCHERS RIDGE RD", "postcode": "26289"}}},
{"geometry": {"type": "Point", "coordinates": [-80.0634156172, 38.3765561126]}, "type": "Feature", "properties": {"collection_times": [{"days": "Mon-Fri", "time": "1:00pm"}, {"days": "Sat", "time": "11:30am"}, {"days": "Sun", "time": "Closed"}], "id": "2629100000", "name": "USPS COLLECTION BOX - BLUE BOX", "address": {"city": "SLATYFORK", "state": "WV", "street": "PO BOX 9998", "postcode": "26291"}}},
{"geometry": {"type": "Point", "coordinates": [-80.0634156172, 38.3765561126]}, "type": "Feature", "properties": {"collection_times": [{"days": "Mon-Fri", "time": "1:00pm"}, {"days": "Sat", "time": "11:30am"}, {"days": "Sun", "time": "Closed"}], "id": "2629100001", "name": "USPS COLLECTION BOX - PO LOBBY", "address": {"city": "SLATYFORK", "state": "WV", "street": "PO BOX 9998", "postcode": "26291"}}},
{"geometry": {"type": "Point", "coordinates": [-79.4992518212, 39.1473599295]}, "type": "Feature", "properties": {"collection_times": [{"days": "Mon-Fri", "time": "3:00pm"}, {"days": "Sat", "time": "11:30am"}, {"days": "Sun", "time": "Closed"}], "id": "2629200000", "name": "USPS COLLECTION BOX - BLUE BOX", "address": {"city": "THOMAS", "state": "WV", "street": "51 EAST AVE", "postcode": "26292"}}},
{"geometry": {"type": "Point", "coordinates": [-79.4992518212, 39.1473599295]}, "type": "Feature", "properties": {"collection_times": [{"days": "Mon-Fri", "time": "4:00pm"}, {"days": "Sat", "time": "11:30am"}, {"days": "Sun", "time": "Closed"}], "id": "2629200001", "name": "USPS COLLECTION BOX - PO LOBBY", "address": {"city": "THOMAS", "state": "WV", "street": "51 EAST AVE", "postcode": "26292"}}},
{"geometry": {"type": "Point", "coordinates": [-79.9244656846, 38.7982905694]}, "type": "Feature", "properties": {"collection_times": [{"days": "Mon-Fri", "time": "12:15pm"}, {"days": "Sat", "time": "9:30am"}, {"days": "Sun", "time": "Closed"}], "id": "2629300000", "name": "USPS COLLECTION BOX - BLUE BOX", "address": {"city": "VALLEY BEND", "state": "WV", "street": "5934 SENECA TRL", "postcode": "26293"}}},
{"geometry": {"type": "Point", "coordinates": [-79.9244656846, 38.7982905694]}, "type": "Feature", "properties": {"collection_times": [{"days": "Mon-Fri", "time": "12:15pm"}, {"days": "Sat", "time": "9:30am"}, {"days": "Sun", "time": "Closed"}], "id": "2629300001", "name": "USPS COLLECTION BOX - PO LOBBY", "address": {"city": "VALLEY BEND", "state": "WV", "street": "5934 SENECA TRL", "postcode": "26293"}}},
{"geometry": {"type": "Point", "coordinates": [-80.0381412726, 38.5201122302]}, "type": "Feature", "properties": {"collection_times": [{"days": "Mon-Fri", "time": "3:15pm"}, {"days": "Sat", "time": "10:00am"}, {"days": "Sun", "time": "Closed"}], "id": "2629400000", "name": "USPS COLLECTION BOX - BLUE BOX", "address": {"city": "VALLEY HEAD", "state": "WV", "street": "PO BOX 9998", "postcode": "26294"}}},
{"geometry": {"type": "Point", "coordinates": [-80.0381412726, 38.5201122302]}, "type": "Feature", "properties": {"collection_times": [{"days": "Mon-Fri", "time": "3:15pm"}, {"days": "Sat", "time": "10:00am"}, {"days": "Sun", "time": "Closed"}], "id": "2629400001", "name": "USPS COLLECTION BOX - PO LOBBY", "address": {"city": "VALLEY HEAD", "state": "WV", "street": "PO BOX 9998", "postcode": "26294"}}},
{"geometry": {"type": "Point", "coordinates": [-80.4125749548, 38.4789691379]}, "type": "Feature", "properties": {"collection_times": [{"days": "Mon-Sat", "time": "12:00pm"}, {"days": "Sun", "time": "Closed"}], "id": "2629800001", "name": "USPS COLLECTION BOX - PO LOBBY", "address": {"city": "BERGOO", "state": "WV", "street": "19 POST OFFICE LN", "postcode": "26298"}}}
]}
