{"type": "FeatureCollection", "features": [
{"geometry": {"type": "Point", "coordinates": [-80.3426422174, 39.2813269103]}, "type": "Feature", "properties": {"collection_times": [{"days": "Mon-Sat", "time": "1:00pm"}, {"days": "Sun", "time": "Closed"}], "id": "2630100004", "name": "USPS COLLECTION BOX - BLUE BOX", "address": {"city": "CLARKSBURG", "state": "WV", "street": "500 W PIKE ST", "postcode": "26301"}}},
{"geometry": {"type": "Point", "coordinates": [-80.3382439429, 39.2789783991]}, "type": "Feature", "properties": {"collection_times": [{"days": "Mon-Fri", "time": "12:15pm"}, {"days": "Sat", "time": "1:00pm"}, {"days": "Sun", "time": "Closed"}], "id": "2630100009", "name": "USPS COLLECTION BOX - BLUE BOX", "address": {"city": "CLARKSBURG", "state": "WV", "street": "229 W MAIN ST", "postcode": "26301"}}},
{"geometry": {"type": "Point", "coordinates": [-80.3158494402, 39.2509816354]}, "type": "Feature", "properties": {"collection_times": [{"days": "Mon-Sat", "time": "12:00pm"}, {"days": "Sun", "time": "Closed"}], "id": "2630100010", "name": "USPS COLLECTION BOX - BLUE BOX", "address": {"city": "CLARKSBURG", "state": "WV", "street": "208 COST AVE", "postcode": "26301"}}},
{"geometry": {"type": "Point", "coordinates": [-80.3427142848, 39.2802002596]}, "type": "Feature", "properties": {"collection_times": [{"days": "Mon-Fri", "time": "12:30pm"}, {"days": "Sat", "time": "1:00pm"}, {"days": "Sun", "time": "Closed"}], "id": "2630100015", "name": "USPS COLLECTION BOX - BLUE BOX", "address": {"city": "CLARKSBURG", "state": "WV", "street": "500 W MAIN ST", "postcode": "26301"}}},
{"geometry": {"type": "Point", "coordinates": [-80.3393961534, 39.2777284494]}, "type": "Feature", "properties": {"collection_times": [{"days": "Mon-Fri", "time": "12:30pm"}, {"days": "Sat", "time": "1:00pm"}, {"days": "Sun", "time": "Closed"}], "id": "2630100021", "name": "USPS COLLECTION BOX - BLUE BOX", "address": {"city": "CLARKSBURG", "state": "WV", "street": "233 S 3RD ST", "postcode": "26301"}}},
{"geometry": {"type": "Point", "coordinates": [-80.3407483976, 39.2786724717]}, "type": "Feature", "properties": {"collection_times": [{"days": "Mon-Fri", "time": "12:45pm"}, {"days": "Sat", "time": "1:00pm"}, {"days": "Sun", "time": "Closed"}], "id": "2630100022", "name": "USPS COLLECTION BOX - BLUE BOX", "address": {"city": "CLARKSBURG", "state": "WV", "street": "356 WASHINGTON AVE", "postcode": "26301"}}},
{"geometry": {"type": "Point", "coordinates": [-80.3538149945, 39.29058579]}, "type": "Feature", "properties": {"collection_times": [{"days": "Mon-Sat", "time": "12:00pm"}, {"days": "Sun", "time": "Closed"}], "id": "2630100032", "name": "USPS COLLECTION BOX - BLUE BOX", "address": {"city": "CLARKSBURG", "state": "WV", "street": "1302 W PIKE ST", "postcode": "26301"}}},
{"geometry": {"type": "Point", "coordinates": [-80.3500466313, 39.2937573009]}, "type": "Feature", "properties": {"collection_times": [{"days": "Mon-Sat", "time": "12:00pm"}, {"days": "Sun", "time": "Closed"}], "id": "2630100058", "name": "USPS COLLECTION BOX - BLUE BOX", "address": {"city": "CLARKSBURG", "state": "WV", "street": "1204 N 20TH ST", "postcode": "26301"}}},
{"geometry": {"type": "Point", "coordinates": [-80.3258994698, 39.2752598032]}, "type": "Feature", "properties": {"collection_times": [{"days": "Mon-Sat", "time": "12:00pm"}, {"days": "Sun", "time": "Closed"}], "id": "2630100063", "name": "USPS COLLECTION BOX - BLUE BOX", "address": {"city": "CLARKSBURG", "state": "WV", "street": "501 E MAIN ST", "postcode": "26301"}}},
{"geometry": {"type": "Point", "coordinates": [-80.3220467926, 39.2574069984]}, "type": "Feature", "properties": {"collection_times": [{"days": "Mon-Sat", "time": "12:00pm"}, {"days": "Sun", "time": "Closed"}], "id": "2630100069", "name": "USPS COLLECTION BOX - BLUE BOX", "address": {"city": "CLARKSBURG", "state": "WV", "street": "1500 BUCKHANNON PIKE", "postcode": "26301"}}},
{"geometry": {"type": "Point", "coordinates": [-80.3251509518, 39.2619837696]}, "type": "Feature", "properties": {"collection_times": [{"days": "Mon-Sat", "time": "12:00pm"}, {"days": "Sun", "time": "Closed"}], "id": "2630100070", "name": "USPS COLLECTION BOX - BLUE BOX", "address": {"city": "CLARKSBURG", "state": "WV", "street": "1105 BUCKHANNON PIKE", "postcode": "26301"}}},
{"geometry": {"type": "Point", "coordinates": [-80.3790058953, 39.2718452126]}, "type": "Feature", "properties": {"collection_times": [{"days": "Mon-Sat", "time": "8:30am"}, {"days": "Sun", "time": "Closed"}], "id": "2630100077", "name": "USPS COLLECTION BOX - BLUE BOX", "address": {"city": "CLARKSBURG", "state": "WV", "street": "300 DAVISSON RUN RD", "postcode": "26301"}}},
{"geometry": {"type": "Point", "coordinates": [-80.3725097274, 39.2634159146]}, "type": "Feature", "properties": {"collection_times": [{"days": "Mon-Sat", "time": "8:30am"}, {"days": "Sun", "time": "Closed"}], "id": "2630100095", "name": "USPS COLLECTION BOX - BLUE BOX", "address": {"city": "CLARKSBURG", "state": "WV", "street": "505 ROSEBUD PLZ", "postcode": "26301"}}},
{"geometry": {"type": "Point", "coordinates": [-80.3426422174, 39.2813269103]}, "type": "Feature", "properties": {"collection_times": [{"days": "Mon-Fri", "time": "4:45pm"}, {"days": "Sat", "time": "12:00pm"}, {"days": "Sun", "time": "Closed"}], "id": "2630100098", "name": "USPS COLLECTION BOX - PO LOBBY", "address": {"city": "CLARKSBURG", "state": "WV", "street": "500 W PIKE ST", "postcode": "26301"}}},
{"geometry": {"type": "Point", "coordinates": [-80.3426422174, 39.2813269103]}, "type": "Feature", "properties": {"collection_times": [{"days": "Mon-Fri", "time": "4:45pm"}, {"days": "Sat", "time": "12:00pm"}, {"days": "Sun", "time": "Closed"}], "id": "2630100100", "name": "USPS COLLECTION BOX - PO LOBBY", "address": {"city": "CLARKSBURG", "state": "WV", "street": "500 W PIKE ST", "postcode": "26301"}}},
{"geometry": {"type": "Point", "coordinates": [-80.3394648845, 39.2792533418]}, "type": "Feature", "properties": {"collection_times": [{"days": "Mon-Fri", "time": "12:45pm"}, {"days": "Sat", "time": "1:00pm"}, {"days": "Sun", "time": "Closed"}], "id": "2630100107", "name": "USPS COLLECTION BOX - BLUE BOX", "address": {"city": "CLARKSBURG", "state": "WV", "street": "321 W MAIN ST", "postcode": "26301"}}},
{"geometry": {"type": "Point", "coordinates": [-80.2838467003, 39.2755864262]}, "type": "Feature", "properties": {"collection_times": [{"days": "Mon-Sat", "time": "8:30am"}, {"days": "Sun", "time": "Closed"}], "id": "2630100112", "name": "USPS COLLECTION BOX - BLUE BOX", "address": {"city": "CLARKSBURG", "state": "WV", "street": "196 EMILY DR", "postcode": "26301"}}},
{"geometry": {"type": "Point", "coordinates": [-80.2878040934, 39.2619557534]}, "type": "Feature", "properties": {"collection_times": [{"days": "Mon-Sat", "time": "8:30am"}, {"days": "Sun", "time": "Closed"}], "id": "2630100113", "name": "USPS COLLECTION BOX - BLUE BOX", "address": {"city": "CLARKSBURG", "state": "WV", "street": "530 EMILY DR", "postcode": "26301"}}},
{"geometry": {"type": "Point", "coordinates": [-80.2838817584, 39.2741706146]}, "type": "Feature", "properties": {"collection_times": [{"days": "Mon-Sat", "time": "2:30pm"}, {"days": "Sun", "time": "Closed"}], "id": "2630200001", "name": "USPS COLLECTION BOX - BLUE BOX", "address": {"city": "CLARKSBURG", "state": "WV", "street": "200 CAVA DR", "postcode": "26302"}}},
{"geometry": {"type": "Point", "coordinates": [-80.2838817584, 39.2741706146]}, "type": "Feature", "properties": {"collection_times": [{"days": "Mon-Sat", "time": "5:00pm"}, {"days": "Sun", "time": "Closed"}], "id": "2630200003", "name": "USPS COLLECTION BOX - PO LOBBY", "address": {"city": "CLARKSBURG", "state": "WV", "street": "200 CAVA DR", "postcode": "26302"}}},
{"geometry": {"type": "Point", "coordinates": [-80.8027389191, 39.426392405]}, "type": "Feature", "properties": {"collection_times": [{"days": "Mon-Sat", "time": "11:30am"}, {"days": "Sun", "time": "Closed"}], "id": "2632000000", "name": "USPS COLLECTION BOX - BLUE BOX", "address": {"city": "ALMA", "state": "WV", "street": "134 KLONDIKE RD", "postcode": "26320"}}},
{"geometry": {"type": "Point", "coordinates": [-80.8027389191, 39.426392405]}, "type": "Feature", "properties": {"collection_times": [{"days": "Mon-Sat", "time": "11:30am"}, {"days": "Sun", "time": "Closed"}], "id": "2632000001", "name": "USPS COLLECTION BOX - PO LOBBY", "address": {"city": "ALMA", "state": "WV", "street": "134 KLONDIKE RD", "postcode": "26320"}}},
{"geometry": {"type": "Point", "coordinates": [-80.7138254218, 39.0409762782]}, "type": "Feature", "properties": {"collection_times": [{"days": "Mon-Fri", "time": "11:15am"}, {"days": "Sat", "time": "9:00am"}, {"days": "Sun", "time": "Closed"}], "id": "2632100000", "name": "USPS COLLECTION BOX - BLUE BOX", "address": {"city": "ALUM BRIDGE", "state": "WV", "street": "14 MOODY LN", "postcode": "26321"}}},
{"geometry": {"type": "Point", "coordinates": [-80.7138254218, 39.0409762782]}, "type": "Feature", "properties": {"collection_times": [{"days": "Mon-Fri", "time": "11:15am"}, {"days": "Sat", "time": "9:00am"}, {"days": "Sun", "time": "Closed"}], "id": "2632100001", "name": "USPS COLLECTION BOX - PO LOBBY", "address": {"city": "ALUM BRIDGE", "state": "WV", "street": "14 MOODY LN", "postcode": "26321"}}},
{"geometry": {"type": "Point", "coordinates": [-80.2916465837, 39.2558502823]}, "type": "Feature", "properties": {"collection_times": [{"days": "Mon-Fri", "time": "2:30pm"}, {"days": "Sat", "time": "10:00am"}, {"days": "Sun", "time": "Closed"}], "id": "2632300000", "name": "USPS COLLECTION BOX - BLUE BOX", "address": {"city": "ANMOORE", "state": "WV", "street": "2919 PHILIPPI PIKE", "postcode": "26323"}}},
{"geometry": {"type": "Point", "coordinates": [-80.2916465837, 39.2558502823]}, "type": "Feature", "properties": {"collection_times": [{"days": "Mon-Fri", "time": "2:30pm"}, {"days": "Sat", "time": "10:00am"}, {"days": "Sun", "time": "Closed"}], "id": "2632300001", "name": "USPS COLLECTION BOX - PO LOBBY", "address": {"city": "ANMOORE", "state": "WV", "street": "2919 PHILIPPI PIKE", "postcode": "26323"}}},
{"geometry": {"type": "Point", "coordinates": [-80.903076827, 39.0909026635]}, "type": "Feature", "properties": {"collection_times": [{"days": "Mon-Fri", "time": "11:30am"}, {"days": "Sat", "time": "10:15am"}, {"days": "Sun", "time": "Closed"}], "id": "2632500000", "name": "USPS COLLECTION BOX - BLUE BOX", "address": {"city": "AUBURN", "state": "WV", "street": "12069 AUBURN RD", "postcode": "26325"}}},
{"geometry": {"type": "Point", "coordinates": [-80.903076827, 39.0909026635]}, "type": "Feature", "properties": {"collection_times": [{"days": "Mon-Fri", "time": "11:45am"}, {"days": "Sat", "time": "10:15am"}, {"days": "Sun", "time": "Closed"}], "id": "2632500001", "name": "USPS COLLECTION BOX - PO LOBBY", "address": {"city": "AUBURN", "state": "WV", "street": "12069 AUBURN RD", "postcode": "26325"}}},
{"geometry": {"type": "Point", "coordinates": [-80.2265274198, 39.2913484339]}, "type": "Feature", "properties": {"collection_times": [{"days": "Mon-Sat", "time": "9:30am"}, {"days": "Sun", "time": "Closed"}], "id": "2633000010", "name": "USPS COLLECTION BOX - BLUE BOX", "address": {"city": "BRIDGEPORT", "state": "WV", "street": "2399 MEADOWBROOK MALL", "postcode": "26330"}}},
{"geometry": {"type": "Point", "coordinates": [-80.2562607317, 39.283700292]}, "type": "Feature", "properties": {"collection_times": [{"days": "Mon-Fri", "time": "1:00pm"}, {"days": "Sat", "time": "12:00pm"}, {"days": "Sun", "time": "Closed"}], "id": "2633000015", "name": "USPS COLLECTION BOX - BLUE BOX", "address": {"city": "BRIDGEPORT", "state": "WV", "street": "205 S VIRGINIA AVE", "postcode": "26330"}}},
{"geometry": {"type": "Point", "coordinates": [-80.2766064962, 39.3005550541]}, "type": "Feature", "properties": {"collection_times": [{"days": "Mon-Sat", "time": "11:00am"}, {"days": "Sun", "time": "Closed"}], "id": "2633000018", "name": "USPS COLLECTION BOX - BLUE BOX", "address": {"city": "BRIDGEPORT", "state": "WV", "street": "109 STEELE ST", "postcode": "26330"}}},
{"geometry": {"type": "Point", "coordinates": [-80.2265274198, 39.2913484339]}, "type": "Feature", "properties": {"collection_times": [{"days": "Mon-Sat", "time": "9:30am"}, {"days": "Sun", "time": "Closed"}], "id": "2633000023", "name": "USPS COLLECTION BOX - BLUE BOX", "address": {"city": "BRIDGEPORT", "state": "WV", "street": "1 CUSTER HOLLOW RD", "postcode": "26330"}}},
{"geometry": {"type": "Point", "coordinates": [-80.2562607317, 39.283700292]}, "type": "Feature", "properties": {"collection_times": [{"days": "Mon-Fri", "time": "1:00pm"}, {"days": "Sat", "time": "12:00pm"}, {"days": "Sun", "time": "Closed"}], "id": "2633000027", "name": "USPS COLLECTION BOX - PO LOBBY", "address": {"city": "BRIDGEPORT", "state": "WV", "street": "205 S VIRGINIA AVE", "postcode": "26330"}}},
{"geometry": {"type": "Point", "coordinates": [-80.2265274198, 39.2913484339]}, "type": "Feature", "properties": {"collection_times": [{"days": "Mon-Fri", "time": "9:30am"}, {"days": "Sat", "time": "9:00am"}, {"days": "Sun", "time": "Closed"}], "id": "2633000028", "name": "USPS COLLECTION BOX - BLUE BOX", "address": {"city": "BRIDGEPORT", "state": "WV", "street": "527 MEDICAL PARK DR", "postcode": "26330"}}},
{"geometry": {"type": "Point", "coordinates": [-80.2353336452, 39.3344176391]}, "type": "Feature", "properties": {"collection_times": [{"days": "Mon-Sat", "time": "1:00pm"}, {"days": "Sun", "time": "Closed"}], "id": "2633000030", "name": "USPS COLLECTION BOX - BLUE BOX", "address": {"city": "BRIDGEPORT", "state": "WV", "street": "115 PROFESSIONAL PL", "postcode": "26330"}}},
{"geometry": {"type": "Point", "coordinates": [-80.6476139986, 38.8443637858]}, "type": "Feature", "properties": {"collection_times": [{"days": "Mon-Fri", "time": "3:30pm"}, {"days": "Sat", "time": "9:15am"}, {"days": "Sun", "time": "Closed"}], "id": "2633500000", "name": "USPS COLLECTION BOX - BLUE BOX", "address": {"city": "BURNSVILLE", "state": "WV", "street": "120 S MAIN ST", "postcode": "26335"}}},
{"geometry": {"type": "Point", "coordinates": [-80.6476139986, 38.8443637858]}, "type": "Feature", "properties": {"collection_times": [{"days": "Mon-Fri", "time": "3:30pm"}, {"days": "Sat", "time": "9:15am"}, {"days": "Sun", "time": "Closed"}], "id": "2633500001", "name": "USPS COLLECTION BOX - PO LOBBY", "address": {"city": "BURNSVILLE", "state": "WV", "street": "120 S MAIN ST", "postcode": "26335"}}},
{"geometry": {"type": "Point", "coordinates": [-81.1501413952, 39.2364578257]}, "type": "Feature", "properties": {"collection_times": [{"days": "Mon-Fri", "time": "10:45am"}, {"days": "Sat", "time": "10:00am"}, {"days": "Sun", "time": "Closed"}], "id": "2633700000", "name": "USPS COLLECTION BOX - PO LOBBY", "address": {"city": "CAIRO", "state": "WV", "street": "150 RAILROAD ST", "postcode": "26337"}}},
{"geometry": {"type": "Point", "coordinates": [-81.1501413952, 39.2364578257]}, "type": "Feature", "properties": {"collection_times": [{"days": "Mon-Fri", "time": "10:45am"}, {"days": "Sat", "time": "10:00am"}, {"days": "Sun", "time": "Closed"}], "id": "2633700001", "name": "USPS COLLECTION BOX - BLUE BOX", "address": {"city": "CAIRO", "state": "WV", "street": "150 RAILROAD ST", "postcode": "26337"}}},
{"geometry": {"type": "Point", "coordinates": [-80.6159944282, 39.0865863187]}, "type": "Feature", "properties": {"collection_times": [{"days": "Mon-Sat", "time": "2:15pm"}, {"days": "Sun", "time": "Closed"}], "id": "2633800000", "name": "USPS COLLECTION BOX - BLUE BOX", "address": {"city": "CAMDEN", "state": "WV", "street": "4354 U S HIGHWAY 33 W", "postcode": "26338"}}},
{"geometry": {"type": "Point", "coordinates": [-81.0477061415, 39.2698201201]}, "type": "Feature", "properties": {"collection_times": [{"days": "Mon-Fri", "time": "4:15pm"}, {"days": "Sat", "time": "9:45am"}, {"days": "Sun", "time": "Closed"}], "id": "2634600000", "name": "USPS COLLECTION BOX - BLUE BOX", "address": {"city": "ELLENBORO", "state": "WV", "street": "101 E WASHINGTON AVE", "postcode": "26346"}}},
{"geometry": {"type": "Point", "coordinates": [-81.0477061415, 39.2698201201]}, "type": "Feature", "properties": {"collection_times": [{"days": "Mon-Fri", "time": "4:15pm"}, {"days": "Sat", "time": "9:45am"}, {"days": "Sun", "time": "Closed"}], "id": "2634600001", "name": "USPS COLLECTION BOX - PO LOBBY", "address": {"city": "ELLENBORO", "state": "WV", "street": "101 E WASHINGTON AVE", "postcode": "26346"}}},
{"geometry": {"type": "Point", "coordinates": [-80.1248787768, 39.2745092899]}, "type": "Feature", "properties": {"collection_times": [{"days": "Mon-Fri", "time": "2:00pm"}, {"days": "Sat", "time": "10:00am"}, {"days": "Sun", "time": "Closed"}], "id": "2634700000", "name": "USPS COLLECTION BOX - BLUE BOX", "address": {"city": "FLEMINGTON", "state": "WV", "street": "PO BOX 9998", "postcode": "26347"}}},
{"geometry": {"type": "Point", "coordinates": [-80.1248787768, 39.2745092899]}, "type": "Feature", "properties": {"collection_times": [{"days": "Mon-Fri", "time": "2:00pm"}, {"days": "Sat", "time": "10:00am"}, {"days": "Sun", "time": "Closed"}], "id": "2634700001", "name": "USPS COLLECTION BOX - PO LOBBY", "address": {"city": "FLEMINGTON", "state": "WV", "street": "PO BOX 9998", "postcode": "26347"}}},
{"geometry": {"type": "Point", "coordinates": [-80.5243239584, 39.4676706955]}, "type": "Feature", "properties": {"collection_times": [{"days": "Mon-Fri", "time": "10:45am"}, {"days": "Sat", "time": "10:00am"}, {"days": "Sun", "time": "Closed"}], "id": "2634800000", "name": "USPS COLLECTION BOX - BLUE BOX", "address": {"city": "FOLSOM", "state": "WV", "street": "PO BOX 9998", "postcode": "26348"}}},
{"geometry": {"type": "Point", "coordinates": [-80.5243239584, 39.4676706955]}, "type": "Feature", "properties": {"collection_times": [{"days": "Mon-Fri", "time": "10:45am"}, {"days": "Sat", "time": "10:00am"}, {"days": "Sun", "time": "Closed"}], "id": "2634800001", "name": "USPS COLLECTION BOX - PO LOBBY", "address": {"city": "FOLSOM", "state": "WV", "street": "PO BOX 9998", "postcode": "26348"}}},
{"geometry": {"type": "Point", "coordinates": [-80.1209971922, 39.2317749183]}, "type": "Feature", "properties": {"collection_times": [{"days": "Mon-Fri", "time": "10:30am"}, {"days": "Sat", "time": "7:30am"}, {"days": "Sun", "time": "Closed"}], "id": "2634900000", "name": "USPS COLLECTION BOX - BLUE BOX", "address": {"city": "GALLOWAY", "state": "WV", "street": "PO BOX 9998", "postcode": "26349"}}},
{"geometry": {"type": "Point", "coordinates": [-80.1209971922, 39.2317749183]}, "type": "Feature", "properties": {"collection_times": [{"days": "Mon-Fri", "time": "10:30am"}, {"days": "Sat", "time": "7:30am"}, {"days": "Sun", "time": "Closed"}], "id": "2634900001", "name": "USPS COLLECTION BOX - PO LOBBY", "address": {"city": "GALLOWAY", "state": "WV", "street": "PO BOX 9998", "postcode": "26349"}}},
{"geometry": {"type": "Point", "coordinates": [-80.8371565053, 38.9329147267]}, "type": "Feature", "properties": {"collection_times": [{"days": "Mon-Fri", "time": "4:00pm"}, {"days": "Sat", "time": "11:00am"}, {"days": "Sun", "time": "Closed"}], "id": "2635100010", "name": "USPS COLLECTION BOX - BLUE BOX", "address": {"city": "GLENVILLE", "state": "WV", "street": "201 E MAIN ST", "postcode": "26351"}}},
{"geometry": {"type": "Point", "coordinates": [-80.8366424549, 38.9332410098]}, "type": "Feature", "properties": {"collection_times": [{"days": "Mon-Fri", "time": "4:00pm"}, {"days": "Sat", "time": "11:00am"}, {"days": "Sun", "time": "Closed"}], "id": "2635100013", "name": "USPS COLLECTION BOX - PO LOBBY", "address": {"city": "GLENVILLE", "state": "WV", "street": "201 E MAIN ST", "postcode": "26351"}}},
{"geometry": {"type": "Point", "coordinates": [-80.0239048163, 39.3413188261]}, "type": "Feature", "properties": {"collection_times": [{"days": "Mon-Fri", "time": "4:30pm"}, {"days": "Sat", "time": "4:00pm"}, {"days": "Sun", "time": "Closed"}], "id": "2635400001", "name": "USPS COLLECTION BOX - BLUE BOX", "address": {"city": "GRAFTON", "state": "WV", "street": "260 W MAIN ST", "postcode": "26354"}}},
{"geometry": {"type": "Point", "coordinates": [-80.0248023802, 39.3410926857]}, "type": "Feature", "properties": {"collection_times": [{"days": "Mon-Fri", "time": "4:30pm"}, {"days": "Sat", "time": "4:00pm"}, {"days": "Sun", "time": "Closed"}], "id": "2635400002", "name": "USPS COLLECTION BOX - BLUE BOX", "address": {"city": "GRAFTON", "state": "WV", "street": "171 LATROBE ST", "postcode": "26354"}}},
{"geometry": {"type": "Point", "coordinates": [-80.0248023802, 39.3410926857]}, "type": "Feature", "properties": {"collection_times": [{"days": "Mon-Fri", "time": "4:30pm"}, {"days": "Sat", "time": "4:00pm"}, {"days": "Sun", "time": "Closed"}], "id": "2635400003", "name": "USPS COLLECTION BOX - BLUE BOX", "address": {"city": "GRAFTON", "state": "WV", "street": "171 LATROBE ST", "postcode": "26354"}}},
{"geometry": {"type": "Point", "coordinates": [-80.0239048163, 39.3413188261]}, "type": "Feature", "properties": {"collection_times": [{"days": "Mon-Fri", "time": "4:30pm"}, {"days": "Sat", "time": "4:00pm"}, {"days": "Sun", "time": "Closed"}], "id": "2635400004", "name": "USPS COLLECTION BOX - BLUE BOX", "address": {"city": "GRAFTON", "state": "WV", "street": "260 W MAIN ST", "postcode": "26354"}}},
{"geometry": {"type": "Point", "coordinates": [-80.0031912301, 39.3460435847]}, "type": "Feature", "properties": {"collection_times": [{"days": "Mon-Sat", "time": "2:50pm"}, {"days": "Sun", "time": "Closed"}], "id": "2635400024", "name": "USPS COLLECTION BOX - BLUE BOX", "address": {"city": "GRAFTON", "state": "WV", "street": "7 HARMAN CTR", "postcode": "26354"}}},
{"geometry": {"type": "Point", "coordinates": [-80.0232188623, 39.3409522168]}, "type": "Feature", "properties": {"collection_times": [{"days": "Mon-Sat", "time": "2:50pm"}, {"days": "Sun", "time": "Closed"}], "id": "2635400025", "name": "USPS COLLECTION BOX - BLUE BOX", "address": {"city": "GRAFTON", "state": "WV", "street": "45 VICTORY AVE", "postcode": "26354"}}},
{"geometry": {"type": "Point", "coordinates": [-80.0226719958, 39.3413795163]}, "type": "Feature", "properties": {"collection_times": [{"days": "Mon-Sat", "time": "3:00pm"}, {"days": "Sun", "time": "Closed"}], "id": "2635400029", "name": "USPS COLLECTION BOX - BLUE BOX", "address": {"city": "GRAFTON", "state": "WV", "street": "214 W MAIN ST", "postcode": "26354"}}},
{"geometry": {"type": "Point", "coordinates": [-80.0239048163, 39.3413188261]}, "type": "Feature", "properties": {"collection_times": [{"days": "Mon-Fri", "time": "4:30pm"}, {"days": "Sat", "time": "4:00pm"}, {"days": "Sun", "time": "Closed"}], "id": "2635400030", "name": "USPS COLLECTION BOX - PO LOBBY", "address": {"city": "GRAFTON", "state": "WV", "street": "260 W MAIN ST", "postcode": "26354"}}},
{"geometry": {"type": "Point", "coordinates": [-80.0232188623, 39.3409522168]}, "type": "Feature", "properties": {"collection_times": [{"days": "Mon-Sat", "time": "12:30pm"}, {"days": "Sun", "time": "Closed"}], "id": "2635400031", "name": "USPS COLLECTION BOX - BLUE BOX", "address": {"city": "GRAFTON", "state": "WV", "street": "1 HOSPITAL PLZ", "postcode": "26354"}}},
{"geometry": {"type": "Point", "coordinates": [-80.3094657449, 39.3938708596]}, "type": "Feature", "properties": {"collection_times": [{"days": "Mon-Fri", "time": "11:45am"}, {"days": "Sat", "time": "11:30am"}, {"days": "Sun", "time": "Closed"}], "id": "2636100000", "name": "USPS COLLECTION BOX - BLUE BOX", "address": {"city": "GYPSY", "state": "WV", "street": "6426 SHINNSTON PIKE", "postcode": "26361"}}},
{"geometry": {"type": "Point", "coordinates": [-80.3094657449, 39.3938708596]}, "type": "Feature", "properties": {"collection_times": [{"days": "Mon-Fri", "time": "11:45am"}, {"days": "Sat", "time": "11:30am"}, {"days": "Sun", "time": "Closed"}], "id": "2636100001", "name": "USPS COLLECTION BOX - PO LOBBY", "address": {"city": "GYPSY", "state": "WV", "street": "6426 SHINNSTON PIKE", "postcode": "26361"}}},
{"geometry": {"type": "Point", "coordinates": [-81.0518693568, 39.2096528049]}, "type": "Feature", "properties": {"collection_times": [{"days": "Mon-Fri", "time": "2:30pm"}, {"days": "Sat-Sun", "time": "Closed"}], "id": "2636200010", "name": "USPS COLLECTION BOX - BLUE BOX", "address": {"city": "HARRISVILLE", "state": "WV", "street": "117 E MAIN ST", "postcode": "26362"}}},
{"geometry": {"type": "Point", "coordinates": [-81.0482526081, 39.2085784662]}, "type": "Feature", "properties": {"collection_times": [{"days": "Mon-Fri", "time": "4:00pm"}, {"days": "Sat", "time": "10:30am"}, {"days": "Sun", "time": "Closed"}], "id": "2636200011", "name": "USPS COLLECTION BOX - BLUE BOX", "address": {"city": "HARRISVILLE", "state": "WV", "street": "602 E SOUTH ST", "postcode": "26362"}}},
{"geometry": {"type": "Point", "coordinates": [-81.0482526081, 39.2085784662]}, "type": "Feature", "properties": {"collection_times": [{"days": "Mon-Sat", "time": "7:15am"}, {"days": "Sun", "time": "Closed"}], "id": "2636200013", "name": "USPS COLLECTION BOX - PO LOBBY", "address": {"city": "HARRISVILLE", "state": "WV", "street": "602 E SOUTH ST", "postcode": "26362"}}},
{"geometry": {"type": "Point", "coordinates": [-81.0482526081, 39.2085784662]}, "type": "Feature", "properties": {"collection_times": [{"days": "Mon-Fri", "time": "4:00pm"}, {"days": "Sat", "time": "10:30am"}, {"days": "Sun", "time": "Closed"}], "id": "2636200014", "name": "USPS COLLECTION BOX - PO LOBBY", "address": {"city": "HARRISVILLE", "state": "WV", "street": "602 E SOUTH ST", "postcode": "26362"}}},
{"geometry": {"type": "Point", "coordinates": [-81.0482526081, 39.2085784662]}, "type": "Feature", "properties": {"collection_times": [{"days": "Mon-Fri", "time": "4:00pm"}, {"days": "Sat", "time": "10:30am"}, {"days": "Sun", "time": "Closed"}], "id": "2636200015", "name": "USPS COLLECTION BOX - PO LOBBY", "address": {"city": "HARRISVILLE", "state": "WV", "street": "602 E SOUTH ST", "postcode": "26362"}}},
{"geometry": {"type": "Point", "coordinates": [-81.0482526081, 39.2085784662]}, "type": "Feature", "properties": {"collection_times": [{"days": "Mon-Fri", "time": "4:00pm"}, {"days": "Sat", "time": "10:30am"}, {"days": "Sun", "time": "Closed"}], "id": "2636200016", "name": "USPS COLLECTION BOX - PO LOBBY", "address": {"city": "HARRISVILLE", "state": "WV", "street": "602 E SOUTH ST", "postcode": "26362"}}},
{"geometry": {"type": "Point", "coordinates": [-80.3425970306, 39.281361736]}, "type": "Feature", "properties": {"collection_times": [{"days": "Mon-Fri", "time": "2:45pm"}, {"days": "Sat", "time": "11:00am"}, {"days": "Sun", "time": "Closed"}], "id": "2636600001", "name": "USPS COLLECTION BOX - PO LOBBY", "address": {"city": "HAYWOOD", "state": "WV", "street": "1573 HAYWOOD RD", "postcode": "26366"}}},
{"geometry": {"type": "Point", "coordinates": [-80.3425970306, 39.281361736]}, "type": "Feature", "properties": {"collection_times": [{"days": "Mon-Fri", "time": "2:45pm"}, {"days": "Sat", "time": "11:00am"}, {"days": "Sun", "time": "Closed"}], "id": "2636600002", "name": "USPS COLLECTION BOX - BLUE BOX", "address": {"city": "HAYWOOD", "state": "WV", "street": "1573 HAYWOOD RD", "postcode": "26366"}}},
{"geometry": {"type": "Point", "coordinates": [-80.335373146, 39.3326081905]}, "type": "Feature", "properties": {"collection_times": [{"days": "Mon-Fri", "time": "11:45am"}, {"days": "Sat", "time": "9:30am"}, {"days": "Sun", "time": "Closed"}], "id": "2636900000", "name": "USPS COLLECTION BOX - BLUE BOX", "address": {"city": "HEPZIBAH", "state": "WV", "street": "3523 SHINNSTON PIKE", "postcode": "26369"}}},
{"geometry": {"type": "Point", "coordinates": [-80.335373146, 39.3326081905]}, "type": "Feature", "properties": {"collection_times": [{"days": "Mon-Fri", "time": "11:45am"}, {"days": "Sat", "time": "9:30am"}, {"days": "Sun", "time": "Closed"}], "id": "2636900001", "name": "USPS COLLECTION BOX - PO LOBBY", "address": {"city": "HEPZIBAH", "state": "WV", "street": "3523 SHINNSTON PIKE", "postcode": "26369"}}},
{"geometry": {"type": "Point", "coordinates": [-80.3612817743, 38.9580081166]}, "type": "Feature", "properties": {"collection_times": [{"days": "Mon-Fri", "time": "11:15am"}, {"days": "Sat", "time": "10:15am"}, {"days": "Sun", "time": "Closed"}], "id": "2637200000", "name": "USPS COLLECTION BOX - BLUE BOX", "address": {"city": "HORNER", "state": "WV", "street": "63 GEORGETOWN RD", "postcode": "26372"}}},
{"geometry": {"type": "Point", "coordinates": [-80.3612817743, 38.9580081166]}, "type": "Feature", "properties": {"collection_times": [{"days": "Mon-Fri", "time": "11:15am"}, {"days": "Sat", "time": "10:15am"}, {"days": "Sun", "time": "Closed"}], "id": "2637200001", "name": "USPS COLLECTION BOX - PO LOBBY", "address": {"city": "HORNER", "state": "WV", "street": "63 GEORGETOWN RD", "postcode": "26372"}}},
{"geometry": {"type": "Point", "coordinates": [-80.4700996984, 38.7612023974]}, "type": "Feature", "properties": {"collection_times": [{"days": "Mon-Fri", "time": "11:45am"}, {"days": "Sat", "time": "11:00am"}, {"days": "Sun", "time": "Closed"}], "id": "2637600000", "name": "USPS COLLECTION BOX - BLUE BOX", "address": {"city": "IRELAND", "state": "WV", "street": "234 WILDCAT RD", "postcode": "26376"}}},
{"geometry": {"type": "Point", "coordinates": [-80.4700996984, 38.7612023974]}, "type": "Feature", "properties": {"collection_times": [{"days": "Mon-Fri", "time": "11:45am"}, {"days": "Sat", "time": "11:15am"}, {"days": "Sun", "time": "Closed"}], "id": "2637600001", "name": "USPS COLLECTION BOX - PO LOBBY", "address": {"city": "IRELAND", "state": "WV", "street": "234 WILDCAT RD", "postcode": "26376"}}},
{"geometry": {"type": "Point", "coordinates": [-80.6523153763, 39.5032173157]}, "type": "Feature", "properties": {"collection_times": [{"days": "Mon-Fri", "time": "11:15am"}, {"days": "Sat", "time": "8:00am"}, {"days": "Sun", "time": "Closed"}], "id": "2637700000", "name": "USPS COLLECTION BOX - BLUE BOX", "address": {"city": "JACKSONBURG", "state": "WV", "street": "PO BOX 9998", "postcode": "26377"}}},
{"geometry": {"type": "Point", "coordinates": [-80.6523153763, 39.5032173157]}, "type": "Feature", "properties": {"collection_times": [{"days": "Mon-Fri", "time": "11:15am"}, {"days": "Sat", "time": "8:00am"}, {"days": "Sun", "time": "Closed"}], "id": "2637700001", "name": "USPS COLLECTION BOX - PO LOBBY", "address": {"city": "JACKSONBURG", "state": "WV", "street": "PO BOX 9998", "postcode": "26377"}}},
{"geometry": {"type": "Point", "coordinates": [-80.3964633395, 39.1010533115]}, "type": "Feature", "properties": {"collection_times": [{"days": "Mon-Fri", "time": "4:15pm"}, {"days": "Sat", "time": "10:30am"}, {"days": "Sun", "time": "Closed"}], "id": "2637800001", "name": "USPS COLLECTION BOX - BLUE BOX", "address": {"city": "JANE LEW", "state": "WV", "street": "141 INDUSTRIAL PARK RD", "postcode": "26378"}}},
{"geometry": {"type": "Point", "coordinates": [-80.3964633395, 39.1010533115]}, "type": "Feature", "properties": {"collection_times": [{"days": "Mon-Fri", "time": "4:15pm"}, {"days": "Sat", "time": "10:30am"}, {"days": "Sun", "time": "Closed"}], "id": "2637800003", "name": "USPS COLLECTION BOX - PO LOBBY", "address": {"city": "JANE LEW", "state": "WV", "street": "141 INDUSTRIAL PARK RD", "postcode": "26378"}}},
{"geometry": {"type": "Point", "coordinates": [-80.3964633395, 39.1010533115]}, "type": "Feature", "properties": {"collection_times": [{"days": "Mon-Fri", "time": "4:15pm"}, {"days": "Sat", "time": "10:30am"}, {"days": "Sun", "time": "Closed"}], "id": "2637800004", "name": "USPS COLLECTION BOX - PO LOBBY", "address": {"city": "JANE LEW", "state": "WV", "street": "141 INDUSTRIAL PARK RD", "postcode": "26378"}}},
{"geometry": {"type": "Point", "coordinates": [-80.3796013762, 39.1529540282]}, "type": "Feature", "properties": {"collection_times": [{"days": "Mon-Fri", "time": "3:30pm"}, {"days": "Sat", "time": "10:15am"}, {"days": "Sun", "time": "Closed"}], "id": "2638500000", "name": "USPS COLLECTION BOX - BLUE BOX", "address": {"city": "LOST CREEK", "state": "WV", "street": "107 E MAIN ST", "postcode": "26385"}}},
{"geometry": {"type": "Point", "coordinates": [-80.3796013762, 39.1529540282]}, "type": "Feature", "properties": {"collection_times": [{"days": "Mon-Fri", "time": "3:30pm"}, {"days": "Sat", "time": "10:15am"}, {"days": "Sun", "time": "Closed"}], "id": "2638500001", "name": "USPS COLLECTION BOX - PO LOBBY", "address": {"city": "LOST CREEK", "state": "WV", "street": "107 E MAIN ST", "postcode": "26385"}}},
{"geometry": {"type": "Point", "coordinates": [-80.3475953073, 39.3748400836]}, "type": "Feature", "properties": {"collection_times": [{"days": "Mon-Fri", "time": "3:30pm"}, {"days": "Sat", "time": "10:30am"}, {"days": "Sun", "time": "Closed"}], "id": "2638600000", "name": "USPS COLLECTION BOX - BLUE BOX", "address": {"city": "LUMBERPORT", "state": "WV", "street": "489 MAIN ST", "postcode": "26386"}}},
{"geometry": {"type": "Point", "coordinates": [-80.3475953073, 39.3748400836]}, "type": "Feature", "properties": {"collection_times": [{"days": "Mon-Fri", "time": "3:30pm"}, {"days": "Sat", "time": "10:30am"}, {"days": "Sun", "time": "Closed"}], "id": "2638600001", "name": "USPS COLLECTION BOX - PO LOBBY", "address": {"city": "LUMBERPORT", "state": "WV", "street": "489 MAIN ST", "postcode": "26386"}}}
]}
