{"type": "FeatureCollection", "features": [
{"geometry": {"type": "Point", "coordinates": [-80.3078681771, 39.3494970215]}, "type": "Feature", "properties": {"collection_times": [{"days": "Mon-Fri", "time": "11:45am"}, {"days": "Sat", "time": "2:30pm"}, {"days": "Sun", "time": "Closed"}], "id": "2640400000", "name": "USPS COLLECTION BOX - BLUE BOX", "address": {"city": "MEADOWBROOK", "state": "WV", "street": "3754 MEADOWBROOK RD", "postcode": "26404"}}},
{"geometry": {"type": "Point", "coordinates": [-80.3245274868, 39.3331450874]}, "type": "Feature", "properties": {"collection_times": [{"days": "Mon-Fri", "time": "11:45am"}, {"days": "Sat", "time": "2:30pm"}, {"days": "Sun", "time": "Closed"}], "id": "2640400001", "name": "USPS COLLECTION BOX - PO LOBBY", "address": {"city": "MEADOWBROOK", "state": "WV", "street": "3754 MEADOWBROOK RD", "postcode": "26404"}}},
{"geometry": {"type": "Point", "coordinates": [-79.8484593695, 39.2489039024]}, "type": "Feature", "properties": {"collection_times": [{"days": "Mon-Fri", "time": "11:45am"}, {"days": "Sat", "time": "9:00am"}, {"days": "Sun", "time": "Closed"}], "id": "2640500000", "name": "USPS COLLECTION BOX - BLUE BOX", "address": {"city": "MOATSVILLE", "state": "WV", "street": "13205 MORGANTOWN PIKE", "postcode": "26405"}}},
{"geometry": {"type": "Point", "coordinates": [-79.8484593695, 39.2489039024]}, "type": "Feature", "properties": {"collection_times": [{"days": "Mon-Fri", "time": "11:45am"}, {"days": "Sat", "time": "9:00am"}, {"days": "Sun", "time": "Closed"}], "id": "2640500001", "name": "USPS COLLECTION BOX - PO LOBBY", "address": {"city": "MOATSVILLE", "state": "WV", "street": "PO BOX 9998", "postcode": "26405"}}},
{"geometry": {"type": "Point", "coordinates": [-80.3007122884, 39.2082793965]}, "type": "Feature", "properties": {"collection_times": [{"days": "Mon-Fri", "time": "3:30pm"}, {"days": "Sat", "time": "10:30am"}, {"days": "Sun", "time": "Closed"}], "id": "2640800000", "name": "USPS COLLECTION BOX - BLUE BOX", "address": {"city": "MOUNT CLARE", "state": "WV", "street": "3801 MOUNT CLARE RD", "postcode": "26408"}}},
{"geometry": {"type": "Point", "coordinates": [-80.3007122884, 39.2082793965]}, "type": "Feature", "properties": {"collection_times": [{"days": "Mon-Fri", "time": "3:30pm"}, {"days": "Sat", "time": "10:30am"}, {"days": "Sun", "time": "Closed"}], "id": "2640800001", "name": "USPS COLLECTION BOX - PO LOBBY", "address": {"city": "MOUNT CLARE", "state": "WV", "street": "3801 MOUNT CLARE RD", "postcode": "26408"}}},
{"geometry": {"type": "Point", "coordinates": [-79.8527082222, 39.3879501397]}, "type": "Feature", "properties": {"collection_times": [{"days": "Mon-Fri", "time": "3:45pm"}, {"days": "Sat", "time": "10:00am"}, {"days": "Sun", "time": "Closed"}], "id": "2641000000", "name": "USPS COLLECTION BOX - BLUE BOX", "address": {"city": "NEWBURG", "state": "WV", "street": "54 MORGANTOWN AVE", "postcode": "26410"}}},
{"geometry": {"type": "Point", "coordinates": [-79.8527082222, 39.3879501397]}, "type": "Feature", "properties": {"collection_times": [{"days": "Mon-Fri", "time": "3:45pm"}, {"days": "Sat", "time": "10:00am"}, {"days": "Sun", "time": "Closed"}], "id": "2641000001", "name": "USPS COLLECTION BOX - PO LOBBY", "address": {"city": "NEWBURG", "state": "WV", "street": "54 MORGANTOWN AVE", "postcode": "26410"}}},
{"geometry": {"type": "Point", "coordinates": [-80.7148057635, 39.1768928348]}, "type": "Feature", "properties": {"collection_times": [{"days": "Mon-Fri", "time": "10:30am"}, {"days": "Sat", "time": "9:45am"}, {"days": "Sun", "time": "Closed"}], "id": "2641100000", "name": "USPS COLLECTION BOX - BLUE BOX", "address": {"city": "NEW MILTON", "state": "WV", "street": "1063 MEATHOUSE FORK RD", "postcode": "26411"}}},
{"geometry": {"type": "Point", "coordinates": [-80.7148057635, 39.1768928348]}, "type": "Feature", "properties": {"collection_times": [{"days": "Mon-Fri", "time": "10:30am"}, {"days": "Sat", "time": "9:45am"}, {"days": "Sun", "time": "Closed"}], "id": "2641100001", "name": "USPS COLLECTION BOX - PO LOBBY", "address": {"city": "NEW MILTON", "state": "WV", "street": "1063 MEATHOUSE FORK RD", "postcode": "26411"}}},
{"geometry": {"type": "Point", "coordinates": [-80.5508116534, 38.8863224088]}, "type": "Feature", "properties": {"collection_times": [{"days": "Mon-Sat", "time": "3:45pm"}, {"days": "Sun", "time": "Closed"}], "id": "2641200000", "name": "USPS COLLECTION BOX - BLUE BOX", "address": {"city": "ORLANDO", "state": "WV", "street": "29 CEMETARY RD", "postcode": "26412"}}},
{"geometry": {"type": "Point", "coordinates": [-80.5508116534, 38.8863224088]}, "type": "Feature", "properties": {"collection_times": [{"days": "Mon-Sat", "time": "3:45pm"}, {"days": "Sun", "time": "Closed"}], "id": "2641200001", "name": "USPS COLLECTION BOX - PO LOBBY", "address": {"city": "ORLANDO", "state": "WV", "street": "29 CEMETARY RD", "postcode": "26412"}}},
{"geometry": {"type": "Point", "coordinates": [-80.969996317, 39.2845090263]}, "type": "Feature", "properties": {"collection_times": [{"days": "Mon-Fri", "time": "2:00pm"}, {"days": "Sat", "time": "11:00am"}, {"days": "Sun", "time": "Closed"}], "id": "2641500003", "name": "USPS COLLECTION BOX - BLUE BOX", "address": {"city": "PENNSBORO", "state": "WV", "street": "202 CLAYTON ST", "postcode": "26415"}}},
{"geometry": {"type": "Point", "coordinates": [-80.969996317, 39.2845090263]}, "type": "Feature", "properties": {"collection_times": [{"days": "Mon-Fri", "time": "2:00pm"}, {"days": "Sat", "time": "11:00am"}, {"days": "Sun", "time": "Closed"}], "id": "2641500006", "name": "USPS COLLECTION BOX - PO LOBBY", "address": {"city": "PENNSBORO", "state": "WV", "street": "202 CLAYTON ST", "postcode": "26415"}}},
{"geometry": {"type": "Point", "coordinates": [-80.0412351413, 39.1523240094]}, "type": "Feature", "properties": {"collection_times": [{"days": "Mon-Fri", "time": "4:15pm"}, {"days": "Sat", "time": "2:00pm"}, {"days": "Sun", "time": "Closed"}], "id": "2641600002", "name": "USPS COLLECTION BOX - BLUE BOX", "address": {"city": "PHILIPPI", "state": "WV", "street": "105 S RAILROAD ST", "postcode": "26416"}}},
{"geometry": {"type": "Point", "coordinates": [-80.0412351413, 39.1523240094]}, "type": "Feature", "properties": {"collection_times": [{"days": "Mon-Fri", "time": "4:30pm"}, {"days": "Sat", "time": "1:30pm"}, {"days": "Sun", "time": "Closed"}], "id": "2641600011", "name": "USPS COLLECTION BOX - PO LOBBY", "address": {"city": "PHILIPPI", "state": "WV", "street": "105 S RAILROAD ST", "postcode": "26416"}}},
{"geometry": {"type": "Point", "coordinates": [-80.6783954549, 39.565161513]}, "type": "Feature", "properties": {"collection_times": [{"days": "Mon-Fri", "time": "3:30pm"}, {"days": "Sat", "time": "9:30am"}, {"days": "Sun", "time": "Closed"}], "id": "2641900000", "name": "USPS COLLECTION BOX - BLUE BOX", "address": {"city": "PINE GROVE", "state": "WV", "street": "1 EMMA ST", "postcode": "26419"}}},
{"geometry": {"type": "Point", "coordinates": [-80.6783954549, 39.565161513]}, "type": "Feature", "properties": {"collection_times": [{"days": "Mon-Fri", "time": "3:30pm"}, {"days": "Sat", "time": "9:30am"}, {"days": "Sun", "time": "Closed"}], "id": "2641900001", "name": "USPS COLLECTION BOX - PO LOBBY", "address": {"city": "PINE GROVE", "state": "WV", "street": "1 EMMA ST", "postcode": "26419"}}},
{"geometry": {"type": "Point", "coordinates": [-80.9133078999, 39.1904655941]}, "type": "Feature", "properties": {"collection_times": [{"days": "Mon-Fri", "time": "12:30pm"}, {"days": "Sat", "time": "10:30am"}, {"days": "Sun", "time": "Closed"}], "id": "2642100000", "name": "USPS COLLECTION BOX - BLUE BOX", "address": {"city": "PULLMAN", "state": "WV", "street": "307 MAIN ST", "postcode": "26421"}}},
{"geometry": {"type": "Point", "coordinates": [-80.9133078999, 39.1904655941]}, "type": "Feature", "properties": {"collection_times": [{"days": "Mon-Fri", "time": "12:30pm"}, {"days": "Sat", "time": "10:30am"}, {"days": "Sun", "time": "Closed"}], "id": "2642100001", "name": "USPS COLLECTION BOX - PO LOBBY", "address": {"city": "PULLMAN", "state": "WV", "street": "307 MAIN ST", "postcode": "26421"}}},
{"geometry": {"type": "Point", "coordinates": [-80.4418203935, 39.2868885897]}, "type": "Feature", "properties": {"collection_times": [{"days": "Mon-Fri", "time": "11:30am"}, {"days": "Sat", "time": "9:30am"}, {"days": "Sun", "time": "Closed"}], "id": "2642200000", "name": "USPS COLLECTION BOX - BLUE BOX", "address": {"city": "REYNOLDSVILLE", "state": "WV", "street": "24 GLADYS HOLLOW RD", "postcode": "26422"}}},
{"geometry": {"type": "Point", "coordinates": [-80.4418203935, 39.2868885897]}, "type": "Feature", "properties": {"collection_times": [{"days": "Mon-Fri", "time": "11:30am"}, {"days": "Sat", "time": "9:30am"}, {"days": "Sun", "time": "Closed"}], "id": "2642200001", "name": "USPS COLLECTION BOX - PO LOBBY", "address": {"city": "REYNOLDSVILLE", "state": "WV", "street": "24 GLADYS HOLLOW RD", "postcode": "26422"}}},
{"geometry": {"type": "Point", "coordinates": [-80.1753095409, 39.2725528689]}, "type": "Feature", "properties": {"collection_times": [{"days": "Mon-Fri", "time": "11:30am"}, {"days": "Sat", "time": "10:00am"}, {"days": "Sun", "time": "Closed"}], "id": "2642400000", "name": "USPS COLLECTION BOX - BLUE BOX", "address": {"city": "ROSEMONT", "state": "WV", "street": "1791 W VETERANS MEMORIAL HWY", "postcode": "26424"}}},
{"geometry": {"type": "Point", "coordinates": [-80.1753095409, 39.2725528689]}, "type": "Feature", "properties": {"collection_times": [{"days": "Mon-Fri", "time": "11:30am"}, {"days": "Sat", "time": "10:00am"}, {"days": "Sun", "time": "Closed"}], "id": "2642400001", "name": "USPS COLLECTION BOX - PO LOBBY", "address": {"city": "ROSEMONT", "state": "WV", "street": "1791 W VETERANS MEMORIAL HWY", "postcode": "26424"}}},
{"geometry": {"type": "Point", "coordinates": [-79.7185129515, 39.2991755385]}, "type": "Feature", "properties": {"collection_times": [{"days": "Mon-Fri", "time": "3:30pm"}, {"days": "Sat", "time": "8:45am"}, {"days": "Sun", "time": "Closed"}], "id": "2642500000", "name": "USPS COLLECTION BOX - BLUE BOX", "address": {"city": "ROWLESBURG", "state": "WV", "street": "21 CHESSIE LN", "postcode": "26425"}}},
{"geometry": {"type": "Point", "coordinates": [-79.7185129515, 39.2991755385]}, "type": "Feature", "properties": {"collection_times": [{"days": "Mon-Fri", "time": "3:30pm"}, {"days": "Sat", "time": "8:45am"}, {"days": "Sun", "time": "Closed"}], "id": "2642500001", "name": "USPS COLLECTION BOX - PO LOBBY", "address": {"city": "ROWLESBURG", "state": "WV", "street": "21 CHESSIE LN", "postcode": "26425"}}},
{"geometry": {"type": "Point", "coordinates": [-80.566951833, 39.2847356908]}, "type": "Feature", "properties": {"collection_times": [{"days": "Mon-Sat", "time": "10:00am"}, {"days": "Sun", "time": "Closed"}], "id": "2642600002", "name": "USPS COLLECTION BOX - BLUE BOX", "address": {"city": "SALEM", "state": "WV", "street": "105 NEW YORK AVE", "postcode": "26426"}}},
{"geometry": {"type": "Point", "coordinates": [-80.5672788908, 39.2830482143]}, "type": "Feature", "properties": {"collection_times": [{"days": "Mon-Sat", "time": "10:00am"}, {"days": "Sun", "time": "Closed"}], "id": "2642600003", "name": "USPS COLLECTION BOX - BLUE BOX", "address": {"city": "SALEM", "state": "WV", "street": "223 W MAIN ST", "postcode": "26426"}}},
{"geometry": {"type": "Point", "coordinates": [-80.5614197409, 39.2830543246]}, "type": "Feature", "properties": {"collection_times": [{"days": "Mon-Fri", "time": "4:15pm"}, {"days": "Sat", "time": "10:30am"}, {"days": "Sun", "time": "Closed"}], "id": "2642600007", "name": "USPS COLLECTION BOX - BLUE BOX", "address": {"city": "SALEM", "state": "WV", "street": "147 W MAIN ST", "postcode": "26426"}}},
{"geometry": {"type": "Point", "coordinates": [-80.5566015587, 39.2824987124]}, "type": "Feature", "properties": {"collection_times": [{"days": "Mon-Sat", "time": "10:00am"}, {"days": "Sun", "time": "Closed"}], "id": "2642600008", "name": "USPS COLLECTION BOX - BLUE BOX", "address": {"city": "SALEM", "state": "WV", "street": "158 E MAIN ST", "postcode": "26426"}}},
{"geometry": {"type": "Point", "coordinates": [-80.5614197409, 39.2830543246]}, "type": "Feature", "properties": {"collection_times": [{"days": "Mon-Fri", "time": "4:15pm"}, {"days": "Sat", "time": "10:45am"}, {"days": "Sun", "time": "Closed"}], "id": "2642600009", "name": "USPS COLLECTION BOX - PO LOBBY", "address": {"city": "SALEM", "state": "WV", "street": "147 W MAIN ST", "postcode": "26426"}}},
{"geometry": {"type": "Point", "coordinates": [-80.7489827469, 38.8860496181]}, "type": "Feature", "properties": {"collection_times": [{"days": "Mon-Fri", "time": "12:45pm"}, {"days": "Sat", "time": "10:45am"}, {"days": "Sun", "time": "Closed"}], "id": "2643000000", "name": "USPS COLLECTION BOX - BLUE BOX", "address": {"city": "SANDFORK", "state": "WV", "street": "5383 WV HIGHWAY 5 E", "postcode": "26430"}}},
{"geometry": {"type": "Point", "coordinates": [-80.7489827469, 38.8860496181]}, "type": "Feature", "properties": {"collection_times": [{"days": "Mon-Fri", "time": "12:45pm"}, {"days": "Sat", "time": "10:45am"}, {"days": "Sun", "time": "Closed"}], "id": "2643000001", "name": "USPS COLLECTION BOX - PO LOBBY", "address": {"city": "SANDFORK", "state": "WV", "street": "5383 WV HIGHWAY 5 E", "postcode": "26430"}}},
{"geometry": {"type": "Point", "coordinates": [-80.2983229235, 39.3998665734]}, "type": "Feature", "properties": {"collection_times": [{"days": "Mon-Fri", "time": "3:45pm"}, {"days": "Sat", "time": "2:00pm"}, {"days": "Sun", "time": "Closed"}], "id": "2643100000", "name": "USPS COLLECTION BOX - BLUE BOX", "address": {"city": "SHINNSTON", "state": "WV", "street": "1001 HOOD AVE", "postcode": "26431"}}},
{"geometry": {"type": "Point", "coordinates": [-80.299469967, 39.3939439039]}, "type": "Feature", "properties": {"collection_times": [{"days": "Mon-Fri", "time": "2:00pm"}, {"days": "Sat", "time": "1:00pm"}, {"days": "Sun", "time": "Closed"}], "id": "2643100001", "name": "USPS COLLECTION BOX - BLUE BOX", "address": {"city": "SHINNSTON", "state": "WV", "street": "412 PIKE ST", "postcode": "26431"}}},
{"geometry": {"type": "Point", "coordinates": [-80.3068846682, 39.3934379837]}, "type": "Feature", "properties": {"collection_times": [{"days": "Mon-Fri", "time": "1:00pm"}, {"days": "Sat", "time": "12:00pm"}, {"days": "Sun", "time": "Closed"}], "id": "2643100007", "name": "USPS COLLECTION BOX - BLUE BOX", "address": {"city": "SHINNSTON", "state": "WV", "street": "343 S PIKE ST", "postcode": "26431"}}},
{"geometry": {"type": "Point", "coordinates": [-80.2983229235, 39.3998665734]}, "type": "Feature", "properties": {"collection_times": [{"days": "Mon-Fri", "time": "4:00pm"}, {"days": "Sat", "time": "10:00am"}, {"days": "Sun", "time": "Closed"}], "id": "2643100010", "name": "USPS COLLECTION BOX - PO LOBBY", "address": {"city": "SHINNSTON", "state": "WV", "street": "1001 HOOD AVE", "postcode": "26431"}}},
{"geometry": {"type": "Point", "coordinates": [-80.088768105, 39.2664605428]}, "type": "Feature", "properties": {"collection_times": [{"days": "Mon-Fri", "time": "10:15am"}, {"days": "Sat", "time": "9:00am"}, {"days": "Sun", "time": "Closed"}], "id": "2643500000", "name": "USPS COLLECTION BOX - BLUE BOX", "address": {"city": "SIMPSON", "state": "WV", "street": "2230 SIMPSON RD", "postcode": "26435"}}},
{"geometry": {"type": "Point", "coordinates": [-80.0935992614, 39.2665987222]}, "type": "Feature", "properties": {"collection_times": [{"days": "Mon-Sat", "time": "9:00am"}, {"days": "Sun", "time": "Closed"}], "id": "2643500001", "name": "USPS COLLECTION BOX - PO LOBBY", "address": {"city": "SIMPSON", "state": "WV", "street": "2230 SIMPSON RD", "postcode": "26435"}}},
{"geometry": {"type": "Point", "coordinates": [-80.7767349406, 39.2943050875]}, "type": "Feature", "properties": {"collection_times": [{"days": "Mon-Fri", "time": "12:00pm"}, {"days": "Sat", "time": "9:30am"}, {"days": "Sun", "time": "Closed"}], "id": "2643600000", "name": "USPS COLLECTION BOX - BLUE BOX", "address": {"city": "SMITHBURG", "state": "WV", "street": "2809 SMITHTON RD", "postcode": "26436"}}},
{"geometry": {"type": "Point", "coordinates": [-80.7767349406, 39.2943050875]}, "type": "Feature", "properties": {"collection_times": [{"days": "Mon-Fri", "time": "12:00pm"}, {"days": "Sat", "time": "9:30am"}, {"days": "Sun", "time": "Closed"}], "id": "2643600001", "name": "USPS COLLECTION BOX - PO LOBBY", "address": {"city": "SMITHBURG", "state": "WV", "street": "2809 SMITHTON RD", "postcode": "26436"}}},
{"geometry": {"type": "Point", "coordinates": [-80.562515, 39.501244]}, "type": "Feature", "properties": {"collection_times": [{"days": "Mon-Fri", "time": "11:15am"}, {"days": "Sat", "time": "8:00am"}, {"days": "Sun", "time": "Closed"}], "id": "2643700000", "name": "USPS COLLECTION BOX - BLUE BOX", "address": {"city": "SMITHFIELD", "state": "WV", "street": "PO BOX 9998", "postcode": "26437"}}},
{"geometry": {"type": "Point", "coordinates": [-80.6034616836, 39.4883630084]}, "type": "Feature", "properties": {"collection_times": [{"days": "Mon-Fri", "time": "11:15am"}, {"days": "Sat", "time": "8:00am"}, {"days": "Sun", "time": "Closed"}], "id": "2643700001", "name": "USPS COLLECTION BOX - PO LOBBY", "address": {"city": "SMITHFIELD", "state": "WV", "street": "PO BOX 9998", "postcode": "26437"}}},
{"geometry": {"type": "Point", "coordinates": [-80.2561948316, 39.283410508]}, "type": "Feature", "properties": {"collection_times": [{"days": "Mon-Fri", "time": "9:45am"}, {"days": "Sat", "time": "10:00am"}, {"days": "Sun", "time": "Closed"}], "id": "2643800000", "name": "USPS COLLECTION BOX - BLUE BOX", "address": {"city": "SPELTER", "state": "WV", "street": "24 LEO MENENDEZ DR", "postcode": "26438"}}},
{"geometry": {"type": "Point", "coordinates": [-80.2561948316, 39.283410508]}, "type": "Feature", "properties": {"collection_times": [{"days": "Mon-Fri", "time": "9:45am"}, {"days": "Sat", "time": "10:00am"}, {"days": "Sun", "time": "Closed"}], "id": "2643800001", "name": "USPS COLLECTION BOX - PO LOBBY", "address": {"city": "SPELTER", "state": "WV", "street": "24 LEO MENENDEZ DR", "postcode": "26438"}}},
{"geometry": {"type": "Point", "coordinates": [-79.8714782354, 39.3380784077]}, "type": "Feature", "properties": {"collection_times": [{"days": "Mon-Fri", "time": "12:30pm"}, {"days": "Sat", "time": "9:45am"}, {"days": "Sun", "time": "Closed"}], "id": "2644000000", "name": "USPS COLLECTION BOX - BLUE BOX", "address": {"city": "THORNTON", "state": "WV", "street": "3990 THORTON PIKE", "postcode": "26440"}}},
{"geometry": {"type": "Point", "coordinates": [-79.9035815657, 39.3307325944]}, "type": "Feature", "properties": {"collection_times": [{"days": "Mon-Fri", "time": "12:30pm"}, {"days": "Sat", "time": "9:45am"}, {"days": "Sun", "time": "Closed"}], "id": "2644000001", "name": "USPS COLLECTION BOX - PO LOBBY", "address": {"city": "THORNTON", "state": "WV", "street": "3990 THORTON PIKE", "postcode": "26440"}}},
{"geometry": {"type": "Point", "coordinates": [-80.756331047, 39.0842320779]}, "type": "Feature", "properties": {"collection_times": [{"days": "Mon-Fri", "time": "11:45am"}, {"days": "Sat", "time": "10:15am"}, {"days": "Sun", "time": "Closed"}], "id": "2644300000", "name": "USPS COLLECTION BOX - BLUE BOX", "address": {"city": "TROY", "state": "WV", "street": "3055 WV HIGHWAY 47 W", "postcode": "26443"}}},
{"geometry": {"type": "Point", "coordinates": [-80.756331047, 39.0842320779]}, "type": "Feature", "properties": {"collection_times": [{"days": "Mon-Fri", "time": "11:45am"}, {"days": "Sat", "time": "10:15am"}, {"days": "Sun", "time": "Closed"}], "id": "2644300001", "name": "USPS COLLECTION BOX - PO LOBBY", "address": {"city": "TROY", "state": "WV", "street": "3055 WV HIGHWAY 47 W", "postcode": "26443"}}},
{"geometry": {"type": "Point", "coordinates": [-79.7648447508, 39.3578227023]}, "type": "Feature", "properties": {"collection_times": [{"days": "Mon-Fri", "time": "12:30pm"}, {"days": "Sat", "time": "11:30am"}, {"days": "Sun", "time": "Closed"}], "id": "2644400000", "name": "USPS COLLECTION BOX - BLUE BOX", "address": {"city": "TUNNELTON", "state": "WV", "street": "24 BANK ST", "postcode": "26444"}}},
{"geometry": {"type": "Point", "coordinates": [-79.7648447508, 39.3578227023]}, "type": "Feature", "properties": {"collection_times": [{"days": "Mon-Fri", "time": "12:30pm"}, {"days": "Sat", "time": "11:30am"}, {"days": "Sun", "time": "Closed"}], "id": "2644400001", "name": "USPS COLLECTION BOX - PO LOBBY", "address": {"city": "TUNNELTON", "state": "WV", "street": "24 BANK ST", "postcode": "26444"}}},
{"geometry": {"type": "Point", "coordinates": [-80.4609523869, 38.8192946054]}, "type": "Feature", "properties": {"collection_times": [{"days": "Mon-Fri", "time": "12:45pm"}, {"days": "Sat", "time": "9:30am"}, {"days": "Sun", "time": "Closed"}], "id": "2644700000", "name": "USPS COLLECTION BOX - BLUE BOX", "address": {"city": "WALKERSVILLE", "state": "WV", "street": "16957 US HIGHWAY 19 S", "postcode": "26447"}}},
{"geometry": {"type": "Point", "coordinates": [-80.4609523869, 38.8192946054]}, "type": "Feature", "properties": {"collection_times": [{"days": "Mon-Fri", "time": "12:45pm"}, {"days": "Sat", "time": "9:30am"}, {"days": "Sun", "time": "Closed"}], "id": "2644700001", "name": "USPS COLLECTION BOX - PO LOBBY", "address": {"city": "WALKERSVILLE", "state": "WV", "street": "16957 US HIGHWAY 19 S", "postcode": "26447"}}},
{"geometry": {"type": "Point", "coordinates": [-80.4844453647, 39.4092934809]}, "type": "Feature", "properties": {"collection_times": [{"days": "Mon-Fri", "time": "2:00pm"}, {"days": "Sat", "time": "9:00am"}, {"days": "Sun", "time": "Closed"}], "id": "2644800000", "name": "USPS COLLECTION BOX - BLUE BOX", "address": {"city": "WALLACE", "state": "WV", "street": "7737 WALLACE PIKE", "postcode": "26448"}}},
{"geometry": {"type": "Point", "coordinates": [-80.4844453647, 39.4092934809]}, "type": "Feature", "properties": {"collection_times": [{"days": "Mon-Fri", "time": "2:00pm"}, {"days": "Sat", "time": "9:00am"}, {"days": "Sun", "time": "Closed"}], "id": "2644800001", "name": "USPS COLLECTION BOX - PO LOBBY", "address": {"city": "WALLACE", "state": "WV", "street": "7737 WALLACE PIKE", "postcode": "26448"}}},
{"geometry": {"type": "Point", "coordinates": [-80.4039811311, 39.2014494154]}, "type": "Feature", "properties": {"collection_times": [{"days": "Mon-Fri", "time": "2:00pm"}, {"days": "Sat", "time": "11:30am"}, {"days": "Sun", "time": "Closed"}], "id": "2645100000", "name": "USPS COLLECTION BOX - BLUE BOX", "address": {"city": "WEST MILFORD", "state": "WV", "street": "681 MAIN ST", "postcode": "26451"}}},
{"geometry": {"type": "Point", "coordinates": [-80.4039811311, 39.2014494154]}, "type": "Feature", "properties": {"collection_times": [{"days": "Mon-Fri", "time": "2:00pm"}, {"days": "Sat", "time": "11:30am"}, {"days": "Sun", "time": "Closed"}], "id": "2645100001", "name": "USPS COLLECTION BOX - PO LOBBY", "address": {"city": "WEST MILFORD", "state": "WV", "street": "681 MAIN ST", "postcode": "26451"}}},
{"geometry": {"type": "Point", "coordinates": [-80.4510283931, 39.0395105163]}, "type": "Feature", "properties": {"collection_times": [{"days": "Mon-Sat", "time": "9:00am"}, {"days": "Sun", "time": "Closed"}], "id": "2645200004", "name": "USPS COLLECTION BOX - BLUE BOX", "address": {"city": "WESTON", "state": "WV", "street": "401 JOHN ST", "postcode": "26452"}}},
{"geometry": {"type": "Point", "coordinates": [-80.4592193042, 39.0367960196]}, "type": "Feature", "properties": {"collection_times": [{"days": "Mon-Sat", "time": "11:30am"}, {"days": "Sun", "time": "Closed"}], "id": "2645200007", "name": "USPS COLLECTION BOX - BLUE BOX", "address": {"city": "WESTON", "state": "WV", "street": "21 GARTON PLZ", "postcode": "26452"}}},
{"geometry": {"type": "Point", "coordinates": [-80.4863322258, 39.0512679295]}, "type": "Feature", "properties": {"collection_times": [{"days": "Mon-Sat", "time": "8:30am"}, {"days": "Sun", "time": "Closed"}], "id": "2645200027", "name": "USPS COLLECTION BOX - BLUE BOX", "address": {"city": "WESTON", "state": "WV", "street": "650 CRAIG ST", "postcode": "26452"}}},
{"geometry": {"type": "Point", "coordinates": [-80.4199408378, 39.0186931521]}, "type": "Feature", "properties": {"collection_times": [{"days": "Mon-Sat", "time": "9:00am"}, {"days": "Sun", "time": "Closed"}], "id": "2645200030", "name": "USPS COLLECTION BOX - BLUE BOX", "address": {"city": "WESTON", "state": "WV", "street": "100 MARKET PLACE MALL", "postcode": "26452"}}},
{"geometry": {"type": "Point", "coordinates": [-80.4671283413, 39.0367372355]}, "type": "Feature", "properties": {"collection_times": [{"days": "Mon-Sat", "time": "12:00pm"}, {"days": "Sun", "time": "Closed"}], "id": "2645200034", "name": "USPS COLLECTION BOX - BLUE BOX", "address": {"city": "WESTON", "state": "WV", "street": "119 CENTER AVE", "postcode": "26452"}}},
{"geometry": {"type": "Point", "coordinates": [-80.4671283413, 39.0367372355]}, "type": "Feature", "properties": {"collection_times": [{"days": "Mon-Sat", "time": "12:00pm"}, {"days": "Sun", "time": "Closed"}], "id": "2645200035", "name": "USPS COLLECTION BOX - PO LOBBY", "address": {"city": "WESTON", "state": "WV", "street": "119 CENTER AVE", "postcode": "26452"}}},
{"geometry": {"type": "Point", "coordinates": [-80.7763240965, 39.2946876209]}, "type": "Feature", "properties": {"collection_times": [{"days": "Mon-Fri", "time": "3:30pm"}, {"days": "Sat", "time": "11:35am"}, {"days": "Sun", "time": "Closed"}], "id": "2645600007", "name": "USPS COLLECTION BOX - BLUE BOX", "address": {"city": "WEST UNION", "state": "WV", "street": "208 COTTAGE AVE", "postcode": "26456"}}},
{"geometry": {"type": "Point", "coordinates": [-80.7763240965, 39.2946876209]}, "type": "Feature", "properties": {"collection_times": [{"days": "Mon-Fri", "time": "3:30pm"}, {"days": "Sat", "time": "11:30am"}, {"days": "Sun", "time": "Closed"}], "id": "2645600008", "name": "USPS COLLECTION BOX - PO LOBBY", "address": {"city": "WEST UNION", "state": "WV", "street": "208 COTTAGE AVE", "postcode": "26456"}}},
{"geometry": {"type": "Point", "coordinates": [-80.3537771879, 39.4356106817]}, "type": "Feature", "properties": {"collection_times": [{"days": "Mon-Fri", "time": "9:30am"}, {"days": "Sat", "time": "10:00am"}, {"days": "Sun", "time": "Closed"}], "id": "2646300000", "name": "USPS COLLECTION BOX - BLUE BOX", "address": {"city": "WYATT", "state": "WV", "street": "151 JOETOWN RD", "postcode": "26463"}}}
]}
