{"type": "FeatureCollection", "features": [
{"geometry": {"type": "Point", "coordinates": [-79.9525169328, 39.64760098]}, "type": "Feature", "properties": {"collection_times": [{"days": "Mon-Sat", "time": "10:05am"}, {"days": "Sun", "time": "Closed"}], "id": "2650500001", "name": "USPS COLLECTION BOX - BLUE BOX", "address": {"city": "MORGANTOWN", "state": "WV", "street": "40 HIGH ST", "postcode": "26505"}}},
{"geometry": {"type": "Point", "coordinates": [-79.9572361479, 39.6281044598]}, "type": "Feature", "properties": {"collection_times": [{"days": "Mon-Fri", "time": "2:00pm"}, {"days": "Sat", "time": "10:00am"}, {"days": "Sun", "time": "Closed"}], "id": "2650500005", "name": "USPS COLLECTION BOX - BLUE BOX", "address": {"city": "MORGANTOWN", "state": "WV", "street": "122 HIGH ST", "postcode": "26505"}}},
{"geometry": {"type": "Point", "coordinates": [-79.9691033132, 39.6509814879]}, "type": "Feature", "properties": {"collection_times": [{"days": "Mon-Sat", "time": "10:00am"}, {"days": "Sun", "time": "Closed"}], "id": "2650500009", "name": "USPS COLLECTION BOX - BLUE BOX", "address": {"city": "MORGANTOWN", "state": "WV", "street": "350 PATTESON DR", "postcode": "26505"}}},
{"geometry": {"type": "Point", "coordinates": [-79.9404765109, 39.6533687174]}, "type": "Feature", "properties": {"collection_times": [{"days": "Mon-Sat", "time": "2:30pm"}, {"days": "Sun", "time": "Closed"}], "id": "2650500011", "name": "USPS COLLECTION BOX - BLUE BOX", "address": {"city": "MORGANTOWN", "state": "WV", "street": "300 POSTAL PLZ", "postcode": "26505"}}},
{"geometry": {"type": "Point", "coordinates": [-79.9562586712, 39.6295094173]}, "type": "Feature", "properties": {"collection_times": [{"days": "Mon-Fri", "time": "2:00pm"}, {"days": "Sat", "time": "9:30am"}, {"days": "Sun", "time": "Closed"}], "id": "2650500033", "name": "USPS COLLECTION BOX - BLUE BOX", "address": {"city": "MORGANTOWN", "state": "WV", "street": "265 HIGH ST", "postcode": "26505"}}},
{"geometry": {"type": "Point", "coordinates": [-79.9230534185, 39.6200746394]}, "type": "Feature", "properties": {"collection_times": [{"days": "Mon-Fri", "time": "11:00am"}, {"days": "Sat", "time": "10:00am"}, {"days": "Sun", "time": "Closed"}], "id": "2650500040", "name": "USPS COLLECTION BOX - BLUE BOX", "address": {"city": "MORGANTOWN", "state": "WV", "street": "1851 EARL L CORE RD", "postcode": "26505"}}},
{"geometry": {"type": "Point", "coordinates": [-79.924169065, 39.6233830518]}, "type": "Feature", "properties": {"collection_times": [{"days": "Mon-Fri", "time": "11:00am"}, {"days": "Sat", "time": "10:30am"}, {"days": "Sun", "time": "Closed"}], "id": "2650500043", "name": "USPS COLLECTION BOX - BLUE BOX", "address": {"city": "MORGANTOWN", "state": "WV", "street": "1401 EARL L CORE RD", "postcode": "26505"}}},
{"geometry": {"type": "Point", "coordinates": [-79.9404765109, 39.6533687174]}, "type": "Feature", "properties": {"collection_times": [{"days": "Mon-Sat", "time": "9:30am"}, {"days": "Sun", "time": "Closed"}], "id": "2650500055", "name": "USPS COLLECTION BOX - BLUE BOX", "address": {"city": "MORGANTOWN", "state": "WV", "street": "2600 CRANBERRY SQ", "postcode": "26505"}}},
{"geometry": {"type": "Point", "coordinates": [-79.9818504945, 39.6573400052]}, "type": "Feature", "properties": {"collection_times": [{"days": "Mon-Fri", "time": "1:00pm"}, {"days": "Sat", "time": "12:00pm"}, {"days": "Sun", "time": "Closed"}], "id": "2650500058", "name": "USPS COLLECTION BOX - BLUE BOX", "address": {"city": "MORGANTOWN", "state": "WV", "street": "3400 UNIVERSITY AVE", "postcode": "26505"}}},
{"geometry": {"type": "Point", "coordinates": [-79.9907731114, 39.6206693496]}, "type": "Feature", "properties": {"collection_times": [{"days": "Mon-Sat", "time": "9:30am"}, {"days": "Sun", "time": "Closed"}], "id": "2650500059", "name": "USPS COLLECTION BOX - BLUE BOX", "address": {"city": "MORGANTOWN", "state": "WV", "street": "9500 MALL RD", "postcode": "26505"}}},
{"geometry": {"type": "Point", "coordinates": [-79.9572361479, 39.6281044598]}, "type": "Feature", "properties": {"collection_times": [{"days": "Mon-Fri", "time": "2:00pm"}, {"days": "Sat", "time": "10:00am"}, {"days": "Sun", "time": "Closed"}], "id": "2650500064", "name": "USPS COLLECTION BOX - BLUE BOX", "address": {"city": "MORGANTOWN", "state": "WV", "street": "122 HIGH ST", "postcode": "26505"}}},
{"geometry": {"type": "Point", "coordinates": [-79.9542975378, 39.6302547925]}, "type": "Feature", "properties": {"collection_times": [{"days": "Mon-Fri", "time": "2:50pm"}, {"days": "Sat", "time": "9:30am"}, {"days": "Sun", "time": "Closed"}], "id": "2650500065", "name": "USPS COLLECTION BOX - BLUE BOX", "address": {"city": "MORGANTOWN", "state": "WV", "street": "373 SPRUCE ST", "postcode": "26505"}}},
{"geometry": {"type": "Point", "coordinates": [-79.9525169328, 39.64760098]}, "type": "Feature", "properties": {"collection_times": [{"days": "Mon-Sat", "time": "9:30am"}, {"days": "Sun", "time": "Closed"}], "id": "2650500069", "name": "USPS COLLECTION BOX - BLUE BOX", "address": {"city": "MORGANTOWN", "state": "WV", "street": "364 1/2 PATTESON DR", "postcode": "26505"}}},
{"geometry": {"type": "Point", "coordinates": [-79.9565772326, 39.6319205597]}, "type": "Feature", "properties": {"collection_times": [{"days": "Mon-Fri", "time": "1:30pm"}, {"days": "Sat", "time": "12:00pm"}, {"days": "Sun", "time": "Closed"}], "id": "2650500071", "name": "USPS COLLECTION BOX - BLUE BOX", "address": {"city": "MORGANTOWN", "state": "WV", "street": "1 BEECHURST AVE", "postcode": "26505"}}},
{"geometry": {"type": "Point", "coordinates": [-79.9541139825, 39.6359740619]}, "type": "Feature", "properties": {"collection_times": [{"days": "Mon-Fri", "time": "1:00pm"}, {"days": "Sat-Sun", "time": "Closed"}], "id": "2650500072", "name": "USPS COLLECTION BOX - BLUE BOX", "address": {"city": "MORGANTOWN", "state": "WV", "street": "1550 UNIVERSITY AVE", "postcode": "26505"}}},
{"geometry": {"type": "Point", "coordinates": [-79.9818504945, 39.6573400052]}, "type": "Feature", "properties": {"collection_times": [{"days": "Mon-Fri", "time": "1:00pm"}, {"days": "Sat", "time": "12:00pm"}, {"days": "Sun", "time": "Closed"}], "id": "2650500075", "name": "USPS COLLECTION BOX - BLUE BOX", "address": {"city": "MORGANTOWN", "state": "WV", "street": "3400 UNIVERSITY AVE", "postcode": "26505"}}},
{"geometry": {"type": "Point", "coordinates": [-79.9562586712, 39.6295094173]}, "type": "Feature", "properties": {"collection_times": [{"days": "Mon-Fri", "time": "2:00pm"}, {"days": "Sat", "time": "9:30am"}, {"days": "Sun", "time": "Closed"}], "id": "2650500090", "name": "USPS COLLECTION BOX - BLUE BOX", "address": {"city": "MORGANTOWN", "state": "WV", "street": "265 HIGH ST", "postcode": "26505"}}},
{"geometry": {"type": "Point", "coordinates": [-79.9572361479, 39.6281044598]}, "type": "Feature", "properties": {"collection_times": [{"days": "Mon-Fri", "time": "2:00pm"}, {"days": "Sat", "time": "10:00am"}, {"days": "Sun", "time": "Closed"}], "id": "2650500092", "name": "USPS COLLECTION BOX - BLUE BOX", "address": {"city": "MORGANTOWN", "state": "WV", "street": "122 HIGH ST", "postcode": "26505"}}},
{"geometry": {"type": "Point", "coordinates": [-79.9855669241, 39.6287360414]}, "type": "Feature", "properties": {"collection_times": [{"days": "Mon-Sat", "time": "9:30am"}, {"days": "Sun", "time": "Closed"}], "id": "2650500100", "name": "USPS COLLECTION BOX - BLUE BOX", "address": {"city": "MORGANTOWN", "state": "WV", "street": "50 COMMERCE DR", "postcode": "26505"}}},
{"geometry": {"type": "Point", "coordinates": [-79.9404765109, 39.6533687174]}, "type": "Feature", "properties": {"collection_times": [{"days": "Mon-Sat", "time": "9:45am"}, {"days": "Sun", "time": "Closed"}], "id": "2650500101", "name": "USPS COLLECTION BOX - BLUE BOX", "address": {"city": "MORGANTOWN", "state": "WV", "street": "501 ASHEBROOKE SQ", "postcode": "26505"}}},
{"geometry": {"type": "Point", "coordinates": [-79.96368, 39.608067]}, "type": "Feature", "properties": {"collection_times": [{"days": "Mon-Sat", "time": "9:30am"}, {"days": "Sun", "time": "Closed"}], "id": "2650500102", "name": "USPS COLLECTION BOX - BLUE BOX", "address": {"city": "MORGANTOWN", "state": "WV", "street": "130 GREENBAG RD", "postcode": "26505"}}},
{"geometry": {"type": "Point", "coordinates": [-79.973113022, 39.636147779]}, "type": "Feature", "properties": {"collection_times": [{"days": "Mon-Fri", "time": "12:30pm"}, {"days": "Sat", "time": "10:00am"}, {"days": "Sun", "time": "Closed"}], "id": "2650500106", "name": "USPS COLLECTION BOX - BLUE BOX", "address": {"city": "MORGANTOWN", "state": "WV", "street": "1 OHIO AVE", "postcode": "26505"}}},
{"geometry": {"type": "Point", "coordinates": [-79.9404765109, 39.6533687174]}, "type": "Feature", "properties": {"collection_times": [{"days": "Mon-Sat", "time": "11:00am"}, {"days": "Sun", "time": "Closed"}], "id": "2650500110", "name": "USPS COLLECTION BOX - BLUE BOX", "address": {"city": "MORGANTOWN", "state": "WV", "street": "1705 VAN VOORHIS RD", "postcode": "26505"}}},
{"geometry": {"type": "Point", "coordinates": [-79.973113022, 39.636147779]}, "type": "Feature", "properties": {"collection_times": [{"days": "Mon-Fri", "time": "12:30pm"}, {"days": "Sat", "time": "10:00am"}, {"days": "Sun", "time": "Closed"}], "id": "2650500111", "name": "USPS COLLECTION BOX - BLUE BOX", "address": {"city": "MORGANTOWN", "state": "WV", "street": "1 OHIO AVE", "postcode": "26505"}}},
{"geometry": {"type": "Point", "coordinates": [-79.9404765109, 39.6533687174]}, "type": "Feature", "properties": {"collection_times": [{"days": "Mon-Sat", "time": "9:30am"}, {"days": "Sun", "time": "Closed"}], "id": "2650500112", "name": "USPS COLLECTION BOX - BLUE BOX", "address": {"city": "MORGANTOWN", "state": "WV", "street": "6520 MALL RD", "postcode": "26505"}}},
{"geometry": {"type": "Point", "coordinates": [-79.9221423023, 39.64860856]}, "type": "Feature", "properties": {"collection_times": [{"days": "Mon-Sat", "time": "11:00am"}, {"days": "Sun", "time": "Closed"}], "id": "2650500113", "name": "USPS COLLECTION BOX - BLUE BOX", "address": {"city": "MORGANTOWN", "state": "WV", "street": "1756 MILEGROUND RD", "postcode": "26505"}}},
{"geometry": {"type": "Point", "coordinates": [-79.9525169328, 39.64760098]}, "type": "Feature", "properties": {"collection_times": [{"days": "Mon-Fri", "time": "9:30am"}, {"days": "Sat", "time": "9:00am"}, {"days": "Sun", "time": "Closed"}], "id": "2650500114", "name": "USPS COLLECTION BOX - BLUE BOX", "address": {"city": "MORGANTOWN", "state": "WV", "street": "150 CLAY ST", "postcode": "26505"}}},
{"geometry": {"type": "Point", "coordinates": [-79.9404765109, 39.6533687174]}, "type": "Feature", "properties": {"collection_times": [{"days": "Mon-Sat", "time": "2:30pm"}, {"days": "Sun", "time": "Closed"}], "id": "2650500117", "name": "USPS COLLECTION BOX - BLUE BOX", "address": {"city": "MORGANTOWN", "state": "WV", "street": "300 POSTAL PLZ", "postcode": "26505"}}},
{"geometry": {"type": "Point", "coordinates": [-79.9818504945, 39.6573400052]}, "type": "Feature", "properties": {"collection_times": [{"days": "Mon-Fri", "time": "1:00pm"}, {"days": "Sat", "time": "12:00pm"}, {"days": "Sun", "time": "Closed"}], "id": "2650500118", "name": "USPS COLLECTION BOX - PO LOBBY", "address": {"city": "MORGANTOWN", "state": "WV", "street": "3400 UNIVERSITY AVE", "postcode": "26505"}}},
{"geometry": {"type": "Point", "coordinates": [-79.8960732435, 39.6488361274]}, "type": "Feature", "properties": {"collection_times": [{"days": "Mon-Sat", "time": "10:00am"}, {"days": "Sun", "time": "Closed"}], "id": "2650500122", "name": "USPS COLLECTION BOX - BLUE BOX", "address": {"city": "MORGANTOWN", "state": "WV", "street": "718 VENTURE DR", "postcode": "26505"}}},
{"geometry": {"type": "Point", "coordinates": [-79.9710491059, 39.6545194312]}, "type": "Feature", "properties": {"collection_times": [{"days": "Mon-Fri", "time": "12:30pm"}, {"days": "Sat", "time": "11:00am"}, {"days": "Sun", "time": "Closed"}], "id": "2650500126", "name": "USPS COLLECTION BOX - BLUE BOX", "address": {"city": "MORGANTOWN", "state": "WV", "street": "3120 UNIVERSITY AVE", "postcode": "26505"}}},
{"geometry": {"type": "Point", "coordinates": [-79.9562586712, 39.6295094173]}, "type": "Feature", "properties": {"collection_times": [{"days": "Mon-Fri", "time": "2:00pm"}, {"days": "Sat", "time": "9:30am"}, {"days": "Sun", "time": "Closed"}], "id": "2650500127", "name": "USPS COLLECTION BOX - BLUE BOX", "address": {"city": "MORGANTOWN", "state": "WV", "street": "265 HIGH ST", "postcode": "26505"}}},
{"geometry": {"type": "Point", "coordinates": [-79.9560314355, 39.5866567086]}, "type": "Feature", "properties": {"collection_times": [{"days": "Mon-Fri", "time": "12:00pm"}, {"days": "Sat", "time": "10:00am"}, {"days": "Sun", "time": "Closed"}], "id": "2650500128", "name": "USPS COLLECTION BOX - BLUE BOX", "address": {"city": "MORGANTOWN", "state": "WV", "street": "55 SCOTT AVE", "postcode": "26505"}}},
{"geometry": {"type": "Point", "coordinates": [-79.9775766333, 39.6678870484]}, "type": "Feature", "properties": {"collection_times": [{"days": "Mon-Sat", "time": "11:00am"}, {"days": "Sun", "time": "Closed"}], "id": "2650500129", "name": "USPS COLLECTION BOX - BLUE BOX", "address": {"city": "MORGANTOWN", "state": "WV", "street": "3557 COLLINS FERRY RD", "postcode": "26505"}}},
{"geometry": {"type": "Point", "coordinates": [-79.9525169328, 39.64760098]}, "type": "Feature", "properties": {"collection_times": [{"days": "Mon-Sat", "time": "10:00am"}, {"days": "Sun", "time": "Closed"}], "id": "2650500131", "name": "USPS COLLECTION BOX - BLUE BOX", "address": {"city": "MORGANTOWN", "state": "WV", "street": "SUNCREST TOWN CENTRE", "postcode": "26505"}}},
{"geometry": {"type": "Point", "coordinates": [-79.9537125408, 39.6603876848]}, "type": "Feature", "properties": {"collection_times": [{"days": "Mon-Sat", "time": "12:00pm"}, {"days": "Sun", "time": "Closed"}], "id": "2650500132", "name": "USPS COLLECTION BOX - BLUE BOX", "address": {"city": "MORGANTOWN", "state": "WV", "street": "1231 PINEVIEW DR", "postcode": "26505"}}},
{"geometry": {"type": "Point", "coordinates": [-79.9578660873, 39.6273713192]}, "type": "Feature", "properties": {"collection_times": [{"days": "Mon-Fri", "time": "4:30pm"}, {"days": "Sat", "time": "12:00pm"}, {"days": "Sun", "time": "Closed"}], "id": "2650500135", "name": "USPS COLLECTION BOX - PO LOBBY", "address": {"city": "MORGANTOWN", "state": "WV", "street": "40 HIGH ST", "postcode": "26505"}}},
{"geometry": {"type": "Point", "coordinates": [-79.95127, 39.613773]}, "type": "Feature", "properties": {"collection_times": [{"days": "Mon-Sat", "time": "9:30am"}, {"days": "Sun", "time": "Closed"}], "id": "2650500136", "name": "USPS COLLECTION BOX - BLUE BOX", "address": {"city": "MORGANTOWN", "state": "WV", "street": "1205 DORSEY AVE", "postcode": "26505"}}},
{"geometry": {"type": "Point", "coordinates": [-79.8057264187, 39.5030752372]}, "type": "Feature", "properties": {"collection_times": [{"days": "Mon-Fri", "time": "3:15pm"}, {"days": "Sat", "time": "10:00am"}, {"days": "Sun", "time": "Closed"}], "id": "2652000000", "name": "USPS COLLECTION BOX - BLUE BOX", "address": {"city": "ARTHURDALE", "state": "WV", "street": "13258 N MOUNTAINEER HWY", "postcode": "26520"}}},
{"geometry": {"type": "Point", "coordinates": [-79.8057264187, 39.5030752372]}, "type": "Feature", "properties": {"collection_times": [{"days": "Mon-Fri", "time": "3:15pm"}, {"days": "Sat", "time": "10:00am"}, {"days": "Sun", "time": "Closed"}], "id": "2652000001", "name": "USPS COLLECTION BOX - PO LOBBY", "address": {"city": "ARTHURDALE", "state": "WV", "street": "13258 N MOUNTAINEER HWY", "postcode": "26520"}}},
{"geometry": {"type": "Point", "coordinates": [-80.2342138667, 39.7084170327]}, "type": "Feature", "properties": {"collection_times": [{"days": "Mon-Fri", "time": "3:30pm"}, {"days": "Sat", "time": "11:30am"}, {"days": "Sun", "time": "Closed"}], "id": "2652100000", "name": "USPS COLLECTION BOX - BLUE BOX", "address": {"city": "BLACKSVILLE", "state": "WV", "street": "46 DAYBROOK RD", "postcode": "26521"}}},
{"geometry": {"type": "Point", "coordinates": [-80.2342138667, 39.7084170327]}, "type": "Feature", "properties": {"collection_times": [{"days": "Mon-Fri", "time": "3:30pm"}, {"days": "Sat", "time": "11:30am"}, {"days": "Sun", "time": "Closed"}], "id": "2652100001", "name": "USPS COLLECTION BOX - PO LOBBY", "address": {"city": "BLACKSVILLE", "state": "WV", "street": "46 DAYBROOK RD", "postcode": "26521"}}},
{"geometry": {"type": "Point", "coordinates": [-79.6354638052, 39.652254822]}, "type": "Feature", "properties": {"collection_times": [{"days": "Mon-Fri", "time": "4:00pm"}, {"days": "Sat", "time": "11:00am"}, {"days": "Sun", "time": "Closed"}], "id": "2652500001", "name": "USPS COLLECTION BOX - PO LOBBY", "address": {"city": "BRUCETON MILLS", "state": "WV", "street": "1 MORGANTOWN ST", "postcode": "26525"}}},
{"geometry": {"type": "Point", "coordinates": [-79.8858274361, 39.6094593566]}, "type": "Feature", "properties": {"collection_times": [{"days": "Mon-Fri", "time": "3:45pm"}, {"days": "Sat", "time": "11:45am"}, {"days": "Sun", "time": "Closed"}], "id": "2653100001", "name": "USPS COLLECTION BOX - PO LOBBY", "address": {"city": "DELLSLOW", "state": "WV", "street": "1902 ELJADID ST", "postcode": "26531"}}},
{"geometry": {"type": "Point", "coordinates": [-79.9255170687, 39.6197929448]}, "type": "Feature", "properties": {"collection_times": [{"days": "Mon-Fri", "time": "3:45pm"}, {"days": "Sat", "time": "11:45am"}, {"days": "Sun", "time": "Closed"}], "id": "2653100003", "name": "USPS COLLECTION BOX - BLUE BOX", "address": {"city": "DELLSLOW", "state": "WV", "street": "1902 ELJAZID ST", "postcode": "26531"}}},
{"geometry": {"type": "Point", "coordinates": [-79.9874742352, 39.6462835196]}, "type": "Feature", "properties": {"collection_times": [{"days": "Mon-Fri", "time": "3:30pm"}, {"days": "Sat", "time": "11:00am"}, {"days": "Sun", "time": "Closed"}], "id": "2653400000", "name": "USPS COLLECTION BOX - BLUE BOX", "address": {"city": "GRANVILLE", "state": "WV", "street": "524 MAIN ST", "postcode": "26534"}}},
{"geometry": {"type": "Point", "coordinates": [-79.9874742352, 39.6462835196]}, "type": "Feature", "properties": {"collection_times": [{"days": "Mon-Fri", "time": "3:30pm"}, {"days": "Sat", "time": "11:00am"}, {"days": "Sun", "time": "Closed"}], "id": "2653400001", "name": "USPS COLLECTION BOX - PO LOBBY", "address": {"city": "GRANVILLE", "state": "WV", "street": "524 MAIN ST", "postcode": "26534"}}},
{"geometry": {"type": "Point", "coordinates": [-79.6824629413, 39.472084664]}, "type": "Feature", "properties": {"collection_times": [{"days": "Mon-Fri", "time": "3:45pm"}, {"days": "Sat", "time": "12:00pm"}, {"days": "Sun", "time": "Closed"}], "id": "2653700000", "name": "USPS COLLECTION BOX - BLUE BOX", "address": {"city": "KINGWOOD", "state": "WV", "street": "225 E MAIN ST", "postcode": "26537"}}},
{"geometry": {"type": "Point", "coordinates": [-79.6824629413, 39.472084664]}, "type": "Feature", "properties": {"collection_times": [{"days": "Mon-Fri", "time": "3:45pm"}, {"days": "Sat", "time": "12:00pm"}, {"days": "Sun", "time": "Closed"}], "id": "2653700001", "name": "USPS COLLECTION BOX - BLUE BOX", "address": {"city": "KINGWOOD", "state": "WV", "street": "225 E MAIN ST", "postcode": "26537"}}},
{"geometry": {"type": "Point", "coordinates": [-79.6906128768, 39.4644358746]}, "type": "Feature", "properties": {"collection_times": [{"days": "Mon-Sat", "time": "11:00am"}, {"days": "Sun", "time": "Closed"}], "id": "2653700006", "name": "USPS COLLECTION BOX - BLUE BOX", "address": {"city": "KINGWOOD", "state": "WV", "street": "202 TUNNELTON ST", "postcode": "26537"}}},
{"geometry": {"type": "Point", "coordinates": [-79.6876175743, 39.4722134905]}, "type": "Feature", "properties": {"collection_times": [{"days": "Mon-Fri", "time": "2:00pm"}, {"days": "Sat", "time": "12:00pm"}, {"days": "Sun", "time": "Closed"}], "id": "2653700007", "name": "USPS COLLECTION BOX - BLUE BOX", "address": {"city": "KINGWOOD", "state": "WV", "street": "103 W MAIN ST", "postcode": "26537"}}},
{"geometry": {"type": "Point", "coordinates": [-79.6824629413, 39.472084664]}, "type": "Feature", "properties": {"collection_times": [{"days": "Mon-Fri", "time": "4:15pm"}, {"days": "Sat", "time": "12:00pm"}, {"days": "Sun", "time": "Closed"}], "id": "2653700011", "name": "USPS COLLECTION BOX - PO LOBBY", "address": {"city": "KINGWOOD", "state": "WV", "street": "225 E MAIN ST", "postcode": "26537"}}},
{"geometry": {"type": "Point", "coordinates": [-79.6824629413, 39.472084664]}, "type": "Feature", "properties": {"collection_times": [{"days": "Mon-Fri", "time": "4:15pm"}, {"days": "Sat", "time": "12:00pm"}, {"days": "Sun", "time": "Closed"}], "id": "2653700013", "name": "USPS COLLECTION BOX - PO LOBBY", "address": {"city": "KINGWOOD", "state": "WV", "street": "225 E MAIN ST", "postcode": "26537"}}},
{"geometry": {"type": "Point", "coordinates": [-80.0439845499, 39.7148572989]}, "type": "Feature", "properties": {"collection_times": [{"days": "Mon-Fri", "time": "12:45pm"}, {"days": "Sat", "time": "10:00am"}, {"days": "Sun", "time": "Closed"}], "id": "2654100000", "name": "USPS COLLECTION BOX - BLUE BOX", "address": {"city": "MAIDSVILLE", "state": "WV", "street": "933 LAZZELLE UNION RD", "postcode": "26541"}}},
{"geometry": {"type": "Point", "coordinates": [-80.0439845499, 39.7148572989]}, "type": "Feature", "properties": {"collection_times": [{"days": "Mon-Fri", "time": "12:00pm"}, {"days": "Sat", "time": "10:00am"}, {"days": "Sun", "time": "Closed"}], "id": "2654100001", "name": "USPS COLLECTION BOX - PO LOBBY", "address": {"city": "MAIDSVILLE", "state": "WV", "street": "933 LAZZELLE UNION RD", "postcode": "26541"}}},
{"geometry": {"type": "Point", "coordinates": [-79.7924207671, 39.5802437544]}, "type": "Feature", "properties": {"collection_times": [{"days": "Mon-Fri", "time": "3:30pm"}, {"days": "Sat", "time": "9:45am"}, {"days": "Sun", "time": "Closed"}], "id": "2654200000", "name": "USPS COLLECTION BOX - BLUE BOX", "address": {"city": "MASONTOWN", "state": "WV", "street": "20 N MAIN ST", "postcode": "26542"}}},
{"geometry": {"type": "Point", "coordinates": [-79.7924207671, 39.5802437544]}, "type": "Feature", "properties": {"collection_times": [{"days": "Mon-Fri", "time": "3:30pm"}, {"days": "Sat", "time": "9:45am"}, {"days": "Sun", "time": "Closed"}], "id": "2654200001", "name": "USPS COLLECTION BOX - PO LOBBY", "address": {"city": "MASONTOWN", "state": "WV", "street": "20 N MAIN ST", "postcode": "26542"}}},
{"geometry": {"type": "Point", "coordinates": [-80.1615733914, 39.7117018877]}, "type": "Feature", "properties": {"collection_times": [{"days": "Mon-Sat", "time": "11:45am"}, {"days": "Sun", "time": "Closed"}], "id": "2654400000", "name": "USPS COLLECTION BOX - BLUE BOX", "address": {"city": "PENTRESS", "state": "WV", "street": "55 PENTRESS RD", "postcode": "26544"}}},
{"geometry": {"type": "Point", "coordinates": [-80.0948007581, 39.71094603]}, "type": "Feature", "properties": {"collection_times": [{"days": "Mon-Fri", "time": "4:00pm"}, {"days": "Sat", "time": "10:15am"}, {"days": "Sun", "time": "Closed"}], "id": "2654600000", "name": "USPS COLLECTION BOX - BLUE BOX", "address": {"city": "PURSGLOVE", "state": "WV", "street": "576 BLUE HORIZON DR", "postcode": "26546"}}},
{"geometry": {"type": "Point", "coordinates": [-80.0948007581, 39.71094603]}, "type": "Feature", "properties": {"collection_times": [{"days": "Mon-Fri", "time": "4:00pm"}, {"days": "Sat", "time": "10:15am"}, {"days": "Sun", "time": "Closed"}], "id": "2654600001", "name": "USPS COLLECTION BOX - PO LOBBY", "address": {"city": "PURSGLOVE", "state": "WV", "street": "576 BLUE HORIZON DR", "postcode": "26546"}}},
{"geometry": {"type": "Point", "coordinates": [-79.8159574916, 39.5130875092]}, "type": "Feature", "properties": {"collection_times": [{"days": "Mon-Fri", "time": "3:30pm"}, {"days": "Sat", "time": "10:30am"}, {"days": "Sun", "time": "Closed"}], "id": "2654700000", "name": "USPS COLLECTION BOX - BLUE BOX", "address": {"city": "REEDSVILLE", "state": "WV", "street": "13275 VETERANS MEMORIAL HWY", "postcode": "26547"}}},
{"geometry": {"type": "Point", "coordinates": [-79.8159574916, 39.5130875092]}, "type": "Feature", "properties": {"collection_times": [{"days": "Mon-Fri", "time": "3:30pm"}, {"days": "Sat", "time": "10:30am"}, {"days": "Sun", "time": "Closed"}], "id": "2654700001", "name": "USPS COLLECTION BOX - PO LOBBY", "address": {"city": "REEDSVILLE", "state": "WV", "street": "13275 VETERANS MEMORIAL HWY", "postcode": "26547"}}},
{"geometry": {"type": "Point", "coordinates": [-80.1640984617, 39.480735219]}, "type": "Feature", "properties": {"collection_times": [{"days": "Mon-Sat", "time": "10:00am"}, {"days": "Sun", "time": "Closed"}], "id": "2655400005", "name": "USPS COLLECTION BOX - BLUE BOX", "address": {"city": "FAIRMONT", "state": "WV", "street": "1325 LOCUST AVE", "postcode": "26554"}}},
{"geometry": {"type": "Point", "coordinates": [-80.1129654945, 39.4676252304]}, "type": "Feature", "properties": {"collection_times": [{"days": "Mon-Sat", "time": "10:15am"}, {"days": "Sun", "time": "Closed"}], "id": "2655400009", "name": "USPS COLLECTION BOX - BLUE BOX", "address": {"city": "FAIRMONT", "state": "WV", "street": "9789 MALL LOOP", "postcode": "26554"}}},
{"geometry": {"type": "Point", "coordinates": [-80.1439656247, 39.4843810373]}, "type": "Feature", "properties": {"collection_times": [{"days": "Mon-Sat", "time": "11:00am"}, {"days": "Sun", "time": "Closed"}], "id": "2655400012", "name": "USPS COLLECTION BOX - BLUE BOX", "address": {"city": "FAIRMONT", "state": "WV", "street": "301 MONROE ST", "postcode": "26554"}}},
{"geometry": {"type": "Point", "coordinates": [-80.1709127906, 39.471628913]}, "type": "Feature", "properties": {"collection_times": [{"days": "Mon-Sat", "time": "9:45am"}, {"days": "Sun", "time": "Closed"}], "id": "2655400030", "name": "USPS COLLECTION BOX - BLUE BOX", "address": {"city": "FAIRMONT", "state": "WV", "street": "1228 COUNTRY CLUB RD", "postcode": "26554"}}},
{"geometry": {"type": "Point", "coordinates": [-80.1523729076, 39.472424525]}, "type": "Feature", "properties": {"collection_times": [{"days": "Mon-Sat", "time": "10:30am"}, {"days": "Sun", "time": "Closed"}], "id": "2655400032", "name": "USPS COLLECTION BOX - BLUE BOX", "address": {"city": "FAIRMONT", "state": "WV", "street": "1000 GASTON AVE", "postcode": "26554"}}},
{"geometry": {"type": "Point", "coordinates": [-80.1527391313, 39.4707940162]}, "type": "Feature", "properties": {"collection_times": [{"days": "Mon-Sat", "time": "9:45am"}, {"days": "Sun", "time": "Closed"}], "id": "2655400040", "name": "USPS COLLECTION BOX - BLUE BOX", "address": {"city": "FAIRMONT", "state": "WV", "street": "1501 MARY LOU RETTON DR", "postcode": "26554"}}},
{"geometry": {"type": "Point", "coordinates": [-80.2212810721, 39.463507544]}, "type": "Feature", "properties": {"collection_times": [{"days": "Mon-Sat", "time": "9:30am"}, {"days": "Sun", "time": "Closed"}], "id": "2655400041", "name": "USPS COLLECTION BOX - BLUE BOX", "address": {"city": "FAIRMONT", "state": "WV", "street": "428 CAMDEN AVE", "postcode": "26554"}}},
{"geometry": {"type": "Point", "coordinates": [-80.1414844409, 39.4852533786]}, "type": "Feature", "properties": {"collection_times": [{"days": "Mon-Sat", "time": "11:15am"}, {"days": "Sun", "time": "Closed"}], "id": "2655400043", "name": "USPS COLLECTION BOX - BLUE BOX", "address": {"city": "FAIRMONT", "state": "WV", "street": "331 MADISON ST", "postcode": "26554"}}},
{"geometry": {"type": "Point", "coordinates": [-80.1414844409, 39.4852533786]}, "type": "Feature", "properties": {"collection_times": [{"days": "Mon-Sat", "time": "11:15am"}, {"days": "Sun", "time": "Closed"}], "id": "2655400044", "name": "USPS COLLECTION BOX - BLUE BOX", "address": {"city": "FAIRMONT", "state": "WV", "street": "331 MADISON ST", "postcode": "26554"}}},
{"geometry": {"type": "Point", "coordinates": [-80.1368766422, 39.4811389608]}, "type": "Feature", "properties": {"collection_times": [{"days": "Mon-Sat", "time": "10:45am"}, {"days": "Sun", "time": "Closed"}], "id": "2655400055", "name": "USPS COLLECTION BOX - BLUE BOX", "address": {"city": "FAIRMONT", "state": "WV", "street": "301 MARKET ST", "postcode": "26554"}}},
{"geometry": {"type": "Point", "coordinates": [-80.1301574648, 39.4794500474]}, "type": "Feature", "properties": {"collection_times": [{"days": "Mon-Sat", "time": "10:45am"}, {"days": "Sun", "time": "Closed"}], "id": "2655400060", "name": "USPS COLLECTION BOX - BLUE BOX", "address": {"city": "FAIRMONT", "state": "WV", "street": "503 MORGANTOWN AVE", "postcode": "26554"}}},
{"geometry": {"type": "Point", "coordinates": [-80.1134357256, 39.4841926395]}, "type": "Feature", "properties": {"collection_times": [{"days": "Mon-Sat", "time": "10:45am"}, {"days": "Sun", "time": "Closed"}], "id": "2655400061", "name": "USPS COLLECTION BOX - BLUE BOX", "address": {"city": "FAIRMONT", "state": "WV", "street": "1602 MORGANTOWN AVE", "postcode": "26554"}}},
{"geometry": {"type": "Point", "coordinates": [-80.1129654945, 39.4676252304]}, "type": "Feature", "properties": {"collection_times": [{"days": "Mon-Sat", "time": "10:15am"}, {"days": "Sun", "time": "Closed"}], "id": "2655400068", "name": "USPS COLLECTION BOX - BLUE BOX", "address": {"city": "FAIRMONT", "state": "WV", "street": "9709 MALL LOOP", "postcode": "26554"}}},
{"geometry": {"type": "Point", "coordinates": [-80.1426926405, 39.4849335212]}, "type": "Feature", "properties": {"collection_times": [{"days": "Mon-Fri", "time": "11:00am"}, {"days": "Sat-Sun", "time": "Closed"}], "id": "2655400073", "name": "USPS COLLECTION BOX - BLUE BOX", "address": {"city": "FAIRMONT", "state": "WV", "street": "301 ADAMS ST", "postcode": "26554"}}},
{"geometry": {"type": "Point", "coordinates": [-80.1374291056, 39.4984592117]}, "type": "Feature", "properties": {"collection_times": [{"days": "Mon-Sat", "time": "11:00am"}, {"days": "Sun", "time": "Closed"}], "id": "2655400077", "name": "USPS COLLECTION BOX - BLUE BOX", "address": {"city": "FAIRMONT", "state": "WV", "street": "609 BELLVIEW BLVD", "postcode": "26554"}}},
{"geometry": {"type": "Point", "coordinates": [-80.1559553129, 39.4947585347]}, "type": "Feature", "properties": {"collection_times": [{"days": "Mon-Sat", "time": "10:00am"}, {"days": "Sun", "time": "Closed"}], "id": "2655400084", "name": "USPS COLLECTION BOX - BLUE BOX", "address": {"city": "FAIRMONT", "state": "WV", "street": "200 GREENBRIER PLZ", "postcode": "26554"}}},
{"geometry": {"type": "Point", "coordinates": [-80.1414844409, 39.4852533786]}, "type": "Feature", "properties": {"collection_times": [{"days": "Mon-Sat", "time": "11:15am"}, {"days": "Sun", "time": "Closed"}], "id": "2655400087", "name": "USPS COLLECTION BOX - PO LOBBY", "address": {"city": "FAIRMONT", "state": "WV", "street": "331 MADISON ST", "postcode": "26554"}}},
{"geometry": {"type": "Point", "coordinates": [-80.1372734584, 39.481981052]}, "type": "Feature", "properties": {"collection_times": [{"days": "Mon-Sat", "time": "10:45am"}, {"days": "Sun", "time": "Closed"}], "id": "2655400091", "name": "USPS COLLECTION BOX - PO LOBBY", "address": {"city": "FAIRMONT", "state": "WV", "street": "215 MERCHANT ST", "postcode": "26554"}}},
{"geometry": {"type": "Point", "coordinates": [-80.1129654945, 39.4676252304]}, "type": "Feature", "properties": {"collection_times": [{"days": "Mon-Sat", "time": "10:30am"}, {"days": "Sun", "time": "Closed"}], "id": "2655400093", "name": "USPS COLLECTION BOX - BLUE BOX", "address": {"city": "FAIRMONT", "state": "WV", "street": "32 TYGART MALL LOOP", "postcode": "26554"}}},
{"geometry": {"type": "Point", "coordinates": [-80.1674643876, 39.5046276431]}, "type": "Feature", "properties": {"collection_times": [{"days": "Mon-Fri", "time": "1:00pm"}, {"days": "Sat", "time": "11:30am"}, {"days": "Sun", "time": "Closed"}], "id": "2655900000", "name": "USPS COLLECTION BOX - BLUE BOX", "address": {"city": "BARRACKVILLE", "state": "WV", "street": "209 PIKE ST", "postcode": "26559"}}},
{"geometry": {"type": "Point", "coordinates": [-80.1674643876, 39.5046276431]}, "type": "Feature", "properties": {"collection_times": [{"days": "Mon-Fri", "time": "1:00pm"}, {"days": "Sat", "time": "11:30am"}, {"days": "Sun", "time": "Closed"}], "id": "2655900001", "name": "USPS COLLECTION BOX - PO LOBBY", "address": {"city": "BARRACKVILLE", "state": "WV", "street": "209 PIKE ST", "postcode": "26559"}}},
{"geometry": {"type": "Point", "coordinates": [-80.2752191429, 39.4824454388]}, "type": "Feature", "properties": {"collection_times": [{"days": "Mon-Fri", "time": "11:45am"}, {"days": "Sat", "time": "9:45am"}, {"days": "Sun", "time": "Closed"}], "id": "2656300000", "name": "USPS COLLECTION BOX - BLUE BOX", "address": {"city": "CAROLINA", "state": "WV", "street": "33 MAIN ST", "postcode": "26563"}}},
{"geometry": {"type": "Point", "coordinates": [-80.2752191429, 39.4824454388]}, "type": "Feature", "properties": {"collection_times": [{"days": "Mon-Fri", "time": "11:45am"}, {"days": "Sat", "time": "9:45am"}, {"days": "Sun", "time": "Closed"}], "id": "2656300001", "name": "USPS COLLECTION BOX - PO LOBBY", "address": {"city": "CAROLINA", "state": "WV", "street": "33 MAIN ST", "postcode": "26563"}}},
{"geometry": {"type": "Point", "coordinates": [-80.1296384066, 39.4352370152]}, "type": "Feature", "properties": {"collection_times": [{"days": "Mon-Fri", "time": "11:45am"}, {"days": "Sat", "time": "11:00am"}, {"days": "Sun", "time": "Closed"}], "id": "2656600000", "name": "USPS COLLECTION BOX - BLUE BOX", "address": {"city": "COLFAX", "state": "WV", "street": "1734 COLFAX RD", "postcode": "26566"}}},
{"geometry": {"type": "Point", "coordinates": [-80.1296384066, 39.4352370152]}, "type": "Feature", "properties": {"collection_times": [{"days": "Mon-Fri", "time": "11:45am"}, {"days": "Sat", "time": "11:00am"}, {"days": "Sun", "time": "Closed"}], "id": "2656600001", "name": "USPS COLLECTION BOX - PO LOBBY", "address": {"city": "COLFAX", "state": "WV", "street": "1734 COLFAX RD", "postcode": "26566"}}},
{"geometry": {"type": "Point", "coordinates": [-80.3467357773, 39.4266767855]}, "type": "Feature", "properties": {"collection_times": [{"days": "Mon-Fri", "time": "11:45am"}, {"days": "Sat", "time": "9:45am"}, {"days": "Sun", "time": "Closed"}], "id": "2656800000", "name": "USPS COLLECTION BOX - BLUE BOX", "address": {"city": "ENTERPRISE", "state": "WV", "street": "3215 HOOD AVE", "postcode": "26568"}}},
{"geometry": {"type": "Point", "coordinates": [-80.3467357773, 39.4266767855]}, "type": "Feature", "properties": {"collection_times": [{"days": "Mon-Fri", "time": "11:45am"}, {"days": "Sat", "time": "9:45am"}, {"days": "Sun", "time": "Closed"}], "id": "2656800001", "name": "USPS COLLECTION BOX - PO LOBBY", "address": {"city": "ENTERPRISE", "state": "WV", "street": "3215 HOOD AVE", "postcode": "26568"}}},
{"geometry": {"type": "Point", "coordinates": [-80.2463146106, 39.5924074843]}, "type": "Feature", "properties": {"collection_times": [{"days": "Mon-Fri", "time": "2:45pm"}, {"days": "Sat", "time": "11:00am"}, {"days": "Sun", "time": "Closed"}], "id": "2657000000", "name": "USPS COLLECTION BOX - BLUE BOX", "address": {"city": "FAIRVIEW", "state": "WV", "street": "310 MAIN ST", "postcode": "26570"}}},
{"geometry": {"type": "Point", "coordinates": [-80.2463146106, 39.5924074843]}, "type": "Feature", "properties": {"collection_times": [{"days": "Mon-Fri", "time": "2:45pm"}, {"days": "Sat", "time": "11:00am"}, {"days": "Sun", "time": "Closed"}], "id": "2657000001", "name": "USPS COLLECTION BOX - PO LOBBY", "address": {"city": "FAIRVIEW", "state": "WV", "street": "310 MAIN ST", "postcode": "26570"}}},
{"geometry": {"type": "Point", "coordinates": [-80.249326725, 39.5136350121]}, "type": "Feature", "properties": {"collection_times": [{"days": "Mon-Fri", "time": "2:30pm"}, {"days": "Sat", "time": "10:00am"}, {"days": "Sun", "time": "Closed"}], "id": "2657100000", "name": "USPS COLLECTION BOX - BLUE BOX", "address": {"city": "FARMINGTON", "state": "WV", "street": "3003 MAIN ST", "postcode": "26571"}}},
{"geometry": {"type": "Point", "coordinates": [-80.249326725, 39.5136350121]}, "type": "Feature", "properties": {"collection_times": [{"days": "Mon-Fri", "time": "2:00pm"}, {"days": "Sat", "time": "10:00am"}, {"days": "Sun", "time": "Closed"}], "id": "2657100002", "name": "USPS COLLECTION BOX - PO LOBBY", "address": {"city": "FARMINGTON", "state": "WV", "street": "3003 MAIN ST", "postcode": "26571"}}},
{"geometry": {"type": "Point", "coordinates": [-80.3109092625, 39.4810473864]}, "type": "Feature", "properties": {"collection_times": [{"days": "Mon-Fri", "time": "9:45am"}, {"days": "Sat", "time": "10:45am"}, {"days": "Sun", "time": "Closed"}], "id": "2657200000", "name": "USPS COLLECTION BOX - BLUE BOX", "address": {"city": "FOUR STATES", "state": "WV", "street": "84 FOUR STATES RD", "postcode": "26572"}}},
{"geometry": {"type": "Point", "coordinates": [-80.3109092625, 39.4810473864]}, "type": "Feature", "properties": {"collection_times": [{"days": "Mon-Fri", "time": "9:45am"}, {"days": "Sat", "time": "10:45am"}, {"days": "Sun", "time": "Closed"}], "id": "2657200001", "name": "USPS COLLECTION BOX - PO LOBBY", "address": {"city": "FOUR STATES", "state": "WV", "street": "84 FOUR STATES RD", "postcode": "26572"}}},
{"geometry": {"type": "Point", "coordinates": [-80.1798172056, 39.5571423105]}, "type": "Feature", "properties": {"collection_times": [{"days": "Mon-Fri", "time": "1:00pm"}, {"days": "Sat", "time": "9:45am"}, {"days": "Sun", "time": "Closed"}], "id": "2657400000", "name": "USPS COLLECTION BOX - BLUE BOX", "address": {"city": "GRANT TOWN", "state": "WV", "street": "107 1/2 BALLAH AVE", "postcode": "26574"}}},
{"geometry": {"type": "Point", "coordinates": [-80.1797654987, 39.5571202127]}, "type": "Feature", "properties": {"collection_times": [{"days": "Mon-Fri", "time": "1:00pm"}, {"days": "Sat", "time": "9:45am"}, {"days": "Sun", "time": "Closed"}], "id": "2657400001", "name": "USPS COLLECTION BOX - PO LOBBY", "address": {"city": "GRANT TOWN", "state": "WV", "street": "107 1/2 BALLAH AVE", "postcode": "26574"}}},
{"geometry": {"type": "Point", "coordinates": [-80.4793589543, 39.6923806323]}, "type": "Feature", "properties": {"collection_times": [{"days": "Mon-Fri", "time": "2:15pm"}, {"days": "Sat", "time": "9:15am"}, {"days": "Sun", "time": "Closed"}], "id": "2657500000", "name": "USPS COLLECTION BOX - BLUE BOX", "address": {"city": "HUNDRED", "state": "WV", "street": "PO BOX 9998", "postcode": "26575"}}},
{"geometry": {"type": "Point", "coordinates": [-80.4793589543, 39.6923806323]}, "type": "Feature", "properties": {"collection_times": [{"days": "Mon-Fri", "time": "2:15pm"}, {"days": "Sat", "time": "9:15am"}, {"days": "Sun", "time": "Closed"}], "id": "2657500001", "name": "USPS COLLECTION BOX - PO LOBBY", "address": {"city": "HUNDRED", "state": "WV", "street": "PO BOX 9998", "postcode": "26575"}}},
{"geometry": {"type": "Point", "coordinates": [-80.2565634695, 39.4989147992]}, "type": "Feature", "properties": {"collection_times": [{"days": "Mon-Fri", "time": "11:45am"}, {"days": "Sat", "time": "9:45am"}, {"days": "Sun", "time": "Closed"}], "id": "2657600000", "name": "USPS COLLECTION BOX - BLUE BOX", "address": {"city": "IDAMAY", "state": "WV", "street": "1194 MAIN ST", "postcode": "26576"}}},
{"geometry": {"type": "Point", "coordinates": [-80.2565634695, 39.4989147992]}, "type": "Feature", "properties": {"collection_times": [{"days": "Mon-Fri", "time": "11:45am"}, {"days": "Sat", "time": "9:45am"}, {"days": "Sun", "time": "Closed"}], "id": "2657600001", "name": "USPS COLLECTION BOX - PO LOBBY", "address": {"city": "IDAMAY", "state": "WV", "street": "1194 MAIN ST", "postcode": "26576"}}},
{"geometry": {"type": "Point", "coordinates": [-80.1753450605, 39.4463120344]}, "type": "Feature", "properties": {"collection_times": [{"days": "Mon-Fri", "time": "3:45pm"}, {"days": "Sat", "time": "10:30am"}, {"days": "Sun", "time": "Closed"}], "id": "2657800000", "name": "USPS COLLECTION BOX - BLUE BOX", "address": {"city": "KINGMONT", "state": "WV", "street": "2379 KINGMONT RD", "postcode": "26578"}}},
{"geometry": {"type": "Point", "coordinates": [-80.1753450605, 39.4463120344]}, "type": "Feature", "properties": {"collection_times": [{"days": "Mon-Fri", "time": "3:45pm"}, {"days": "Sat", "time": "10:30am"}, {"days": "Sun", "time": "Closed"}], "id": "2657800001", "name": "USPS COLLECTION BOX - PO LOBBY", "address": {"city": "KINGMONT", "state": "WV", "street": "2379 KINGMONT RD", "postcode": "26578"}}},
{"geometry": {"type": "Point", "coordinates": [-80.5987077369, 39.6684219346]}, "type": "Feature", "properties": {"collection_times": [{"days": "Mon-Fri", "time": "11:45am"}, {"days": "Sat", "time": "9:45am"}, {"days": "Sun", "time": "Closed"}], "id": "2658100001", "name": "USPS COLLECTION BOX - PO LOBBY", "address": {"city": "LITTLETON", "state": "WV", "street": "PO BOX 9998", "postcode": "26581"}}},
{"geometry": {"type": "Point", "coordinates": [-80.3417732753, 39.5293525325]}, "type": "Feature", "properties": {"collection_times": [{"days": "Mon-Fri", "time": "3:30pm"}, {"days": "Sat", "time": "11:00am"}, {"days": "Sun", "time": "Closed"}], "id": "2658200001", "name": "USPS COLLECTION BOX - BLUE BOX", "address": {"city": "MANNINGTON", "state": "WV", "street": "113 WATER ST", "postcode": "26582"}}},
{"geometry": {"type": "Point", "coordinates": [-80.3417732753, 39.5293525325]}, "type": "Feature", "properties": {"collection_times": [{"days": "Mon-Fri", "time": "3:30pm"}, {"days": "Sat", "time": "11:00am"}, {"days": "Sun", "time": "Closed"}], "id": "2658200007", "name": "USPS COLLECTION BOX - BLUE BOX", "address": {"city": "MANNINGTON", "state": "WV", "street": "113 WATER ST", "postcode": "26582"}}},
{"geometry": {"type": "Point", "coordinates": [-80.3909307159, 39.5261459443]}, "type": "Feature", "properties": {"collection_times": [{"days": "Mon-Sat", "time": "10:00am"}, {"days": "Sun", "time": "Closed"}], "id": "2658200011", "name": "USPS COLLECTION BOX - BLUE BOX", "address": {"city": "MANNINGTON", "state": "WV", "street": "4 RAINBOW PLZ", "postcode": "26582"}}},
{"geometry": {"type": "Point", "coordinates": [-80.3417732753, 39.5293525325]}, "type": "Feature", "properties": {"collection_times": [{"days": "Mon-Fri", "time": "3:30pm"}, {"days": "Sat", "time": "11:00am"}, {"days": "Sun", "time": "Closed"}], "id": "2658200012", "name": "USPS COLLECTION BOX - PO LOBBY", "address": {"city": "MANNINGTON", "state": "WV", "street": "113 WATER ST", "postcode": "26582"}}},
{"geometry": {"type": "Point", "coordinates": [-80.2941695734, 39.5259441928]}, "type": "Feature", "properties": {"collection_times": [{"days": "Mon-Fri", "time": "3:30pm"}, {"days": "Sat", "time": "10:45am"}, {"days": "Sun", "time": "Closed"}], "id": "2658700000", "name": "USPS COLLECTION BOX - BLUE BOX", "address": {"city": "RACHEL", "state": "WV", "street": "134 RACHEL RD", "postcode": "26587"}}},
{"geometry": {"type": "Point", "coordinates": [-80.2941695734, 39.5259441928]}, "type": "Feature", "properties": {"collection_times": [{"days": "Mon-Fri", "time": "3:30pm"}, {"days": "Sat", "time": "10:45am"}, {"days": "Sun", "time": "Closed"}], "id": "2658700001", "name": "USPS COLLECTION BOX - PO LOBBY", "address": {"city": "RACHEL", "state": "WV", "street": "134 RACHEL RD", "postcode": "26587"}}},
{"geometry": {"type": "Point", "coordinates": [-80.1756472973, 39.5560772308]}, "type": "Feature", "properties": {"collection_times": [{"days": "Mon-Fri", "time": "3:45pm"}, {"days": "Sat", "time": "10:45am"}, {"days": "Sun", "time": "Closed"}], "id": "2658800000", "name": "USPS COLLECTION BOX - BLUE BOX", "address": {"city": "RIVESVILLE", "state": "WV", "street": "214 MAIN ST", "postcode": "26588"}}},
{"geometry": {"type": "Point", "coordinates": [-80.1756472973, 39.5560772308]}, "type": "Feature", "properties": {"collection_times": [{"days": "Mon-Fri", "time": "3:45pm"}, {"days": "Sat", "time": "10:45am"}, {"days": "Sun", "time": "Closed"}], "id": "2658800001", "name": "USPS COLLECTION BOX - PO LOBBY", "address": {"city": "RIVESVILLE", "state": "WV", "street": "214 MAIN ST", "postcode": "26588"}}},
{"geometry": {"type": "Point", "coordinates": [-80.3364563978, 39.6421615652]}, "type": "Feature", "properties": {"collection_times": [{"days": "Mon-Fri", "time": "2:45pm"}, {"days": "Sat", "time": "10:30am"}, {"days": "Sun", "time": "Closed"}], "id": "2659000000", "name": "USPS COLLECTION BOX - BLUE BOX", "address": {"city": "WANA", "state": "WV", "street": "8468 MASON DIXON HWY", "postcode": "26590"}}},
{"geometry": {"type": "Point", "coordinates": [-80.3364563978, 39.6421615652]}, "type": "Feature", "properties": {"collection_times": [{"days": "Mon-Fri", "time": "2:45pm"}, {"days": "Sat", "time": "10:30am"}, {"days": "Sun", "time": "Closed"}], "id": "2659000001", "name": "USPS COLLECTION BOX - PO LOBBY", "address": {"city": "WANA", "state": "WV", "street": "8468 MASON DIXON HWY", "postcode": "26590"}}},
{"geometry": {"type": "Point", "coordinates": [-80.2638817069, 39.4514889497]}, "type": "Feature", "properties": {"collection_times": [{"days": "Mon-Fri", "time": "1:45pm"}, {"days": "Sat", "time": "10:15am"}, {"days": "Sun", "time": "Closed"}], "id": "2659100000", "name": "USPS COLLECTION BOX - BLUE BOX", "address": {"city": "WORTHINGTON", "state": "WV", "street": "287 MAIN ST", "postcode": "26591"}}},
{"geometry": {"type": "Point", "coordinates": [-80.2638817069, 39.4514889497]}, "type": "Feature", "properties": {"collection_times": [{"days": "Mon-Fri", "time": "1:45pm"}, {"days": "Sat", "time": "10:15am"}, {"days": "Sun", "time": "Closed"}], "id": "2659100001", "name": "USPS COLLECTION BOX - PO LOBBY", "address": {"city": "WORTHINGTON", "state": "WV", "street": "287 MAIN ST", "postcode": "26591"}}}
]}
