{"type": "FeatureCollection", "features": [
{"geometry": {"type": "Point", "coordinates": [-80.7085874585, 38.663808833]}, "type": "Feature", "properties": {"collection_times": [{"days": "Mon-Fri", "time": "4:30pm"}, {"days": "Sat", "time": "11:30am"}, {"days": "Sun", "time": "Closed"}], "id": "2660100004", "name": "USPS COLLECTION BOX - BLUE BOX", "address": {"city": "SUTTON", "state": "WV", "street": "306 RIVERVIEW DR", "postcode": "26601"}}},
{"geometry": {"type": "Point", "coordinates": [-80.7096300124, 38.6639674043]}, "type": "Feature", "properties": {"collection_times": [{"days": "Mon-Fri", "time": "4:30pm"}, {"days": "Sat", "time": "11:30am"}, {"days": "Sun", "time": "Closed"}], "id": "2660100007", "name": "USPS COLLECTION BOX - PO LOBBY", "address": {"city": "SUTTON", "state": "WV", "street": "306 RIVERVIEW DR", "postcode": "26601"}}},
{"geometry": {"type": "Point", "coordinates": [-80.7087700024, 38.6644866916]}, "type": "Feature", "properties": {"collection_times": [{"days": "Mon-Fri", "time": "4:30pm"}, {"days": "Sat", "time": "11:30am"}, {"days": "Sun", "time": "Closed"}], "id": "2660100008", "name": "USPS COLLECTION BOX - BLUE BOX", "address": {"city": "SUTTON", "state": "WV", "street": "100 3RD ST", "postcode": "26601"}}},
{"geometry": {"type": "Point", "coordinates": [-80.7585957783, 38.4767171936]}, "type": "Feature", "properties": {"collection_times": [{"days": "Mon-Fri", "time": "4:00pm"}, {"days": "Sat", "time": "11:45am"}, {"days": "Sun", "time": "Closed"}], "id": "2661000000", "name": "USPS COLLECTION BOX - BLUE BOX", "address": {"city": "BIRCH RIVER", "state": "WV", "street": "55 POWELLS CREEK RD", "postcode": "26610"}}},
{"geometry": {"type": "Point", "coordinates": [-80.7585957783, 38.4767171936]}, "type": "Feature", "properties": {"collection_times": [{"days": "Mon-Fri", "time": "4:00pm"}, {"days": "Sat", "time": "11:45am"}, {"days": "Sun", "time": "Closed"}], "id": "2661000001", "name": "USPS COLLECTION BOX - PO LOBBY", "address": {"city": "BIRCH RIVER", "state": "WV", "street": "55 POWELLS CREEK RD", "postcode": "26610"}}},
{"geometry": {"type": "Point", "coordinates": [-80.7585957783, 38.4767171936]}, "type": "Feature", "properties": {"collection_times": [{"days": "Mon-Fri", "time": "4:00pm"}, {"days": "Sat", "time": "11:45am"}, {"days": "Sun", "time": "Closed"}], "id": "2661000002", "name": "USPS COLLECTION BOX - PO LOBBY", "address": {"city": "BIRCH RIVER", "state": "WV", "street": "55 POWELLS CREEK RD", "postcode": "26610"}}},
{"geometry": {"type": "Point", "coordinates": [-80.8732147676, 38.458533987]}, "type": "Feature", "properties": {"collection_times": [{"days": "Mon-Fri", "time": "11:45am"}, {"days": "Sat", "time": "10:00am"}, {"days": "Sun", "time": "Closed"}], "id": "2661700000", "name": "USPS COLLECTION BOX - BLUE BOX", "address": {"city": "DILLE", "state": "WV", "street": "7078 WIDEN DILLE RD", "postcode": "26617"}}},
{"geometry": {"type": "Point", "coordinates": [-80.8732147676, 38.458533987]}, "type": "Feature", "properties": {"collection_times": [{"days": "Mon-Fri", "time": "11:45am"}, {"days": "Sat", "time": "10:00am"}, {"days": "Sun", "time": "Closed"}], "id": "2661700001", "name": "USPS COLLECTION BOX - PO LOBBY", "address": {"city": "DILLE", "state": "WV", "street": "7078 WIDEN DILLE RD", "postcode": "26617"}}},
{"geometry": {"type": "Point", "coordinates": [-80.5777341086, 38.7392938926]}, "type": "Feature", "properties": {"collection_times": [{"days": "Mon-Fri", "time": "3:00pm"}, {"days": "Sat", "time": "10:15am"}, {"days": "Sun", "time": "Closed"}], "id": "2662100000", "name": "USPS COLLECTION BOX - BLUE BOX", "address": {"city": "FLATWOODS", "state": "WV", "street": "308 FLATWOODS CORNER RD", "postcode": "26621"}}},
{"geometry": {"type": "Point", "coordinates": [-80.5777341086, 38.7392938926]}, "type": "Feature", "properties": {"collection_times": [{"days": "Mon-Fri", "time": "3:00pm"}, {"days": "Sat", "time": "10:15am"}, {"days": "Sun", "time": "Closed"}], "id": "2662100001", "name": "USPS COLLECTION BOX - PO LOBBY", "address": {"city": "FLATWOODS", "state": "WV", "street": "308 FLATWOODS CORNER RD", "postcode": "26621"}}},
{"geometry": {"type": "Point", "coordinates": [-80.8876897253, 38.6301364008]}, "type": "Feature", "properties": {"collection_times": [{"days": "Mon-Fri", "time": "2:30pm"}, {"days": "Sat", "time": "11:00am"}, {"days": "Sun", "time": "Closed"}], "id": "2662300000", "name": "USPS COLLECTION BOX - BLUE BOX", "address": {"city": "FRAMETOWN", "state": "WV", "street": "7441 ELK RIVER RD", "postcode": "26623"}}},
{"geometry": {"type": "Point", "coordinates": [-80.8876897253, 38.6301364008]}, "type": "Feature", "properties": {"collection_times": [{"days": "Mon-Fri", "time": "2:30pm"}, {"days": "Sat", "time": "11:00am"}, {"days": "Sun", "time": "Closed"}], "id": "2662300001", "name": "USPS COLLECTION BOX - PO LOBBY", "address": {"city": "FRAMETOWN", "state": "WV", "street": "7441 ELK RIVER RD", "postcode": "26623"}}},
{"geometry": {"type": "Point", "coordinates": [-80.7760009993, 38.669748679]}, "type": "Feature", "properties": {"collection_times": [{"days": "Mon-Fri", "time": "5:00pm"}, {"days": "Sat", "time": "10:30am"}, {"days": "Sun", "time": "Closed"}], "id": "2662400001", "name": "USPS COLLECTION BOX - BLUE BOX", "address": {"city": "GASSAWAY", "state": "WV", "street": "400 ELK ST", "postcode": "26624"}}},
{"geometry": {"type": "Point", "coordinates": [-80.8084227087, 38.7167332473]}, "type": "Feature", "properties": {"collection_times": [{"days": "Mon-Fri", "time": "4:00pm"}, {"days": "Sat", "time": "10:30am"}, {"days": "Sun", "time": "Closed"}], "id": "2662400004", "name": "USPS COLLECTION BOX - BLUE BOX", "address": {"city": "GASSAWAY", "state": "WV", "street": "2908 STATE ST", "postcode": "26624"}}},
{"geometry": {"type": "Point", "coordinates": [-80.7723025134, 38.6751520855]}, "type": "Feature", "properties": {"collection_times": [{"days": "Mon-Fri", "time": "4:30pm"}, {"days": "Sat", "time": "10:30am"}, {"days": "Sun", "time": "Closed"}], "id": "2662400005", "name": "USPS COLLECTION BOX - BLUE BOX", "address": {"city": "GASSAWAY", "state": "WV", "street": "700 ELK ST", "postcode": "26624"}}},
{"geometry": {"type": "Point", "coordinates": [-80.8084227087, 38.7167332473]}, "type": "Feature", "properties": {"collection_times": [{"days": "Mon-Fri", "time": "4:00pm"}, {"days": "Sat", "time": "10:30am"}, {"days": "Sun", "time": "Closed"}], "id": "2662400006", "name": "USPS COLLECTION BOX - BLUE BOX", "address": {"city": "GASSAWAY", "state": "WV", "street": "81 WV FOREST PRODUCTS RD", "postcode": "26624"}}},
{"geometry": {"type": "Point", "coordinates": [-80.7760009993, 38.669748679]}, "type": "Feature", "properties": {"collection_times": [{"days": "Mon-Fri", "time": "5:00pm"}, {"days": "Sat", "time": "10:30am"}, {"days": "Sun", "time": "Closed"}], "id": "2662400007", "name": "USPS COLLECTION BOX - PO LOBBY", "address": {"city": "GASSAWAY", "state": "WV", "street": "400 ELK ST", "postcode": "26624"}}},
{"geometry": {"type": "Point", "coordinates": [-80.6409760911, 38.7552066847]}, "type": "Feature", "properties": {"collection_times": [{"days": "Mon-Fri", "time": "11:15am"}, {"days": "Sat", "time": "10:30am"}, {"days": "Sun", "time": "Closed"}], "id": "2662700000", "name": "USPS COLLECTION BOX - BLUE BOX", "address": {"city": "HEATERS", "state": "WV", "street": "4195 GAULEY TPKE", "postcode": "26627"}}},
{"geometry": {"type": "Point", "coordinates": [-80.6409760911, 38.7552066847]}, "type": "Feature", "properties": {"collection_times": [{"days": "Mon-Fri", "time": "11:15am"}, {"days": "Sat", "time": "10:45am"}, {"days": "Sun", "time": "Closed"}], "id": "2662700001", "name": "USPS COLLECTION BOX - PO LOBBY", "address": {"city": "HEATERS", "state": "WV", "street": "4195 GAULEY TPKE", "postcode": "26627"}}},
{"geometry": {"type": "Point", "coordinates": [-80.7055469917, 38.5871595229]}, "type": "Feature", "properties": {"collection_times": [{"days": "Mon-Fri", "time": "11:45am"}, {"days": "Sat", "time": "10:45am"}, {"days": "Sun", "time": "Closed"}], "id": "2662900000", "name": "USPS COLLECTION BOX - BLUE BOX", "address": {"city": "LITTLE BIRCH", "state": "WV", "street": "4205 OLD TURNPIKE RD", "postcode": "26629"}}},
{"geometry": {"type": "Point", "coordinates": [-80.7055469917, 38.5871595229]}, "type": "Feature", "properties": {"collection_times": [{"days": "Mon-Fri", "time": "11:45am"}, {"days": "Sat", "time": "10:45am"}, {"days": "Sun", "time": "Closed"}], "id": "2662900001", "name": "USPS COLLECTION BOX - PO LOBBY", "address": {"city": "LITTLE BIRCH", "state": "WV", "street": "4205 OLD TURNPIKE RD", "postcode": "26629"}}},
{"geometry": {"type": "Point", "coordinates": [-80.5827835785, 38.7721211303]}, "type": "Feature", "properties": {"collection_times": [{"days": "Mon-Sat", "time": "10:00am"}, {"days": "Sun", "time": "Closed"}], "id": "2663100000", "name": "USPS COLLECTION BOX - BLUE BOX", "address": {"city": "NAPIER", "state": "WV", "street": "7614 GAULEY TPKE", "postcode": "26631"}}},
{"geometry": {"type": "Point", "coordinates": [-80.5827835785, 38.7721211303]}, "type": "Feature", "properties": {"collection_times": [{"days": "Mon-Sat", "time": "10:00am"}, {"days": "Sun", "time": "Closed"}], "id": "2663100001", "name": "USPS COLLECTION BOX - PO LOBBY", "address": {"city": "NAPIER", "state": "WV", "street": "7614 GAULEY TPKE", "postcode": "26631"}}},
{"geometry": {"type": "Point", "coordinates": [-80.8932279453, 38.8057738441]}, "type": "Feature", "properties": {"collection_times": [{"days": "Mon-Fri", "time": "12:30pm"}, {"days": "Sat", "time": "11:30am"}, {"days": "Sun", "time": "Closed"}], "id": "2663600000", "name": "USPS COLLECTION BOX - BLUE BOX", "address": {"city": "ROSEDALE", "state": "WV", "street": "11957 ROSEDALE RD", "postcode": "26636"}}},
{"geometry": {"type": "Point", "coordinates": [-80.8932279453, 38.8057738441]}, "type": "Feature", "properties": {"collection_times": [{"days": "Mon-Fri", "time": "12:30pm"}, {"days": "Sat", "time": "11:30am"}, {"days": "Sun", "time": "Closed"}], "id": "2663600001", "name": "USPS COLLECTION BOX - PO LOBBY", "address": {"city": "ROSEDALE", "state": "WV", "street": "11957 ROSEDALE RD", "postcode": "26636"}}},
{"geometry": {"type": "Point", "coordinates": [-80.8504017757, 38.2811927481]}, "type": "Feature", "properties": {"collection_times": [{"days": "Mon-Sat", "time": "2:30pm"}, {"days": "Sun", "time": "Closed"}], "id": "2665100002", "name": "USPS COLLECTION BOX - BLUE BOX", "address": {"city": "SUMMERSVILLE", "state": "WV", "street": "705 MAIN ST", "postcode": "26651"}}},
{"geometry": {"type": "Point", "coordinates": [-80.834231965, 38.2989822671]}, "type": "Feature", "properties": {"collection_times": [{"days": "Mon-Sat", "time": "11:00am"}, {"days": "Sun", "time": "Closed"}], "id": "2665100005", "name": "USPS COLLECTION BOX - BLUE BOX", "address": {"city": "SUMMERSVILLE", "state": "WV", "street": "201 MERCHANTS WALK", "postcode": "26651"}}},
{"geometry": {"type": "Point", "coordinates": [-80.8500486592, 38.2816759773]}, "type": "Feature", "properties": {"collection_times": [{"days": "Mon-Fri", "time": "5:00pm"}, {"days": "Sat", "time": "4:00pm"}, {"days": "Sun", "time": "Closed"}], "id": "2665100006", "name": "USPS COLLECTION BOX - BLUE BOX", "address": {"city": "SUMMERSVILLE", "state": "WV", "street": "449 WATER ST", "postcode": "26651"}}},
{"geometry": {"type": "Point", "coordinates": [-80.8500486592, 38.2816759773]}, "type": "Feature", "properties": {"collection_times": [{"days": "Mon-Fri", "time": "5:00pm"}, {"days": "Sat", "time": "4:00pm"}, {"days": "Sun", "time": "Closed"}], "id": "2665100007", "name": "USPS COLLECTION BOX - BLUE BOX", "address": {"city": "SUMMERSVILLE", "state": "WV", "street": "449 WATER ST", "postcode": "26651"}}},
{"geometry": {"type": "Point", "coordinates": [-80.8319644133, 38.3039846388]}, "type": "Feature", "properties": {"collection_times": [{"days": "Mon-Sat", "time": "10:30am"}, {"days": "Sun", "time": "Closed"}], "id": "2665100011", "name": "USPS COLLECTION BOX - BLUE BOX", "address": {"city": "SUMMERSVILLE", "state": "WV", "street": "812 NORTHSIDE DR", "postcode": "26651"}}},
{"geometry": {"type": "Point", "coordinates": [-80.8317302757, 38.2920399629]}, "type": "Feature", "properties": {"collection_times": [{"days": "Mon-Sat", "time": "9:45am"}, {"days": "Sun", "time": "Closed"}], "id": "2665100012", "name": "USPS COLLECTION BOX - BLUE BOX", "address": {"city": "SUMMERSVILLE", "state": "WV", "street": "400 FAIRVIEW HEIGHTS RD", "postcode": "26651"}}},
{"geometry": {"type": "Point", "coordinates": [-80.8500486592, 38.2816759773]}, "type": "Feature", "properties": {"collection_times": [{"days": "Mon-Fri", "time": "5:00pm"}, {"days": "Sat", "time": "4:00pm"}, {"days": "Sun", "time": "Closed"}], "id": "2665100013", "name": "USPS COLLECTION BOX - PO LOBBY", "address": {"city": "SUMMERSVILLE", "state": "WV", "street": "449 WATER ST", "postcode": "26651"}}},
{"geometry": {"type": "Point", "coordinates": [-81.1311710737, 38.2585741251]}, "type": "Feature", "properties": {"collection_times": [{"days": "Mon-Fri", "time": "11:45am"}, {"days": "Sat", "time": "11:00am"}, {"days": "Sun", "time": "Closed"}], "id": "2665600000", "name": "USPS COLLECTION BOX - BLUE BOX", "address": {"city": "BELVA", "state": "WV", "street": "24652 TURNPIKE RD", "postcode": "26656"}}},
{"geometry": {"type": "Point", "coordinates": [-81.1311710737, 38.2585741251]}, "type": "Feature", "properties": {"collection_times": [{"days": "Mon-Fri", "time": "11:45am"}, {"days": "Sat", "time": "11:00am"}, {"days": "Sun", "time": "Closed"}], "id": "2665600001", "name": "USPS COLLECTION BOX - PO LOBBY", "address": {"city": "BELVA", "state": "WV", "street": "24652 TURNPIKE RD", "postcode": "26656"}}},
{"geometry": {"type": "Point", "coordinates": [-80.7046897742, 38.3244758172]}, "type": "Feature", "properties": {"collection_times": [{"days": "Mon-Sat", "time": "10:00am"}, {"days": "Sun", "time": "Closed"}], "id": "2666000000", "name": "USPS COLLECTION BOX - BLUE BOX", "address": {"city": "CALVIN", "state": "WV", "street": "14038 WEBSTER RD", "postcode": "26660"}}},
{"geometry": {"type": "Point", "coordinates": [-80.7046897742, 38.3244758172]}, "type": "Feature", "properties": {"collection_times": [{"days": "Mon-Sat", "time": "10:30am"}, {"days": "Sun", "time": "Closed"}], "id": "2666000001", "name": "USPS COLLECTION BOX - PO LOBBY", "address": {"city": "CALVIN", "state": "WV", "street": "14038 WEBSTER RD", "postcode": "26660"}}},
{"geometry": {"type": "Point", "coordinates": [-80.7355151258, 38.2619797468]}, "type": "Feature", "properties": {"collection_times": [{"days": "Mon-Fri", "time": "3:15pm"}, {"days": "Sat", "time": "11:45am"}, {"days": "Sun", "time": "Closed"}], "id": "2666200000", "name": "USPS COLLECTION BOX - BLUE BOX", "address": {"city": "CANVAS", "state": "WV", "street": "20 OAKWOOD DR", "postcode": "26662"}}},
{"geometry": {"type": "Point", "coordinates": [-80.7355151258, 38.2619797468]}, "type": "Feature", "properties": {"collection_times": [{"days": "Mon-Fri", "time": "3:15pm"}, {"days": "Sat", "time": "11:45am"}, {"days": "Sun", "time": "Closed"}], "id": "2666200001", "name": "USPS COLLECTION BOX - PO LOBBY", "address": {"city": "CANVAS", "state": "WV", "street": "20 OAKWOOD DR", "postcode": "26662"}}},
{"geometry": {"type": "Point", "coordinates": [-81.0144791591, 38.2415033932]}, "type": "Feature", "properties": {"collection_times": [{"days": "Mon-Sat", "time": "9:00am"}, {"days": "Sun", "time": "Closed"}], "id": "2666700000", "name": "USPS COLLECTION BOX - BLUE BOX", "address": {"city": "DRENNEN", "state": "WV", "street": "12 MISTY RD", "postcode": "26667"}}},
{"geometry": {"type": "Point", "coordinates": [-81.0144791591, 38.2415033932]}, "type": "Feature", "properties": {"collection_times": [{"days": "Mon-Sat", "time": "9:00am"}, {"days": "Sun", "time": "Closed"}], "id": "2666700001", "name": "USPS COLLECTION BOX - PO LOBBY", "address": {"city": "DRENNEN", "state": "WV", "street": "12 MISTY RD", "postcode": "26667"}}},
{"geometry": {"type": "Point", "coordinates": [-80.9807497229, 38.2786782331]}, "type": "Feature", "properties": {"collection_times": [{"days": "Mon-Fri", "time": "11:15am"}, {"days": "Sat", "time": "10:15am"}, {"days": "Sun", "time": "Closed"}], "id": "2667100000", "name": "USPS COLLECTION BOX - BLUE BOX", "address": {"city": "GILBOA", "state": "WV", "street": "5495 TURNPIKE RD", "postcode": "26671"}}},
{"geometry": {"type": "Point", "coordinates": [-80.9807497229, 38.2786782331]}, "type": "Feature", "properties": {"collection_times": [{"days": "Mon-Fri", "time": "11:15am"}, {"days": "Sat", "time": "10:15am"}, {"days": "Sun", "time": "Closed"}], "id": "2667100001", "name": "USPS COLLECTION BOX - PO LOBBY", "address": {"city": "GILBOA", "state": "WV", "street": "5495 TURNPIKE RD", "postcode": "26671"}}},
{"geometry": {"type": "Point", "coordinates": [-80.9308915352, 38.2413059041]}, "type": "Feature", "properties": {"collection_times": [{"days": "Mon-Sat", "time": "9:00am"}, {"days": "Sun", "time": "Closed"}], "id": "2667500000", "name": "USPS COLLECTION BOX - BLUE BOX", "address": {"city": "KESSLERS CRS LNS", "state": "WV", "street": "5596 SUMMERSVILLE LAKE RD", "postcode": "26675"}}},
{"geometry": {"type": "Point", "coordinates": [-80.9722897239, 38.2311274266]}, "type": "Feature", "properties": {"collection_times": [{"days": "Mon-Sat", "time": "9:00am"}, {"days": "Sun", "time": "Closed"}], "id": "2667500001", "name": "USPS COLLECTION BOX - PO LOBBY", "address": {"city": "KESSLERS CRS LNS", "state": "WV", "street": "5596 SUMMERSVILLE LAKE RD", "postcode": "26675"}}},
{"geometry": {"type": "Point", "coordinates": [-80.746041722, 38.1148716666]}, "type": "Feature", "properties": {"collection_times": [{"days": "Mon-Fri", "time": "11:45am"}, {"days": "Sat", "time": "10:15am"}, {"days": "Sun", "time": "Closed"}], "id": "2667600000", "name": "USPS COLLECTION BOX - BLUE BOX", "address": {"city": "LEIVASY", "state": "WV", "street": "5325 LEIVASY RD", "postcode": "26676"}}},
{"geometry": {"type": "Point", "coordinates": [-80.746041722, 38.1148716666]}, "type": "Feature", "properties": {"collection_times": [{"days": "Mon-Fri", "time": "11:45am"}, {"days": "Sat", "time": "10:15am"}, {"days": "Sun", "time": "Closed"}], "id": "2667600001", "name": "USPS COLLECTION BOX - PO LOBBY", "address": {"city": "LEIVASY", "state": "WV", "street": "5325 LEIVASY RD", "postcode": "26676"}}},
{"geometry": {"type": "Point", "coordinates": [-80.9075551414, 38.1792218614]}, "type": "Feature", "properties": {"collection_times": [{"days": "Mon-Fri", "time": "3:30pm"}, {"days": "Sat", "time": "11:45am"}, {"days": "Sun", "time": "Closed"}], "id": "2667800000", "name": "USPS COLLECTION BOX - BLUE BOX", "address": {"city": "MOUNT LOOKOUT", "state": "WV", "street": "466 W MOUNT LOOKOUT RD", "postcode": "26678"}}},
{"geometry": {"type": "Point", "coordinates": [-80.9075551414, 38.1792218614]}, "type": "Feature", "properties": {"collection_times": [{"days": "Mon-Fri", "time": "3:30pm"}, {"days": "Sat", "time": "11:45am"}, {"days": "Sun", "time": "Closed"}], "id": "2667800001", "name": "USPS COLLECTION BOX - PO LOBBY", "address": {"city": "MOUNT LOOKOUT", "state": "WV", "street": "466 W MOUNT LOOKOUT RD", "postcode": "26678"}}},
{"geometry": {"type": "Point", "coordinates": [-80.8098434937, 38.191278643]}, "type": "Feature", "properties": {"collection_times": [{"days": "Mon-Fri", "time": "4:00pm"}, {"days": "Sat", "time": "11:00am"}, {"days": "Sun", "time": "Closed"}], "id": "2667900000", "name": "USPS COLLECTION BOX - BLUE BOX", "address": {"city": "MOUNT NEBO", "state": "WV", "street": "594 RIVIERA RD", "postcode": "26679"}}},
{"geometry": {"type": "Point", "coordinates": [-80.8098434937, 38.191278643]}, "type": "Feature", "properties": {"collection_times": [{"days": "Mon-Fri", "time": "4:00pm"}, {"days": "Sat", "time": "11:00am"}, {"days": "Sun", "time": "Closed"}], "id": "2667900001", "name": "USPS COLLECTION BOX - PO LOBBY", "address": {"city": "MOUNT NEBO", "state": "WV", "street": "594 RIVIERA RD", "postcode": "26679"}}},
{"geometry": {"type": "Point", "coordinates": [-80.8893591477, 38.1090634975]}, "type": "Feature", "properties": {"collection_times": [{"days": "Mon-Fri", "time": "12:00pm"}, {"days": "Sat", "time": "10:30am"}, {"days": "Sun", "time": "Closed"}], "id": "2668000000", "name": "USPS COLLECTION BOX - BLUE BOX", "address": {"city": "NALLEN", "state": "WV", "street": "9001 WILDERNESS HWY", "postcode": "26680"}}},
{"geometry": {"type": "Point", "coordinates": [-80.8893591477, 38.1090634975]}, "type": "Feature", "properties": {"collection_times": [{"days": "Mon-Fri", "time": "12:00pm"}, {"days": "Sat", "time": "10:30am"}, {"days": "Sun", "time": "Closed"}], "id": "2668000001", "name": "USPS COLLECTION BOX - PO LOBBY", "address": {"city": "NALLEN", "state": "WV", "street": "9001 WILDERNESS HWY", "postcode": "26680"}}},
{"geometry": {"type": "Point", "coordinates": [-80.695888011, 38.2018890655]}, "type": "Feature", "properties": {"collection_times": [{"days": "Mon-Fri", "time": "4:00pm"}, {"days": "Sat", "time": "11:30am"}, {"days": "Sun", "time": "Closed"}], "id": "2668100000", "name": "USPS COLLECTION BOX - BLUE BOX", "address": {"city": "NETTIE", "state": "WV", "street": "11427 CANVAS NETTIE RD", "postcode": "26681"}}},
{"geometry": {"type": "Point", "coordinates": [-80.695888011, 38.2018890655]}, "type": "Feature", "properties": {"collection_times": [{"days": "Mon-Fri", "time": "4:00pm"}, {"days": "Sat", "time": "11:30am"}, {"days": "Sun", "time": "Closed"}], "id": "2668100001", "name": "USPS COLLECTION BOX - PO LOBBY", "address": {"city": "NETTIE", "state": "WV", "street": "11427 CANVAS NETTIE RD", "postcode": "26681"}}},
{"geometry": {"type": "Point", "coordinates": [-81.0704680341, 38.278757797]}, "type": "Feature", "properties": {"collection_times": [{"days": "Mon-Fri", "time": "1:15pm"}, {"days": "Sat", "time": "11:15am"}, {"days": "Sun", "time": "Closed"}], "id": "2669000000", "name": "USPS COLLECTION BOX - BLUE BOX", "address": {"city": "SWISS", "state": "WV", "street": "20492 TURNPIKE RD", "postcode": "26690"}}},
{"geometry": {"type": "Point", "coordinates": [-81.0704680341, 38.278757797]}, "type": "Feature", "properties": {"collection_times": [{"days": "Mon-Fri", "time": "1:15pm"}, {"days": "Sat", "time": "11:15am"}, {"days": "Sun", "time": "Closed"}], "id": "2669000001", "name": "USPS COLLECTION BOX - PO LOBBY", "address": {"city": "SWISS", "state": "WV", "street": "20492 TURNPIKE RD", "postcode": "26690"}}},
{"geometry": {"type": "Point", "coordinates": [-80.6804213454, 38.3923438756]}, "type": "Feature", "properties": {"collection_times": [{"days": "Mon-Sat", "time": "9:30am"}, {"days": "Sun", "time": "Closed"}], "id": "2669100000", "name": "USPS COLLECTION BOX - BLUE BOX", "address": {"city": "TIOGA", "state": "WV", "street": "108 CULLER RD", "postcode": "26691"}}},
{"geometry": {"type": "Point", "coordinates": [-80.6804213454, 38.3923438756]}, "type": "Feature", "properties": {"collection_times": [{"days": "Mon-Sat", "time": "9:30am"}, {"days": "Sun", "time": "Closed"}], "id": "2669100001", "name": "USPS COLLECTION BOX - PO LOBBY", "address": {"city": "TIOGA", "state": "WV", "street": "108 CULLER RD", "postcode": "26691"}}}
]}
