{"type": "FeatureCollection", "features": [
{"geometry": {"type": "Point", "coordinates": [-78.5857565807, 39.3094108737]}, "type": "Feature", "properties": {"collection_times": [{"days": "Mon-Fri", "time": "4:00pm"}, {"days": "Sat", "time": "12:00pm"}, {"days": "Sun", "time": "Closed"}], "id": "2670400000", "name": "USPS COLLECTION BOX - BLUE BOX", "address": {"city": "AUGUSTA", "state": "WV", "street": "PO BOX 9998", "postcode": "26704"}}},
{"geometry": {"type": "Point", "coordinates": [-78.5857565807, 39.3094108737]}, "type": "Feature", "properties": {"collection_times": [{"days": "Mon-Fri", "time": "4:00pm"}, {"days": "Sat", "time": "12:00pm"}, {"days": "Sun", "time": "Closed"}], "id": "2670400001", "name": "USPS COLLECTION BOX - PO LOBBY", "address": {"city": "AUGUSTA", "state": "WV", "street": "PO BOX 9998", "postcode": "26704"}}},
{"geometry": {"type": "Point", "coordinates": [-79.5711207143, 39.2922676818]}, "type": "Feature", "properties": {"collection_times": [{"days": "Mon-Fri", "time": "11:45am"}, {"days": "Sat", "time": "11:30am"}, {"days": "Sun", "time": "Closed"}], "id": "2670500000", "name": "USPS COLLECTION BOX - BLUE BOX", "address": {"city": "AURORA", "state": "WV", "street": "24154 GEORGE WASHINGTON HWY", "postcode": "26705"}}},
{"geometry": {"type": "Point", "coordinates": [-79.5711207143, 39.2922676818]}, "type": "Feature", "properties": {"collection_times": [{"days": "Mon-Fri", "time": "11:45am"}, {"days": "Sat", "time": "11:30am"}, {"days": "Sun", "time": "Closed"}], "id": "2670500001", "name": "USPS COLLECTION BOX - PO LOBBY", "address": {"city": "AURORA", "state": "WV", "street": "24154 GEORGE WASHINGTON HWY", "postcode": "26705"}}},
{"geometry": {"type": "Point", "coordinates": [-79.3649122399, 39.2722232468]}, "type": "Feature", "properties": {"collection_times": [{"days": "Mon-Fri", "time": "4:00pm"}, {"days": "Sat", "time": "10:30am"}, {"days": "Sun", "time": "Closed"}], "id": "2670700000", "name": "USPS COLLECTION BOX - BLUE BOX", "address": {"city": "BAYARD", "state": "WV", "street": "2257 FRONT ST", "postcode": "26707"}}},
{"geometry": {"type": "Point", "coordinates": [-79.3649122399, 39.2722232468]}, "type": "Feature", "properties": {"collection_times": [{"days": "Mon-Fri", "time": "4:00pm"}, {"days": "Sat", "time": "10:30am"}, {"days": "Sun", "time": "Closed"}], "id": "2670700001", "name": "USPS COLLECTION BOX - PO LOBBY", "address": {"city": "BAYARD", "state": "WV", "street": "2257 FRONT ST", "postcode": "26707"}}},
{"geometry": {"type": "Point", "coordinates": [-78.911482911, 39.3656938512]}, "type": "Feature", "properties": {"collection_times": [{"days": "Mon-Fri", "time": "3:15pm"}, {"days": "Sat", "time": "11:15am"}, {"days": "Sun", "time": "Closed"}], "id": "2671000000", "name": "USPS COLLECTION BOX - BLUE BOX", "address": {"city": "BURLINGTON", "state": "WV", "street": "10393 PATTERSON CREEK RD", "postcode": "26710"}}},
{"geometry": {"type": "Point", "coordinates": [-78.911482911, 39.3656938512]}, "type": "Feature", "properties": {"collection_times": [{"days": "Mon-Fri", "time": "3:15pm"}, {"days": "Sat", "time": "11:15am"}, {"days": "Sun", "time": "Closed"}], "id": "2671000001", "name": "USPS COLLECTION BOX - PO LOBBY", "address": {"city": "BURLINGTON", "state": "WV", "street": "10393 PATTERSON CREEK RD", "postcode": "26710"}}},
{"geometry": {"type": "Point", "coordinates": [-78.4966989345, 39.2686229776]}, "type": "Feature", "properties": {"collection_times": [{"days": "Mon-Fri", "time": "3:30pm"}, {"days": "Sat", "time": "11:00am"}, {"days": "Sun", "time": "Closed"}], "id": "2671100000", "name": "USPS COLLECTION BOX - BLUE BOX", "address": {"city": "CAPON BRIDGE", "state": "WV", "street": "3164 NORTHWESTERN PIKE", "postcode": "26711"}}},
{"geometry": {"type": "Point", "coordinates": [-78.4966989345, 39.2686229776]}, "type": "Feature", "properties": {"collection_times": [{"days": "Mon-Fri", "time": "4:00pm"}, {"days": "Sat", "time": "12:00pm"}, {"days": "Sun", "time": "Closed"}], "id": "2671100001", "name": "USPS COLLECTION BOX - PO LOBBY", "address": {"city": "CAPON BRIDGE", "state": "WV", "street": "3164 NORTHWESTERN PIKE", "postcode": "26711"}}},
{"geometry": {"type": "Point", "coordinates": [-79.5190503644, 39.2567040121]}, "type": "Feature", "properties": {"collection_times": [{"days": "Mon-Fri", "time": "1:15pm"}, {"days": "Sat", "time": "11:45am"}, {"days": "Sun", "time": "Closed"}], "id": "2671600000", "name": "USPS COLLECTION BOX - BLUE BOX", "address": {"city": "EGLON", "state": "WV", "street": "56 EGLON RD", "postcode": "26716"}}},
{"geometry": {"type": "Point", "coordinates": [-79.5190503644, 39.2567040121]}, "type": "Feature", "properties": {"collection_times": [{"days": "Mon-Fri", "time": "1:15pm"}, {"days": "Sat", "time": "11:45am"}, {"days": "Sun", "time": "Closed"}], "id": "2671600001", "name": "USPS COLLECTION BOX - PO LOBBY", "address": {"city": "EGLON", "state": "WV", "street": "56 EGLON RD", "postcode": "26716"}}},
{"geometry": {"type": "Point", "coordinates": [-79.155713784, 39.3830314525]}, "type": "Feature", "properties": {"collection_times": [{"days": "Mon-Fri", "time": "1:00pm"}, {"days": "Sat", "time": "11:30am"}, {"days": "Sun", "time": "Closed"}], "id": "2671700000", "name": "USPS COLLECTION BOX - BLUE BOX", "address": {"city": "ELK GARDEN", "state": "WV", "street": "90 OAK ST", "postcode": "26717"}}},
{"geometry": {"type": "Point", "coordinates": [-79.1546779028, 39.3845950725]}, "type": "Feature", "properties": {"collection_times": [{"days": "Mon-Fri", "time": "1:00pm"}, {"days": "Sat", "time": "11:30am"}, {"days": "Sun", "time": "Closed"}], "id": "2671700001", "name": "USPS COLLECTION BOX - PO LOBBY", "address": {"city": "ELK GARDEN", "state": "WV", "street": "90 OAK ST", "postcode": "26717"}}},
{"geometry": {"type": "Point", "coordinates": [-78.7729506892, 39.4807816996]}, "type": "Feature", "properties": {"collection_times": [{"days": "Mon-Fri", "time": "4:15pm"}, {"days": "Sat", "time": "11:45am"}, {"days": "Sun", "time": "Closed"}], "id": "2671900000", "name": "USPS COLLECTION BOX - BLUE BOX", "address": {"city": "FORT ASHBY", "state": "WV", "street": "PO BOX 9998", "postcode": "26719"}}},
{"geometry": {"type": "Point", "coordinates": [-78.7729506892, 39.4807816996]}, "type": "Feature", "properties": {"collection_times": [{"days": "Mon-Fri", "time": "4:15pm"}, {"days": "Sat", "time": "11:45am"}, {"days": "Sun", "time": "Closed"}], "id": "2671900001", "name": "USPS COLLECTION BOX - PO LOBBY", "address": {"city": "FORT ASHBY", "state": "WV", "street": "PO BOX 9998", "postcode": "26719"}}},
{"geometry": {"type": "Point", "coordinates": [-79.3518154437, 39.2442678809]}, "type": "Feature", "properties": {"collection_times": [{"days": "Mon-Fri", "time": "11:00am"}, {"days": "Sat", "time": "10:15am"}, {"days": "Sun", "time": "Closed"}], "id": "2672000000", "name": "USPS COLLECTION BOX - BLUE BOX", "address": {"city": "GORMANIA", "state": "WV", "street": "40 TRAIN LN", "postcode": "26720"}}},
{"geometry": {"type": "Point", "coordinates": [-79.3518154437, 39.2442678809]}, "type": "Feature", "properties": {"collection_times": [{"days": "Mon-Fri", "time": "11:00am"}, {"days": "Sat", "time": "10:15am"}, {"days": "Sun", "time": "Closed"}], "id": "2672000001", "name": "USPS COLLECTION BOX - PO LOBBY", "address": {"city": "GORMANIA", "state": "WV", "street": "40 TRAIN LN", "postcode": "26720"}}},
{"geometry": {"type": "Point", "coordinates": [-78.6177244522, 39.5321583976]}, "type": "Feature", "properties": {"collection_times": [{"days": "Mon-Fri", "time": "11:45am"}, {"days": "Sat", "time": "11:00am"}, {"days": "Sun", "time": "Closed"}], "id": "2672200000", "name": "USPS COLLECTION BOX - BLUE BOX", "address": {"city": "GREEN SPRING", "state": "WV", "street": "167 BELL ST", "postcode": "26722"}}},
{"geometry": {"type": "Point", "coordinates": [-78.6177244522, 39.5321583976]}, "type": "Feature", "properties": {"collection_times": [{"days": "Mon-Fri", "time": "11:45am"}, {"days": "Sat", "time": "11:15am"}, {"days": "Sun", "time": "Closed"}], "id": "2672200001", "name": "USPS COLLECTION BOX - PO LOBBY", "address": {"city": "GREEN SPRING", "state": "WV", "street": "167 BELL ST", "postcode": "26722"}}},
{"geometry": {"type": "Point", "coordinates": [-78.9875099061, 39.4355494876]}, "type": "Feature", "properties": {"collection_times": [{"days": "Mon-Sat", "time": "12:30pm"}, {"days": "Sun", "time": "Closed"}], "id": "2672600010", "name": "USPS COLLECTION BOX - BLUE BOX", "address": {"city": "KEYSER", "state": "WV", "street": "440 VIRGINIA ST", "postcode": "26726"}}},
{"geometry": {"type": "Point", "coordinates": [-78.9784231778, 39.4420791472]}, "type": "Feature", "properties": {"collection_times": [{"days": "Mon-Sat", "time": "10:00am"}, {"days": "Sun", "time": "Closed"}], "id": "2672600027", "name": "USPS COLLECTION BOX - BLUE BOX", "address": {"city": "KEYSER", "state": "WV", "street": "140 KEYSER MALL", "postcode": "26726"}}},
{"geometry": {"type": "Point", "coordinates": [-79.0087384867, 39.4269069527]}, "type": "Feature", "properties": {"collection_times": [{"days": "Mon-Sat", "time": "3:00pm"}, {"days": "Sun", "time": "Closed"}], "id": "2672600028", "name": "USPS COLLECTION BOX - BLUE BOX", "address": {"city": "KEYSER", "state": "WV", "street": "101 FORT AVE", "postcode": "26726"}}},
{"geometry": {"type": "Point", "coordinates": [-79.0087384867, 39.4269069527]}, "type": "Feature", "properties": {"collection_times": [{"days": "Mon-Sat", "time": "3:00pm"}, {"days": "Sun", "time": "Closed"}], "id": "2672600035", "name": "USPS COLLECTION BOX - BLUE BOX", "address": {"city": "KEYSER", "state": "WV", "street": "150 ARMSTRONG ST", "postcode": "26726"}}},
{"geometry": {"type": "Point", "coordinates": [-78.9766105856, 39.439645999]}, "type": "Feature", "properties": {"collection_times": [{"days": "Mon-Fri", "time": "4:30pm"}, {"days": "Sat", "time": "3:30pm"}, {"days": "Sun", "time": "Closed"}], "id": "2672600038", "name": "USPS COLLECTION BOX - BLUE BOX", "address": {"city": "KEYSER", "state": "WV", "street": "2 N DAVIS ST", "postcode": "26726"}}},
{"geometry": {"type": "Point", "coordinates": [-79.0087384867, 39.4269069527]}, "type": "Feature", "properties": {"collection_times": [{"days": "Mon-Sat", "time": "10:00am"}, {"days": "Sun", "time": "Closed"}], "id": "2672600039", "name": "USPS COLLECTION BOX - BLUE BOX", "address": {"city": "KEYSER", "state": "WV", "street": "RR 4 BOX 82", "postcode": "26726"}}},
{"geometry": {"type": "Point", "coordinates": [-78.9766105856, 39.439645999]}, "type": "Feature", "properties": {"collection_times": [{"days": "Mon-Fri", "time": "4:30pm"}, {"days": "Sat", "time": "3:30pm"}, {"days": "Sun", "time": "Closed"}], "id": "2672600040", "name": "USPS COLLECTION BOX - PO LOBBY", "address": {"city": "KEYSER", "state": "WV", "street": "2 N DAVIS ST", "postcode": "26726"}}},
{"geometry": {"type": "Point", "coordinates": [-78.9766105856, 39.439645999]}, "type": "Feature", "properties": {"collection_times": [{"days": "Mon-Fri", "time": "4:30pm"}, {"days": "Sat", "time": "3:30pm"}, {"days": "Sun", "time": "Closed"}], "id": "2672600042", "name": "USPS COLLECTION BOX - BLUE BOX", "address": {"city": "KEYSER", "state": "WV", "street": "2 N DAVIS ST", "postcode": "26726"}}},
{"geometry": {"type": "Point", "coordinates": [-79.1899596151, 39.2857704319]}, "type": "Feature", "properties": {"collection_times": [{"days": "Mon-Fri", "time": "4:00pm"}, {"days": "Sat", "time": "10:00am"}, {"days": "Sun", "time": "Closed"}], "id": "2673900000", "name": "USPS COLLECTION BOX - BLUE BOX", "address": {"city": "MOUNT STORM", "state": "WV", "street": "16615 GEORGE WASHINGTON HWY", "postcode": "26739"}}},
{"geometry": {"type": "Point", "coordinates": [-79.1899596151, 39.2857704319]}, "type": "Feature", "properties": {"collection_times": [{"days": "Mon-Fri", "time": "4:00pm"}, {"days": "Sat", "time": "10:00am"}, {"days": "Sun", "time": "Closed"}], "id": "2673900001", "name": "USPS COLLECTION BOX - PO LOBBY", "address": {"city": "MOUNT STORM", "state": "WV", "street": "16615 GEORGE WASHINGTON HWY", "postcode": "26739"}}},
{"geometry": {"type": "Point", "coordinates": [-79.2595189706, 39.2546734426]}, "type": "Feature", "properties": {"collection_times": [{"days": "Mon-Sat", "time": "12:00pm"}, {"days": "Sun", "time": "Closed"}], "id": "2673900002", "name": "USPS COLLECTION BOX - BLUE BOX", "address": {"city": "MOUNT STORM", "state": "WV", "street": "15907 GEORGE WASHINGTON HWY", "postcode": "26739"}}},
{"geometry": {"type": "Point", "coordinates": [-79.0637853812, 39.3432710222]}, "type": "Feature", "properties": {"collection_times": [{"days": "Mon-Fri", "time": "4:15pm"}, {"days": "Sat", "time": "11:00am"}, {"days": "Sun", "time": "Closed"}], "id": "2674300000", "name": "USPS COLLECTION BOX - BLUE BOX", "address": {"city": "NEW CREEK", "state": "WV", "street": "15 NEW CREEK SCHOOL RD", "postcode": "26743"}}},
{"geometry": {"type": "Point", "coordinates": [-79.0637853812, 39.3432710222]}, "type": "Feature", "properties": {"collection_times": [{"days": "Mon-Fri", "time": "4:00pm"}, {"days": "Sat", "time": "11:00am"}, {"days": "Sun", "time": "Closed"}], "id": "2674300001", "name": "USPS COLLECTION BOX - PO LOBBY", "address": {"city": "NEW CREEK", "state": "WV", "street": "15 NEW CREEK SCHOOL RD", "postcode": "26743"}}},
{"geometry": {"type": "Point", "coordinates": [-79.0467395229, 39.4807574256]}, "type": "Feature", "properties": {"collection_times": [{"days": "Mon-Fri", "time": "1:45pm"}, {"days": "Sat", "time": "11:00am"}, {"days": "Sun", "time": "Closed"}], "id": "2675000000", "name": "USPS COLLECTION BOX - BLUE BOX", "address": {"city": "PIEDMONT", "state": "WV", "street": "25 ASHFIELD ST", "postcode": "26750"}}},
{"geometry": {"type": "Point", "coordinates": [-79.0467395229, 39.4807574256]}, "type": "Feature", "properties": {"collection_times": [{"days": "Mon-Fri", "time": "1:45pm"}, {"days": "Sat", "time": "11:00am"}, {"days": "Sun", "time": "Closed"}], "id": "2675000007", "name": "USPS COLLECTION BOX - PO LOBBY", "address": {"city": "PIEDMONT", "state": "WV", "street": "25 ASHFIELD ST", "postcode": "26750"}}},
{"geometry": {"type": "Point", "coordinates": [-78.7682171525, 39.6435985365]}, "type": "Feature", "properties": {"collection_times": [{"days": "Mon-Fri", "time": "4:15pm"}, {"days": "Sat", "time": "12:00pm"}, {"days": "Sun", "time": "Closed"}], "id": "2675300000", "name": "USPS COLLECTION BOX - BLUE BOX", "address": {"city": "RIDGELEY", "state": "WV", "street": "49 POTOMAC ST", "postcode": "26753"}}},
{"geometry": {"type": "Point", "coordinates": [-78.8113175677, 39.5434638928]}, "type": "Feature", "properties": {"collection_times": [{"days": "Mon-Fri", "time": "12:30pm"}, {"days": "Sat", "time": "12:00pm"}, {"days": "Sun", "time": "Closed"}], "id": "2675300001", "name": "USPS COLLECTION BOX - BLUE BOX", "address": {"city": "RIDGELEY", "state": "WV", "street": "9 HUNT CLUB PLZ", "postcode": "26753"}}},
{"geometry": {"type": "Point", "coordinates": [-78.7682171525, 39.6435985365]}, "type": "Feature", "properties": {"collection_times": [{"days": "Mon-Fri", "time": "4:15pm"}, {"days": "Sat", "time": "12:00pm"}, {"days": "Sun", "time": "Closed"}], "id": "2675300002", "name": "USPS COLLECTION BOX - PO LOBBY", "address": {"city": "RIDGELEY", "state": "WV", "street": "49 POTOMAC ST", "postcode": "26753"}}},
{"geometry": {"type": "Point", "coordinates": [-78.7359491851, 39.1807587909]}, "type": "Feature", "properties": {"collection_times": [{"days": "Mon-Fri", "time": "1:45pm"}, {"days": "Sat", "time": "11:30am"}, {"days": "Sun", "time": "Closed"}], "id": "2675500000", "name": "USPS COLLECTION BOX - BLUE BOX", "address": {"city": "RIO", "state": "WV", "street": "15115 FORD HILL RD", "postcode": "26755"}}},
{"geometry": {"type": "Point", "coordinates": [-78.7555030393, 39.3416980633]}, "type": "Feature", "properties": {"collection_times": [{"days": "Mon-Sat", "time": "10:00am"}, {"days": "Sun", "time": "Closed"}], "id": "2675700000", "name": "USPS COLLECTION BOX - BLUE BOX", "address": {"city": "ROMNEY", "state": "WV", "street": "92 E MAIN ST", "postcode": "26757"}}},
{"geometry": {"type": "Point", "coordinates": [-78.7547803412, 39.3451365172]}, "type": "Feature", "properties": {"collection_times": [{"days": "Mon-Sat", "time": "10:30am"}, {"days": "Sun", "time": "Closed"}], "id": "2675700001", "name": "USPS COLLECTION BOX - BLUE BOX", "address": {"city": "ROMNEY", "state": "WV", "street": "278 N HIGH ST", "postcode": "26757"}}},
{"geometry": {"type": "Point", "coordinates": [-78.7536260611, 39.345428995]}, "type": "Feature", "properties": {"collection_times": [{"days": "Mon-Sat", "time": "11:15am"}, {"days": "Sun", "time": "Closed"}], "id": "2675700003", "name": "USPS COLLECTION BOX - BLUE BOX", "address": {"city": "ROMNEY", "state": "WV", "street": "380 N GRAFTON ST", "postcode": "26757"}}},
{"geometry": {"type": "Point", "coordinates": [-78.7580298221, 39.3490845939]}, "type": "Feature", "properties": {"collection_times": [{"days": "Mon-Sat", "time": "1:45pm"}, {"days": "Sun", "time": "Closed"}], "id": "2675700006", "name": "USPS COLLECTION BOX - BLUE BOX", "address": {"city": "ROMNEY", "state": "WV", "street": "450 DEPOT ST", "postcode": "26757"}}},
{"geometry": {"type": "Point", "coordinates": [-78.7573488753, 39.3429783029]}, "type": "Feature", "properties": {"collection_times": [{"days": "Mon-Fri", "time": "4:15pm"}, {"days": "Sat", "time": "3:00pm"}, {"days": "Sun", "time": "Closed"}], "id": "2675700008", "name": "USPS COLLECTION BOX - BLUE BOX", "address": {"city": "ROMNEY", "state": "WV", "street": "71 N MARSHAM ST", "postcode": "26757"}}},
{"geometry": {"type": "Point", "coordinates": [-78.7569799795, 39.3453841225]}, "type": "Feature", "properties": {"collection_times": [{"days": "Mon-Sat", "time": "10:00am"}, {"days": "Sun", "time": "Closed"}], "id": "2675700010", "name": "USPS COLLECTION BOX - BLUE BOX", "address": {"city": "ROMNEY", "state": "WV", "street": "22268 NORTHWESTERN PIKE", "postcode": "26757"}}},
{"geometry": {"type": "Point", "coordinates": [-78.7573488753, 39.3429783029]}, "type": "Feature", "properties": {"collection_times": [{"days": "Mon-Fri", "time": "4:15pm"}, {"days": "Sat", "time": "3:00pm"}, {"days": "Sun", "time": "Closed"}], "id": "2675700012", "name": "USPS COLLECTION BOX - PO LOBBY", "address": {"city": "ROMNEY", "state": "WV", "street": "71 N MARSHAM ST", "postcode": "26757"}}},
{"geometry": {"type": "Point", "coordinates": [-78.701068913, 39.2690918366]}, "type": "Feature", "properties": {"collection_times": [{"days": "Mon-Fri", "time": "1:45pm"}, {"days": "Sat", "time": "12:45pm"}, {"days": "Sun", "time": "Closed"}], "id": "2676100000", "name": "USPS COLLECTION BOX - BLUE BOX", "address": {"city": "SHANKS", "state": "WV", "street": "PO BOX 9998", "postcode": "26761"}}},
{"geometry": {"type": "Point", "coordinates": [-78.6926749152, 39.4569224569]}, "type": "Feature", "properties": {"collection_times": [{"days": "Mon-Fri", "time": "4:00pm"}, {"days": "Sat", "time": "11:30am"}, {"days": "Sun", "time": "Closed"}], "id": "2676300000", "name": "USPS COLLECTION BOX - BLUE BOX", "address": {"city": "SPRINGFIELD", "state": "WV", "street": "8485 CUMBERLAND RD", "postcode": "26763"}}},
{"geometry": {"type": "Point", "coordinates": [-78.6926749152, 39.4569224569]}, "type": "Feature", "properties": {"collection_times": [{"days": "Mon-Fri", "time": "4:00pm"}, {"days": "Sat", "time": "11:30am"}, {"days": "Sun", "time": "Closed"}], "id": "2676300001", "name": "USPS COLLECTION BOX - PO LOBBY", "address": {"city": "SPRINGFIELD", "state": "WV", "street": "8485 CUMBERLAND RD", "postcode": "26763"}}},
{"geometry": {"type": "Point", "coordinates": [-79.538043545, 39.4391241808]}, "type": "Feature", "properties": {"collection_times": [{"days": "Mon-Fri", "time": "3:15pm"}, {"days": "Sat", "time": "11:00am"}, {"days": "Sun", "time": "Closed"}], "id": "2676400001", "name": "USPS COLLECTION BOX - BLUE BOX", "address": {"city": "TERRA ALTA", "state": "WV", "street": "103 N 4TH ST", "postcode": "26764"}}},
{"geometry": {"type": "Point", "coordinates": [-79.5384786578, 39.4430816831]}, "type": "Feature", "properties": {"collection_times": [{"days": "Mon-Sat", "time": "12:30pm"}, {"days": "Sun", "time": "Closed"}], "id": "2676400004", "name": "USPS COLLECTION BOX - BLUE BOX", "address": {"city": "TERRA ALTA", "state": "WV", "street": "701 E STATE AVE", "postcode": "26764"}}},
{"geometry": {"type": "Point", "coordinates": [-79.538043545, 39.4391241808]}, "type": "Feature", "properties": {"collection_times": [{"days": "Mon-Fri", "time": "4:00pm"}, {"days": "Sat", "time": "11:00am"}, {"days": "Sun", "time": "Closed"}], "id": "2676400006", "name": "USPS COLLECTION BOX - PO LOBBY", "address": {"city": "TERRA ALTA", "state": "WV", "street": "103 N 4TH ST", "postcode": "26764"}}},
{"geometry": {"type": "Point", "coordinates": [-78.7729762633, 39.6133437828]}, "type": "Feature", "properties": {"collection_times": [{"days": "Mon-Fri", "time": "1:45pm"}, {"days": "Sat", "time": "11:30am"}, {"days": "Sun", "time": "Closed"}], "id": "2676700000", "name": "USPS COLLECTION BOX - BLUE BOX", "address": {"city": "WILEY FORD", "state": "WV", "street": "50 SPRINGFIELD ST", "postcode": "26767"}}},
{"geometry": {"type": "Point", "coordinates": [-78.7729762633, 39.6133437828]}, "type": "Feature", "properties": {"collection_times": [{"days": "Mon-Fri", "time": "1:45pm"}, {"days": "Sat", "time": "11:30am"}, {"days": "Sun", "time": "Closed"}], "id": "2676700001", "name": "USPS COLLECTION BOX - PO LOBBY", "address": {"city": "WILEY FORD", "state": "WV", "street": "50 SPRINGFIELD ST", "postcode": "26767"}}}
]}
