{"type": "FeatureCollection", "features": [
{"geometry": {"type": "Point", "coordinates": [-78.7815075355, 39.0542036249]}, "type": "Feature", "properties": {"collection_times": [{"days": "Mon-Fri", "time": "3:00pm"}, {"days": "Sat", "time": "10:45am"}, {"days": "Sun", "time": "Closed"}], "id": "2680100000", "name": "USPS COLLECTION BOX - BLUE BOX", "address": {"city": "BAKER", "state": "WV", "street": "25 STATE ROAD 259", "postcode": "26801"}}},
{"geometry": {"type": "Point", "coordinates": [-78.7815075355, 39.0542036249]}, "type": "Feature", "properties": {"collection_times": [{"days": "Mon-Fri", "time": "3:00pm"}, {"days": "Sat", "time": "10:45am"}, {"days": "Sun", "time": "Closed"}], "id": "2680100001", "name": "USPS COLLECTION BOX - PO LOBBY", "address": {"city": "BAKER", "state": "WV", "street": "25 STATE ROAD 259", "postcode": "26801"}}},
{"geometry": {"type": "Point", "coordinates": [-79.1737228839, 38.6419956933]}, "type": "Feature", "properties": {"collection_times": [{"days": "Mon-Fri", "time": "2:00pm"}, {"days": "Sat", "time": "11:00am"}, {"days": "Sun", "time": "Closed"}], "id": "2680200000", "name": "USPS COLLECTION BOX - BLUE BOX", "address": {"city": "BRANDYWINE", "state": "WV", "street": "11615 BLUE GRAY TRL", "postcode": "26802"}}},
{"geometry": {"type": "Point", "coordinates": [-79.1737228839, 38.6419956933]}, "type": "Feature", "properties": {"collection_times": [{"days": "Mon-Fri", "time": "2:30pm"}, {"days": "Sat", "time": "11:00am"}, {"days": "Sun", "time": "Closed"}], "id": "2680200001", "name": "USPS COLLECTION BOX - PO LOBBY", "address": {"city": "BRANDYWINE", "state": "WV", "street": "11615 BLUE GRAY TRL", "postcode": "26802"}}},
{"geometry": {"type": "Point", "coordinates": [-79.5467528305, 38.617757101]}, "type": "Feature", "properties": {"collection_times": [{"days": "Mon-Fri", "time": "12:00pm"}, {"days": "Sat", "time": "11:30am"}, {"days": "Sun", "time": "Closed"}], "id": "2680400000", "name": "USPS COLLECTION BOX - BLUE BOX", "address": {"city": "CIRCLEVILLE", "state": "WV", "street": "2878 MOUNT FREEDOM DR", "postcode": "26804"}}},
{"geometry": {"type": "Point", "coordinates": [-79.5467528305, 38.617757101]}, "type": "Feature", "properties": {"collection_times": [{"days": "Mon-Fri", "time": "12:00pm"}, {"days": "Sat", "time": "11:30am"}, {"days": "Sun", "time": "Closed"}], "id": "2680400001", "name": "USPS COLLECTION BOX - PO LOBBY", "address": {"city": "CIRCLEVILLE", "state": "WV", "street": "2878 MOUNT FREEDOM DR", "postcode": "26804"}}},
{"geometry": {"type": "Point", "coordinates": [-79.3123585825, 38.6618713072]}, "type": "Feature", "properties": {"collection_times": [{"days": "Mon-Sat", "time": "4:00pm"}, {"days": "Sun", "time": "Closed"}], "id": "2680700000", "name": "USPS COLLECTION BOX - BLUE BOX", "address": {"city": "FRANKLIN", "state": "WV", "street": "63 PINE ST", "postcode": "26807"}}},
{"geometry": {"type": "Point", "coordinates": [-79.3123585825, 38.6618713072]}, "type": "Feature", "properties": {"collection_times": [{"days": "Mon-Sat", "time": "4:00pm"}, {"days": "Sun", "time": "Closed"}], "id": "2680700001", "name": "USPS COLLECTION BOX - PO LOBBY", "address": {"city": "FRANKLIN", "state": "WV", "street": "63 PINE ST", "postcode": "26807"}}},
{"geometry": {"type": "Point", "coordinates": [-78.4585366491, 39.1522891008]}, "type": "Feature", "properties": {"collection_times": [{"days": "Mon-Sat", "time": "11:45am"}, {"days": "Sun", "time": "Closed"}], "id": "2680800000", "name": "USPS COLLECTION BOX - BLUE BOX", "address": {"city": "HIGH VIEW", "state": "WV", "street": "2730 CARPERS PIKE", "postcode": "26808"}}},
{"geometry": {"type": "Point", "coordinates": [-78.4585366491, 39.1522891008]}, "type": "Feature", "properties": {"collection_times": [{"days": "Mon-Sat", "time": "11:45am"}, {"days": "Sun", "time": "Closed"}], "id": "2680800001", "name": "USPS COLLECTION BOX - PO LOBBY", "address": {"city": "HIGH VIEW", "state": "WV", "street": "2730 CARPERS PIKE", "postcode": "26808"}}},
{"geometry": {"type": "Point", "coordinates": [-78.7758874518, 38.9410055823]}, "type": "Feature", "properties": {"collection_times": [{"days": "Mon-Fri", "time": "11:45am"}, {"days": "Sat", "time": "9:45am"}, {"days": "Sun", "time": "Closed"}], "id": "2681000000", "name": "USPS COLLECTION BOX - BLUE BOX", "address": {"city": "LOST CITY", "state": "WV", "street": "9330 STATE ROAD 259", "postcode": "26810"}}},
{"geometry": {"type": "Point", "coordinates": [-78.89269445, 38.8781713652]}, "type": "Feature", "properties": {"collection_times": [{"days": "Mon-Fri", "time": "3:30pm"}, {"days": "Sat", "time": "11:15am"}, {"days": "Sun", "time": "Closed"}], "id": "2681200000", "name": "USPS COLLECTION BOX - BLUE BOX", "address": {"city": "MATHIAS", "state": "WV", "street": "14 MATHIAS ST", "postcode": "26812"}}},
{"geometry": {"type": "Point", "coordinates": [-78.89269445, 38.8781713652]}, "type": "Feature", "properties": {"collection_times": [{"days": "Mon-Fri", "time": "3:30pm"}, {"days": "Sat", "time": "11:15am"}, {"days": "Sun", "time": "Closed"}], "id": "2681200001", "name": "USPS COLLECTION BOX - PO LOBBY", "address": {"city": "MATHIAS", "state": "WV", "street": "14 MATHIAS ST", "postcode": "26812"}}},
{"geometry": {"type": "Point", "coordinates": [-79.4430824105, 38.6955393973]}, "type": "Feature", "properties": {"collection_times": [{"days": "Mon-Fri", "time": "11:45am"}, {"days": "Sat", "time": "11:00am"}, {"days": "Sun", "time": "Closed"}], "id": "2681400000", "name": "USPS COLLECTION BOX - BLUE BOX", "address": {"city": "RIVERTON", "state": "WV", "street": "61 TUSCARORA LN", "postcode": "26814"}}},
{"geometry": {"type": "Point", "coordinates": [-79.4430824105, 38.6955393973]}, "type": "Feature", "properties": {"collection_times": [{"days": "Mon-Fri", "time": "11:45am"}, {"days": "Sat", "time": "11:00am"}, {"days": "Sun", "time": "Closed"}], "id": "2681400001", "name": "USPS COLLECTION BOX - PO LOBBY", "address": {"city": "RIVERTON", "state": "WV", "street": "61 TUSCARORA LN", "postcode": "26814"}}},
{"geometry": {"type": "Point", "coordinates": [-78.3867699565, 39.3766893064]}, "type": "Feature", "properties": {"collection_times": [{"days": "Mon-Fri", "time": "12:30pm"}, {"days": "Sat", "time": "11:30am"}, {"days": "Sun", "time": "Closed"}], "id": "2681700000", "name": "USPS COLLECTION BOX - BLUE BOX", "address": {"city": "BLOOMERY", "state": "WV", "street": "17082 BLOOMERY PIKE", "postcode": "26817"}}},
{"geometry": {"type": "Point", "coordinates": [-78.371508113, 39.38486512]}, "type": "Feature", "properties": {"collection_times": [{"days": "Mon-Fri", "time": "12:45pm"}, {"days": "Sat", "time": "11:45am"}, {"days": "Sun", "time": "Closed"}], "id": "2681700001", "name": "USPS COLLECTION BOX - PO LOBBY", "address": {"city": "BLOOMERY", "state": "WV", "street": "17082 BLOOMERY PIKE", "postcode": "26817"}}},
{"geometry": {"type": "Point", "coordinates": [-78.4926823753, 39.1382758982]}, "type": "Feature", "properties": {"collection_times": [{"days": "Mon-Fri", "time": "2:00pm"}, {"days": "Sat", "time": "11:30am"}, {"days": "Sun", "time": "Closed"}], "id": "2682300000", "name": "USPS COLLECTION BOX - BLUE BOX", "address": {"city": "CAPON SPRINGS", "state": "WV", "street": "8960 BACK CREEK RD", "postcode": "26823"}}},
{"geometry": {"type": "Point", "coordinates": [-78.4926823753, 39.1382758982]}, "type": "Feature", "properties": {"collection_times": [{"days": "Mon-Fri", "time": "2:00pm"}, {"days": "Sat", "time": "11:45am"}, {"days": "Sun", "time": "Closed"}], "id": "2682300001", "name": "USPS COLLECTION BOX - PO LOBBY", "address": {"city": "CAPON SPRINGS", "state": "WV", "street": "8960 BACK CREEK RD", "postcode": "26823"}}},
{"geometry": {"type": "Point", "coordinates": [-79.1922400369, 39.1632551446]}, "type": "Feature", "properties": {"collection_times": [{"days": "Mon-Fri", "time": "3:30pm"}, {"days": "Sat", "time": "11:30am"}, {"days": "Sun", "time": "Closed"}], "id": "2683300000", "name": "USPS COLLECTION BOX - BLUE BOX", "address": {"city": "MAYSVILLE", "state": "WV", "street": "8995 LUNICE CREEK HWY", "postcode": "26833"}}},
{"geometry": {"type": "Point", "coordinates": [-79.1922400369, 39.1632551446]}, "type": "Feature", "properties": {"collection_times": [{"days": "Mon-Fri", "time": "3:30pm"}, {"days": "Sat", "time": "11:30am"}, {"days": "Sun", "time": "Closed"}], "id": "2683300001", "name": "USPS COLLECTION BOX - PO LOBBY", "address": {"city": "MAYSVILLE", "state": "WV", "street": "8995 LUNICE CREEK HWY", "postcode": "26833"}}},
{"geometry": {"type": "Point", "coordinates": [-78.9666291385, 39.0737506977]}, "type": "Feature", "properties": {"collection_times": [{"days": "Mon-Fri", "time": "9:30am"}, {"days": "Sat", "time": "10:00am"}, {"days": "Sun", "time": "Closed"}], "id": "2683600000", "name": "USPS COLLECTION BOX - BLUE BOX", "address": {"city": "MOOREFIELD", "state": "WV", "street": "743 N MAIN ST", "postcode": "26836"}}},
{"geometry": {"type": "Point", "coordinates": [-78.9659743207, 39.0593601458]}, "type": "Feature", "properties": {"collection_times": [{"days": "Mon-Sat", "time": "1:00pm"}, {"days": "Sun", "time": "Closed"}], "id": "2683600002", "name": "USPS COLLECTION BOX - BLUE BOX", "address": {"city": "MOOREFIELD", "state": "WV", "street": "201 CENTRAL AVE", "postcode": "26836"}}},
{"geometry": {"type": "Point", "coordinates": [-78.9681000806, 39.0627486418]}, "type": "Feature", "properties": {"collection_times": [{"days": "Mon-Sat", "time": "11:00am"}, {"days": "Sun", "time": "Closed"}], "id": "2683600004", "name": "USPS COLLECTION BOX - BLUE BOX", "address": {"city": "MOOREFIELD", "state": "WV", "street": "130 N ELM ST", "postcode": "26836"}}},
{"geometry": {"type": "Point", "coordinates": [-78.9697932262, 39.061901042]}, "type": "Feature", "properties": {"collection_times": [{"days": "Mon-Sat", "time": "11:00am"}, {"days": "Sun", "time": "Closed"}], "id": "2683600006", "name": "USPS COLLECTION BOX - BLUE BOX", "address": {"city": "MOOREFIELD", "state": "WV", "street": "107 S MAIN ST", "postcode": "26836"}}},
{"geometry": {"type": "Point", "coordinates": [-78.9616367121, 39.070590066]}, "type": "Feature", "properties": {"collection_times": [{"days": "Mon-Fri", "time": "4:45pm"}, {"days": "Sat", "time": "3:30pm"}, {"days": "Sun", "time": "Closed"}], "id": "2683600007", "name": "USPS COLLECTION BOX - BLUE BOX", "address": {"city": "MOOREFIELD", "state": "WV", "street": "410 SPRING AVE", "postcode": "26836"}}},
{"geometry": {"type": "Point", "coordinates": [-78.9746406594, 39.0515628881]}, "type": "Feature", "properties": {"collection_times": [{"days": "Mon-Sat", "time": "11:30am"}, {"days": "Sun", "time": "Closed"}], "id": "2683600008", "name": "USPS COLLECTION BOX - BLUE BOX", "address": {"city": "MOOREFIELD", "state": "WV", "street": "542 S MAIN ST", "postcode": "26836"}}},
{"geometry": {"type": "Point", "coordinates": [-78.9616367121, 39.070590066]}, "type": "Feature", "properties": {"collection_times": [{"days": "Mon-Fri", "time": "4:45pm"}, {"days": "Sat", "time": "3:30pm"}, {"days": "Sun", "time": "Closed"}], "id": "2683600009", "name": "USPS COLLECTION BOX - PO LOBBY", "address": {"city": "MOOREFIELD", "state": "WV", "street": "410 SPRING AVE", "postcode": "26836"}}},
{"geometry": {"type": "Point", "coordinates": [-78.9595906357, 39.0861438242]}, "type": "Feature", "properties": {"collection_times": [{"days": "Mon-Sat", "time": "9:30am"}, {"days": "Sun", "time": "Closed"}], "id": "2683600010", "name": "USPS COLLECTION BOX - BLUE BOX", "address": {"city": "MOOREFIELD", "state": "WV", "street": "11 HARNESS RD", "postcode": "26836"}}},
{"geometry": {"type": "Point", "coordinates": [-78.9504379945, 39.1526173021]}, "type": "Feature", "properties": {"collection_times": [{"days": "Mon-Fri", "time": "2:45pm"}, {"days": "Sat", "time": "11:45am"}, {"days": "Sun", "time": "Closed"}], "id": "2684500000", "name": "USPS COLLECTION BOX - BLUE BOX", "address": {"city": "OLD FIELDS", "state": "WV", "street": "165 OLD FIELDS RD", "postcode": "26845"}}},
{"geometry": {"type": "Point", "coordinates": [-78.9504379945, 39.1526173021]}, "type": "Feature", "properties": {"collection_times": [{"days": "Mon-Fri", "time": "2:45pm"}, {"days": "Sat", "time": "11:45am"}, {"days": "Sun", "time": "Closed"}], "id": "2684500001", "name": "USPS COLLECTION BOX - PO LOBBY", "address": {"city": "OLD FIELDS", "state": "WV", "street": "165 OLD FIELDS RD", "postcode": "26845"}}},
{"geometry": {"type": "Point", "coordinates": [-79.1247856874, 38.9874957291]}, "type": "Feature", "properties": {"collection_times": [{"days": "Mon-Sat", "time": "9:45am"}, {"days": "Sun", "time": "Closed"}], "id": "2684700000", "name": "USPS COLLECTION BOX - BLUE BOX", "address": {"city": "PETERSBURG", "state": "WV", "street": "39 S MAIN ST", "postcode": "26847"}}},
{"geometry": {"type": "Point", "coordinates": [-79.1242305031, 38.9956810182]}, "type": "Feature", "properties": {"collection_times": [{"days": "Mon-Fri", "time": "3:15pm"}, {"days": "Sat", "time": "2:30pm"}, {"days": "Sun", "time": "Closed"}], "id": "2684700005", "name": "USPS COLLECTION BOX - BLUE BOX", "address": {"city": "PETERSBURG", "state": "WV", "street": "5 HIGHLAND AVE", "postcode": "26847"}}},
{"geometry": {"type": "Point", "coordinates": [-79.1237209325, 38.9927449361]}, "type": "Feature", "properties": {"collection_times": [{"days": "Mon-Fri", "time": "12:30pm"}, {"days": "Sat", "time": "12:00pm"}, {"days": "Sun", "time": "Closed"}], "id": "2684700006", "name": "USPS COLLECTION BOX - BLUE BOX", "address": {"city": "PETERSBURG", "state": "WV", "street": "28 VIRGINIA AVE", "postcode": "26847"}}},
{"geometry": {"type": "Point", "coordinates": [-79.1238678989, 39.0002429556]}, "type": "Feature", "properties": {"collection_times": [{"days": "Mon-Sat", "time": "11:00am"}, {"days": "Sun", "time": "Closed"}], "id": "2684700008", "name": "USPS COLLECTION BOX - BLUE BOX", "address": {"city": "PETERSBURG", "state": "WV", "street": "204 BRYAN ST", "postcode": "26847"}}},
{"geometry": {"type": "Point", "coordinates": [-79.1423363222, 38.9265846145]}, "type": "Feature", "properties": {"collection_times": [{"days": "Mon-Sat", "time": "4:45pm"}, {"days": "Sun", "time": "Closed"}], "id": "2684700010", "name": "USPS COLLECTION BOX - BLUE BOX", "address": {"city": "PETERSBURG", "state": "WV", "street": "1 POSTAL SQ", "postcode": "26847"}}},
{"geometry": {"type": "Point", "coordinates": [-79.1423363222, 38.9265846145]}, "type": "Feature", "properties": {"collection_times": [{"days": "Mon-Sat", "time": "4:45pm"}, {"days": "Sun", "time": "Closed"}], "id": "2684700011", "name": "USPS COLLECTION BOX - BLUE BOX", "address": {"city": "PETERSBURG", "state": "WV", "street": "1 POSTAL SQ", "postcode": "26847"}}},
{"geometry": {"type": "Point", "coordinates": [-79.1423363222, 38.9265846145]}, "type": "Feature", "properties": {"collection_times": [{"days": "Mon-Sat", "time": "5:15pm"}, {"days": "Sun", "time": "Closed"}], "id": "2684700012", "name": "USPS COLLECTION BOX - PO LOBBY", "address": {"city": "PETERSBURG", "state": "WV", "street": "1 POSTAL SQ", "postcode": "26847"}}},
{"geometry": {"type": "Point", "coordinates": [-78.5948426848, 39.0763891084]}, "type": "Feature", "properties": {"collection_times": [{"days": "Mon-Fri", "time": "3:30pm"}, {"days": "Sat", "time": "11:30am"}, {"days": "Sun", "time": "Closed"}], "id": "2685100000", "name": "USPS COLLECTION BOX - BLUE BOX", "address": {"city": "WARDENSVILLE", "state": "WV", "street": "5 W MAIN ST", "postcode": "26851"}}},
{"geometry": {"type": "Point", "coordinates": [-78.5948426848, 39.0763891084]}, "type": "Feature", "properties": {"collection_times": [{"days": "Mon-Fri", "time": "3:30pm"}, {"days": "Sat", "time": "11:30am"}, {"days": "Sun", "time": "Closed"}], "id": "2685100001", "name": "USPS COLLECTION BOX - PO LOBBY", "address": {"city": "WARDENSVILLE", "state": "WV", "street": "5 W MAIN ST", "postcode": "26851"}}},
{"geometry": {"type": "Point", "coordinates": [-78.9252185924, 39.2336740771]}, "type": "Feature", "properties": {"collection_times": [{"days": "Mon-Fri", "time": "1:00pm"}, {"days": "Sat", "time": "11:45am"}, {"days": "Sun", "time": "Closed"}], "id": "2685200000", "name": "USPS COLLECTION BOX - BLUE BOX", "address": {"city": "PURGITSVILLE", "state": "WV", "street": "6406 PURGITSVILLE PIKE", "postcode": "26852"}}},
{"geometry": {"type": "Point", "coordinates": [-78.9252185924, 39.2336740771]}, "type": "Feature", "properties": {"collection_times": [{"days": "Mon-Fri", "time": "12:45pm"}, {"days": "Sat", "time": "11:45am"}, {"days": "Sun", "time": "Closed"}], "id": "2685200001", "name": "USPS COLLECTION BOX - PO LOBBY", "address": {"city": "PURGITSVILLE", "state": "WV", "street": "6406 PURGITSVILLE PIKE", "postcode": "26852"}}},
{"geometry": {"type": "Point", "coordinates": [-79.2763802842, 38.9412158585]}, "type": "Feature", "properties": {"collection_times": [{"days": "Mon-Sat", "time": "1:00pm"}, {"days": "Sun", "time": "Closed"}], "id": "2685500000", "name": "USPS COLLECTION BOX - BLUE BOX", "address": {"city": "CABINS", "state": "WV", "street": "5181 N FORK HWY", "postcode": "26855"}}},
{"geometry": {"type": "Point", "coordinates": [-79.2763802842, 38.9412158585]}, "type": "Feature", "properties": {"collection_times": [{"days": "Mon-Sat", "time": "1:00pm"}, {"days": "Sun", "time": "Closed"}], "id": "2685500001", "name": "USPS COLLECTION BOX - PO LOBBY", "address": {"city": "CABINS", "state": "WV", "street": "5181 N FORK HWY", "postcode": "26855"}}},
{"geometry": {"type": "Point", "coordinates": [-78.4971422194, 39.1833190454]}, "type": "Feature", "properties": {"collection_times": [{"days": "Mon-Fri", "time": "11:45am"}, {"days": "Sat", "time": "12:00pm"}, {"days": "Sun", "time": "Closed"}], "id": "2686500000", "name": "USPS COLLECTION BOX - BLUE BOX", "address": {"city": "YELLOW SPRING", "state": "WV", "street": "7966 CARPERS PIKE", "postcode": "26865"}}},
{"geometry": {"type": "Point", "coordinates": [-78.4971422194, 39.1833190454]}, "type": "Feature", "properties": {"collection_times": [{"days": "Mon-Fri", "time": "11:45am"}, {"days": "Sat", "time": "12:00pm"}, {"days": "Sun", "time": "Closed"}], "id": "2686500001", "name": "USPS COLLECTION BOX - PO LOBBY", "address": {"city": "YELLOW SPRING", "state": "WV", "street": "PO BOX 9998", "postcode": "26865"}}},
{"geometry": {"type": "Point", "coordinates": [-79.2589117325, 38.7960514122]}, "type": "Feature", "properties": {"collection_times": [{"days": "Mon-Fri", "time": "4:00pm"}, {"days": "Sat", "time": "12:35pm"}, {"days": "Sun", "time": "Closed"}], "id": "2686600000", "name": "USPS COLLECTION BOX - BLUE BOX", "address": {"city": "UPPER TRACT", "state": "WV", "street": "11477 PETERSBURG PIKE", "postcode": "26866"}}},
{"geometry": {"type": "Point", "coordinates": [-79.4167183238, 38.8338201402]}, "type": "Feature", "properties": {"collection_times": [{"days": "Mon-Fri", "time": "12:45pm"}, {"days": "Sat", "time": "11:45am"}, {"days": "Sun", "time": "Closed"}], "id": "2688400000", "name": "USPS COLLECTION BOX - BLUE BOX", "address": {"city": "SENECA ROCKS", "state": "WV", "street": "648 ALLEGHENY DR", "postcode": "26884"}}},
{"geometry": {"type": "Point", "coordinates": [-79.4167183238, 38.8338201402]}, "type": "Feature", "properties": {"collection_times": [{"days": "Mon-Fri", "time": "1:00pm"}, {"days": "Sat", "time": "11:45am"}, {"days": "Sun", "time": "Closed"}], "id": "2688400002", "name": "USPS COLLECTION BOX - PO LOBBY", "address": {"city": "SENECA ROCKS", "state": "WV", "street": "648 ALLEGHENY DR", "postcode": "26884"}}},
{"geometry": {"type": "Point", "coordinates": [-79.4594910566, 38.8752104492]}, "type": "Feature", "properties": {"collection_times": [{"days": "Mon-Sat", "time": "2:30pm"}, {"days": "Sun", "time": "Closed"}], "id": "2688600000", "name": "USPS COLLECTION BOX - PO LOBBY", "address": {"city": "ONEGO", "state": "WV", "street": "2942 ALLEGHENY DR", "postcode": "26886"}}},
{"geometry": {"type": "Point", "coordinates": [-79.4594910566, 38.8752104492]}, "type": "Feature", "properties": {"collection_times": [{"days": "Mon-Sat", "time": "2:30pm"}, {"days": "Sun", "time": "Closed"}], "id": "2688600001", "name": "USPS COLLECTION BOX - BLUE BOX", "address": {"city": "ONEGO", "state": "WV", "street": "2942 ALLEGHENY DR", "postcode": "26886"}}}
]}
