{"type": "FeatureCollection", "features": [
{"geometry": {"type": "Point", "coordinates": [-71.6137367861, 42.8688322001]}, "type": "Feature", "properties": {"collection_times": [{"days": "Mon-Fri", "time": "5:00pm"}, {"days": "Sat", "time": "2:00pm"}, {"days": "Sun", "time": "Closed"}], "id": "0303100003", "name": "USPS COLLECTION BOX - BLUE BOX", "address": {"city": "AMHERST", "state": "NH", "street": "199 STATE ROUTE 101", "postcode": "03031"}}},
{"geometry": {"type": "Point", "coordinates": [-71.6137367861, 42.8688322001]}, "type": "Feature", "properties": {"collection_times": [{"days": "Mon-Fri", "time": "5:00pm"}, {"days": "Sat", "time": "2:00pm"}, {"days": "Sun", "time": "Closed"}], "id": "0303100004", "name": "USPS COLLECTION BOX - BLUE BOX", "address": {"city": "AMHERST", "state": "NH", "street": "199 STATE ROUTE 101", "postcode": "03031"}}},
{"geometry": {"type": "Point", "coordinates": [-71.5593956643, 42.803442174]}, "type": "Feature", "properties": {"collection_times": [{"days": "Mon-Fri", "time": "10:00am"}, {"days": "Sat", "time": "9:30am"}, {"days": "Sun", "time": "Closed"}], "id": "0303100005", "name": "USPS COLLECTION BOX - BLUE BOX", "address": {"city": "AMHERST", "state": "NH", "street": "109 STATE ROUTE 101A", "postcode": "03031"}}},
{"geometry": {"type": "Point", "coordinates": [-71.6061169835, 42.8210245111]}, "type": "Feature", "properties": {"collection_times": [{"days": "Mon-Sat", "time": "9:30am"}, {"days": "Sun", "time": "Closed"}], "id": "0303100006", "name": "USPS COLLECTION BOX - BLUE BOX", "address": {"city": "AMHERST", "state": "NH", "street": "103 PONEMAH RD", "postcode": "03031"}}},
{"geometry": {"type": "Point", "coordinates": [-71.6137367861, 42.8688322001]}, "type": "Feature", "properties": {"collection_times": [{"days": "Mon-Fri", "time": "5:00pm"}, {"days": "Sat", "time": "2:00pm"}, {"days": "Sun", "time": "Closed"}], "id": "0303100008", "name": "USPS COLLECTION BOX - PO LOBBY", "address": {"city": "AMHERST", "state": "NH", "street": "199 STATE ROUTE 101", "postcode": "03031"}}},
{"geometry": {"type": "Point", "coordinates": [-71.5815965252, 42.8076180566]}, "type": "Feature", "properties": {"collection_times": [{"days": "Mon-Fri", "time": "10:00am"}, {"days": "Sat", "time": "9:30am"}, {"days": "Sun", "time": "Closed"}], "id": "0303100010", "name": "USPS COLLECTION BOX - BLUE BOX", "address": {"city": "AMHERST", "state": "NH", "street": "11 COLUMBIA DR", "postcode": "03031"}}},
{"geometry": {"type": "Point", "coordinates": [-71.6254228738, 42.8632679758]}, "type": "Feature", "properties": {"collection_times": [{"days": "Mon-Sat", "time": "9:30am"}, {"days": "Sun", "time": "Closed"}], "id": "0303100011", "name": "USPS COLLECTION BOX - BLUE BOX", "address": {"city": "AMHERST", "state": "NH", "street": "12 MIDDLE ST", "postcode": "03031"}}},
{"geometry": {"type": "Point", "coordinates": [-71.5830116053, 42.809326454]}, "type": "Feature", "properties": {"collection_times": [{"days": "Mon-Fri", "time": "10:00am"}, {"days": "Sat", "time": "9:30am"}, {"days": "Sun", "time": "Closed"}], "id": "0303100012", "name": "USPS COLLECTION BOX - BLUE BOX", "address": {"city": "AMHERST", "state": "NH", "street": "5 NORTHERN BLVD", "postcode": "03031"}}},
{"geometry": {"type": "Point", "coordinates": [-71.5801498513, 42.8113573705]}, "type": "Feature", "properties": {"collection_times": [{"days": "Mon-Sat", "time": "9:30am"}, {"days": "Sun", "time": "Closed"}], "id": "0303100013", "name": "USPS COLLECTION BOX - BLUE BOX", "address": {"city": "AMHERST", "state": "NH", "street": "85 ROUTE 101A", "postcode": "03031"}}},
{"geometry": {"type": "Point", "coordinates": [-71.5775936257, 43.6855232857]}, "type": "Feature", "properties": {"collection_times": [{"days": "Mon-Fri", "time": "4:30pm"}, {"days": "Sat", "time": "11:30am"}, {"days": "Sun", "time": "Closed"}], "id": "0303200002", "name": "USPS COLLECTION BOX - BLUE BOX", "address": {"city": "AUBURN", "state": "NH", "street": "61 RAYMOND RD", "postcode": "03032"}}},
{"geometry": {"type": "Point", "coordinates": [-71.5775936257, 43.6855232857]}, "type": "Feature", "properties": {"collection_times": [{"days": "Mon-Fri", "time": "5:00pm"}, {"days": "Sat", "time": "12:00pm"}, {"days": "Sun", "time": "Closed"}], "id": "0303200003", "name": "USPS COLLECTION BOX - PO LOBBY", "address": {"city": "AUBURN", "state": "NH", "street": "61 RAYMOND RD", "postcode": "03032"}}},
{"geometry": {"type": "Point", "coordinates": [-71.5775936257, 43.6855232857]}, "type": "Feature", "properties": {"collection_times": [{"days": "Mon-Sat", "time": "8:30am"}, {"days": "Sun", "time": "Closed"}], "id": "0303200004", "name": "USPS COLLECTION BOX - BLUE BOX", "address": {"city": "AUBURN", "state": "NH", "street": "392 HOOKSETT RD", "postcode": "03032"}}},
{"geometry": {"type": "Point", "coordinates": [-71.5775936257, 43.6855232857]}, "type": "Feature", "properties": {"collection_times": [{"days": "Mon-Sat", "time": "9:30am"}, {"days": "Sun", "time": "Closed"}], "id": "0303200005", "name": "USPS COLLECTION BOX - BLUE BOX", "address": {"city": "AUBURN", "state": "NH", "street": "903 LONDONDERRY TPKE", "postcode": "03032"}}},
{"geometry": {"type": "Point", "coordinates": [-71.671250576, 42.7465981293]}, "type": "Feature", "properties": {"collection_times": [{"days": "Mon-Fri", "time": "5:00pm"}, {"days": "Sat", "time": "12:00pm"}, {"days": "Sun", "time": "Closed"}], "id": "0303300001", "name": "USPS COLLECTION BOX - BLUE BOX", "address": {"city": "BROOKLINE", "state": "NH", "street": "2 POST OFFICE DR", "postcode": "03033"}}},
{"geometry": {"type": "Point", "coordinates": [-71.671250576, 42.7465981293]}, "type": "Feature", "properties": {"collection_times": [{"days": "Mon-Fri", "time": "5:00pm"}, {"days": "Sat", "time": "12:00pm"}, {"days": "Sun", "time": "Closed"}], "id": "0303300002", "name": "USPS COLLECTION BOX - PO LOBBY", "address": {"city": "BROOKLINE", "state": "NH", "street": "2 POST OFFICE DR", "postcode": "03033"}}},
{"geometry": {"type": "Point", "coordinates": [-71.279023462, 43.0602005528]}, "type": "Feature", "properties": {"collection_times": [{"days": "Mon-Fri", "time": "5:00pm"}, {"days": "Sat", "time": "12:00pm"}, {"days": "Sun", "time": "Closed"}], "id": "0303400001", "name": "USPS COLLECTION BOX - BLUE BOX", "address": {"city": "CANDIA", "state": "NH", "street": "115 RAYMOND RD", "postcode": "03034"}}},
{"geometry": {"type": "Point", "coordinates": [-71.279023462, 43.0602005528]}, "type": "Feature", "properties": {"collection_times": [{"days": "Mon-Fri", "time": "5:00pm"}, {"days": "Sat", "time": "12:00pm"}, {"days": "Sun", "time": "Closed"}], "id": "0303400002", "name": "USPS COLLECTION BOX - PO LOBBY", "address": {"city": "CANDIA", "state": "NH", "street": "115 RAYMOND RD", "postcode": "03034"}}},
{"geometry": {"type": "Point", "coordinates": [-71.2573622553, 42.9575522007]}, "type": "Feature", "properties": {"collection_times": [{"days": "Mon-Fri", "time": "5:00pm"}, {"days": "Sat", "time": "11:30am"}, {"days": "Sun", "time": "Closed"}], "id": "0303600001", "name": "USPS COLLECTION BOX - BLUE BOX", "address": {"city": "CHESTER", "state": "NH", "street": "5 CHESTER ST", "postcode": "03036"}}},
{"geometry": {"type": "Point", "coordinates": [-71.2573622553, 42.9575522007]}, "type": "Feature", "properties": {"collection_times": [{"days": "Mon-Fri", "time": "5:00pm"}, {"days": "Sat", "time": "11:30am"}, {"days": "Sun", "time": "Closed"}], "id": "0303600002", "name": "USPS COLLECTION BOX - PO LOBBY", "address": {"city": "CHESTER", "state": "NH", "street": "5 CHESTER ST", "postcode": "03036"}}},
{"geometry": {"type": "Point", "coordinates": [-71.2245603943, 43.0808755716]}, "type": "Feature", "properties": {"collection_times": [{"days": "Mon-Fri", "time": "5:00pm"}, {"days": "Sat", "time": "11:30am"}, {"days": "Sun", "time": "Closed"}], "id": "0303700001", "name": "USPS COLLECTION BOX - BLUE BOX", "address": {"city": "DEERFIELD", "state": "NH", "street": "17A RAYMOND RD", "postcode": "03037"}}},
{"geometry": {"type": "Point", "coordinates": [-71.2245603943, 43.0808755716]}, "type": "Feature", "properties": {"collection_times": [{"days": "Mon-Fri", "time": "5:00pm"}, {"days": "Sat", "time": "11:30am"}, {"days": "Sun", "time": "Closed"}], "id": "0303700002", "name": "USPS COLLECTION BOX - PO LOBBY", "address": {"city": "DEERFIELD", "state": "NH", "street": "17A RAYMOND RD", "postcode": "03037"}}},
{"geometry": {"type": "Point", "coordinates": [-71.3196942271, 42.9011486877]}, "type": "Feature", "properties": {"collection_times": [{"days": "Mon-Fri", "time": "5:00pm"}, {"days": "Sat", "time": "4:00pm"}, {"days": "Sun", "time": "Closed"}], "id": "0303800005", "name": "USPS COLLECTION BOX - BLUE BOX", "address": {"city": "DERRY", "state": "NH", "street": "24 TSIENNETO RD", "postcode": "03038"}}},
{"geometry": {"type": "Point", "coordinates": [-71.32686998, 42.89240216]}, "type": "Feature", "properties": {"collection_times": [{"days": "Mon-Sat", "time": "10:00am"}, {"days": "Sun", "time": "Closed"}], "id": "0303800006", "name": "USPS COLLECTION BOX - BLUE BOX", "address": {"city": "DERRY", "state": "NH", "street": "55 CRYSTAL AVE", "postcode": "03038"}}},
{"geometry": {"type": "Point", "coordinates": [-71.3196942271, 42.9011486877]}, "type": "Feature", "properties": {"collection_times": [{"days": "Mon-Fri", "time": "5:00pm"}, {"days": "Sat", "time": "4:00pm"}, {"days": "Sun", "time": "Closed"}], "id": "0303800022", "name": "USPS COLLECTION BOX - PO LOBBY", "address": {"city": "DERRY", "state": "NH", "street": "24 TSIENNETO RD", "postcode": "03038"}}},
{"geometry": {"type": "Point", "coordinates": [-71.3196942271, 42.9011486877]}, "type": "Feature", "properties": {"collection_times": [{"days": "Mon-Fri", "time": "5:00pm"}, {"days": "Sat", "time": "4:00pm"}, {"days": "Sun", "time": "Closed"}], "id": "0303800023", "name": "USPS COLLECTION BOX - BLUE BOX", "address": {"city": "DERRY", "state": "NH", "street": "24 TSIENNETO RD", "postcode": "03038"}}},
{"geometry": {"type": "Point", "coordinates": [-71.3196942271, 42.9011486877]}, "type": "Feature", "properties": {"collection_times": [{"days": "Mon-Fri", "time": "5:00pm"}, {"days": "Sat", "time": "4:00pm"}, {"days": "Sun", "time": "Closed"}], "id": "0303800024", "name": "USPS COLLECTION BOX - BLUE BOX", "address": {"city": "DERRY", "state": "NH", "street": "24 TSIENNETO RD", "postcode": "03038"}}},
{"geometry": {"type": "Point", "coordinates": [-71.319206848, 42.8764887251]}, "type": "Feature", "properties": {"collection_times": [{"days": "Mon-Sat", "time": "10:30am"}, {"days": "Sun", "time": "Closed"}], "id": "0303800026", "name": "USPS COLLECTION BOX - BLUE BOX", "address": {"city": "DERRY", "state": "NH", "street": "44 BIRCH ST", "postcode": "03038"}}},
{"geometry": {"type": "Point", "coordinates": [-71.3196942271, 42.9011486877]}, "type": "Feature", "properties": {"collection_times": [{"days": "Mon-Fri", "time": "5:00pm"}, {"days": "Sat", "time": "4:00pm"}, {"days": "Sun", "time": "Closed"}], "id": "0303800027", "name": "USPS COLLECTION BOX - APC", "address": {"city": "DERRY", "state": "NH", "street": "24 TSIENNETO RD", "postcode": "03038"}}},
{"geometry": {"type": "Point", "coordinates": [-71.3196942271, 42.9011486877]}, "type": "Feature", "properties": {"collection_times": [{"days": "Mon-Fri", "time": "5:00pm"}, {"days": "Sat", "time": "4:00pm"}, {"days": "Sun", "time": "Closed"}], "id": "0303800029", "name": "USPS COLLECTION BOX - BLUE BOX", "address": {"city": "DERRY", "state": "NH", "street": "24 TSIENNETO RD", "postcode": "03038"}}},
{"geometry": {"type": "Point", "coordinates": [-71.295626276, 42.8942049051]}, "type": "Feature", "properties": {"collection_times": [{"days": "Mon-Fri", "time": "4:30pm"}, {"days": "Sat", "time": "11:45am"}, {"days": "Sun", "time": "Closed"}], "id": "0304100001", "name": "USPS COLLECTION BOX - PO LOBBY", "address": {"city": "EAST DERRY", "state": "NH", "street": "50 E DERRY RD", "postcode": "03041"}}},
{"geometry": {"type": "Point", "coordinates": [-71.295626276, 42.8942049051]}, "type": "Feature", "properties": {"collection_times": [{"days": "Mon-Fri", "time": "4:30pm"}, {"days": "Sat", "time": "11:45am"}, {"days": "Sun", "time": "Closed"}], "id": "0304100002", "name": "USPS COLLECTION BOX - BLUE BOX", "address": {"city": "EAST DERRY", "state": "NH", "street": "50 E DERRY RD", "postcode": "03041"}}},
{"geometry": {"type": "Point", "coordinates": [-71.0733430226, 43.0344918223]}, "type": "Feature", "properties": {"collection_times": [{"days": "Mon-Fri", "time": "4:30pm"}, {"days": "Sat", "time": "2:00pm"}, {"days": "Sun", "time": "Closed"}], "id": "0304200001", "name": "USPS COLLECTION BOX - BLUE BOX", "address": {"city": "EPPING", "state": "NH", "street": "71 MAIN ST", "postcode": "03042"}}},
{"geometry": {"type": "Point", "coordinates": [-71.1231546677, 43.0374246268]}, "type": "Feature", "properties": {"collection_times": [{"days": "Mon-Sat", "time": "11:00am"}, {"days": "Sun", "time": "Closed"}], "id": "0304200003", "name": "USPS COLLECTION BOX - BLUE BOX", "address": {"city": "EPPING", "state": "NH", "street": "302 PLEASANT ST", "postcode": "03042"}}},
{"geometry": {"type": "Point", "coordinates": [-71.0733430226, 43.0344918223]}, "type": "Feature", "properties": {"collection_times": [{"days": "Mon-Fri", "time": "5:00pm"}, {"days": "Sat", "time": "2:00pm"}, {"days": "Sun", "time": "Closed"}], "id": "0304200005", "name": "USPS COLLECTION BOX - PO LOBBY", "address": {"city": "EPPING", "state": "NH", "street": "71 MAIN ST", "postcode": "03042"}}},
{"geometry": {"type": "Point", "coordinates": [-71.8085795195, 42.9846698657]}, "type": "Feature", "properties": {"collection_times": [{"days": "Mon-Fri", "time": "4:45pm"}, {"days": "Sat", "time": "11:45am"}, {"days": "Sun", "time": "Closed"}], "id": "0304300001", "name": "USPS COLLECTION BOX - BLUE BOX", "address": {"city": "FRANCESTOWN", "state": "NH", "street": "158 SECOND NEW HAMPSHIRE TPKE S", "postcode": "03043"}}},
{"geometry": {"type": "Point", "coordinates": [-71.8085795195, 42.9846698657]}, "type": "Feature", "properties": {"collection_times": [{"days": "Mon-Fri", "time": "4:45pm"}, {"days": "Sat", "time": "11:45am"}, {"days": "Sun", "time": "Closed"}], "id": "0304300002", "name": "USPS COLLECTION BOX - PO LOBBY", "address": {"city": "FRANCESTOWN", "state": "NH", "street": "158 SECOND NEW HAMPSHIRE TPKE S", "postcode": "03043"}}},
{"geometry": {"type": "Point", "coordinates": [-71.1154161584, 43.0201538863]}, "type": "Feature", "properties": {"collection_times": [{"days": "Mon-Fri", "time": "4:15pm"}, {"days": "Sat", "time": "10:45am"}, {"days": "Sun", "time": "Closed"}], "id": "0304400001", "name": "USPS COLLECTION BOX - BLUE BOX", "address": {"city": "FREMONT", "state": "NH", "street": "51 BEEDE HILL RD", "postcode": "03044"}}},
{"geometry": {"type": "Point", "coordinates": [-71.1154161584, 43.0201538863]}, "type": "Feature", "properties": {"collection_times": [{"days": "Mon-Fri", "time": "4:15pm"}, {"days": "Sat", "time": "11:00am"}, {"days": "Sun", "time": "Closed"}], "id": "0304400002", "name": "USPS COLLECTION BOX - PO LOBBY", "address": {"city": "FREMONT", "state": "NH", "street": "51 BEEDE HILL RD", "postcode": "03044"}}},
{"geometry": {"type": "Point", "coordinates": [-71.6000972669, 43.0197287099]}, "type": "Feature", "properties": {"collection_times": [{"days": "Mon-Sat", "time": "2:00pm"}, {"days": "Sun", "time": "Closed"}], "id": "0304500001", "name": "USPS COLLECTION BOX - BLUE BOX", "address": {"city": "DUNBARTON", "state": "NH", "street": "8 MAIN ST", "postcode": "03045"}}},
{"geometry": {"type": "Point", "coordinates": [-71.6167000562, 43.1033696682]}, "type": "Feature", "properties": {"collection_times": [{"days": "Mon-Sat", "time": "9:00am"}, {"days": "Sun", "time": "Closed"}], "id": "0304500004", "name": "USPS COLLECTION BOX - BLUE BOX", "address": {"city": "DUNBARTON", "state": "NH", "street": "1011 SCHOOL ST", "postcode": "03045"}}},
{"geometry": {"type": "Point", "coordinates": [-71.522246988, 43.0051922545]}, "type": "Feature", "properties": {"collection_times": [{"days": "Mon-Sat", "time": "9:00am"}, {"days": "Sun", "time": "Closed"}], "id": "0304500005", "name": "USPS COLLECTION BOX - BLUE BOX", "address": {"city": "DUNBARTON", "state": "NH", "street": "2 TIMBERWOOD DR", "postcode": "03045"}}},
{"geometry": {"type": "Point", "coordinates": [-71.6015602256, 43.0196551509]}, "type": "Feature", "properties": {"collection_times": [{"days": "Mon-Fri", "time": "5:15pm"}, {"days": "Sat", "time": "3:15pm"}, {"days": "Sun", "time": "Closed"}], "id": "0304500007", "name": "USPS COLLECTION BOX - PO LOBBY", "address": {"city": "DUNBARTON", "state": "NH", "street": "11 CHURCH ST", "postcode": "03045"}}},
{"geometry": {"type": "Point", "coordinates": [-71.6015602256, 43.0196551509]}, "type": "Feature", "properties": {"collection_times": [{"days": "Mon-Fri", "time": "5:15pm"}, {"days": "Sat", "time": "3:00pm"}, {"days": "Sun", "time": "Closed"}], "id": "0304500008", "name": "USPS COLLECTION BOX - BLUE BOX", "address": {"city": "DUNBARTON", "state": "NH", "street": "11 CHURCH ST", "postcode": "03045"}}},
{"geometry": {"type": "Point", "coordinates": [-71.8703016304, 42.9240575175]}, "type": "Feature", "properties": {"collection_times": [{"days": "Mon-Fri", "time": "4:45pm"}, {"days": "Sat", "time": "1:00pm"}, {"days": "Sun", "time": "Closed"}], "id": "0304700001", "name": "USPS COLLECTION BOX - BLUE BOX", "address": {"city": "GREENFIELD", "state": "NH", "street": "75 SLIP RD", "postcode": "03047"}}},
{"geometry": {"type": "Point", "coordinates": [-71.8703016304, 42.9240575175]}, "type": "Feature", "properties": {"collection_times": [{"days": "Mon-Fri", "time": "4:45pm"}, {"days": "Sat", "time": "1:00pm"}, {"days": "Sun", "time": "Closed"}], "id": "0304700002", "name": "USPS COLLECTION BOX - PO LOBBY", "address": {"city": "GREENFIELD", "state": "NH", "street": "75 SLIP RD", "postcode": "03047"}}},
{"geometry": {"type": "Point", "coordinates": [-71.8713012923, 42.9503477894]}, "type": "Feature", "properties": {"collection_times": [{"days": "Mon-Sat", "time": "12:00pm"}, {"days": "Sun", "time": "Closed"}], "id": "0304700003", "name": "USPS COLLECTION BOX - BLUE BOX", "address": {"city": "GREENFIELD", "state": "NH", "street": "783 FOREST RD", "postcode": "03047"}}},
{"geometry": {"type": "Point", "coordinates": [-71.8127631777, 42.7694866726]}, "type": "Feature", "properties": {"collection_times": [{"days": "Mon-Fri", "time": "4:45pm"}, {"days": "Sat", "time": "11:45am"}, {"days": "Sun", "time": "Closed"}], "id": "0304800001", "name": "USPS COLLECTION BOX - BLUE BOX", "address": {"city": "GREENVILLE", "state": "NH", "street": "15 MAIN ST", "postcode": "03048"}}},
{"geometry": {"type": "Point", "coordinates": [-71.8127631777, 42.7694866726]}, "type": "Feature", "properties": {"collection_times": [{"days": "Mon-Fri", "time": "5:00pm"}, {"days": "Sat", "time": "12:00pm"}, {"days": "Sun", "time": "Closed"}], "id": "0304800003", "name": "USPS COLLECTION BOX - PO LOBBY", "address": {"city": "GREENVILLE", "state": "NH", "street": "15 MAIN ST", "postcode": "03048"}}},
{"geometry": {"type": "Point", "coordinates": [-71.5848178073, 42.7432473251]}, "type": "Feature", "properties": {"collection_times": [{"days": "Mon-Fri", "time": "4:30pm"}, {"days": "Sat", "time": "12:00pm"}, {"days": "Sun", "time": "Closed"}], "id": "0304900002", "name": "USPS COLLECTION BOX - BLUE BOX", "address": {"city": "HOLLIS", "state": "NH", "street": "5 HUTCHINGS DR STE 100 STE 100", "postcode": "03049"}}},
{"geometry": {"type": "Point", "coordinates": [-71.5848178073, 42.7432473251]}, "type": "Feature", "properties": {"collection_times": [{"days": "Mon-Fri", "time": "4:30pm"}, {"days": "Sat", "time": "12:00pm"}, {"days": "Sun", "time": "Closed"}], "id": "0304900004", "name": "USPS COLLECTION BOX - BLUE BOX", "address": {"city": "HOLLIS", "state": "NH", "street": "5 HUTCHINGS DR STE 100 STE 100", "postcode": "03049"}}},
{"geometry": {"type": "Point", "coordinates": [-71.5757373792, 42.7450815818]}, "type": "Feature", "properties": {"collection_times": [{"days": "Mon-Fri", "time": "5:00pm"}, {"days": "Sat", "time": "12:30pm"}, {"days": "Sun", "time": "Closed"}], "id": "0304900006", "name": "USPS COLLECTION BOX - PO LOBBY", "address": {"city": "HOLLIS", "state": "NH", "street": "5 HUTCHINGS DR STE 100STE", "postcode": "03049"}}},
{"geometry": {"type": "Point", "coordinates": [-71.4215592039, 42.7614709427]}, "type": "Feature", "properties": {"collection_times": [{"days": "Mon-Fri", "time": "4:00pm"}, {"days": "Sat", "time": "3:00pm"}, {"days": "Sun", "time": "Closed"}], "id": "0305100001", "name": "USPS COLLECTION BOX - BLUE BOX", "address": {"city": "HUDSON", "state": "NH", "street": "191 CENTRAL ST", "postcode": "03051"}}},
{"geometry": {"type": "Point", "coordinates": [-71.421407129, 42.7613535815]}, "type": "Feature", "properties": {"collection_times": [{"days": "Mon-Fri", "time": "5:00pm"}, {"days": "Sat", "time": "3:00pm"}, {"days": "Sun", "time": "Closed"}], "id": "0305100003", "name": "USPS COLLECTION BOX - EXPRESS", "address": {"city": "HUDSON", "state": "NH", "street": "77 DERRY ST", "postcode": "03051"}}},
{"geometry": {"type": "Point", "coordinates": [-71.444586507, 42.7763714977]}, "type": "Feature", "properties": {"collection_times": [{"days": "Mon-Fri", "time": "5:00pm"}, {"days": "Sat", "time": "3:00pm"}, {"days": "Sun", "time": "Closed"}], "id": "0305100004", "name": "USPS COLLECTION BOX - BLUE BOX", "address": {"city": "HUDSON", "state": "NH", "street": "77 DERRY ST", "postcode": "03051"}}},
{"geometry": {"type": "Point", "coordinates": [-71.4343016575, 42.7380292931]}, "type": "Feature", "properties": {"collection_times": [{"days": "Mon-Fri", "time": "5:00pm"}, {"days": "Sat", "time": "3:15pm"}, {"days": "Sun", "time": "Closed"}], "id": "0305100008", "name": "USPS COLLECTION BOX - BLUE BOX", "address": {"city": "HUDSON", "state": "NH", "street": "35 EXECUTIVE DR", "postcode": "03051"}}},
{"geometry": {"type": "Point", "coordinates": [-71.421407129, 42.7613535815]}, "type": "Feature", "properties": {"collection_times": [{"days": "Mon-Fri", "time": "5:00pm"}, {"days": "Sat", "time": "3:15pm"}, {"days": "Sun", "time": "Closed"}], "id": "0305100009", "name": "USPS COLLECTION BOX - EXPRESS", "address": {"city": "HUDSON", "state": "NH", "street": "35 EXECUTIVE DR", "postcode": "03051"}}},
{"geometry": {"type": "Point", "coordinates": [-71.4291092774, 42.7313219656]}, "type": "Feature", "properties": {"collection_times": [{"days": "Mon-Fri", "time": "5:00pm"}, {"days": "Sat", "time": "2:45pm"}, {"days": "Sun", "time": "Closed"}], "id": "0305100010", "name": "USPS COLLECTION BOX - BLUE BOX", "address": {"city": "HUDSON", "state": "NH", "street": "12 FLAGSTONE DR", "postcode": "03051"}}},
{"geometry": {"type": "Point", "coordinates": [-71.421407129, 42.7613535815]}, "type": "Feature", "properties": {"collection_times": [{"days": "Mon-Fri", "time": "5:00pm"}, {"days": "Sat", "time": "2:45pm"}, {"days": "Sun", "time": "Closed"}], "id": "0305100011", "name": "USPS COLLECTION BOX - EXPRESS", "address": {"city": "HUDSON", "state": "NH", "street": "12 FLAGSTONE DR", "postcode": "03051"}}},
{"geometry": {"type": "Point", "coordinates": [-71.4296431651, 42.7543624075]}, "type": "Feature", "properties": {"collection_times": [{"days": "Mon-Fri", "time": "4:00pm"}, {"days": "Sat", "time": "2:00pm"}, {"days": "Sun", "time": "Closed"}], "id": "0305100013", "name": "USPS COLLECTION BOX - BLUE BOX", "address": {"city": "HUDSON", "state": "NH", "street": "71 LOWELL RD", "postcode": "03051"}}},
{"geometry": {"type": "Point", "coordinates": [-71.4256590439, 42.7344983062]}, "type": "Feature", "properties": {"collection_times": [{"days": "Mon-Fri", "time": "5:00pm"}, {"days": "Sat", "time": "2:45pm"}, {"days": "Sun", "time": "Closed"}], "id": "0305100014", "name": "USPS COLLECTION BOX - BLUE BOX", "address": {"city": "HUDSON", "state": "NH", "street": "212 LOWELL RD", "postcode": "03051"}}},
{"geometry": {"type": "Point", "coordinates": [-71.3825539529, 42.7808547754]}, "type": "Feature", "properties": {"collection_times": [{"days": "Mon-Fri", "time": "4:00pm"}, {"days": "Sat", "time": "2:00pm"}, {"days": "Sun", "time": "Closed"}], "id": "0305100017", "name": "USPS COLLECTION BOX - BLUE BOX", "address": {"city": "HUDSON", "state": "NH", "street": "18 INDUSTRIAL DR", "postcode": "03051"}}},
{"geometry": {"type": "Point", "coordinates": [-71.4203593032, 42.699690776]}, "type": "Feature", "properties": {"collection_times": [{"days": "Mon-Sat", "time": "10:00am"}, {"days": "Sun", "time": "Closed"}], "id": "0305100018", "name": "USPS COLLECTION BOX - BLUE BOX", "address": {"city": "HUDSON", "state": "NH", "street": "100 RIVER RD", "postcode": "03051"}}},
{"geometry": {"type": "Point", "coordinates": [-71.4389382562, 42.7623641656]}, "type": "Feature", "properties": {"collection_times": [{"days": "Mon-Fri", "time": "4:00pm"}, {"days": "Sat", "time": "2:00pm"}, {"days": "Sun", "time": "Closed"}], "id": "0305100022", "name": "USPS COLLECTION BOX - EXPRESS", "address": {"city": "HUDSON", "state": "NH", "street": "16 CHASE ST", "postcode": "03051"}}},
{"geometry": {"type": "Point", "coordinates": [-71.4389382562, 42.7623641656]}, "type": "Feature", "properties": {"collection_times": [{"days": "Mon-Fri", "time": "4:00pm"}, {"days": "Sat", "time": "2:00pm"}, {"days": "Sun", "time": "Closed"}], "id": "0305100023", "name": "USPS COLLECTION BOX - BLUE BOX", "address": {"city": "HUDSON", "state": "NH", "street": "16 CHASE ST", "postcode": "03051"}}},
{"geometry": {"type": "Point", "coordinates": [-71.4315004107, 42.7596088305]}, "type": "Feature", "properties": {"collection_times": [{"days": "Mon-Fri", "time": "4:00pm"}, {"days": "Sat", "time": "3:00pm"}, {"days": "Sun", "time": "Closed"}], "id": "0305100025", "name": "USPS COLLECTION BOX - BLUE BOX", "address": {"city": "HUDSON", "state": "NH", "street": "28 LOWELL RD", "postcode": "03051"}}},
{"geometry": {"type": "Point", "coordinates": [-71.444586507, 42.7763714977]}, "type": "Feature", "properties": {"collection_times": [{"days": "Mon-Fri", "time": "5:00pm"}, {"days": "Sat", "time": "12:00pm"}, {"days": "Sun", "time": "Closed"}], "id": "0305100026", "name": "USPS COLLECTION BOX - PO LOBBY", "address": {"city": "HUDSON", "state": "NH", "street": "77 DERRY ST", "postcode": "03051"}}},
{"geometry": {"type": "Point", "coordinates": [-71.4093471381, 42.7710090061]}, "type": "Feature", "properties": {"collection_times": [{"days": "Mon-Fri", "time": "4:00pm"}, {"days": "Sat", "time": "2:00pm"}, {"days": "Sun", "time": "Closed"}], "id": "0305100029", "name": "USPS COLLECTION BOX - BLUE BOX", "address": {"city": "HUDSON", "state": "NH", "street": "230 CENTRAL ST", "postcode": "03051"}}},
{"geometry": {"type": "Point", "coordinates": [-71.4609102299, 42.8575821951]}, "type": "Feature", "properties": {"collection_times": [{"days": "Mon-Sat", "time": "10:00am"}, {"days": "Sun", "time": "Closed"}], "id": "0305200001", "name": "USPS COLLECTION BOX - BLUE BOX", "address": {"city": "LITCHFIELD", "state": "NH", "street": "2 LIBERTY WAY", "postcode": "03052"}}},
{"geometry": {"type": "Point", "coordinates": [-71.4249224938, 42.8115569839]}, "type": "Feature", "properties": {"collection_times": [{"days": "Mon-Sat", "time": "10:00am"}, {"days": "Sun", "time": "Closed"}], "id": "0305200002", "name": "USPS COLLECTION BOX - BLUE BOX", "address": {"city": "LITCHFIELD", "state": "NH", "street": "274 DERRY RD", "postcode": "03052"}}},
{"geometry": {"type": "Point", "coordinates": [-71.3769359978, 42.8704436809]}, "type": "Feature", "properties": {"collection_times": [{"days": "Mon-Sat", "time": "11:00am"}, {"days": "Sun", "time": "Closed"}], "id": "0305300001", "name": "USPS COLLECTION BOX - BLUE BOX", "address": {"city": "LONDONDERRY", "state": "NH", "street": "26 GARDEN LN", "postcode": "03053"}}},
{"geometry": {"type": "Point", "coordinates": [-71.3485164913, 42.8652427881]}, "type": "Feature", "properties": {"collection_times": [{"days": "Mon-Fri", "time": "4:00pm"}, {"days": "Sat", "time": "10:00am"}, {"days": "Sun", "time": "Closed"}], "id": "0305300002", "name": "USPS COLLECTION BOX - BLUE BOX", "address": {"city": "LONDONDERRY", "state": "NH", "street": "50 NASHUA RD", "postcode": "03053"}}},
{"geometry": {"type": "Point", "coordinates": [-71.3608362711, 42.8469507218]}, "type": "Feature", "properties": {"collection_times": [{"days": "Mon-Fri", "time": "4:00pm"}, {"days": "Sat", "time": "10:00am"}, {"days": "Sun", "time": "Closed"}], "id": "0305300003", "name": "USPS COLLECTION BOX - BLUE BOX", "address": {"city": "LONDONDERRY", "state": "NH", "street": "123 NASHUA RD", "postcode": "03053"}}},
{"geometry": {"type": "Point", "coordinates": [-71.3769359978, 42.8704436809]}, "type": "Feature", "properties": {"collection_times": [{"days": "Mon-Fri", "time": "5:15pm"}, {"days": "Sat", "time": "3:45pm"}, {"days": "Sun", "time": "Closed"}], "id": "0305300004", "name": "USPS COLLECTION BOX - BLUE BOX", "address": {"city": "LONDONDERRY", "state": "NH", "street": "86 NASHUA RD", "postcode": "03053"}}},
{"geometry": {"type": "Point", "coordinates": [-71.3769359978, 42.8704436809]}, "type": "Feature", "properties": {"collection_times": [{"days": "Mon-Fri", "time": "5:15pm"}, {"days": "Sat", "time": "3:45pm"}, {"days": "Sun", "time": "Closed"}], "id": "0305300005", "name": "USPS COLLECTION BOX - BLUE BOX", "address": {"city": "LONDONDERRY", "state": "NH", "street": "86 NASHUA RD", "postcode": "03053"}}},
{"geometry": {"type": "Point", "coordinates": [-71.3769359978, 42.8704436809]}, "type": "Feature", "properties": {"collection_times": [{"days": "Mon-Fri", "time": "5:15pm"}, {"days": "Sat", "time": "3:45pm"}, {"days": "Sun", "time": "Closed"}], "id": "0305300006", "name": "USPS COLLECTION BOX - BLUE BOX", "address": {"city": "LONDONDERRY", "state": "NH", "street": "86 NASHUA RD", "postcode": "03053"}}},
{"geometry": {"type": "Point", "coordinates": [-71.346213383, 42.8673256952]}, "type": "Feature", "properties": {"collection_times": [{"days": "Mon-Sat", "time": "10:30am"}, {"days": "Sun", "time": "Closed"}], "id": "0305300007", "name": "USPS COLLECTION BOX - BLUE BOX", "address": {"city": "LONDONDERRY", "state": "NH", "street": "34 NASHUA RD", "postcode": "03053"}}},
{"geometry": {"type": "Point", "coordinates": [-71.5775936257, 43.6855232857]}, "type": "Feature", "properties": {"collection_times": [{"days": "Mon-Sat", "time": "9:30am"}, {"days": "Sun", "time": "Closed"}], "id": "0305300008", "name": "USPS COLLECTION BOX - BLUE BOX", "address": {"city": "LONDONDERRY", "state": "NH", "street": "16 ORCHARD VIEW DR", "postcode": "03053"}}},
{"geometry": {"type": "Point", "coordinates": [-71.3845948718, 42.8815570654]}, "type": "Feature", "properties": {"collection_times": [{"days": "Mon-Sat", "time": "10:00am"}, {"days": "Sun", "time": "Closed"}], "id": "0305300010", "name": "USPS COLLECTION BOX - BLUE BOX", "address": {"city": "LONDONDERRY", "state": "NH", "street": "72 SHASTA DR", "postcode": "03053"}}},
{"geometry": {"type": "Point", "coordinates": [-71.4138193709, 42.9122264881]}, "type": "Feature", "properties": {"collection_times": [{"days": "Mon-Fri", "time": "4:15pm"}, {"days": "Sat", "time": "10:00am"}, {"days": "Sun", "time": "Closed"}], "id": "0305300011", "name": "USPS COLLECTION BOX - BLUE BOX", "address": {"city": "LONDONDERRY", "state": "NH", "street": "8 DELTA DR", "postcode": "03053"}}},
{"geometry": {"type": "Point", "coordinates": [-71.3769359978, 42.8704436809]}, "type": "Feature", "properties": {"collection_times": [{"days": "Mon-Fri", "time": "5:15pm"}, {"days": "Sat", "time": "3:45pm"}, {"days": "Sun", "time": "Closed"}], "id": "0305300014", "name": "USPS COLLECTION BOX - EXPRESS", "address": {"city": "LONDONDERRY", "state": "NH", "street": "86 NASHUA RD", "postcode": "03053"}}},
{"geometry": {"type": "Point", "coordinates": [-71.3790723655, 42.9176936755]}, "type": "Feature", "properties": {"collection_times": [{"days": "Mon-Sat", "time": "10:00am"}, {"days": "Sun", "time": "Closed"}], "id": "0305300015", "name": "USPS COLLECTION BOX - BLUE BOX", "address": {"city": "LONDONDERRY", "state": "NH", "street": "4 SYMMES DR", "postcode": "03053"}}},
{"geometry": {"type": "Point", "coordinates": [-71.3769359978, 42.8704436809]}, "type": "Feature", "properties": {"collection_times": [{"days": "Mon-Fri", "time": "5:15pm"}, {"days": "Sat", "time": "3:45pm"}, {"days": "Sun", "time": "Closed"}], "id": "0305300017", "name": "USPS COLLECTION BOX - PO LOBBY", "address": {"city": "LONDONDERRY", "state": "NH", "street": "86 NASHUA RD", "postcode": "03053"}}},
{"geometry": {"type": "Point", "coordinates": [-71.3926016039, 42.8360591313]}, "type": "Feature", "properties": {"collection_times": [{"days": "Mon-Fri", "time": "4:00pm"}, {"days": "Sat", "time": "10:00am"}, {"days": "Sun", "time": "Closed"}], "id": "0305300019", "name": "USPS COLLECTION BOX - BLUE BOX", "address": {"city": "LONDONDERRY", "state": "NH", "street": "12 PARMENTER RD", "postcode": "03053"}}},
{"geometry": {"type": "Point", "coordinates": [-71.3508043425, 42.8660575869]}, "type": "Feature", "properties": {"collection_times": [{"days": "Mon-Fri", "time": "4:00pm"}, {"days": "Sat", "time": "10:00am"}, {"days": "Sun", "time": "Closed"}], "id": "0305300020", "name": "USPS COLLECTION BOX - BLUE BOX", "address": {"city": "LONDONDERRY", "state": "NH", "street": "75 GILCREAST RD", "postcode": "03053"}}},
{"geometry": {"type": "Point", "coordinates": [-71.3769359978, 42.8704436809]}, "type": "Feature", "properties": {"collection_times": [{"days": "Mon-Fri", "time": "5:15pm"}, {"days": "Sat", "time": "3:45pm"}, {"days": "Sun", "time": "Closed"}], "id": "0305300021", "name": "USPS COLLECTION BOX - APC", "address": {"city": "LONDONDERRY", "state": "NH", "street": "86 NASHUA RD", "postcode": "03053"}}},
{"geometry": {"type": "Point", "coordinates": [-71.495088325, 42.8668348654]}, "type": "Feature", "properties": {"collection_times": [{"days": "Mon-Fri", "time": "1:00pm"}, {"days": "Sat-Sun", "time": "Closed"}], "id": "0305400001", "name": "USPS COLLECTION BOX - BLUE BOX", "address": {"city": "MERRIMACK", "state": "NH", "street": "10 BABOOSIC LAKE RD", "postcode": "03054"}}},
{"geometry": {"type": "Point", "coordinates": [-71.4901751753, 42.87286059]}, "type": "Feature", "properties": {"collection_times": [{"days": "Mon-Fri", "time": "5:30pm"}, {"days": "Sat", "time": "3:00pm"}, {"days": "Sun", "time": "Closed"}], "id": "0305400002", "name": "USPS COLLECTION BOX - BLUE BOX", "address": {"city": "MERRIMACK", "state": "NH", "street": "510 DANIEL WEBSTER HWY", "postcode": "03054"}}},
{"geometry": {"type": "Point", "coordinates": [-71.4901751753, 42.87286059]}, "type": "Feature", "properties": {"collection_times": [{"days": "Mon-Fri", "time": "5:30pm"}, {"days": "Sat", "time": "3:00pm"}, {"days": "Sun", "time": "Closed"}], "id": "0305400003", "name": "USPS COLLECTION BOX - BLUE BOX", "address": {"city": "MERRIMACK", "state": "NH", "street": "510 DANIEL WEBSTER HWY", "postcode": "03054"}}},
{"geometry": {"type": "Point", "coordinates": [-71.4901751753, 42.87286059]}, "type": "Feature", "properties": {"collection_times": [{"days": "Mon-Fri", "time": "5:30pm"}, {"days": "Sat", "time": "3:00pm"}, {"days": "Sun", "time": "Closed"}], "id": "0305400004", "name": "USPS COLLECTION BOX - BLUE BOX", "address": {"city": "MERRIMACK", "state": "NH", "street": "510 DANIEL WEBSTER HWY", "postcode": "03054"}}},
{"geometry": {"type": "Point", "coordinates": [-71.4725762948, 42.7979911171]}, "type": "Feature", "properties": {"collection_times": [{"days": "Mon-Fri", "time": "10:30am"}, {"days": "Sat", "time": "9:00am"}, {"days": "Sun", "time": "Closed"}], "id": "0305400008", "name": "USPS COLLECTION BOX - BLUE BOX", "address": {"city": "MERRIMACK", "state": "NH", "street": "30 DANIEL WEBSTER HWY", "postcode": "03054"}}},
{"geometry": {"type": "Point", "coordinates": [-71.4905987221, 42.8725103257]}, "type": "Feature", "properties": {"collection_times": [{"days": "Mon-Sat", "time": "1:00pm"}, {"days": "Sun", "time": "Closed"}], "id": "0305400009", "name": "USPS COLLECTION BOX - BLUE BOX", "address": {"city": "MERRIMACK", "state": "NH", "street": "356 DANIEL WEBSTER HWY", "postcode": "03054"}}},
{"geometry": {"type": "Point", "coordinates": [-71.458042461, 42.9004897796]}, "type": "Feature", "properties": {"collection_times": [{"days": "Mon-Fri", "time": "10:00am"}, {"days": "Sat", "time": "9:00am"}, {"days": "Sun", "time": "Closed"}], "id": "0305400010", "name": "USPS COLLECTION BOX - BLUE BOX", "address": {"city": "MERRIMACK", "state": "NH", "street": "85 MIDDLESEX RD", "postcode": "03054"}}},
{"geometry": {"type": "Point", "coordinates": [-71.5442285168, 42.8045847497]}, "type": "Feature", "properties": {"collection_times": [{"days": "Mon-Fri", "time": "11:00am"}, {"days": "Sat", "time": "10:30am"}, {"days": "Sun", "time": "Closed"}], "id": "0305400011", "name": "USPS COLLECTION BOX - BLUE BOX", "address": {"city": "MERRIMACK", "state": "NH", "street": "707 MILFORD RD", "postcode": "03054"}}},
{"geometry": {"type": "Point", "coordinates": [-71.4864039022, 42.8738507267]}, "type": "Feature", "properties": {"collection_times": [{"days": "Mon-Sat", "time": "8:30am"}, {"days": "Sun", "time": "Closed"}], "id": "0305400013", "name": "USPS COLLECTION BOX - BLUE BOX", "address": {"city": "MERRIMACK", "state": "NH", "street": "70 COVENTRY CT", "postcode": "03054"}}},
{"geometry": {"type": "Point", "coordinates": [-71.4905987221, 42.8725103257]}, "type": "Feature", "properties": {"collection_times": [{"days": "Mon-Fri", "time": "10:00am"}, {"days": "Sat", "time": "9:30am"}, {"days": "Sun", "time": "Closed"}], "id": "0305400014", "name": "USPS COLLECTION BOX - BLUE BOX", "address": {"city": "MERRIMACK", "state": "NH", "street": "416 DANIEL WEBSTER HWY", "postcode": "03054"}}},
{"geometry": {"type": "Point", "coordinates": [-71.4901751753, 42.87286059]}, "type": "Feature", "properties": {"collection_times": [{"days": "Mon-Fri", "time": "5:30pm"}, {"days": "Sat", "time": "3:30pm"}, {"days": "Sun", "time": "Closed"}], "id": "0305400017", "name": "USPS COLLECTION BOX - PO LOBBY", "address": {"city": "MERRIMACK", "state": "NH", "street": "510 DANIEL WEBSTER HWY", "postcode": "03054"}}},
{"geometry": {"type": "Point", "coordinates": [-71.4966731689, 42.8399577694]}, "type": "Feature", "properties": {"collection_times": [{"days": "Mon-Sat", "time": "1:00pm"}, {"days": "Sun", "time": "Closed"}], "id": "0305400018", "name": "USPS COLLECTION BOX - BLUE BOX", "address": {"city": "MERRIMACK", "state": "NH", "street": "3 AMHERST RD", "postcode": "03054"}}},
{"geometry": {"type": "Point", "coordinates": [-71.4857994101, 42.8139007322]}, "type": "Feature", "properties": {"collection_times": [{"days": "Mon-Fri", "time": "10:00am"}, {"days": "Sat", "time": "9:00am"}, {"days": "Sun", "time": "Closed"}], "id": "0305400019", "name": "USPS COLLECTION BOX - BLUE BOX", "address": {"city": "MERRIMACK", "state": "NH", "street": "140 DANIEL WEBSTER HWY", "postcode": "03054"}}},
{"geometry": {"type": "Point", "coordinates": [-71.4905987221, 42.8725103257]}, "type": "Feature", "properties": {"collection_times": [{"days": "Mon-Fri", "time": "9:30am"}, {"days": "Sat", "time": "8:30am"}, {"days": "Sun", "time": "Closed"}], "id": "0305400020", "name": "USPS COLLECTION BOX - BLUE BOX", "address": {"city": "MERRIMACK", "state": "NH", "street": "601 DANIEL WEBSTER HWY", "postcode": "03054"}}},
{"geometry": {"type": "Point", "coordinates": [-71.4901751753, 42.87286059]}, "type": "Feature", "properties": {"collection_times": [{"days": "Mon-Fri", "time": "5:00pm"}, {"days": "Sat", "time": "3:00pm"}, {"days": "Sun", "time": "Closed"}], "id": "0305400021", "name": "USPS COLLECTION BOX - APC", "address": {"city": "MERRIMACK", "state": "NH", "street": "510 DANIEL WEBSTER HWY", "postcode": "03054"}}},
{"geometry": {"type": "Point", "coordinates": [-71.6654672177, 42.8375078613]}, "type": "Feature", "properties": {"collection_times": [{"days": "Mon-Fri", "time": "3:30pm"}, {"days": "Sat", "time": "2:30pm"}, {"days": "Sun", "time": "Closed"}], "id": "0305500005", "name": "USPS COLLECTION BOX - BLUE BOX", "address": {"city": "MILFORD", "state": "NH", "street": "183 ELM ST", "postcode": "03055"}}},
{"geometry": {"type": "Point", "coordinates": [-71.6567760766, 42.8289401879]}, "type": "Feature", "properties": {"collection_times": [{"days": "Mon-Fri", "time": "5:00pm"}, {"days": "Sat", "time": "2:30pm"}, {"days": "Sun", "time": "Closed"}], "id": "0305500006", "name": "USPS COLLECTION BOX - BLUE BOX", "address": {"city": "MILFORD", "state": "NH", "street": "586 NASHUA ST", "postcode": "03055"}}},
{"geometry": {"type": "Point", "coordinates": [-71.649807207, 42.8372523422]}, "type": "Feature", "properties": {"collection_times": [{"days": "Mon-Fri", "time": "5:15pm"}, {"days": "Sat", "time": "2:30pm"}, {"days": "Sun", "time": "Closed"}], "id": "0305500007", "name": "USPS COLLECTION BOX - BLUE BOX", "address": {"city": "MILFORD", "state": "NH", "street": "12 MONT VERNON ST", "postcode": "03055"}}},
{"geometry": {"type": "Point", "coordinates": [-71.649807207, 42.8372523422]}, "type": "Feature", "properties": {"collection_times": [{"days": "Mon-Fri", "time": "5:15pm"}, {"days": "Sat", "time": "2:30pm"}, {"days": "Sun", "time": "Closed"}], "id": "0305500008", "name": "USPS COLLECTION BOX - BLUE BOX", "address": {"city": "MILFORD", "state": "NH", "street": "12 MONT VERNON ST", "postcode": "03055"}}},
{"geometry": {"type": "Point", "coordinates": [-71.649807207, 42.8372523422]}, "type": "Feature", "properties": {"collection_times": [{"days": "Mon-Fri", "time": "5:30pm"}, {"days": "Sat", "time": "2:30pm"}, {"days": "Sun", "time": "Closed"}], "id": "0305500009", "name": "USPS COLLECTION BOX - PO LOBBY", "address": {"city": "MILFORD", "state": "NH", "street": "12 MONT VERNON ST", "postcode": "03055"}}},
{"geometry": {"type": "Point", "coordinates": [-71.629223721, 42.8245970472]}, "type": "Feature", "properties": {"collection_times": [{"days": "Mon-Sat", "time": "9:00am"}, {"days": "Sun", "time": "Closed"}], "id": "0305500011", "name": "USPS COLLECTION BOX - BLUE BOX", "address": {"city": "MILFORD", "state": "NH", "street": "504 NASHUA ST", "postcode": "03055"}}},
{"geometry": {"type": "Point", "coordinates": [-71.6492393867, 42.8356352373]}, "type": "Feature", "properties": {"collection_times": [{"days": "Mon-Fri", "time": "5:00pm"}, {"days": "Sat", "time": "2:30pm"}, {"days": "Sun", "time": "Closed"}], "id": "0305500013", "name": "USPS COLLECTION BOX - BLUE BOX", "address": {"city": "MILFORD", "state": "NH", "street": "1 UNION SQ", "postcode": "03055"}}},
{"geometry": {"type": "Point", "coordinates": [-71.6530508804, 42.8293998606]}, "type": "Feature", "properties": {"collection_times": [{"days": "Mon-Fri", "time": "4:30pm"}, {"days": "Sat", "time": "2:30pm"}, {"days": "Sun", "time": "Closed"}], "id": "0305500016", "name": "USPS COLLECTION BOX - BLUE BOX", "address": {"city": "MILFORD", "state": "NH", "street": "83 UNION ST", "postcode": "03055"}}},
{"geometry": {"type": "Point", "coordinates": [-71.6567760766, 42.8289401879]}, "type": "Feature", "properties": {"collection_times": [{"days": "Mon-Sat", "time": "11:00am"}, {"days": "Sun", "time": "Closed"}], "id": "0305500017", "name": "USPS COLLECTION BOX - BLUE BOX", "address": {"city": "MILFORD", "state": "NH", "street": "93 WEST ST", "postcode": "03055"}}},
{"geometry": {"type": "Point", "coordinates": [-71.7047864078, 42.8410318961]}, "type": "Feature", "properties": {"collection_times": [{"days": "Mon-Fri", "time": "3:30pm"}, {"days": "Sat", "time": "2:30pm"}, {"days": "Sun", "time": "Closed"}], "id": "0305500018", "name": "USPS COLLECTION BOX - BLUE BOX", "address": {"city": "MILFORD", "state": "NH", "street": "28 JONES RD", "postcode": "03055"}}},
{"geometry": {"type": "Point", "coordinates": [-71.639282421, 42.8387996525]}, "type": "Feature", "properties": {"collection_times": [{"days": "Mon-Sat", "time": "11:00am"}, {"days": "Sun", "time": "Closed"}], "id": "0305500019", "name": "USPS COLLECTION BOX - BLUE BOX", "address": {"city": "MILFORD", "state": "NH", "street": "14 MERRIMACK ST", "postcode": "03055"}}},
{"geometry": {"type": "Point", "coordinates": [-71.6432950179, 42.8328943214]}, "type": "Feature", "properties": {"collection_times": [{"days": "Mon-Fri", "time": "4:45pm"}, {"days": "Sat", "time": "2:30pm"}, {"days": "Sun", "time": "Closed"}], "id": "0305500020", "name": "USPS COLLECTION BOX - BLUE BOX", "address": {"city": "MILFORD", "state": "NH", "street": "321 NASHUA ST", "postcode": "03055"}}},
{"geometry": {"type": "Point", "coordinates": [-71.6567760766, 42.8289401879]}, "type": "Feature", "properties": {"collection_times": [{"days": "Mon-Sat", "time": "10:00am"}, {"days": "Sun", "time": "Closed"}], "id": "0305500022", "name": "USPS COLLECTION BOX - BLUE BOX", "address": {"city": "MILFORD", "state": "NH", "street": "26 MELENDY RD", "postcode": "03055"}}},
{"geometry": {"type": "Point", "coordinates": [-71.6260620995, 42.823105048]}, "type": "Feature", "properties": {"collection_times": [{"days": "Mon-Fri", "time": "5:00pm"}, {"days": "Sat", "time": "2:30pm"}, {"days": "Sun", "time": "Closed"}], "id": "0305500024", "name": "USPS COLLECTION BOX - BLUE BOX", "address": {"city": "MILFORD", "state": "NH", "street": "14 CAPRON RD", "postcode": "03055"}}},
{"geometry": {"type": "Point", "coordinates": [-71.6379811662, 42.8284877992]}, "type": "Feature", "properties": {"collection_times": [{"days": "Mon-Fri", "time": "4:45pm"}, {"days": "Sat", "time": "2:30pm"}, {"days": "Sun", "time": "Closed"}], "id": "0305500025", "name": "USPS COLLECTION BOX - BLUE BOX", "address": {"city": "MILFORD", "state": "NH", "street": "24 POWERS ST", "postcode": "03055"}}},
{"geometry": {"type": "Point", "coordinates": [-71.6733385281, 42.8957395505]}, "type": "Feature", "properties": {"collection_times": [{"days": "Mon-Fri", "time": "4:45pm"}, {"days": "Sat", "time": "11:45am"}, {"days": "Sun", "time": "Closed"}], "id": "0305700001", "name": "USPS COLLECTION BOX - BLUE BOX", "address": {"city": "MONT VERNON", "state": "NH", "street": "4 GRAND HILL RD", "postcode": "03057"}}},
{"geometry": {"type": "Point", "coordinates": [-71.6733385281, 42.8957395505]}, "type": "Feature", "properties": {"collection_times": [{"days": "Mon-Fri", "time": "5:00pm"}, {"days": "Sat", "time": "12:00pm"}, {"days": "Sun", "time": "Closed"}], "id": "0305700002", "name": "USPS COLLECTION BOX - PO LOBBY", "address": {"city": "MONT VERNON", "state": "NH", "street": "4 GRAND HILL RD", "postcode": "03057"}}},
{"geometry": {"type": "Point", "coordinates": [-71.4609379892, 42.7437433204]}, "type": "Feature", "properties": {"collection_times": [{"days": "Mon-Sat", "time": "11:00am"}, {"days": "Sun", "time": "Closed"}], "id": "0306000001", "name": "USPS COLLECTION BOX - BLUE BOX", "address": {"city": "NASHUA", "state": "NH", "street": "89 ALLDS ST", "postcode": "03060"}}},
{"geometry": {"type": "Point", "coordinates": [-71.4609379892, 42.7437433204]}, "type": "Feature", "properties": {"collection_times": [{"days": "Mon-Fri", "time": "5:00pm"}, {"days": "Sat", "time": "4:00pm"}, {"days": "Sun", "time": "Closed"}], "id": "0306000004", "name": "USPS COLLECTION BOX - BLUE BOX", "address": {"city": "NASHUA", "state": "NH", "street": "219 MAIN ST", "postcode": "03060"}}},
{"geometry": {"type": "Point", "coordinates": [-71.4511868816, 42.7516062915]}, "type": "Feature", "properties": {"collection_times": [{"days": "Mon-Sat", "time": "1:30pm"}, {"days": "Sun", "time": "Closed"}], "id": "0306000006", "name": "USPS COLLECTION BOX - BLUE BOX", "address": {"city": "NASHUA", "state": "NH", "street": "48 BURKE ST", "postcode": "03060"}}},
{"geometry": {"type": "Point", "coordinates": [-71.4665500174, 42.761315904]}, "type": "Feature", "properties": {"collection_times": [{"days": "Mon-Fri", "time": "5:00pm"}, {"days": "Sat", "time": "4:00pm"}, {"days": "Sun", "time": "Closed"}], "id": "0306000008", "name": "USPS COLLECTION BOX - BLUE BOX", "address": {"city": "NASHUA", "state": "NH", "street": "23 FACTORY ST", "postcode": "03060"}}},
{"geometry": {"type": "Point", "coordinates": [-71.460937989, 42.7437432742]}, "type": "Feature", "properties": {"collection_times": [{"days": "Mon-Fri", "time": "5:00pm"}, {"days": "Sat", "time": "4:00pm"}, {"days": "Sun", "time": "Closed"}], "id": "0306000011", "name": "USPS COLLECTION BOX - EXPRESS", "address": {"city": "NASHUA", "state": "NH", "street": "213 DANIEL WEBSTER HWY", "postcode": "03060"}}},
{"geometry": {"type": "Point", "coordinates": [-71.464494504, 42.7589096583]}, "type": "Feature", "properties": {"collection_times": [{"days": "Mon-Fri", "time": "5:00pm"}, {"days": "Sat", "time": "4:00pm"}, {"days": "Sun", "time": "Closed"}], "id": "0306000012", "name": "USPS COLLECTION BOX - BLUE BOX", "address": {"city": "NASHUA", "state": "NH", "street": "213 DANIEL WEBSTER HWY", "postcode": "03060"}}},
{"geometry": {"type": "Point", "coordinates": [-71.4626892327, 42.7549112709]}, "type": "Feature", "properties": {"collection_times": [{"days": "Mon-Fri", "time": "5:00pm"}, {"days": "Sat", "time": "4:00pm"}, {"days": "Sun", "time": "Closed"}], "id": "0306000013", "name": "USPS COLLECTION BOX - BLUE BOX", "address": {"city": "NASHUA", "state": "NH", "street": "275 DANIEL WEBSTER HWY", "postcode": "03060"}}},
{"geometry": {"type": "Point", "coordinates": [-71.4587622319, 42.7409334595]}, "type": "Feature", "properties": {"collection_times": [{"days": "Mon-Fri", "time": "5:00pm"}, {"days": "Sat", "time": "4:00pm"}, {"days": "Sun", "time": "Closed"}], "id": "0306000015", "name": "USPS COLLECTION BOX - BLUE BOX", "address": {"city": "NASHUA", "state": "NH", "street": "1 INDIAN HEAD PLZ", "postcode": "03060"}}},
{"geometry": {"type": "Point", "coordinates": [-71.460937989, 42.7437432742]}, "type": "Feature", "properties": {"collection_times": [{"days": "Mon-Fri", "time": "5:00pm"}, {"days": "Sat", "time": "4:00pm"}, {"days": "Sun", "time": "Closed"}], "id": "0306000016", "name": "USPS COLLECTION BOX - EXPRESS", "address": {"city": "NASHUA", "state": "NH", "street": "1 INDIAN HEAD PLZ", "postcode": "03060"}}},
{"geometry": {"type": "Point", "coordinates": [-71.4814419351, 42.7498098958]}, "type": "Feature", "properties": {"collection_times": [{"days": "Mon-Fri", "time": "5:00pm"}, {"days": "Sat", "time": "4:00pm"}, {"days": "Sun", "time": "Closed"}], "id": "0306000019", "name": "USPS COLLECTION BOX - BLUE BOX", "address": {"city": "NASHUA", "state": "NH", "street": "172 KINSLEY ST", "postcode": "03060"}}},
{"geometry": {"type": "Point", "coordinates": [-71.4609379892, 42.7437433204]}, "type": "Feature", "properties": {"collection_times": [{"days": "Mon-Sat", "time": "2:00pm"}, {"days": "Sun", "time": "Closed"}], "id": "0306000021", "name": "USPS COLLECTION BOX - BLUE BOX", "address": {"city": "NASHUA", "state": "NH", "street": "295 LAKE ST", "postcode": "03060"}}},
{"geometry": {"type": "Point", "coordinates": [-71.4609379892, 42.7437433204]}, "type": "Feature", "properties": {"collection_times": [{"days": "Mon-Fri", "time": "5:00pm"}, {"days": "Sat", "time": "4:00pm"}, {"days": "Sun", "time": "Closed"}], "id": "0306000022", "name": "USPS COLLECTION BOX - BLUE BOX", "address": {"city": "NASHUA", "state": "NH", "street": "194 MAIN ST", "postcode": "03060"}}},
{"geometry": {"type": "Point", "coordinates": [-71.4609379892, 42.7437433204]}, "type": "Feature", "properties": {"collection_times": [{"days": "Mon-Fri", "time": "5:00pm"}, {"days": "Sat", "time": "4:00pm"}, {"days": "Sun", "time": "Closed"}], "id": "0306000023", "name": "USPS COLLECTION BOX - BLUE BOX", "address": {"city": "NASHUA", "state": "NH", "street": "60 MAIN ST", "postcode": "03060"}}},
{"geometry": {"type": "Point", "coordinates": [-71.4609379892, 42.7437433204]}, "type": "Feature", "properties": {"collection_times": [{"days": "Mon-Fri", "time": "5:00pm"}, {"days": "Sat", "time": "4:00pm"}, {"days": "Sun", "time": "Closed"}], "id": "0306000026", "name": "USPS COLLECTION BOX - BLUE BOX", "address": {"city": "NASHUA", "state": "NH", "street": "191 MAIN ST", "postcode": "03060"}}},
{"geometry": {"type": "Point", "coordinates": [-71.4609379892, 42.7437433204]}, "type": "Feature", "properties": {"collection_times": [{"days": "Mon-Fri", "time": "5:00pm"}, {"days": "Sat", "time": "4:00pm"}, {"days": "Sun", "time": "Closed"}], "id": "0306000027", "name": "USPS COLLECTION BOX - EXPRESS", "address": {"city": "NASHUA", "state": "NH", "street": "191 MAIN ST", "postcode": "03060"}}},
{"geometry": {"type": "Point", "coordinates": [-71.489055272, 42.7467465705]}, "type": "Feature", "properties": {"collection_times": [{"days": "Mon-Fri", "time": "5:00pm"}, {"days": "Sat", "time": "4:00pm"}, {"days": "Sun", "time": "Closed"}], "id": "0306000028", "name": "USPS COLLECTION BOX - BLUE BOX", "address": {"city": "NASHUA", "state": "NH", "street": "157 MAIN DUNSTABLE RD", "postcode": "03060"}}},
{"geometry": {"type": "Point", "coordinates": [-71.460937989, 42.7437432742]}, "type": "Feature", "properties": {"collection_times": [{"days": "Mon-Fri", "time": "5:00pm"}, {"days": "Sat", "time": "4:00pm"}, {"days": "Sun", "time": "Closed"}], "id": "0306000029", "name": "USPS COLLECTION BOX - EXPRESS", "address": {"city": "NASHUA", "state": "NH", "street": "157 MAIN DUNSTABLE RD", "postcode": "03060"}}},
{"geometry": {"type": "Point", "coordinates": [-71.4658363528, 42.7619035363]}, "type": "Feature", "properties": {"collection_times": [{"days": "Mon-Fri", "time": "5:00pm"}, {"days": "Sat", "time": "4:00pm"}, {"days": "Sun", "time": "Closed"}], "id": "0306000030", "name": "USPS COLLECTION BOX - BLUE BOX", "address": {"city": "NASHUA", "state": "NH", "street": "115 MAIN ST", "postcode": "03060"}}},
{"geometry": {"type": "Point", "coordinates": [-71.4609379892, 42.7437433204]}, "type": "Feature", "properties": {"collection_times": [{"days": "Mon-Fri", "time": "5:00pm"}, {"days": "Sat", "time": "4:00pm"}, {"days": "Sun", "time": "Closed"}], "id": "0306000031", "name": "USPS COLLECTION BOX - BLUE BOX", "address": {"city": "NASHUA", "state": "NH", "street": "229 MAIN ST", "postcode": "03060"}}},
{"geometry": {"type": "Point", "coordinates": [-71.46110185, 42.7561486275]}, "type": "Feature", "properties": {"collection_times": [{"days": "Mon-Fri", "time": "5:00pm"}, {"days": "Sat", "time": "4:00pm"}, {"days": "Sun", "time": "Closed"}], "id": "0306000041", "name": "USPS COLLECTION BOX - BLUE BOX", "address": {"city": "NASHUA", "state": "NH", "street": "8 PROSPECT ST", "postcode": "03060"}}},
{"geometry": {"type": "Point", "coordinates": [-71.46110185, 42.7561486275]}, "type": "Feature", "properties": {"collection_times": [{"days": "Mon-Fri", "time": "5:00pm"}, {"days": "Sat", "time": "4:00pm"}, {"days": "Sun", "time": "Closed"}], "id": "0306000042", "name": "USPS COLLECTION BOX - BLUE BOX", "address": {"city": "NASHUA", "state": "NH", "street": "8 PROSPECT ST", "postcode": "03060"}}},
{"geometry": {"type": "Point", "coordinates": [-71.4897843565, 42.7523093066]}, "type": "Feature", "properties": {"collection_times": [{"days": "Mon-Sat", "time": "1:30pm"}, {"days": "Sun", "time": "Closed"}], "id": "0306000044", "name": "USPS COLLECTION BOX - BLUE BOX", "address": {"city": "NASHUA", "state": "NH", "street": "18 SIMON ST", "postcode": "03060"}}},
{"geometry": {"type": "Point", "coordinates": [-71.4609379892, 42.7437433204]}, "type": "Feature", "properties": {"collection_times": [{"days": "Mon-Sat", "time": "3:00pm"}, {"days": "Sun", "time": "Closed"}], "id": "0306000045", "name": "USPS COLLECTION BOX - BLUE BOX", "address": {"city": "NASHUA", "state": "NH", "street": "436 S MAIN ST", "postcode": "03060"}}},
{"geometry": {"type": "Point", "coordinates": [-71.460937989, 42.7437432742]}, "type": "Feature", "properties": {"collection_times": [{"days": "Mon-Fri", "time": "5:00pm"}, {"days": "Sat", "time": "3:45pm"}, {"days": "Sun", "time": "Closed"}], "id": "0306000046", "name": "USPS COLLECTION BOX - EXPRESS", "address": {"city": "NASHUA", "state": "NH", "street": "38 SPRING ST", "postcode": "03060"}}},
{"geometry": {"type": "Point", "coordinates": [-71.4630569952, 42.7598728097]}, "type": "Feature", "properties": {"collection_times": [{"days": "Mon-Fri", "time": "5:00pm"}, {"days": "Sat", "time": "3:45pm"}, {"days": "Sun", "time": "Closed"}], "id": "0306000047", "name": "USPS COLLECTION BOX - BLUE BOX", "address": {"city": "NASHUA", "state": "NH", "street": "38 SPRING ST", "postcode": "03060"}}},
{"geometry": {"type": "Point", "coordinates": [-71.4580621967, 42.7595667904]}, "type": "Feature", "properties": {"collection_times": [{"days": "Mon-Sat", "time": "3:00pm"}, {"days": "Sun", "time": "Closed"}], "id": "0306000051", "name": "USPS COLLECTION BOX - BLUE BOX", "address": {"city": "NASHUA", "state": "NH", "street": "14 SPRUCE ST", "postcode": "03060"}}},
{"geometry": {"type": "Point", "coordinates": [-71.4598170931, 42.7616027024]}, "type": "Feature", "properties": {"collection_times": [{"days": "Mon-Sat", "time": "3:00pm"}, {"days": "Sun", "time": "Closed"}], "id": "0306000052", "name": "USPS COLLECTION BOX - BLUE BOX", "address": {"city": "NASHUA", "state": "NH", "street": "9 E PEARL ST", "postcode": "03060"}}},
{"geometry": {"type": "Point", "coordinates": [-71.4623597502, 42.7617780146]}, "type": "Feature", "properties": {"collection_times": [{"days": "Mon-Sat", "time": "3:00pm"}, {"days": "Sun", "time": "Closed"}], "id": "0306000053", "name": "USPS COLLECTION BOX - BLUE BOX", "address": {"city": "NASHUA", "state": "NH", "street": "40 TEMPLE ST", "postcode": "03060"}}},
{"geometry": {"type": "Point", "coordinates": [-71.4609379892, 42.7437433204]}, "type": "Feature", "properties": {"collection_times": [{"days": "Mon-Sat", "time": "2:00pm"}, {"days": "Sun", "time": "Closed"}], "id": "0306000054", "name": "USPS COLLECTION BOX - BLUE BOX", "address": {"city": "NASHUA", "state": "NH", "street": "56 W HOLLIS ST", "postcode": "03060"}}},
{"geometry": {"type": "Point", "coordinates": [-71.4835582311, 42.7518185722]}, "type": "Feature", "properties": {"collection_times": [{"days": "Mon-Sat", "time": "3:00pm"}, {"days": "Sun", "time": "Closed"}], "id": "0306000055", "name": "USPS COLLECTION BOX - BLUE BOX", "address": {"city": "NASHUA", "state": "NH", "street": "217 W HOLLIS ST", "postcode": "03060"}}},
{"geometry": {"type": "Point", "coordinates": [-71.4609379892, 42.7437433204]}, "type": "Feature", "properties": {"collection_times": [{"days": "Mon-Sat", "time": "2:00pm"}, {"days": "Sun", "time": "Closed"}], "id": "0306000056", "name": "USPS COLLECTION BOX - BLUE BOX", "address": {"city": "NASHUA", "state": "NH", "street": "109 W PEARL ST", "postcode": "03060"}}},
{"geometry": {"type": "Point", "coordinates": [-71.4632671043, 42.7565602607]}, "type": "Feature", "properties": {"collection_times": [{"days": "Mon-Fri", "time": "5:00pm"}, {"days": "Sat", "time": "4:00pm"}, {"days": "Sun", "time": "Closed"}], "id": "0306000058", "name": "USPS COLLECTION BOX - BLUE BOX", "address": {"city": "NASHUA", "state": "NH", "street": "254 DANIEL WEBSTER HWY", "postcode": "03060"}}},
{"geometry": {"type": "Point", "coordinates": [-71.4609379892, 42.7437433204]}, "type": "Feature", "properties": {"collection_times": [{"days": "Mon-Sat", "time": "3:00pm"}, {"days": "Sun", "time": "Closed"}], "id": "0306000059", "name": "USPS COLLECTION BOX - BLUE BOX", "address": {"city": "NASHUA", "state": "NH", "street": "56 TYLER ST", "postcode": "03060"}}},
{"geometry": {"type": "Point", "coordinates": [-71.4658109362, 42.7370609677]}, "type": "Feature", "properties": {"collection_times": [{"days": "Mon-Sat", "time": "2:00pm"}, {"days": "Sun", "time": "Closed"}], "id": "0306000062", "name": "USPS COLLECTION BOX - BLUE BOX", "address": {"city": "NASHUA", "state": "NH", "street": "43 E DUNSTABLE RD", "postcode": "03060"}}},
{"geometry": {"type": "Point", "coordinates": [-71.4623442613, 42.7544909005]}, "type": "Feature", "properties": {"collection_times": [{"days": "Mon-Fri", "time": "5:00pm"}, {"days": "Sat", "time": "4:00pm"}, {"days": "Sun", "time": "Closed"}], "id": "0306000064", "name": "USPS COLLECTION BOX - BLUE BOX", "address": {"city": "NASHUA", "state": "NH", "street": "280 MAIN ST", "postcode": "03060"}}},
{"geometry": {"type": "Point", "coordinates": [-71.4692512455, 42.7597463388]}, "type": "Feature", "properties": {"collection_times": [{"days": "Mon-Fri", "time": "5:00pm"}, {"days": "Sat-Sun", "time": "Closed"}], "id": "0306000065", "name": "USPS COLLECTION BOX - BLUE BOX", "address": {"city": "NASHUA", "state": "NH", "street": "1 CHESTNUT ST", "postcode": "03060"}}},
{"geometry": {"type": "Point", "coordinates": [-71.4587622319, 42.7409334595]}, "type": "Feature", "properties": {"collection_times": [{"days": "Mon-Fri", "time": "5:00pm"}, {"days": "Sat", "time": "4:00pm"}, {"days": "Sun", "time": "Closed"}], "id": "0306000067", "name": "USPS COLLECTION BOX - BLUE BOX", "address": {"city": "NASHUA", "state": "NH", "street": "1 INDIAN HEAD PLZ", "postcode": "03060"}}},
{"geometry": {"type": "Point", "coordinates": [-71.4630569952, 42.7598728097]}, "type": "Feature", "properties": {"collection_times": [{"days": "Mon-Fri", "time": "5:00pm"}, {"days": "Sat", "time": "3:45pm"}, {"days": "Sun", "time": "Closed"}], "id": "0306000070", "name": "USPS COLLECTION BOX - PO LOBBY", "address": {"city": "NASHUA", "state": "NH", "street": "38 SPRING ST", "postcode": "03060"}}},
{"geometry": {"type": "Point", "coordinates": [-71.4609379892, 42.7437433204]}, "type": "Feature", "properties": {"collection_times": [{"days": "Mon-Fri", "time": "5:00pm"}, {"days": "Sat", "time": "4:00pm"}, {"days": "Sun", "time": "Closed"}], "id": "0306000074", "name": "USPS COLLECTION BOX - BLUE BOX", "address": {"city": "NASHUA", "state": "NH", "street": "146 MAIN ST", "postcode": "03060"}}},
{"geometry": {"type": "Point", "coordinates": [-71.4632671043, 42.7565602607]}, "type": "Feature", "properties": {"collection_times": [{"days": "Mon-Fri", "time": "5:00pm"}, {"days": "Sat", "time": "12:30pm"}, {"days": "Sun", "time": "Closed"}], "id": "0306000075", "name": "USPS COLLECTION BOX - PO LOBBY", "address": {"city": "NASHUA", "state": "NH", "street": "254 DANIEL WEBSTER HWY", "postcode": "03060"}}},
{"geometry": {"type": "Point", "coordinates": [-71.4630569952, 42.7598728097]}, "type": "Feature", "properties": {"collection_times": [{"days": "Mon-Fri", "time": "5:00pm"}, {"days": "Sat", "time": "4:00pm"}, {"days": "Sun", "time": "Closed"}], "id": "0306000076", "name": "USPS COLLECTION BOX - BLUE BOX", "address": {"city": "NASHUA", "state": "NH", "street": "38 SPRING ST", "postcode": "03060"}}},
{"geometry": {"type": "Point", "coordinates": [-71.4630569952, 42.7598728097]}, "type": "Feature", "properties": {"collection_times": [{"days": "Mon-Fri", "time": "5:00pm"}, {"days": "Sat", "time": "4:00pm"}, {"days": "Sun", "time": "Closed"}], "id": "0306000077", "name": "USPS COLLECTION BOX - BLUE BOX", "address": {"city": "NASHUA", "state": "NH", "street": "38 SPRING ST", "postcode": "03060"}}},
{"geometry": {"type": "Point", "coordinates": [-71.4630569952, 42.7598728097]}, "type": "Feature", "properties": {"collection_times": [{"days": "Mon-Fri", "time": "5:00pm"}, {"days": "Sat", "time": "4:00pm"}, {"days": "Sun", "time": "Closed"}], "id": "0306000078", "name": "USPS COLLECTION BOX - BLUE BOX", "address": {"city": "NASHUA", "state": "NH", "street": "38 SPRING ST", "postcode": "03060"}}},
{"geometry": {"type": "Point", "coordinates": [-71.4630569952, 42.7598728097]}, "type": "Feature", "properties": {"collection_times": [{"days": "Mon-Fri", "time": "5:00pm"}, {"days": "Sat", "time": "3:45pm"}, {"days": "Sun", "time": "Closed"}], "id": "0306000079", "name": "USPS COLLECTION BOX - APC", "address": {"city": "NASHUA", "state": "NH", "street": "38 SPRING ST", "postcode": "03060"}}},
{"geometry": {"type": "Point", "coordinates": [-71.4406856035, 42.7020871136]}, "type": "Feature", "properties": {"collection_times": [{"days": "Mon-Fri", "time": "5:00pm"}, {"days": "Sat", "time": "4:00pm"}, {"days": "Sun", "time": "Closed"}], "id": "0306000080", "name": "USPS COLLECTION BOX - BLUE BOX", "address": {"city": "NASHUA", "state": "NH", "street": "310 DANIEL WEBSTER HWY", "postcode": "03060"}}},
{"geometry": {"type": "Point", "coordinates": [-71.5068401318, 42.7406140656]}, "type": "Feature", "properties": {"collection_times": [{"days": "Mon-Sat", "time": "2:00pm"}, {"days": "Sun", "time": "Closed"}], "id": "0306200001", "name": "USPS COLLECTION BOX - BLUE BOX", "address": {"city": "NASHUA", "state": "NH", "street": "3 DOGWOOD DR", "postcode": "03062"}}},
{"geometry": {"type": "Point", "coordinates": [-71.4871557521, 42.7223702386]}, "type": "Feature", "properties": {"collection_times": [{"days": "Mon-Fri", "time": "5:00pm"}, {"days": "Sat", "time": "4:00pm"}, {"days": "Sun", "time": "Closed"}], "id": "0306200002", "name": "USPS COLLECTION BOX - BLUE BOX", "address": {"city": "NASHUA", "state": "NH", "street": "264 MAIN DUNSTABLE RD", "postcode": "03062"}}},
{"geometry": {"type": "Point", "coordinates": [-71.4871557522, 42.7223701921]}, "type": "Feature", "properties": {"collection_times": [{"days": "Mon-Fri", "time": "5:00pm"}, {"days": "Sat", "time": "4:00pm"}, {"days": "Sun", "time": "Closed"}], "id": "0306200003", "name": "USPS COLLECTION BOX - EXPRESS", "address": {"city": "NASHUA", "state": "NH", "street": "7 HARRIS RD", "postcode": "03062"}}},
{"geometry": {"type": "Point", "coordinates": [-71.4713848015, 42.73167253]}, "type": "Feature", "properties": {"collection_times": [{"days": "Mon-Fri", "time": "5:00pm"}, {"days": "Sat", "time": "4:00pm"}, {"days": "Sun", "time": "Closed"}], "id": "0306200004", "name": "USPS COLLECTION BOX - BLUE BOX", "address": {"city": "NASHUA", "state": "NH", "street": "7 HARRIS RD", "postcode": "03062"}}},
{"geometry": {"type": "Point", "coordinates": [-71.4559624342, 42.7083462373]}, "type": "Feature", "properties": {"collection_times": [{"days": "Mon-Fri", "time": "5:00pm"}, {"days": "Sat", "time": "4:00pm"}, {"days": "Sun", "time": "Closed"}], "id": "0306200006", "name": "USPS COLLECTION BOX - BLUE BOX", "address": {"city": "NASHUA", "state": "NH", "street": "10 TARA BLVD", "postcode": "03062"}}},
{"geometry": {"type": "Point", "coordinates": [-71.4871557522, 42.7223701921]}, "type": "Feature", "properties": {"collection_times": [{"days": "Mon-Fri", "time": "5:00pm"}, {"days": "Sat", "time": "4:00pm"}, {"days": "Sun", "time": "Closed"}], "id": "0306200007", "name": "USPS COLLECTION BOX - EXPRESS", "address": {"city": "NASHUA", "state": "NH", "street": "10 TARA BLVD", "postcode": "03062"}}},
{"geometry": {"type": "Point", "coordinates": [-71.4984104936, 42.7468258213]}, "type": "Feature", "properties": {"collection_times": [{"days": "Mon-Fri", "time": "5:00pm"}, {"days": "Sat", "time": "4:00pm"}, {"days": "Sun", "time": "Closed"}], "id": "0306200008", "name": "USPS COLLECTION BOX - BLUE BOX", "address": {"city": "NASHUA", "state": "NH", "street": "505 W HOLLIS ST", "postcode": "03062"}}},
{"geometry": {"type": "Point", "coordinates": [-71.4675500423, 42.7093420962]}, "type": "Feature", "properties": {"collection_times": [{"days": "Mon-Sat", "time": "10:30am"}, {"days": "Sun", "time": "Closed"}], "id": "0306200010", "name": "USPS COLLECTION BOX - BLUE BOX", "address": {"city": "NASHUA", "state": "NH", "street": "2 SKY MEADOW DR", "postcode": "03062"}}},
{"geometry": {"type": "Point", "coordinates": [-71.5065318521, 42.7144622056]}, "type": "Feature", "properties": {"collection_times": [{"days": "Mon-Sat", "time": "9:00am"}, {"days": "Sun", "time": "Closed"}], "id": "0306200011", "name": "USPS COLLECTION BOX - BLUE BOX", "address": {"city": "NASHUA", "state": "NH", "street": "727 MANHATTAN AVE", "postcode": "03062"}}},
{"geometry": {"type": "Point", "coordinates": [-71.498438368, 42.7793946447]}, "type": "Feature", "properties": {"collection_times": [{"days": "Mon-Fri", "time": "5:00pm"}, {"days": "Sat", "time": "4:00pm"}, {"days": "Sun", "time": "Closed"}], "id": "0306300004", "name": "USPS COLLECTION BOX - BLUE BOX", "address": {"city": "NASHUA", "state": "NH", "street": "255 AMHERST ST", "postcode": "03063"}}},
{"geometry": {"type": "Point", "coordinates": [-71.5120091833, 42.7763004467]}, "type": "Feature", "properties": {"collection_times": [{"days": "Mon-Fri", "time": "5:00pm"}, {"days": "Sat", "time": "4:00pm"}, {"days": "Sun", "time": "Closed"}], "id": "0306300006", "name": "USPS COLLECTION BOX - BLUE BOX", "address": {"city": "NASHUA", "state": "NH", "street": "379 AMHERST ST", "postcode": "03063"}}},
{"geometry": {"type": "Point", "coordinates": [-71.5120091833, 42.7763004467]}, "type": "Feature", "properties": {"collection_times": [{"days": "Mon-Fri", "time": "5:00pm"}, {"days": "Sat", "time": "4:00pm"}, {"days": "Sun", "time": "Closed"}], "id": "0306300007", "name": "USPS COLLECTION BOX - BLUE BOX", "address": {"city": "NASHUA", "state": "NH", "street": "495 AMHERST ST", "postcode": "03063"}}},
{"geometry": {"type": "Point", "coordinates": [-71.5021583048, 42.7765083234]}, "type": "Feature", "properties": {"collection_times": [{"days": "Mon-Fri", "time": "5:00pm"}, {"days": "Sat", "time": "4:00pm"}, {"days": "Sun", "time": "Closed"}], "id": "0306300009", "name": "USPS COLLECTION BOX - BLUE BOX", "address": {"city": "NASHUA", "state": "NH", "street": "1 BUD WAY", "postcode": "03063"}}},
{"geometry": {"type": "Point", "coordinates": [-71.5124263042, 42.7767305559]}, "type": "Feature", "properties": {"collection_times": [{"days": "Mon-Fri", "time": "5:00pm"}, {"days": "Sat", "time": "4:00pm"}, {"days": "Sun", "time": "Closed"}], "id": "0306300010", "name": "USPS COLLECTION BOX - EXPRESS", "address": {"city": "NASHUA", "state": "NH", "street": "1 BUD WAY", "postcode": "03063"}}},
{"geometry": {"type": "Point", "coordinates": [-71.5418659406, 42.8022624312]}, "type": "Feature", "properties": {"collection_times": [{"days": "Mon-Sat", "time": "2:00pm"}, {"days": "Sun", "time": "Closed"}], "id": "0306300015", "name": "USPS COLLECTION BOX - BLUE BOX", "address": {"city": "NASHUA", "state": "NH", "street": "32 NORTHWEST BLVD", "postcode": "03063"}}},
{"geometry": {"type": "Point", "coordinates": [-71.5124263042, 42.7767305559]}, "type": "Feature", "properties": {"collection_times": [{"days": "Mon-Fri", "time": "5:00pm"}, {"days": "Sat", "time": "4:00pm"}, {"days": "Sun", "time": "Closed"}], "id": "0306300017", "name": "USPS COLLECTION BOX - EXPRESS", "address": {"city": "NASHUA", "state": "NH", "street": "100 PERIMETER RD", "postcode": "03063"}}},
{"geometry": {"type": "Point", "coordinates": [-71.5120091833, 42.7763004467]}, "type": "Feature", "properties": {"collection_times": [{"days": "Mon-Fri", "time": "5:00pm"}, {"days": "Sat", "time": "4:00pm"}, {"days": "Sun", "time": "Closed"}], "id": "0306300018", "name": "USPS COLLECTION BOX - BLUE BOX", "address": {"city": "NASHUA", "state": "NH", "street": "9 TRAFALGAR SQ", "postcode": "03063"}}},
{"geometry": {"type": "Point", "coordinates": [-71.5120091833, 42.7763004467]}, "type": "Feature", "properties": {"collection_times": [{"days": "Mon-Fri", "time": "5:00pm"}, {"days": "Sat", "time": "4:00pm"}, {"days": "Sun", "time": "Closed"}], "id": "0306300019", "name": "USPS COLLECTION BOX - EXPRESS", "address": {"city": "NASHUA", "state": "NH", "street": "9 TRAFALGAR SQ", "postcode": "03063"}}},
{"geometry": {"type": "Point", "coordinates": [-71.5108493785, 42.7857957025]}, "type": "Feature", "properties": {"collection_times": [{"days": "Mon-Fri", "time": "5:00pm"}, {"days": "Sat", "time": "4:00pm"}, {"days": "Sun", "time": "Closed"}], "id": "0306300021", "name": "USPS COLLECTION BOX - BLUE BOX", "address": {"city": "NASHUA", "state": "NH", "street": "402 AMHERST ST", "postcode": "03063"}}},
{"geometry": {"type": "Point", "coordinates": [-71.5074535672, 42.7868375419]}, "type": "Feature", "properties": {"collection_times": [{"days": "Mon-Fri", "time": "5:00pm"}, {"days": "Sat", "time": "4:00pm"}, {"days": "Sun", "time": "Closed"}], "id": "0306300023", "name": "USPS COLLECTION BOX - BLUE BOX", "address": {"city": "NASHUA", "state": "NH", "street": "20 TRAFALGAR SQ", "postcode": "03063"}}},
{"geometry": {"type": "Point", "coordinates": [-71.5074535672, 42.7868375419]}, "type": "Feature", "properties": {"collection_times": [{"days": "Mon-Fri", "time": "5:00pm"}, {"days": "Sat", "time": "4:00pm"}, {"days": "Sun", "time": "Closed"}], "id": "0306300024", "name": "USPS COLLECTION BOX - BLUE BOX", "address": {"city": "NASHUA", "state": "NH", "street": "20 TRAFALGAR SQ", "postcode": "03063"}}},
{"geometry": {"type": "Point", "coordinates": [-71.5108493785, 42.7857957025]}, "type": "Feature", "properties": {"collection_times": [{"days": "Mon-Fri", "time": "5:00pm"}, {"days": "Sat", "time": "4:00pm"}, {"days": "Sun", "time": "Closed"}], "id": "0306300025", "name": "USPS COLLECTION BOX - BLUE BOX", "address": {"city": "NASHUA", "state": "NH", "street": "402 AMHERST ST", "postcode": "03063"}}},
{"geometry": {"type": "Point", "coordinates": [-71.4975749345, 42.7647181588]}, "type": "Feature", "properties": {"collection_times": [{"days": "Mon-Fri", "time": "5:00pm"}, {"days": "Sat", "time": "4:00pm"}, {"days": "Sun", "time": "Closed"}], "id": "0306300027", "name": "USPS COLLECTION BOX - BLUE BOX", "address": {"city": "NASHUA", "state": "NH", "street": "55 COLISEUM AVE", "postcode": "03063"}}},
{"geometry": {"type": "Point", "coordinates": [-71.5211327306, 42.7810229389]}, "type": "Feature", "properties": {"collection_times": [{"days": "Mon-Fri", "time": "5:00pm"}, {"days": "Sat", "time": "4:00pm"}, {"days": "Sun", "time": "Closed"}], "id": "0306300028", "name": "USPS COLLECTION BOX - BLUE BOX", "address": {"city": "NASHUA", "state": "NH", "street": "100 PERIMETER RD", "postcode": "03063"}}},
{"geometry": {"type": "Point", "coordinates": [-71.5386961195, 42.8009753449]}, "type": "Feature", "properties": {"collection_times": [{"days": "Mon-Sat", "time": "2:00pm"}, {"days": "Sun", "time": "Closed"}], "id": "0306300029", "name": "USPS COLLECTION BOX - BLUE BOX", "address": {"city": "NASHUA", "state": "NH", "street": "10 CELINA AVE", "postcode": "03063"}}},
{"geometry": {"type": "Point", "coordinates": [-71.5120091833, 42.7763004467]}, "type": "Feature", "properties": {"collection_times": [{"days": "Mon-Fri", "time": "5:00pm"}, {"days": "Sat", "time": "4:00pm"}, {"days": "Sun", "time": "Closed"}], "id": "0306300031", "name": "USPS COLLECTION BOX - BLUE BOX", "address": {"city": "NASHUA", "state": "NH", "street": "495 AMHERST ST", "postcode": "03063"}}},
{"geometry": {"type": "Point", "coordinates": [-71.4667302224, 42.7830707229]}, "type": "Feature", "properties": {"collection_times": [{"days": "Mon-Sat", "time": "1:00pm"}, {"days": "Sun", "time": "Closed"}], "id": "0306400000", "name": "USPS COLLECTION BOX - BLUE BOX", "address": {"city": "NASHUA", "state": "NH", "street": "125 CONCORD ST", "postcode": "03064"}}},
{"geometry": {"type": "Point", "coordinates": [-71.4715875972, 42.7732719779]}, "type": "Feature", "properties": {"collection_times": [{"days": "Mon-Sat", "time": "11:00am"}, {"days": "Sun", "time": "Closed"}], "id": "0306400001", "name": "USPS COLLECTION BOX - BLUE BOX", "address": {"city": "NASHUA", "state": "NH", "street": "9 MAIN ST", "postcode": "03064"}}},
{"geometry": {"type": "Point", "coordinates": [-71.4719994114, 42.7729377786]}, "type": "Feature", "properties": {"collection_times": [{"days": "Mon-Sat", "time": "10:00am"}, {"days": "Sun", "time": "Closed"}], "id": "0306400003", "name": "USPS COLLECTION BOX - BLUE BOX", "address": {"city": "NASHUA", "state": "NH", "street": "54 MANCHESTER ST", "postcode": "03064"}}},
{"geometry": {"type": "Point", "coordinates": [-71.4660348982, 42.7666187088]}, "type": "Feature", "properties": {"collection_times": [{"days": "Mon-Sat", "time": "10:00am"}, {"days": "Sun", "time": "Closed"}], "id": "0306400004", "name": "USPS COLLECTION BOX - BLUE BOX", "address": {"city": "NASHUA", "state": "NH", "street": "45 ORANGE ST", "postcode": "03064"}}},
{"geometry": {"type": "Point", "coordinates": [-71.4819872258, 42.7697984206]}, "type": "Feature", "properties": {"collection_times": [{"days": "Mon-Fri", "time": "3:00pm"}, {"days": "Sat", "time": "2:00pm"}, {"days": "Sun", "time": "Closed"}], "id": "0306400005", "name": "USPS COLLECTION BOX - BLUE BOX", "address": {"city": "NASHUA", "state": "NH", "street": "20 BROAD ST", "postcode": "03064"}}},
{"geometry": {"type": "Point", "coordinates": [-71.6968392895, 42.9708675573]}, "type": "Feature", "properties": {"collection_times": [{"days": "Mon-Fri", "time": "5:00pm"}, {"days": "Sat", "time": "11:30am"}, {"days": "Sun", "time": "Closed"}], "id": "0307000001", "name": "USPS COLLECTION BOX - BLUE BOX", "address": {"city": "NEW BOSTON", "state": "NH", "street": "71 MONT VERNON RD", "postcode": "03070"}}},
{"geometry": {"type": "Point", "coordinates": [-71.6968392895, 42.9708675573]}, "type": "Feature", "properties": {"collection_times": [{"days": "Mon-Fri", "time": "5:00pm"}, {"days": "Sat", "time": "11:30am"}, {"days": "Sun", "time": "Closed"}], "id": "0307000002", "name": "USPS COLLECTION BOX - PO LOBBY", "address": {"city": "NEW BOSTON", "state": "NH", "street": "71 MONT VERNON RD", "postcode": "03070"}}},
{"geometry": {"type": "Point", "coordinates": [-71.6968392895, 42.9708675573]}, "type": "Feature", "properties": {"collection_times": [{"days": "Mon-Fri", "time": "5:00pm"}, {"days": "Sat", "time": "11:30am"}, {"days": "Sun", "time": "Closed"}], "id": "0307000003", "name": "USPS COLLECTION BOX - BLUE BOX", "address": {"city": "NEW BOSTON", "state": "NH", "street": "71 MONT VERNON RD", "postcode": "03070"}}},
{"geometry": {"type": "Point", "coordinates": [-71.6919658185, 42.9768584612]}, "type": "Feature", "properties": {"collection_times": [{"days": "Mon-Sat", "time": "12:30pm"}, {"days": "Sun", "time": "Closed"}], "id": "0307000004", "name": "USPS COLLECTION BOX - BLUE BOX", "address": {"city": "NEW BOSTON", "state": "NH", "street": "7 CENTRAL SQ", "postcode": "03070"}}},
{"geometry": {"type": "Point", "coordinates": [-71.8720267844, 42.7604207435]}, "type": "Feature", "properties": {"collection_times": [{"days": "Mon-Fri", "time": "4:30pm"}, {"days": "Sat", "time": "11:30am"}, {"days": "Sun", "time": "Closed"}], "id": "0307100001", "name": "USPS COLLECTION BOX - BLUE BOX", "address": {"city": "NEW IPSWICH", "state": "NH", "street": "802 TURNPIKE RD", "postcode": "03071"}}},
{"geometry": {"type": "Point", "coordinates": [-71.8720267844, 42.7604207435]}, "type": "Feature", "properties": {"collection_times": [{"days": "Mon-Fri", "time": "4:30pm"}, {"days": "Sat", "time": "11:30am"}, {"days": "Sun", "time": "Closed"}], "id": "0307100002", "name": "USPS COLLECTION BOX - BLUE BOX", "address": {"city": "NEW IPSWICH", "state": "NH", "street": "802 TURNPIKE RD", "postcode": "03071"}}},
{"geometry": {"type": "Point", "coordinates": [-71.8720267844, 42.7604207435]}, "type": "Feature", "properties": {"collection_times": [{"days": "Mon-Fri", "time": "4:30pm"}, {"days": "Sat", "time": "11:30am"}, {"days": "Sun", "time": "Closed"}], "id": "0307100003", "name": "USPS COLLECTION BOX - PO LOBBY", "address": {"city": "NEW IPSWICH", "state": "NH", "street": "802 TURNPIKE RD", "postcode": "03071"}}},
{"geometry": {"type": "Point", "coordinates": [-71.8720267844, 42.7604207435]}, "type": "Feature", "properties": {"collection_times": [{"days": "Mon-Fri", "time": "4:30pm"}, {"days": "Sat", "time": "11:30am"}, {"days": "Sun", "time": "Closed"}], "id": "0307100004", "name": "USPS COLLECTION BOX - PO LOBBY", "address": {"city": "NEW IPSWICH", "state": "NH", "street": "802 TURNPIKE RD", "postcode": "03071"}}},
{"geometry": {"type": "Point", "coordinates": [-71.2289346275, 42.8351542384]}, "type": "Feature", "properties": {"collection_times": [{"days": "Mon-Fri", "time": "4:30pm"}, {"days": "Sat", "time": "12:00pm"}, {"days": "Sun", "time": "Closed"}], "id": "0307300001", "name": "USPS COLLECTION BOX - BLUE BOX", "address": {"city": "NORTH SALEM", "state": "NH", "street": "112 E BROADWAY", "postcode": "03073"}}},
{"geometry": {"type": "Point", "coordinates": [-71.2289346275, 42.8351542384]}, "type": "Feature", "properties": {"collection_times": [{"days": "Mon-Fri", "time": "4:30pm"}, {"days": "Sat", "time": "12:00pm"}, {"days": "Sun", "time": "Closed"}], "id": "0307300003", "name": "USPS COLLECTION BOX - PO LOBBY", "address": {"city": "NORTH SALEM", "state": "NH", "street": "112 E BROADWAY", "postcode": "03073"}}},
{"geometry": {"type": "Point", "coordinates": [-71.3191689933, 42.7246760523]}, "type": "Feature", "properties": {"collection_times": [{"days": "Mon-Fri", "time": "4:45pm"}, {"days": "Sat", "time": "1:45pm"}, {"days": "Sun", "time": "Closed"}], "id": "0307600002", "name": "USPS COLLECTION BOX - BLUE BOX", "address": {"city": "PELHAM", "state": "NH", "street": "150 BRIDGE ST", "postcode": "03076"}}},
{"geometry": {"type": "Point", "coordinates": [-71.3191689933, 42.7246760523]}, "type": "Feature", "properties": {"collection_times": [{"days": "Mon-Fri", "time": "5:00pm"}, {"days": "Sat", "time": "2:00pm"}, {"days": "Sun", "time": "Closed"}], "id": "0307600003", "name": "USPS COLLECTION BOX - PO LOBBY", "address": {"city": "PELHAM", "state": "NH", "street": "150 BRIDGE ST", "postcode": "03076"}}},
{"geometry": {"type": "Point", "coordinates": [-71.1629102427, 43.0376421344]}, "type": "Feature", "properties": {"collection_times": [{"days": "Mon-Fri", "time": "5:00pm"}, {"days": "Sat", "time": "4:00pm"}, {"days": "Sun", "time": "Closed"}], "id": "0307700001", "name": "USPS COLLECTION BOX - BLUE BOX", "address": {"city": "RAYMOND", "state": "NH", "street": "15 FREETOWN RD", "postcode": "03077"}}},
{"geometry": {"type": "Point", "coordinates": [-71.1994902789, 43.0318065127]}, "type": "Feature", "properties": {"collection_times": [{"days": "Mon-Sat", "time": "1:00pm"}, {"days": "Sun", "time": "Closed"}], "id": "0307700002", "name": "USPS COLLECTION BOX - BLUE BOX", "address": {"city": "RAYMOND", "state": "NH", "street": "4 EPPING ST", "postcode": "03077"}}},
{"geometry": {"type": "Point", "coordinates": [-71.1629102427, 43.0376421344]}, "type": "Feature", "properties": {"collection_times": [{"days": "Mon-Fri", "time": "5:00pm"}, {"days": "Sat", "time": "4:00pm"}, {"days": "Sun", "time": "Closed"}], "id": "0307700003", "name": "USPS COLLECTION BOX - PO LOBBY", "address": {"city": "RAYMOND", "state": "NH", "street": "15 FREETOWN RD", "postcode": "03077"}}},
{"geometry": {"type": "Point", "coordinates": [-71.2020361916, 42.7879705388]}, "type": "Feature", "properties": {"collection_times": [{"days": "Mon-Fri", "time": "3:00pm"}, {"days": "Sat", "time": "10:00am"}, {"days": "Sun", "time": "Closed"}], "id": "0307900003", "name": "USPS COLLECTION BOX - BLUE BOX", "address": {"city": "SALEM", "state": "NH", "street": "92 CLUFF CROSSING RD", "postcode": "03079"}}},
{"geometry": {"type": "Point", "coordinates": [-71.2418519783, 42.7646222106]}, "type": "Feature", "properties": {"collection_times": [{"days": "Mon-Sat", "time": "9:30am"}, {"days": "Sun", "time": "Closed"}], "id": "0307900004", "name": "USPS COLLECTION BOX - BLUE BOX", "address": {"city": "SALEM", "state": "NH", "street": "1 DELAWARE DR", "postcode": "03079"}}},
{"geometry": {"type": "Point", "coordinates": [-71.2102859013, 42.7789360141]}, "type": "Feature", "properties": {"collection_times": [{"days": "Mon-Fri", "time": "3:15pm"}, {"days": "Sat", "time": "9:00am"}, {"days": "Sun", "time": "Closed"}], "id": "0307900005", "name": "USPS COLLECTION BOX - BLUE BOX", "address": {"city": "SALEM", "state": "NH", "street": "33 GEREMONTY DR", "postcode": "03079"}}},
{"geometry": {"type": "Point", "coordinates": [-71.253909879, 42.7790401145]}, "type": "Feature", "properties": {"collection_times": [{"days": "Mon-Fri", "time": "4:15pm"}, {"days": "Sat", "time": "10:00am"}, {"days": "Sun", "time": "Closed"}], "id": "0307900006", "name": "USPS COLLECTION BOX - BLUE BOX", "address": {"city": "SALEM", "state": "NH", "street": "8 INDUSTRIAL WAY", "postcode": "03079"}}},
{"geometry": {"type": "Point", "coordinates": [-71.253909879, 42.7790401145]}, "type": "Feature", "properties": {"collection_times": [{"days": "Mon-Fri", "time": "4:15pm"}, {"days": "Sat", "time": "10:00am"}, {"days": "Sun", "time": "Closed"}], "id": "0307900007", "name": "USPS COLLECTION BOX - BLUE BOX", "address": {"city": "SALEM", "state": "NH", "street": "8 INDUSTRIAL WAY", "postcode": "03079"}}},
{"geometry": {"type": "Point", "coordinates": [-71.2455688354, 42.774412379]}, "type": "Feature", "properties": {"collection_times": [{"days": "Mon-Fri", "time": "5:00pm"}, {"days": "Sat", "time": "10:00am"}, {"days": "Sun", "time": "Closed"}], "id": "0307900008", "name": "USPS COLLECTION BOX - BLUE BOX", "address": {"city": "SALEM", "state": "NH", "street": "1 KEEWAYDIN DR", "postcode": "03079"}}},
{"geometry": {"type": "Point", "coordinates": [-71.2184997171, 42.7827701136]}, "type": "Feature", "properties": {"collection_times": [{"days": "Mon-Fri", "time": "5:00pm"}, {"days": "Sat", "time": "10:00am"}, {"days": "Sun", "time": "Closed"}], "id": "0307900009", "name": "USPS COLLECTION BOX - EXPRESS", "address": {"city": "SALEM", "state": "NH", "street": "1 KEEWAYDIN DR", "postcode": "03079"}}},
{"geometry": {"type": "Point", "coordinates": [-71.2224337069, 42.7639349115]}, "type": "Feature", "properties": {"collection_times": [{"days": "Mon-Sat", "time": "10:00am"}, {"days": "Sun", "time": "Closed"}], "id": "0307900010", "name": "USPS COLLECTION BOX - BLUE BOX", "address": {"city": "SALEM", "state": "NH", "street": "2 LANCELOT CT", "postcode": "03079"}}},
{"geometry": {"type": "Point", "coordinates": [-71.2011605558, 42.809352255]}, "type": "Feature", "properties": {"collection_times": [{"days": "Mon-Fri", "time": "11:00am"}, {"days": "Sat", "time": "10:00am"}, {"days": "Sun", "time": "Closed"}], "id": "0307900011", "name": "USPS COLLECTION BOX - BLUE BOX", "address": {"city": "SALEM", "state": "NH", "street": "125 MAIN ST", "postcode": "03079"}}},
{"geometry": {"type": "Point", "coordinates": [-71.2012374481, 42.7883440867]}, "type": "Feature", "properties": {"collection_times": [{"days": "Mon-Sat", "time": "11:00am"}, {"days": "Sun", "time": "Closed"}], "id": "0307900012", "name": "USPS COLLECTION BOX - BLUE BOX", "address": {"city": "SALEM", "state": "NH", "street": "301 MAIN ST", "postcode": "03079"}}},
{"geometry": {"type": "Point", "coordinates": [-71.2321943013, 42.7822234571]}, "type": "Feature", "properties": {"collection_times": [{"days": "Mon-Sat", "time": "10:00am"}, {"days": "Sun", "time": "Closed"}], "id": "0307900013", "name": "USPS COLLECTION BOX - BLUE BOX", "address": {"city": "SALEM", "state": "NH", "street": "51 MAIN ST", "postcode": "03079"}}},
{"geometry": {"type": "Point", "coordinates": [-71.2501563502, 42.7761584265]}, "type": "Feature", "properties": {"collection_times": [{"days": "Mon-Fri", "time": "5:00pm"}, {"days": "Sat", "time": "10:00am"}, {"days": "Sun", "time": "Closed"}], "id": "0307900014", "name": "USPS COLLECTION BOX - BLUE BOX", "address": {"city": "SALEM", "state": "NH", "street": "2 MANOR PKWY", "postcode": "03079"}}},
{"geometry": {"type": "Point", "coordinates": [-71.2324178805, 42.7862242243]}, "type": "Feature", "properties": {"collection_times": [{"days": "Mon-Fri", "time": "11:00am"}, {"days": "Sat", "time": "9:30am"}, {"days": "Sun", "time": "Closed"}], "id": "0307900017", "name": "USPS COLLECTION BOX - BLUE BOX", "address": {"city": "SALEM", "state": "NH", "street": "134 N BROADWAY", "postcode": "03079"}}},
{"geometry": {"type": "Point", "coordinates": [-71.218499717, 42.7827614695]}, "type": "Feature", "properties": {"collection_times": [{"days": "Mon-Fri", "time": "2:00pm"}, {"days": "Sat", "time": "9:30am"}, {"days": "Sun", "time": "Closed"}], "id": "0307900018", "name": "USPS COLLECTION BOX - BLUE BOX", "address": {"city": "SALEM", "state": "NH", "street": "264 N BROADWAY", "postcode": "03079"}}},
{"geometry": {"type": "Point", "coordinates": [-71.2598175761, 42.7774667791]}, "type": "Feature", "properties": {"collection_times": [{"days": "Mon-Fri", "time": "5:00pm"}, {"days": "Sat", "time": "10:00am"}, {"days": "Sun", "time": "Closed"}], "id": "0307900020", "name": "USPS COLLECTION BOX - BLUE BOX", "address": {"city": "SALEM", "state": "NH", "street": "50 NORTHWESTERN DR", "postcode": "03079"}}},
{"geometry": {"type": "Point", "coordinates": [-71.2184997171, 42.7827701136]}, "type": "Feature", "properties": {"collection_times": [{"days": "Mon-Fri", "time": "5:00pm"}, {"days": "Sat", "time": "10:00am"}, {"days": "Sun", "time": "Closed"}], "id": "0307900021", "name": "USPS COLLECTION BOX - EXPRESS", "address": {"city": "SALEM", "state": "NH", "street": "50 NORTHWESTERN DR", "postcode": "03079"}}},
{"geometry": {"type": "Point", "coordinates": [-71.218499717, 42.7827614695]}, "type": "Feature", "properties": {"collection_times": [{"days": "Mon-Fri", "time": "11:00am"}, {"days": "Sat", "time": "10:00am"}, {"days": "Sun", "time": "Closed"}], "id": "0307900022", "name": "USPS COLLECTION BOX - BLUE BOX", "address": {"city": "SALEM", "state": "NH", "street": "6 RAYMOND AVE", "postcode": "03079"}}},
{"geometry": {"type": "Point", "coordinates": [-71.2020361916, 42.7879705388]}, "type": "Feature", "properties": {"collection_times": [{"days": "Mon-Fri", "time": "11:00am"}, {"days": "Sat", "time": "9:30am"}, {"days": "Sun", "time": "Closed"}], "id": "0307900023", "name": "USPS COLLECTION BOX - BLUE BOX", "address": {"city": "SALEM", "state": "NH", "street": "9 RED ROOF LN", "postcode": "03079"}}},
{"geometry": {"type": "Point", "coordinates": [-71.2020361916, 42.7879705388]}, "type": "Feature", "properties": {"collection_times": [{"days": "Mon-Fri", "time": "11:00am"}, {"days": "Sat", "time": "9:30am"}, {"days": "Sun", "time": "Closed"}], "id": "0307900024", "name": "USPS COLLECTION BOX - EXPRESS", "address": {"city": "SALEM", "state": "NH", "street": "9 RED ROOF LN", "postcode": "03079"}}},
{"geometry": {"type": "Point", "coordinates": [-71.218499717, 42.7827614695]}, "type": "Feature", "properties": {"collection_times": [{"days": "Mon-Sat", "time": "11:00am"}, {"days": "Sun", "time": "Closed"}], "id": "0307900026", "name": "USPS COLLECTION BOX - EXPRESS", "address": {"city": "SALEM", "state": "NH", "street": "99 ROCKINGHAM RD", "postcode": "03079"}}},
{"geometry": {"type": "Point", "coordinates": [-71.218499717, 42.7827614695]}, "type": "Feature", "properties": {"collection_times": [{"days": "Mon-Fri", "time": "2:00pm"}, {"days": "Sat", "time": "10:00am"}, {"days": "Sun", "time": "Closed"}], "id": "0307900028", "name": "USPS COLLECTION BOX - BLUE BOX", "address": {"city": "SALEM", "state": "NH", "street": "161 S BROADWAY", "postcode": "03079"}}},
{"geometry": {"type": "Point", "coordinates": [-71.2020361916, 42.7879705388]}, "type": "Feature", "properties": {"collection_times": [{"days": "Mon-Fri", "time": "2:00pm"}, {"days": "Sat", "time": "9:30am"}, {"days": "Sun", "time": "Closed"}], "id": "0307900029", "name": "USPS COLLECTION BOX - BLUE BOX", "address": {"city": "SALEM", "state": "NH", "street": "265 S BROADWAY", "postcode": "03079"}}},
{"geometry": {"type": "Point", "coordinates": [-71.2184997171, 42.7827701136]}, "type": "Feature", "properties": {"collection_times": [{"days": "Mon-Fri", "time": "5:00pm"}, {"days": "Sat", "time": "4:00pm"}, {"days": "Sun", "time": "Closed"}], "id": "0307900032", "name": "USPS COLLECTION BOX - EXPRESS", "address": {"city": "SALEM", "state": "NH", "street": "51 S BROADWAY", "postcode": "03079"}}},
{"geometry": {"type": "Point", "coordinates": [-71.2253532496, 42.776113474]}, "type": "Feature", "properties": {"collection_times": [{"days": "Mon-Fri", "time": "5:00pm"}, {"days": "Sat", "time": "4:00pm"}, {"days": "Sun", "time": "Closed"}], "id": "0307900033", "name": "USPS COLLECTION BOX - BLUE BOX", "address": {"city": "SALEM", "state": "NH", "street": "51 S BROADWAY", "postcode": "03079"}}},
{"geometry": {"type": "Point", "coordinates": [-71.1977098645, 42.7409618484]}, "type": "Feature", "properties": {"collection_times": [{"days": "Mon-Sat", "time": "9:30am"}, {"days": "Sun", "time": "Closed"}], "id": "0307900035", "name": "USPS COLLECTION BOX - BLUE BOX", "address": {"city": "SALEM", "state": "NH", "street": "541 S BROADWAY", "postcode": "03079"}}},
{"geometry": {"type": "Point", "coordinates": [-71.2184997171, 42.7827701136]}, "type": "Feature", "properties": {"collection_times": [{"days": "Mon-Fri", "time": "5:00pm"}, {"days": "Sat", "time": "12:00pm"}, {"days": "Sun", "time": "Closed"}], "id": "0307900037", "name": "USPS COLLECTION BOX - EXPRESS", "address": {"city": "SALEM", "state": "NH", "street": "1 STILES RD", "postcode": "03079"}}},
{"geometry": {"type": "Point", "coordinates": [-71.2020361916, 42.7879705388]}, "type": "Feature", "properties": {"collection_times": [{"days": "Mon-Fri", "time": "4:45pm"}, {"days": "Sat", "time": "10:00am"}, {"days": "Sun", "time": "Closed"}], "id": "0307900039", "name": "USPS COLLECTION BOX - BLUE BOX", "address": {"city": "SALEM", "state": "NH", "street": "59 STILES RD", "postcode": "03079"}}},
{"geometry": {"type": "Point", "coordinates": [-71.2156957603, 42.7748631389]}, "type": "Feature", "properties": {"collection_times": [{"days": "Mon-Sat", "time": "10:30am"}, {"days": "Sun", "time": "Closed"}], "id": "0307900041", "name": "USPS COLLECTION BOX - BLUE BOX", "address": {"city": "SALEM", "state": "NH", "street": "70 TELFER CIR", "postcode": "03079"}}},
{"geometry": {"type": "Point", "coordinates": [-71.2010304303, 42.809756827]}, "type": "Feature", "properties": {"collection_times": [{"days": "Mon-Sat", "time": "10:00am"}, {"days": "Sun", "time": "Closed"}], "id": "0307900044", "name": "USPS COLLECTION BOX - BLUE BOX", "address": {"city": "SALEM", "state": "NH", "street": "130 MAIN ST", "postcode": "03079"}}},
{"geometry": {"type": "Point", "coordinates": [-71.2484777315, 42.7746170309]}, "type": "Feature", "properties": {"collection_times": [{"days": "Mon-Fri", "time": "5:00pm"}, {"days": "Sat", "time": "12:00pm"}, {"days": "Sun", "time": "Closed"}], "id": "0307900045", "name": "USPS COLLECTION BOX - BLUE BOX", "address": {"city": "SALEM", "state": "NH", "street": "1 STILES RD", "postcode": "03079"}}},
{"geometry": {"type": "Point", "coordinates": [-71.2209242512, 42.7701099573]}, "type": "Feature", "properties": {"collection_times": [{"days": "Mon-Sat", "time": "10:00am"}, {"days": "Sun", "time": "Closed"}], "id": "0307900047", "name": "USPS COLLECTION BOX - BLUE BOX", "address": {"city": "SALEM", "state": "NH", "street": "125 S BROADWAY", "postcode": "03079"}}},
{"geometry": {"type": "Point", "coordinates": [-71.2220456963, 42.8457980378]}, "type": "Feature", "properties": {"collection_times": [{"days": "Mon-Sat", "time": "9:00am"}, {"days": "Sun", "time": "Closed"}], "id": "0307900048", "name": "USPS COLLECTION BOX - BLUE BOX", "address": {"city": "SALEM", "state": "NH", "street": "15 ERMER RD", "postcode": "03079"}}},
{"geometry": {"type": "Point", "coordinates": [-71.2253532496, 42.776113474]}, "type": "Feature", "properties": {"collection_times": [{"days": "Mon-Fri", "time": "5:00pm"}, {"days": "Sat", "time": "4:00pm"}, {"days": "Sun", "time": "Closed"}], "id": "0307900049", "name": "USPS COLLECTION BOX - BLUE BOX", "address": {"city": "SALEM", "state": "NH", "street": "51 S BROADWAY", "postcode": "03079"}}},
{"geometry": {"type": "Point", "coordinates": [-71.2253532496, 42.776113474]}, "type": "Feature", "properties": {"collection_times": [{"days": "Mon-Fri", "time": "5:00pm"}, {"days": "Sat", "time": "4:00pm"}, {"days": "Sun", "time": "Closed"}], "id": "0307900050", "name": "USPS COLLECTION BOX - BLUE BOX", "address": {"city": "SALEM", "state": "NH", "street": "51 S BROADWAY", "postcode": "03079"}}},
{"geometry": {"type": "Point", "coordinates": [-71.2020361916, 42.7879705388]}, "type": "Feature", "properties": {"collection_times": [{"days": "Mon-Sat", "time": "12:15pm"}, {"days": "Sun", "time": "Closed"}], "id": "0307900051", "name": "USPS COLLECTION BOX - BLUE BOX", "address": {"city": "SALEM", "state": "NH", "street": "364 N BROADWAY", "postcode": "03079"}}},
{"geometry": {"type": "Point", "coordinates": [-71.2383683829, 42.7977223724]}, "type": "Feature", "properties": {"collection_times": [{"days": "Mon-Sat", "time": "12:00pm"}, {"days": "Sun", "time": "Closed"}], "id": "0307900052", "name": "USPS COLLECTION BOX - BLUE BOX", "address": {"city": "SALEM", "state": "NH", "street": "300 N BROADWAY", "postcode": "03079"}}},
{"geometry": {"type": "Point", "coordinates": [-71.2156364247, 42.8305177568]}, "type": "Feature", "properties": {"collection_times": [{"days": "Mon-Sat", "time": "10:00am"}, {"days": "Sun", "time": "Closed"}], "id": "0307900053", "name": "USPS COLLECTION BOX - BLUE BOX", "address": {"city": "SALEM", "state": "NH", "street": "321 N MAIN ST", "postcode": "03079"}}},
{"geometry": {"type": "Point", "coordinates": [-71.2253532496, 42.776113474]}, "type": "Feature", "properties": {"collection_times": [{"days": "Mon-Fri", "time": "5:00pm"}, {"days": "Sat", "time": "4:00pm"}, {"days": "Sun", "time": "Closed"}], "id": "0307900054", "name": "USPS COLLECTION BOX - BLUE BOX", "address": {"city": "SALEM", "state": "NH", "street": "51 S BROADWAY", "postcode": "03079"}}},
{"geometry": {"type": "Point", "coordinates": [-71.2415006395, 42.7811138416]}, "type": "Feature", "properties": {"collection_times": [{"days": "Mon-Fri", "time": "4:15pm"}, {"days": "Sat-Sun", "time": "Closed"}], "id": "0307900055", "name": "USPS COLLECTION BOX - BLUE BOX", "address": {"city": "SALEM", "state": "NH", "street": "4 NORTHEASTERN BLVD", "postcode": "03079"}}},
{"geometry": {"type": "Point", "coordinates": [-71.2253532496, 42.776113474]}, "type": "Feature", "properties": {"collection_times": [{"days": "Mon-Fri", "time": "5:00pm"}, {"days": "Sat", "time": "4:00pm"}, {"days": "Sun", "time": "Closed"}], "id": "0307900057", "name": "USPS COLLECTION BOX - PO LOBBY", "address": {"city": "SALEM", "state": "NH", "street": "51 S BROADWAY", "postcode": "03079"}}},
{"geometry": {"type": "Point", "coordinates": [-71.2500983852, 42.7790235531]}, "type": "Feature", "properties": {"collection_times": [{"days": "Mon-Fri", "time": "5:00pm"}, {"days": "Sat", "time": "10:00am"}, {"days": "Sun", "time": "Closed"}], "id": "0307900059", "name": "USPS COLLECTION BOX - BLUE BOX", "address": {"city": "SALEM", "state": "NH", "street": "10 MANOR PKWY", "postcode": "03079"}}},
{"geometry": {"type": "Point", "coordinates": [-71.211475958, 42.7845846432]}, "type": "Feature", "properties": {"collection_times": [{"days": "Mon-Fri", "time": "3:15pm"}, {"days": "Sat", "time": "10:00am"}, {"days": "Sun", "time": "Closed"}], "id": "0307900060", "name": "USPS COLLECTION BOX - BLUE BOX", "address": {"city": "SALEM", "state": "NH", "street": "234 MAIN ST", "postcode": "03079"}}},
{"geometry": {"type": "Point", "coordinates": [-71.2253532496, 42.776113474]}, "type": "Feature", "properties": {"collection_times": [{"days": "Mon-Fri", "time": "5:00pm"}, {"days": "Sat", "time": "4:00pm"}, {"days": "Sun", "time": "Closed"}], "id": "0307900061", "name": "USPS COLLECTION BOX - APC", "address": {"city": "SALEM", "state": "NH", "street": "51 S BROADWAY", "postcode": "03079"}}},
{"geometry": {"type": "Point", "coordinates": [-71.2461047158, 42.7750511769]}, "type": "Feature", "properties": {"collection_times": [{"days": "Mon-Fri", "time": "5:00pm"}, {"days": "Sat", "time": "10:00am"}, {"days": "Sun", "time": "Closed"}], "id": "0307900062", "name": "USPS COLLECTION BOX - BLUE BOX", "address": {"city": "SALEM", "state": "NH", "street": "2 KEEWAYDIN DR", "postcode": "03079"}}},
{"geometry": {"type": "Point", "coordinates": [-71.7771559514, 42.8719922514]}, "type": "Feature", "properties": {"collection_times": [{"days": "Mon-Fri", "time": "4:15pm"}, {"days": "Sat", "time": "11:00am"}, {"days": "Sun", "time": "Closed"}], "id": "0308200001", "name": "USPS COLLECTION BOX - BLUE BOX", "address": {"city": "LYNDEBOROUGH", "state": "NH", "street": "36 FOREST RD", "postcode": "03082"}}},
{"geometry": {"type": "Point", "coordinates": [-71.7771559514, 42.8719922514]}, "type": "Feature", "properties": {"collection_times": [{"days": "Mon-Fri", "time": "4:15pm"}, {"days": "Sat", "time": "11:00am"}, {"days": "Sun", "time": "Closed"}], "id": "0308200002", "name": "USPS COLLECTION BOX - PO LOBBY", "address": {"city": "LYNDEBOROUGH", "state": "NH", "street": "36 FOREST RD", "postcode": "03082"}}},
{"geometry": {"type": "Point", "coordinates": [-71.5775936257, 43.6855232857]}, "type": "Feature", "properties": {"collection_times": [{"days": "Mon-Fri", "time": "4:15pm"}, {"days": "Sat", "time": "11:15am"}, {"days": "Sun", "time": "Closed"}], "id": "0308400001", "name": "USPS COLLECTION BOX - BLUE BOX", "address": {"city": "TEMPLE", "state": "NH", "street": "19 MAIN ST UNIT 3", "postcode": "03084"}}},
{"geometry": {"type": "Point", "coordinates": [-71.5775936257, 43.6855232857]}, "type": "Feature", "properties": {"collection_times": [{"days": "Mon-Fri", "time": "4:30pm"}, {"days": "Sat", "time": "11:30am"}, {"days": "Sun", "time": "Closed"}], "id": "0308400002", "name": "USPS COLLECTION BOX - PO LOBBY", "address": {"city": "TEMPLE", "state": "NH", "street": "19 MAIN ST UNIT 3", "postcode": "03084"}}},
{"geometry": {"type": "Point", "coordinates": [-71.7619990753, 42.836261522]}, "type": "Feature", "properties": {"collection_times": [{"days": "Mon-Fri", "time": "5:00pm"}, {"days": "Sat", "time": "12:45pm"}, {"days": "Sun", "time": "Closed"}], "id": "0308600002", "name": "USPS COLLECTION BOX - BLUE BOX", "address": {"city": "WILTON", "state": "NH", "street": "79 MAIN ST", "postcode": "03086"}}},
{"geometry": {"type": "Point", "coordinates": [-71.7619990753, 42.836261522]}, "type": "Feature", "properties": {"collection_times": [{"days": "Mon-Fri", "time": "5:15pm"}, {"days": "Sat", "time": "12:45pm"}, {"days": "Sun", "time": "Closed"}], "id": "0308600003", "name": "USPS COLLECTION BOX - PO LOBBY", "address": {"city": "WILTON", "state": "NH", "street": "79 MAIN ST", "postcode": "03086"}}},
{"geometry": {"type": "Point", "coordinates": [-71.7619990753, 42.836261522]}, "type": "Feature", "properties": {"collection_times": [{"days": "Mon-Fri", "time": "2:00pm"}, {"days": "Sat-Sun", "time": "Closed"}], "id": "0308600004", "name": "USPS COLLECTION BOX - BLUE BOX", "address": {"city": "WILTON", "state": "NH", "street": "626 GIBBONS HWY", "postcode": "03086"}}},
{"geometry": {"type": "Point", "coordinates": [-71.3045523523, 42.7929682733]}, "type": "Feature", "properties": {"collection_times": [{"days": "Mon-Sat", "time": "10:00am"}, {"days": "Sun", "time": "Closed"}], "id": "0308700001", "name": "USPS COLLECTION BOX - BLUE BOX", "address": {"city": "WINDHAM", "state": "NH", "street": "4 COBBETTS POND RD", "postcode": "03087"}}},
{"geometry": {"type": "Point", "coordinates": [-71.2931841167, 42.8058246714]}, "type": "Feature", "properties": {"collection_times": [{"days": "Mon-Fri", "time": "5:00pm"}, {"days": "Sat", "time": "12:00pm"}, {"days": "Sun", "time": "Closed"}], "id": "0308700002", "name": "USPS COLLECTION BOX - PO LOBBY", "address": {"city": "WINDHAM", "state": "NH", "street": "44 INDIAN ROCK RD", "postcode": "03087"}}},
{"geometry": {"type": "Point", "coordinates": [-71.2931841167, 42.8058246714]}, "type": "Feature", "properties": {"collection_times": [{"days": "Mon-Fri", "time": "5:00pm"}, {"days": "Sat", "time": "12:00pm"}, {"days": "Sun", "time": "Closed"}], "id": "0308700003", "name": "USPS COLLECTION BOX - BLUE BOX", "address": {"city": "WINDHAM", "state": "NH", "street": "44 INDIAN ROCK RD", "postcode": "03087"}}},
{"geometry": {"type": "Point", "coordinates": [-71.2931841167, 42.8058246714]}, "type": "Feature", "properties": {"collection_times": [{"days": "Mon-Fri", "time": "5:00pm"}, {"days": "Sat", "time": "12:00pm"}, {"days": "Sun", "time": "Closed"}], "id": "0308700004", "name": "USPS COLLECTION BOX - BLUE BOX", "address": {"city": "WINDHAM", "state": "NH", "street": "44 INDIAN ROCK RD", "postcode": "03087"}}}
]}
