{"type": "FeatureCollection", "features": [
{"geometry": {"type": "Point", "coordinates": [-71.4637057571, 42.990691708]}, "type": "Feature", "properties": {"collection_times": [{"days": "Mon-Fri", "time": "5:30pm"}, {"days": "Sat", "time": "1:00pm"}, {"days": "Sun", "time": "Closed"}], "id": "0310100001", "name": "USPS COLLECTION BOX - BLUE BOX", "address": {"city": "MANCHESTER", "state": "NH", "street": "129 AMHERST ST", "postcode": "03101"}}},
{"geometry": {"type": "Point", "coordinates": [-71.4637057571, 42.990691708]}, "type": "Feature", "properties": {"collection_times": [{"days": "Mon-Fri", "time": "5:30pm"}, {"days": "Sat", "time": "1:00pm"}, {"days": "Sun", "time": "Closed"}], "id": "0310100003", "name": "USPS COLLECTION BOX - BLUE BOX", "address": {"city": "MANCHESTER", "state": "NH", "street": "129 AMHERST ST", "postcode": "03101"}}},
{"geometry": {"type": "Point", "coordinates": [-71.4619081718, 42.9918018377]}, "type": "Feature", "properties": {"collection_times": [{"days": "Mon-Fri", "time": "5:30pm"}, {"days": "Sat", "time": "1:00pm"}, {"days": "Sun", "time": "Closed"}], "id": "0310100005", "name": "USPS COLLECTION BOX - BLUE BOX", "address": {"city": "MANCHESTER", "state": "NH", "street": "35 AMHERST ST", "postcode": "03101"}}},
{"geometry": {"type": "Point", "coordinates": [-71.4619081718, 42.9918018377]}, "type": "Feature", "properties": {"collection_times": [{"days": "Mon-Fri", "time": "5:30pm"}, {"days": "Sat", "time": "1:00pm"}, {"days": "Sun", "time": "Closed"}], "id": "0310100006", "name": "USPS COLLECTION BOX - BLUE BOX", "address": {"city": "MANCHESTER", "state": "NH", "street": "35 AMHERST ST", "postcode": "03101"}}},
{"geometry": {"type": "Point", "coordinates": [-71.4619081718, 42.9918018377]}, "type": "Feature", "properties": {"collection_times": [{"days": "Mon-Fri", "time": "5:30pm"}, {"days": "Sat", "time": "1:00pm"}, {"days": "Sun", "time": "Closed"}], "id": "0310100007", "name": "USPS COLLECTION BOX - BLUE BOX", "address": {"city": "MANCHESTER", "state": "NH", "street": "35 AMHERST ST", "postcode": "03101"}}},
{"geometry": {"type": "Point", "coordinates": [-71.4624964794, 42.9949109388]}, "type": "Feature", "properties": {"collection_times": [{"days": "Mon-Fri", "time": "4:45pm"}, {"days": "Sat", "time": "1:00pm"}, {"days": "Sun", "time": "Closed"}], "id": "0310100009", "name": "USPS COLLECTION BOX - BLUE BOX", "address": {"city": "MANCHESTER", "state": "NH", "street": "22 BRIDGE ST", "postcode": "03101"}}},
{"geometry": {"type": "Point", "coordinates": [-71.4664208532, 42.98772525]}, "type": "Feature", "properties": {"collection_times": [{"days": "Mon-Fri", "time": "5:00pm"}, {"days": "Sat", "time": "1:00pm"}, {"days": "Sun", "time": "Closed"}], "id": "0310100011", "name": "USPS COLLECTION BOX - BLUE BOX", "address": {"city": "MANCHESTER", "state": "NH", "street": "175 CANAL ST", "postcode": "03101"}}},
{"geometry": {"type": "Point", "coordinates": [-71.4664208532, 42.98772525]}, "type": "Feature", "properties": {"collection_times": [{"days": "Mon-Fri", "time": "5:00pm"}, {"days": "Sat", "time": "1:00pm"}, {"days": "Sun", "time": "Closed"}], "id": "0310100012", "name": "USPS COLLECTION BOX - BLUE BOX", "address": {"city": "MANCHESTER", "state": "NH", "street": "175 CANAL ST", "postcode": "03101"}}},
{"geometry": {"type": "Point", "coordinates": [-71.4637057571, 42.990691708]}, "type": "Feature", "properties": {"collection_times": [{"days": "Mon-Fri", "time": "4:00pm"}, {"days": "Sat", "time": "1:00pm"}, {"days": "Sun", "time": "Closed"}], "id": "0310100014", "name": "USPS COLLECTION BOX - BLUE BOX", "address": {"city": "MANCHESTER", "state": "NH", "street": "464 CHESTNUT ST", "postcode": "03101"}}},
{"geometry": {"type": "Point", "coordinates": [-71.4607463079, 42.9887176933]}, "type": "Feature", "properties": {"collection_times": [{"days": "Mon-Fri", "time": "5:15pm"}, {"days": "Sat", "time": "1:00pm"}, {"days": "Sun", "time": "Closed"}], "id": "0310100017", "name": "USPS COLLECTION BOX - BLUE BOX", "address": {"city": "MANCHESTER", "state": "NH", "street": "300 CHESTNUT ST", "postcode": "03101"}}},
{"geometry": {"type": "Point", "coordinates": [-71.4607463079, 42.9887176933]}, "type": "Feature", "properties": {"collection_times": [{"days": "Mon-Fri", "time": "5:15pm"}, {"days": "Sat", "time": "1:00pm"}, {"days": "Sun", "time": "Closed"}], "id": "0310100019", "name": "USPS COLLECTION BOX - BLUE BOX", "address": {"city": "MANCHESTER", "state": "NH", "street": "300 CHESTNUT ST", "postcode": "03101"}}},
{"geometry": {"type": "Point", "coordinates": [-71.4678370866, 42.9915209355]}, "type": "Feature", "properties": {"collection_times": [{"days": "Mon-Fri", "time": "4:30pm"}, {"days": "Sat", "time": "1:00pm"}, {"days": "Sun", "time": "Closed"}], "id": "0310100021", "name": "USPS COLLECTION BOX - BLUE BOX", "address": {"city": "MANCHESTER", "state": "NH", "street": "340 COMMERCIAL ST", "postcode": "03101"}}},
{"geometry": {"type": "Point", "coordinates": [-71.4678370866, 42.9915209355]}, "type": "Feature", "properties": {"collection_times": [{"days": "Mon-Fri", "time": "4:30pm"}, {"days": "Sat", "time": "1:00pm"}, {"days": "Sun", "time": "Closed"}], "id": "0310100023", "name": "USPS COLLECTION BOX - BLUE BOX", "address": {"city": "MANCHESTER", "state": "NH", "street": "340 COMMERCIAL ST", "postcode": "03101"}}},
{"geometry": {"type": "Point", "coordinates": [-71.4678370866, 42.9915209355]}, "type": "Feature", "properties": {"collection_times": [{"days": "Mon-Fri", "time": "4:30pm"}, {"days": "Sat", "time": "1:00pm"}, {"days": "Sun", "time": "Closed"}], "id": "0310100024", "name": "USPS COLLECTION BOX - BLUE BOX", "address": {"city": "MANCHESTER", "state": "NH", "street": "540 NORTH COMMERCIAL ST", "postcode": "03101"}}},
{"geometry": {"type": "Point", "coordinates": [-71.4630165544, 42.9923173325]}, "type": "Feature", "properties": {"collection_times": [{"days": "Mon-Fri", "time": "4:45pm"}, {"days": "Sat", "time": "1:00pm"}, {"days": "Sun", "time": "Closed"}], "id": "0310100025", "name": "USPS COLLECTION BOX - BLUE BOX", "address": {"city": "MANCHESTER", "state": "NH", "street": "1001 ELM ST", "postcode": "03101"}}},
{"geometry": {"type": "Point", "coordinates": [-71.4613092211, 42.9927829758]}, "type": "Feature", "properties": {"collection_times": [{"days": "Mon-Fri", "time": "5:00pm"}, {"days": "Sat", "time": "1:00pm"}, {"days": "Sun", "time": "Closed"}], "id": "0310100026", "name": "USPS COLLECTION BOX - BLUE BOX", "address": {"city": "MANCHESTER", "state": "NH", "street": "72 CONCORD ST", "postcode": "03101"}}},
{"geometry": {"type": "Point", "coordinates": [-71.463410695, 42.9958070994]}, "type": "Feature", "properties": {"collection_times": [{"days": "Mon-Fri", "time": "4:00pm"}, {"days": "Sat", "time": "1:00pm"}, {"days": "Sun", "time": "Closed"}], "id": "0310100027", "name": "USPS COLLECTION BOX - BLUE BOX", "address": {"city": "MANCHESTER", "state": "NH", "street": "1225 ELM ST", "postcode": "03101"}}},
{"geometry": {"type": "Point", "coordinates": [-71.4637057571, 42.990691708]}, "type": "Feature", "properties": {"collection_times": [{"days": "Mon-Fri", "time": "5:00pm"}, {"days": "Sat", "time": "1:00pm"}, {"days": "Sun", "time": "Closed"}], "id": "0310100031", "name": "USPS COLLECTION BOX - BLUE BOX", "address": {"city": "MANCHESTER", "state": "NH", "street": "1260 ELM ST", "postcode": "03101"}}},
{"geometry": {"type": "Point", "coordinates": [-71.4637057571, 42.990691708]}, "type": "Feature", "properties": {"collection_times": [{"days": "Mon-Fri", "time": "5:00pm"}, {"days": "Sat", "time": "1:00pm"}, {"days": "Sun", "time": "Closed"}], "id": "0310100033", "name": "USPS COLLECTION BOX - BLUE BOX", "address": {"city": "MANCHESTER", "state": "NH", "street": "1260 ELM ST", "postcode": "03101"}}},
{"geometry": {"type": "Point", "coordinates": [-71.4637057571, 42.990691708]}, "type": "Feature", "properties": {"collection_times": [{"days": "Mon-Fri", "time": "5:00pm"}, {"days": "Sat", "time": "1:00pm"}, {"days": "Sun", "time": "Closed"}], "id": "0310100034", "name": "USPS COLLECTION BOX - BLUE BOX", "address": {"city": "MANCHESTER", "state": "NH", "street": "1361 ELM ST", "postcode": "03101"}}},
{"geometry": {"type": "Point", "coordinates": [-71.4637057571, 42.990691708]}, "type": "Feature", "properties": {"collection_times": [{"days": "Mon-Fri", "time": "5:00pm"}, {"days": "Sat", "time": "1:00pm"}, {"days": "Sun", "time": "Closed"}], "id": "0310100035", "name": "USPS COLLECTION BOX - BLUE BOX", "address": {"city": "MANCHESTER", "state": "NH", "street": "1361 ELM ST", "postcode": "03101"}}},
{"geometry": {"type": "Point", "coordinates": [-71.4637057571, 42.990691708]}, "type": "Feature", "properties": {"collection_times": [{"days": "Mon-Fri", "time": "5:00pm"}, {"days": "Sat", "time": "1:00pm"}, {"days": "Sun", "time": "Closed"}], "id": "0310100037", "name": "USPS COLLECTION BOX - BLUE BOX", "address": {"city": "MANCHESTER", "state": "NH", "street": "1631 ELM ST", "postcode": "03101"}}},
{"geometry": {"type": "Point", "coordinates": [-71.4629082378, 42.9771804012]}, "type": "Feature", "properties": {"collection_times": [{"days": "Mon-Sat", "time": "10:00am"}, {"days": "Sun", "time": "Closed"}], "id": "0310100038", "name": "USPS COLLECTION BOX - BLUE BOX", "address": {"city": "MANCHESTER", "state": "NH", "street": "87 ELM ST", "postcode": "03101"}}},
{"geometry": {"type": "Point", "coordinates": [-71.4637057571, 42.990691708]}, "type": "Feature", "properties": {"collection_times": [{"days": "Mon-Fri", "time": "4:30pm"}, {"days": "Sat", "time": "1:00pm"}, {"days": "Sun", "time": "Closed"}], "id": "0310100039", "name": "USPS COLLECTION BOX - BLUE BOX", "address": {"city": "MANCHESTER", "state": "NH", "street": "419 CANAL ST", "postcode": "03101"}}},
{"geometry": {"type": "Point", "coordinates": [-71.4637057571, 42.990691708]}, "type": "Feature", "properties": {"collection_times": [{"days": "Mon-Fri", "time": "5:30pm"}, {"days": "Sat", "time": "3:00pm"}, {"days": "Sun", "time": "Closed"}], "id": "0310100040", "name": "USPS COLLECTION BOX - BLUE BOX", "address": {"city": "MANCHESTER", "state": "NH", "street": "650 ELM ST", "postcode": "03101"}}},
{"geometry": {"type": "Point", "coordinates": [-71.4637057571, 42.990691708]}, "type": "Feature", "properties": {"collection_times": [{"days": "Mon-Fri", "time": "5:30pm"}, {"days": "Sat", "time": "3:00pm"}, {"days": "Sun", "time": "Closed"}], "id": "0310100043", "name": "USPS COLLECTION BOX - BLUE BOX", "address": {"city": "MANCHESTER", "state": "NH", "street": "650 ELM ST", "postcode": "03101"}}},
{"geometry": {"type": "Point", "coordinates": [-71.4643611663, 43.0000987582]}, "type": "Feature", "properties": {"collection_times": [{"days": "Mon-Fri", "time": "4:45pm"}, {"days": "Sat", "time": "1:00pm"}, {"days": "Sun", "time": "Closed"}], "id": "0310100045", "name": "USPS COLLECTION BOX - BLUE BOX", "address": {"city": "MANCHESTER", "state": "NH", "street": "1528 ELM ST", "postcode": "03101"}}},
{"geometry": {"type": "Point", "coordinates": [-71.4630044236, 42.9908004883]}, "type": "Feature", "properties": {"collection_times": [{"days": "Mon-Sat", "time": "1:00pm"}, {"days": "Sun", "time": "Closed"}], "id": "0310100046", "name": "USPS COLLECTION BOX - BLUE BOX", "address": {"city": "MANCHESTER", "state": "NH", "street": "875 ELM ST", "postcode": "03101"}}},
{"geometry": {"type": "Point", "coordinates": [-71.4631076899, 42.9901311194]}, "type": "Feature", "properties": {"collection_times": [{"days": "Mon-Fri", "time": "5:00pm"}, {"days": "Sat", "time": "1:00pm"}, {"days": "Sun", "time": "Closed"}], "id": "0310100048", "name": "USPS COLLECTION BOX - BLUE BOX", "address": {"city": "MANCHESTER", "state": "NH", "street": "844 ELM ST", "postcode": "03101"}}},
{"geometry": {"type": "Point", "coordinates": [-71.4630044236, 42.9908004883]}, "type": "Feature", "properties": {"collection_times": [{"days": "Mon-Sat", "time": "1:00pm"}, {"days": "Sun", "time": "Closed"}], "id": "0310100049", "name": "USPS COLLECTION BOX - BLUE BOX", "address": {"city": "MANCHESTER", "state": "NH", "street": "875 ELM ST", "postcode": "03101"}}},
{"geometry": {"type": "Point", "coordinates": [-71.4637057571, 42.990691708]}, "type": "Feature", "properties": {"collection_times": [{"days": "Mon-Fri", "time": "5:00pm"}, {"days": "Sat", "time": "1:00pm"}, {"days": "Sun", "time": "Closed"}], "id": "0310100051", "name": "USPS COLLECTION BOX - BLUE BOX", "address": {"city": "MANCHESTER", "state": "NH", "street": "934 ELM ST", "postcode": "03101"}}},
{"geometry": {"type": "Point", "coordinates": [-71.4637057571, 42.990691708]}, "type": "Feature", "properties": {"collection_times": [{"days": "Mon-Fri", "time": "5:00pm"}, {"days": "Sat", "time": "1:00pm"}, {"days": "Sun", "time": "Closed"}], "id": "0310100052", "name": "USPS COLLECTION BOX - BLUE BOX", "address": {"city": "MANCHESTER", "state": "NH", "street": "934 ELM ST", "postcode": "03101"}}},
{"geometry": {"type": "Point", "coordinates": [-71.4637057571, 42.990691708]}, "type": "Feature", "properties": {"collection_times": [{"days": "Mon-Fri", "time": "5:15pm"}, {"days": "Sat", "time": "1:00pm"}, {"days": "Sun", "time": "Closed"}], "id": "0310100054", "name": "USPS COLLECTION BOX - BLUE BOX", "address": {"city": "MANCHESTER", "state": "NH", "street": "66 HANOVER ST", "postcode": "03101"}}},
{"geometry": {"type": "Point", "coordinates": [-71.4644440691, 42.9908768079]}, "type": "Feature", "properties": {"collection_times": [{"days": "Mon-Fri", "time": "5:00pm"}, {"days": "Sat", "time": "1:00pm"}, {"days": "Sun", "time": "Closed"}], "id": "0310100058", "name": "USPS COLLECTION BOX - BLUE BOX", "address": {"city": "MANCHESTER", "state": "NH", "street": "45 MARKET ST", "postcode": "03101"}}},
{"geometry": {"type": "Point", "coordinates": [-71.4644440691, 42.9908768079]}, "type": "Feature", "properties": {"collection_times": [{"days": "Mon-Fri", "time": "5:00pm"}, {"days": "Sat", "time": "1:00pm"}, {"days": "Sun", "time": "Closed"}], "id": "0310100059", "name": "USPS COLLECTION BOX - BLUE BOX", "address": {"city": "MANCHESTER", "state": "NH", "street": "45 MARKET ST", "postcode": "03101"}}},
{"geometry": {"type": "Point", "coordinates": [-71.4637057571, 42.990691708]}, "type": "Feature", "properties": {"collection_times": [{"days": "Mon-Fri", "time": "5:00pm"}, {"days": "Sat", "time": "1:00pm"}, {"days": "Sun", "time": "Closed"}], "id": "0310100062", "name": "USPS COLLECTION BOX - BLUE BOX", "address": {"city": "MANCHESTER", "state": "NH", "street": "65 MIDDLE ST", "postcode": "03101"}}},
{"geometry": {"type": "Point", "coordinates": [-71.4637057571, 42.990691708]}, "type": "Feature", "properties": {"collection_times": [{"days": "Mon-Fri", "time": "5:00pm"}, {"days": "Sat", "time": "1:00pm"}, {"days": "Sun", "time": "Closed"}], "id": "0310100063", "name": "USPS COLLECTION BOX - BLUE BOX", "address": {"city": "MANCHESTER", "state": "NH", "street": "65 MIDDLE ST", "postcode": "03101"}}},
{"geometry": {"type": "Point", "coordinates": [-71.4637057571, 42.990691708]}, "type": "Feature", "properties": {"collection_times": [{"days": "Mon-Fri", "time": "4:30pm"}, {"days": "Sat", "time": "1:00pm"}, {"days": "Sun", "time": "Closed"}], "id": "0310100064", "name": "USPS COLLECTION BOX - BLUE BOX", "address": {"city": "MANCHESTER", "state": "NH", "street": "186 GRANITE ST", "postcode": "03101"}}},
{"geometry": {"type": "Point", "coordinates": [-71.4676191119, 42.9955886308]}, "type": "Feature", "properties": {"collection_times": [{"days": "Mon-Fri", "time": "4:30pm"}, {"days": "Sat", "time": "1:00pm"}, {"days": "Sun", "time": "Closed"}], "id": "0310100065", "name": "USPS COLLECTION BOX - BLUE BOX", "address": {"city": "MANCHESTER", "state": "NH", "street": "540 NORTH COMMERCIAL ST", "postcode": "03101"}}},
{"geometry": {"type": "Point", "coordinates": [-71.4676191119, 42.9955886308]}, "type": "Feature", "properties": {"collection_times": [{"days": "Mon-Fri", "time": "4:30pm"}, {"days": "Sat", "time": "1:00pm"}, {"days": "Sun", "time": "Closed"}], "id": "0310100070", "name": "USPS COLLECTION BOX - BLUE BOX", "address": {"city": "MANCHESTER", "state": "NH", "street": "540 NORTH COMMERCIAL ST", "postcode": "03101"}}},
{"geometry": {"type": "Point", "coordinates": [-71.4611099938, 42.9958202399]}, "type": "Feature", "properties": {"collection_times": [{"days": "Mon-Fri", "time": "4:00pm"}, {"days": "Sat", "time": "1:00pm"}, {"days": "Sun", "time": "Closed"}], "id": "0310100071", "name": "USPS COLLECTION BOX - BLUE BOX", "address": {"city": "MANCHESTER", "state": "NH", "street": "77 PEARL ST", "postcode": "03101"}}},
{"geometry": {"type": "Point", "coordinates": [-71.4637057571, 42.990691708]}, "type": "Feature", "properties": {"collection_times": [{"days": "Mon-Fri", "time": "5:30pm"}, {"days": "Sat", "time": "3:00pm"}, {"days": "Sun", "time": "Closed"}], "id": "0310100072", "name": "USPS COLLECTION BOX - BLUE BOX", "address": {"city": "MANCHESTER", "state": "NH", "street": "650 ELM ST", "postcode": "03101"}}},
{"geometry": {"type": "Point", "coordinates": [-71.4631525672, 42.9939437949]}, "type": "Feature", "properties": {"collection_times": [{"days": "Mon-Fri", "time": "5:00pm"}, {"days": "Sat", "time": "3:00pm"}, {"days": "Sun", "time": "Closed"}], "id": "0310100075", "name": "USPS COLLECTION BOX - BLUE BOX", "address": {"city": "MANCHESTER", "state": "NH", "street": "2 WALL ST", "postcode": "03101"}}},
{"geometry": {"type": "Point", "coordinates": [-71.4605945355, 42.9881580082]}, "type": "Feature", "properties": {"collection_times": [{"days": "Mon-Fri", "time": "5:15pm"}, {"days": "Sat", "time": "1:00pm"}, {"days": "Sun", "time": "Closed"}], "id": "0310100080", "name": "USPS COLLECTION BOX - BLUE BOX", "address": {"city": "MANCHESTER", "state": "NH", "street": "300 CHESTNUT ST", "postcode": "03101"}}},
{"geometry": {"type": "Point", "coordinates": [-71.4637057571, 42.990691708]}, "type": "Feature", "properties": {"collection_times": [{"days": "Mon-Fri", "time": "4:00pm"}, {"days": "Sat", "time": "1:00pm"}, {"days": "Sun", "time": "Closed"}], "id": "0310100081", "name": "USPS COLLECTION BOX - BLUE BOX", "address": {"city": "MANCHESTER", "state": "NH", "street": "464 CHESTNUT ST", "postcode": "03101"}}},
{"geometry": {"type": "Point", "coordinates": [-71.4637057571, 42.990691708]}, "type": "Feature", "properties": {"collection_times": [{"days": "Mon-Fri", "time": "5:30pm"}, {"days": "Sat", "time": "1:00pm"}, {"days": "Sun", "time": "Closed"}], "id": "0310100082", "name": "USPS COLLECTION BOX - BLUE BOX", "address": {"city": "MANCHESTER", "state": "NH", "street": "129 AMHERST ST", "postcode": "03101"}}},
{"geometry": {"type": "Point", "coordinates": [-71.4631076899, 42.9901311194]}, "type": "Feature", "properties": {"collection_times": [{"days": "Mon-Fri", "time": "5:00pm"}, {"days": "Sat", "time": "1:00pm"}, {"days": "Sun", "time": "Closed"}], "id": "0310100083", "name": "USPS COLLECTION BOX - BLUE BOX", "address": {"city": "MANCHESTER", "state": "NH", "street": "844 ELM ST", "postcode": "03101"}}},
{"geometry": {"type": "Point", "coordinates": [-71.4631664212, 42.9923127548]}, "type": "Feature", "properties": {"collection_times": [{"days": "Mon-Fri", "time": "5:00pm"}, {"days": "Sat", "time": "12:00pm"}, {"days": "Sun", "time": "Closed"}], "id": "0310100084", "name": "USPS COLLECTION BOX - PO LOBBY", "address": {"city": "MANCHESTER", "state": "NH", "street": "1000 ELM ST", "postcode": "03101"}}},
{"geometry": {"type": "Point", "coordinates": [-71.4804269199, 42.9932300501]}, "type": "Feature", "properties": {"collection_times": [{"days": "Mon-Sat", "time": "1:00pm"}, {"days": "Sun", "time": "Closed"}], "id": "0310200002", "name": "USPS COLLECTION BOX - BLUE BOX", "address": {"city": "MANCHESTER", "state": "NH", "street": "270 AMORY ST", "postcode": "03102"}}},
{"geometry": {"type": "Point", "coordinates": [-71.4951192972, 42.9870662372]}, "type": "Feature", "properties": {"collection_times": [{"days": "Mon-Sat", "time": "1:00pm"}, {"days": "Sun", "time": "Closed"}], "id": "0310200004", "name": "USPS COLLECTION BOX - BLUE BOX", "address": {"city": "MANCHESTER", "state": "NH", "street": "435 MAST RD", "postcode": "03102"}}},
{"geometry": {"type": "Point", "coordinates": [-71.4848876592, 42.9976306817]}, "type": "Feature", "properties": {"collection_times": [{"days": "Mon-Fri", "time": "11:00am"}, {"days": "Sat", "time": "12:00pm"}, {"days": "Sun", "time": "Closed"}], "id": "0310200006", "name": "USPS COLLECTION BOX - BLUE BOX", "address": {"city": "MANCHESTER", "state": "NH", "street": "90 BREMER ST", "postcode": "03102"}}},
{"geometry": {"type": "Point", "coordinates": [-71.4907369986, 43.0078534982]}, "type": "Feature", "properties": {"collection_times": [{"days": "Mon-Fri", "time": "5:30pm"}, {"days": "Sat", "time": "1:00pm"}, {"days": "Sun", "time": "Closed"}], "id": "0310200021", "name": "USPS COLLECTION BOX - BLUE BOX", "address": {"city": "MANCHESTER", "state": "NH", "street": "10 LANCE LN", "postcode": "03102"}}},
{"geometry": {"type": "Point", "coordinates": [-71.4954067286, 42.9872913918]}, "type": "Feature", "properties": {"collection_times": [{"days": "Mon-Sat", "time": "1:00pm"}, {"days": "Sun", "time": "Closed"}], "id": "0310200023", "name": "USPS COLLECTION BOX - BLUE BOX", "address": {"city": "MANCHESTER", "state": "NH", "street": "443 MAST RD", "postcode": "03102"}}},
{"geometry": {"type": "Point", "coordinates": [-71.4846395336, 42.9806409073]}, "type": "Feature", "properties": {"collection_times": [{"days": "Mon-Sat", "time": "1:00pm"}, {"days": "Sun", "time": "Closed"}], "id": "0310200024", "name": "USPS COLLECTION BOX - BLUE BOX", "address": {"city": "MANCHESTER", "state": "NH", "street": "605 MAST RD", "postcode": "03102"}}},
{"geometry": {"type": "Point", "coordinates": [-71.4734619604, 42.9921069755]}, "type": "Feature", "properties": {"collection_times": [{"days": "Mon-Fri", "time": "3:00pm"}, {"days": "Sat", "time": "1:00pm"}, {"days": "Sun", "time": "Closed"}], "id": "0310200025", "name": "USPS COLLECTION BOX - BLUE BOX", "address": {"city": "MANCHESTER", "state": "NH", "street": "100 MCGREGOR ST", "postcode": "03102"}}},
{"geometry": {"type": "Point", "coordinates": [-71.4728924508, 42.9933583287]}, "type": "Feature", "properties": {"collection_times": [{"days": "Mon-Fri", "time": "3:00pm"}, {"days": "Sat", "time": "1:00pm"}, {"days": "Sun", "time": "Closed"}], "id": "0310200026", "name": "USPS COLLECTION BOX - BLUE BOX", "address": {"city": "MANCHESTER", "state": "NH", "street": "200 MCGREGOR ST", "postcode": "03102"}}},
{"geometry": {"type": "Point", "coordinates": [-71.4748069885, 42.9822937538]}, "type": "Feature", "properties": {"collection_times": [{"days": "Mon-Sat", "time": "1:00pm"}, {"days": "Sun", "time": "Closed"}], "id": "0310200029", "name": "USPS COLLECTION BOX - BLUE BOX", "address": {"city": "MANCHESTER", "state": "NH", "street": "85 S MAIN ST", "postcode": "03102"}}},
{"geometry": {"type": "Point", "coordinates": [-71.4918935186, 42.9802320772]}, "type": "Feature", "properties": {"collection_times": [{"days": "Mon-Sat", "time": "1:00pm"}, {"days": "Sun", "time": "Closed"}], "id": "0310200031", "name": "USPS COLLECTION BOX - BLUE BOX", "address": {"city": "MANCHESTER", "state": "NH", "street": "18 ROCKLAND AVE", "postcode": "03102"}}},
{"geometry": {"type": "Point", "coordinates": [-71.4907369986, 43.0078534982]}, "type": "Feature", "properties": {"collection_times": [{"days": "Mon-Fri", "time": "3:00pm"}, {"days": "Sat", "time": "1:00pm"}, {"days": "Sun", "time": "Closed"}], "id": "0310200034", "name": "USPS COLLECTION BOX - BLUE BOX", "address": {"city": "MANCHESTER", "state": "NH", "street": "100 SAINT ANSELM DR", "postcode": "03102"}}},
{"geometry": {"type": "Point", "coordinates": [-71.4907369986, 43.0078534982]}, "type": "Feature", "properties": {"collection_times": [{"days": "Mon-Fri", "time": "3:00pm"}, {"days": "Sat", "time": "1:00pm"}, {"days": "Sun", "time": "Closed"}], "id": "0310200035", "name": "USPS COLLECTION BOX - BLUE BOX", "address": {"city": "MANCHESTER", "state": "NH", "street": "100 SAINT ANSELM DR", "postcode": "03102"}}},
{"geometry": {"type": "Point", "coordinates": [-71.4877517124, 42.9930448785]}, "type": "Feature", "properties": {"collection_times": [{"days": "Mon-Sat", "time": "1:00pm"}, {"days": "Sun", "time": "Closed"}], "id": "0310200042", "name": "USPS COLLECTION BOX - BLUE BOX", "address": {"city": "MANCHESTER", "state": "NH", "street": "5 KEARSARGE ST", "postcode": "03102"}}},
{"geometry": {"type": "Point", "coordinates": [-71.4475379918, 42.9675502083]}, "type": "Feature", "properties": {"collection_times": [{"days": "Mon-Fri", "time": "1:30pm"}, {"days": "Sat", "time": "1:00pm"}, {"days": "Sun", "time": "Closed"}], "id": "0310300007", "name": "USPS COLLECTION BOX - BLUE BOX", "address": {"city": "MANCHESTER", "state": "NH", "street": "706 SOMERVILLE ST", "postcode": "03103"}}},
{"geometry": {"type": "Point", "coordinates": [-71.4525784212, 42.9429489398]}, "type": "Feature", "properties": {"collection_times": [{"days": "Mon-Sat", "time": "1:00pm"}, {"days": "Sun", "time": "Closed"}], "id": "0310300009", "name": "USPS COLLECTION BOX - BLUE BOX", "address": {"city": "MANCHESTER", "state": "NH", "street": "2456 BROWN AVE", "postcode": "03103"}}},
{"geometry": {"type": "Point", "coordinates": [-71.4475379918, 42.9675502083]}, "type": "Feature", "properties": {"collection_times": [{"days": "Mon-Sat", "time": "1:00pm"}, {"days": "Sun", "time": "Closed"}], "id": "0310300010", "name": "USPS COLLECTION BOX - BLUE BOX", "address": {"city": "MANCHESTER", "state": "NH", "street": "2626 BROWN AVE", "postcode": "03103"}}},
{"geometry": {"type": "Point", "coordinates": [-71.4373056763, 42.9838629446]}, "type": "Feature", "properties": {"collection_times": [{"days": "Mon-Fri", "time": "3:30pm"}, {"days": "Sat", "time": "1:00pm"}, {"days": "Sun", "time": "Closed"}], "id": "0310300018", "name": "USPS COLLECTION BOX - BLUE BOX", "address": {"city": "MANCHESTER", "state": "NH", "street": "1 ELLIOT WAY", "postcode": "03103"}}},
{"geometry": {"type": "Point", "coordinates": [-71.4475379918, 42.9675502083]}, "type": "Feature", "properties": {"collection_times": [{"days": "Mon-Sat", "time": "8:00pm"}, {"days": "Sun", "time": "Closed"}], "id": "0310300020", "name": "USPS COLLECTION BOX - BLUE BOX", "address": {"city": "MANCHESTER", "state": "NH", "street": "955 GOFFS FALLS RD", "postcode": "03103"}}},
{"geometry": {"type": "Point", "coordinates": [-71.4475379918, 42.9675502083]}, "type": "Feature", "properties": {"collection_times": [{"days": "Mon-Sat", "time": "7:00pm"}, {"days": "Sun", "time": "Closed"}], "id": "0310300021", "name": "USPS COLLECTION BOX - EXPRESS", "address": {"city": "MANCHESTER", "state": "NH", "street": "955 GOFFS FALLS RD", "postcode": "03103"}}},
{"geometry": {"type": "Point", "coordinates": [-71.4475379918, 42.9675502083]}, "type": "Feature", "properties": {"collection_times": [{"days": "Mon-Sat", "time": "8:00pm"}, {"days": "Sun", "time": "Closed"}], "id": "0310300022", "name": "USPS COLLECTION BOX - BLUE BOX", "address": {"city": "MANCHESTER", "state": "NH", "street": "955 GOFFS FALLS RD", "postcode": "03103"}}},
{"geometry": {"type": "Point", "coordinates": [-71.4475379918, 42.9675502083]}, "type": "Feature", "properties": {"collection_times": [{"days": "Mon-Sat", "time": "8:00pm"}, {"days": "Sun", "time": "Closed"}], "id": "0310300023", "name": "USPS COLLECTION BOX - BLUE BOX", "address": {"city": "MANCHESTER", "state": "NH", "street": "955 GOFFS FALLS RD", "postcode": "03103"}}},
{"geometry": {"type": "Point", "coordinates": [-71.4574976526, 42.980256467]}, "type": "Feature", "properties": {"collection_times": [{"days": "Mon-Fri", "time": "1:30pm"}, {"days": "Sat", "time": "1:00pm"}, {"days": "Sun", "time": "Closed"}], "id": "0310300026", "name": "USPS COLLECTION BOX - BLUE BOX", "address": {"city": "MANCHESTER", "state": "NH", "street": "200 UNION ST", "postcode": "03103"}}},
{"geometry": {"type": "Point", "coordinates": [-71.4410984176, 42.9589362218]}, "type": "Feature", "properties": {"collection_times": [{"days": "Mon-Fri", "time": "4:00pm"}, {"days": "Sat", "time": "1:00pm"}, {"days": "Sun", "time": "Closed"}], "id": "0310300028", "name": "USPS COLLECTION BOX - BLUE BOX", "address": {"city": "MANCHESTER", "state": "NH", "street": "201 JOHN E DEVINE DR", "postcode": "03103"}}},
{"geometry": {"type": "Point", "coordinates": [-71.4324020817, 42.9651324443]}, "type": "Feature", "properties": {"collection_times": [{"days": "Mon-Sat", "time": "10:00am"}, {"days": "Sun", "time": "Closed"}], "id": "0310300029", "name": "USPS COLLECTION BOX - BLUE BOX", "address": {"city": "MANCHESTER", "state": "NH", "street": "173 LOIS ST", "postcode": "03103"}}},
{"geometry": {"type": "Point", "coordinates": [-71.4475379918, 42.9675502083]}, "type": "Feature", "properties": {"collection_times": [{"days": "Mon-Fri", "time": "1:30pm"}, {"days": "Sat", "time": "1:00pm"}, {"days": "Sun", "time": "Closed"}], "id": "0310300031", "name": "USPS COLLECTION BOX - BLUE BOX", "address": {"city": "MANCHESTER", "state": "NH", "street": "399 SILVER ST", "postcode": "03103"}}},
{"geometry": {"type": "Point", "coordinates": [-71.4403218354, 42.9829778485]}, "type": "Feature", "properties": {"collection_times": [{"days": "Mon-Fri", "time": "1:30pm"}, {"days": "Sat", "time": "1:00pm"}, {"days": "Sun", "time": "Closed"}], "id": "0310300032", "name": "USPS COLLECTION BOX - BLUE BOX", "address": {"city": "MANCHESTER", "state": "NH", "street": "375 MASSABESIC ST", "postcode": "03103"}}},
{"geometry": {"type": "Point", "coordinates": [-71.4475379918, 42.9675502083]}, "type": "Feature", "properties": {"collection_times": [{"days": "Mon-Fri", "time": "1:30pm"}, {"days": "Sat", "time": "1:00pm"}, {"days": "Sun", "time": "Closed"}], "id": "0310300033", "name": "USPS COLLECTION BOX - BLUE BOX", "address": {"city": "MANCHESTER", "state": "NH", "street": "609 S BEECH ST", "postcode": "03103"}}},
{"geometry": {"type": "Point", "coordinates": [-71.4344835268, 42.9444206324]}, "type": "Feature", "properties": {"collection_times": [{"days": "Mon-Fri", "time": "5:00pm"}, {"days": "Sat", "time": "1:00pm"}, {"days": "Sun", "time": "Closed"}], "id": "0310300034", "name": "USPS COLLECTION BOX - BLUE BOX", "address": {"city": "MANCHESTER", "state": "NH", "street": "7 PERIMETER RD", "postcode": "03103"}}},
{"geometry": {"type": "Point", "coordinates": [-71.4450458063, 42.9641407804]}, "type": "Feature", "properties": {"collection_times": [{"days": "Mon-Fri", "time": "3:30pm"}, {"days": "Sat", "time": "1:00pm"}, {"days": "Sun", "time": "Closed"}], "id": "0310300038", "name": "USPS COLLECTION BOX - BLUE BOX", "address": {"city": "MANCHESTER", "state": "NH", "street": "777 S WILLOW ST", "postcode": "03103"}}},
{"geometry": {"type": "Point", "coordinates": [-71.4683367121, 42.9732795746]}, "type": "Feature", "properties": {"collection_times": [{"days": "Mon-Fri", "time": "4:00pm"}, {"days": "Sat", "time": "1:00pm"}, {"days": "Sun", "time": "Closed"}], "id": "0310300047", "name": "USPS COLLECTION BOX - BLUE BOX", "address": {"city": "MANCHESTER", "state": "NH", "street": "77 PEARL ST", "postcode": "03103"}}},
{"geometry": {"type": "Point", "coordinates": [-71.4348871495, 42.9832411045]}, "type": "Feature", "properties": {"collection_times": [{"days": "Mon-Sat", "time": "1:00pm"}, {"days": "Sun", "time": "Closed"}], "id": "0310300048", "name": "USPS COLLECTION BOX - BLUE BOX", "address": {"city": "MANCHESTER", "state": "NH", "street": "130 TARRYTOWN RD", "postcode": "03103"}}},
{"geometry": {"type": "Point", "coordinates": [-71.4370355476, 42.9838711595]}, "type": "Feature", "properties": {"collection_times": [{"days": "Mon-Fri", "time": "3:30pm"}, {"days": "Sat", "time": "1:00pm"}, {"days": "Sun", "time": "Closed"}], "id": "0310300050", "name": "USPS COLLECTION BOX - BLUE BOX", "address": {"city": "MANCHESTER", "state": "NH", "street": "4 ELLIOT WAY", "postcode": "03103"}}},
{"geometry": {"type": "Point", "coordinates": [-71.4389423676, 42.9612920724]}, "type": "Feature", "properties": {"collection_times": [{"days": "Mon-Sat", "time": "1:00pm"}, {"days": "Sun", "time": "Closed"}], "id": "0310300062", "name": "USPS COLLECTION BOX - BLUE BOX", "address": {"city": "MANCHESTER", "state": "NH", "street": "1111 S WILLOW ST", "postcode": "03103"}}},
{"geometry": {"type": "Point", "coordinates": [-71.4475379918, 42.9675502083]}, "type": "Feature", "properties": {"collection_times": [{"days": "Mon-Sat", "time": "8:00pm"}, {"days": "Sun", "time": "Closed"}], "id": "0310300063", "name": "USPS COLLECTION BOX - PO LOBBY", "address": {"city": "MANCHESTER", "state": "NH", "street": "955 GOFFS FALLS RD", "postcode": "03103"}}},
{"geometry": {"type": "Point", "coordinates": [-71.4683514433, 42.9732395901]}, "type": "Feature", "properties": {"collection_times": [{"days": "Mon-Fri", "time": "4:00pm"}, {"days": "Sat", "time": "1:00pm"}, {"days": "Sun", "time": "Closed"}], "id": "0310300064", "name": "USPS COLLECTION BOX - BLUE BOX", "address": {"city": "MANCHESTER", "state": "NH", "street": "3 SUNDIAL AVE", "postcode": "03103"}}},
{"geometry": {"type": "Point", "coordinates": [-71.4475379918, 42.9675502083]}, "type": "Feature", "properties": {"collection_times": [{"days": "Mon-Sat", "time": "7:30pm"}, {"days": "Sun", "time": "Closed"}], "id": "0310300066", "name": "USPS COLLECTION BOX - BLUE BOX", "address": {"city": "MANCHESTER", "state": "NH", "street": "955 GOFFS FALLS RD", "postcode": "03103"}}},
{"geometry": {"type": "Point", "coordinates": [-71.4683367121, 42.9732795746]}, "type": "Feature", "properties": {"collection_times": [{"days": "Mon-Fri", "time": "4:00pm"}, {"days": "Sat", "time": "1:00pm"}, {"days": "Sun", "time": "Closed"}], "id": "0310300068", "name": "USPS COLLECTION BOX - BLUE BOX", "address": {"city": "MANCHESTER", "state": "NH", "street": "1 SUNDIAL AVE", "postcode": "03103"}}},
{"geometry": {"type": "Point", "coordinates": [-71.43808787, 42.9280990281]}, "type": "Feature", "properties": {"collection_times": [{"days": "Mon-Sat", "time": "12:00pm"}, {"days": "Sun", "time": "Closed"}], "id": "0310300070", "name": "USPS COLLECTION BOX - BLUE BOX", "address": {"city": "MANCHESTER", "state": "NH", "street": "1 AIRPORT RD", "postcode": "03103"}}},
{"geometry": {"type": "Point", "coordinates": [-71.4410129688, 42.9488854951]}, "type": "Feature", "properties": {"collection_times": [{"days": "Mon-Sat", "time": "8:00pm"}, {"days": "Sun", "time": "Closed"}], "id": "0310300071", "name": "USPS COLLECTION BOX - BLUE BOX", "address": {"city": "MANCHESTER", "state": "NH", "street": "955 GOFFS FALLS RD", "postcode": "03103"}}},
{"geometry": {"type": "Point", "coordinates": [-71.4475379918, 42.9675502083]}, "type": "Feature", "properties": {"collection_times": [{"days": "Mon-Fri", "time": "8:00pm"}, {"days": "Sat", "time": "1:00pm"}, {"days": "Sun", "time": "Closed"}], "id": "0310300075", "name": "USPS COLLECTION BOX - APC", "address": {"city": "MANCHESTER", "state": "NH", "street": "955 GOFFS FALLS RD", "postcode": "03103"}}},
{"geometry": {"type": "Point", "coordinates": [-71.4482365435, 42.9828288701]}, "type": "Feature", "properties": {"collection_times": [{"days": "Mon-Fri", "time": "3:30pm"}, {"days": "Sat", "time": "12:00pm"}, {"days": "Sun", "time": "Closed"}], "id": "0310300076", "name": "USPS COLLECTION BOX - BLUE BOX", "address": {"city": "MANCHESTER", "state": "NH", "street": "340 WILSON ST", "postcode": "03103"}}},
{"geometry": {"type": "Point", "coordinates": [-71.4439670927, 42.9854477328]}, "type": "Feature", "properties": {"collection_times": [{"days": "Mon-Fri", "time": "1:30pm"}, {"days": "Sat", "time": "1:00pm"}, {"days": "Sun", "time": "Closed"}], "id": "0310300077", "name": "USPS COLLECTION BOX - BLUE BOX", "address": {"city": "MANCHESTER", "state": "NH", "street": "171 MASSABESIC ST", "postcode": "03103"}}},
{"geometry": {"type": "Point", "coordinates": [-71.4461479482, 42.9730340022]}, "type": "Feature", "properties": {"collection_times": [{"days": "Mon-Fri", "time": "1:30pm"}, {"days": "Sat", "time": "1:00pm"}, {"days": "Sun", "time": "Closed"}], "id": "0310300080", "name": "USPS COLLECTION BOX - BLUE BOX", "address": {"city": "MANCHESTER", "state": "NH", "street": "415 CILLEY RD", "postcode": "03103"}}},
{"geometry": {"type": "Point", "coordinates": [-71.4473598468, 42.9675718875]}, "type": "Feature", "properties": {"collection_times": [{"days": "Mon-Fri", "time": "5:15pm"}, {"days": "Sat", "time": "1:00pm"}, {"days": "Sun", "time": "Closed"}], "id": "0310300082", "name": "USPS COLLECTION BOX - BLUE BOX", "address": {"city": "MANCHESTER", "state": "NH", "street": "300 CHESTNUT ST", "postcode": "03103"}}},
{"geometry": {"type": "Point", "coordinates": [-71.4484706338, 42.9909762862]}, "type": "Feature", "properties": {"collection_times": [{"days": "Mon-Fri", "time": "1:30pm"}, {"days": "Sat", "time": "1:00pm"}, {"days": "Sun", "time": "Closed"}], "id": "0310400004", "name": "USPS COLLECTION BOX - BLUE BOX", "address": {"city": "MANCHESTER", "state": "NH", "street": "424 HANOVER ST", "postcode": "03104"}}},
{"geometry": {"type": "Point", "coordinates": [-71.4638099509, 43.0040197591]}, "type": "Feature", "properties": {"collection_times": [{"days": "Mon-Fri", "time": "5:15pm"}, {"days": "Sat", "time": "1:00pm"}, {"days": "Sun", "time": "Closed"}], "id": "0310400005", "name": "USPS COLLECTION BOX - BLUE BOX", "address": {"city": "MANCHESTER", "state": "NH", "street": "70 BAY ST", "postcode": "03104"}}},
{"geometry": {"type": "Point", "coordinates": [-71.4638099509, 43.0040197591]}, "type": "Feature", "properties": {"collection_times": [{"days": "Mon-Fri", "time": "5:15pm"}, {"days": "Sat", "time": "1:00pm"}, {"days": "Sun", "time": "Closed"}], "id": "0310400006", "name": "USPS COLLECTION BOX - BLUE BOX", "address": {"city": "MANCHESTER", "state": "NH", "street": "70 BAY ST", "postcode": "03104"}}},
{"geometry": {"type": "Point", "coordinates": [-71.4638099509, 43.0040197591]}, "type": "Feature", "properties": {"collection_times": [{"days": "Mon-Fri", "time": "5:15pm"}, {"days": "Sat", "time": "1:00pm"}, {"days": "Sun", "time": "Closed"}], "id": "0310400007", "name": "USPS COLLECTION BOX - BLUE BOX", "address": {"city": "MANCHESTER", "state": "NH", "street": "70 BAY ST", "postcode": "03104"}}},
{"geometry": {"type": "Point", "coordinates": [-71.4638099509, 43.0040197591]}, "type": "Feature", "properties": {"collection_times": [{"days": "Mon-Fri", "time": "5:15pm"}, {"days": "Sat", "time": "1:00pm"}, {"days": "Sun", "time": "Closed"}], "id": "0310400008", "name": "USPS COLLECTION BOX - BLUE BOX", "address": {"city": "MANCHESTER", "state": "NH", "street": "70 BAY ST", "postcode": "03104"}}},
{"geometry": {"type": "Point", "coordinates": [-71.4551545738, 43.0332630158]}, "type": "Feature", "properties": {"collection_times": [{"days": "Mon-Sat", "time": "1:00pm"}, {"days": "Sun", "time": "Closed"}], "id": "0310400011", "name": "USPS COLLECTION BOX - BLUE BOX", "address": {"city": "MANCHESTER", "state": "NH", "street": "88 BICENTENNIAL DR", "postcode": "03104"}}},
{"geometry": {"type": "Point", "coordinates": [-71.4545194614, 43.0008888471]}, "type": "Feature", "properties": {"collection_times": [{"days": "Mon-Sat", "time": "12:00pm"}, {"days": "Sun", "time": "Closed"}], "id": "0310400014", "name": "USPS COLLECTION BOX - BLUE BOX", "address": {"city": "MANCHESTER", "state": "NH", "street": "182 BROOK ST", "postcode": "03104"}}},
{"geometry": {"type": "Point", "coordinates": [-71.4471773564, 43.005073676]}, "type": "Feature", "properties": {"collection_times": [{"days": "Mon-Fri", "time": "2:00pm"}, {"days": "Sat", "time": "1:00pm"}, {"days": "Sun", "time": "Closed"}], "id": "0310400016", "name": "USPS COLLECTION BOX - BLUE BOX", "address": {"city": "MANCHESTER", "state": "NH", "street": "2264 ELM ST", "postcode": "03104"}}},
{"geometry": {"type": "Point", "coordinates": [-71.4361376513, 43.0039207653]}, "type": "Feature", "properties": {"collection_times": [{"days": "Mon-Fri", "time": "3:00pm"}, {"days": "Sat", "time": "1:00pm"}, {"days": "Sun", "time": "Closed"}], "id": "0310400019", "name": "USPS COLLECTION BOX - BLUE BOX", "address": {"city": "MANCHESTER", "state": "NH", "street": "135 D W HWY", "postcode": "03104"}}},
{"geometry": {"type": "Point", "coordinates": [-71.4653753104, 43.0056431404]}, "type": "Feature", "properties": {"collection_times": [{"days": "Mon-Fri", "time": "4:45pm"}, {"days": "Sat", "time": "1:00pm"}, {"days": "Sun", "time": "Closed"}], "id": "0310400023", "name": "USPS COLLECTION BOX - BLUE BOX", "address": {"city": "MANCHESTER", "state": "NH", "street": "1850 ELM ST", "postcode": "03104"}}},
{"geometry": {"type": "Point", "coordinates": [-71.5775936257, 43.6855232857]}, "type": "Feature", "properties": {"collection_times": [{"days": "Mon-Fri", "time": "3:30pm"}, {"days": "Sat", "time": "1:00pm"}, {"days": "Sun", "time": "Closed"}], "id": "0310400027", "name": "USPS COLLECTION BOX - BLUE BOX", "address": {"city": "MANCHESTER", "state": "NH", "street": "861 HANOVER ST", "postcode": "03104"}}},
{"geometry": {"type": "Point", "coordinates": [-71.5775936257, 43.6855232857]}, "type": "Feature", "properties": {"collection_times": [{"days": "Mon-Fri", "time": "3:30pm"}, {"days": "Sat", "time": "1:00pm"}, {"days": "Sun", "time": "Closed"}], "id": "0310400028", "name": "USPS COLLECTION BOX - BLUE BOX", "address": {"city": "MANCHESTER", "state": "NH", "street": "861 HANOVER ST", "postcode": "03104"}}},
{"geometry": {"type": "Point", "coordinates": [-71.4290415703, 42.9877417944]}, "type": "Feature", "properties": {"collection_times": [{"days": "Mon-Fri", "time": "3:30pm"}, {"days": "Sat", "time": "1:00pm"}, {"days": "Sun", "time": "Closed"}], "id": "0310400030", "name": "USPS COLLECTION BOX - BLUE BOX", "address": {"city": "MANCHESTER", "state": "NH", "street": "835 HANOVER ST", "postcode": "03104"}}},
{"geometry": {"type": "Point", "coordinates": [-71.4397377106, 43.011587238]}, "type": "Feature", "properties": {"collection_times": [{"days": "Mon-Fri", "time": "2:30pm"}, {"days": "Sat", "time": "1:00pm"}, {"days": "Sun", "time": "Closed"}], "id": "0310400039", "name": "USPS COLLECTION BOX - BLUE BOX", "address": {"city": "MANCHESTER", "state": "NH", "street": "718 SMYTH RD", "postcode": "03104"}}},
{"geometry": {"type": "Point", "coordinates": [-71.463169777, 43.0074702999]}, "type": "Feature", "properties": {"collection_times": [{"days": "Mon-Fri", "time": "2:00pm"}, {"days": "Sat", "time": "1:00pm"}, {"days": "Sun", "time": "Closed"}], "id": "0310400043", "name": "USPS COLLECTION BOX - BLUE BOX", "address": {"city": "MANCHESTER", "state": "NH", "street": "815 CHESTNUT ST", "postcode": "03104"}}},
{"geometry": {"type": "Point", "coordinates": [-71.4595460841, 43.005189042]}, "type": "Feature", "properties": {"collection_times": [{"days": "Mon-Fri", "time": "4:45pm"}, {"days": "Sat", "time": "1:00pm"}, {"days": "Sun", "time": "Closed"}], "id": "0310400045", "name": "USPS COLLECTION BOX - BLUE BOX", "address": {"city": "MANCHESTER", "state": "NH", "street": "100 NORTH ST", "postcode": "03104"}}},
{"geometry": {"type": "Point", "coordinates": [-71.4638099509, 43.0040197591]}, "type": "Feature", "properties": {"collection_times": [{"days": "Mon-Fri", "time": "5:15pm"}, {"days": "Sat", "time": "1:00pm"}, {"days": "Sun", "time": "Closed"}], "id": "0310400046", "name": "USPS COLLECTION BOX - BLUE BOX", "address": {"city": "MANCHESTER", "state": "NH", "street": "70 BAY ST", "postcode": "03104"}}},
{"geometry": {"type": "Point", "coordinates": [-71.4227578001, 43.0025597642]}, "type": "Feature", "properties": {"collection_times": [{"days": "Mon-Sat", "time": "1:00pm"}, {"days": "Sun", "time": "Closed"}], "id": "0310400048", "name": "USPS COLLECTION BOX - BLUE BOX", "address": {"city": "MANCHESTER", "state": "NH", "street": "50 EDWARD J ROY DR", "postcode": "03104"}}},
{"geometry": {"type": "Point", "coordinates": [-71.4471860466, 43.00508232]}, "type": "Feature", "properties": {"collection_times": [{"days": "Mon-Fri", "time": "5:15pm"}, {"days": "Sat", "time": "1:00pm"}, {"days": "Sun", "time": "Closed"}], "id": "0310400050", "name": "USPS COLLECTION BOX - BLUE BOX", "address": {"city": "MANCHESTER", "state": "NH", "street": "70 BAY ST", "postcode": "03104"}}},
{"geometry": {"type": "Point", "coordinates": [-71.4630872277, 42.9911715116]}, "type": "Feature", "properties": {"collection_times": [{"days": "Mon-Fri", "time": "5:15pm"}, {"days": "Sat", "time": "1:00pm"}, {"days": "Sun", "time": "Closed"}], "id": "0310400051", "name": "USPS COLLECTION BOX - BLUE BOX", "address": {"city": "MANCHESTER", "state": "NH", "street": "66 HANOVER ST", "postcode": "03104"}}},
{"geometry": {"type": "Point", "coordinates": [-71.4433494065, 43.0603638713]}, "type": "Feature", "properties": {"collection_times": [{"days": "Mon-Sat", "time": "11:00am"}, {"days": "Sun", "time": "Closed"}], "id": "0310600016", "name": "USPS COLLECTION BOX - BLUE BOX", "address": {"city": "HOOKSETT", "state": "NH", "street": "1106 HOOKSETT RD", "postcode": "03106"}}},
{"geometry": {"type": "Point", "coordinates": [-71.4401265475, 43.0550918697]}, "type": "Feature", "properties": {"collection_times": [{"days": "Mon-Fri", "time": "5:00pm"}, {"days": "Sat", "time": "3:00pm"}, {"days": "Sun", "time": "Closed"}], "id": "0310600017", "name": "USPS COLLECTION BOX - BLUE BOX", "address": {"city": "HOOKSETT", "state": "NH", "street": "1328 HOOKSETT RD", "postcode": "03106"}}},
{"geometry": {"type": "Point", "coordinates": [-71.4401265475, 43.0550918697]}, "type": "Feature", "properties": {"collection_times": [{"days": "Mon-Fri", "time": "5:00pm"}, {"days": "Sat", "time": "3:00pm"}, {"days": "Sun", "time": "Closed"}], "id": "0310600018", "name": "USPS COLLECTION BOX - BLUE BOX", "address": {"city": "HOOKSETT", "state": "NH", "street": "1328 HOOKSETT RD", "postcode": "03106"}}},
{"geometry": {"type": "Point", "coordinates": [-71.4401265475, 43.0550918697]}, "type": "Feature", "properties": {"collection_times": [{"days": "Mon-Fri", "time": "5:00pm"}, {"days": "Sat", "time": "3:00pm"}, {"days": "Sun", "time": "Closed"}], "id": "0310600019", "name": "USPS COLLECTION BOX - PO LOBBY", "address": {"city": "HOOKSETT", "state": "NH", "street": "1328 HOOKSETT RD", "postcode": "03106"}}},
{"geometry": {"type": "Point", "coordinates": [-71.45801407, 43.0773113879]}, "type": "Feature", "properties": {"collection_times": [{"days": "Mon-Sat", "time": "12:00pm"}, {"days": "Sun", "time": "Closed"}], "id": "0310600021", "name": "USPS COLLECTION BOX - BLUE BOX", "address": {"city": "HOOKSETT", "state": "NH", "street": "1558 HOOKSETT RD", "postcode": "03106"}}},
{"geometry": {"type": "Point", "coordinates": [-71.464976932, 43.0961588454]}, "type": "Feature", "properties": {"collection_times": [{"days": "Mon-Sat", "time": "11:00am"}, {"days": "Sun", "time": "Closed"}], "id": "0310600023", "name": "USPS COLLECTION BOX - BLUE BOX", "address": {"city": "HOOKSETT", "state": "NH", "street": "3 RIVERSIDE ST", "postcode": "03106"}}},
{"geometry": {"type": "Point", "coordinates": [-71.4260349194, 42.980907407]}, "type": "Feature", "properties": {"collection_times": [{"days": "Mon-Fri", "time": "3:00pm"}, {"days": "Sat", "time": "1:00pm"}, {"days": "Sun", "time": "Closed"}], "id": "0310900001", "name": "USPS COLLECTION BOX - BLUE BOX", "address": {"city": "MANCHESTER", "state": "NH", "street": "241 CANDIA RD", "postcode": "03109"}}},
{"geometry": {"type": "Point", "coordinates": [-71.4081810666, 42.9822269505]}, "type": "Feature", "properties": {"collection_times": [{"days": "Mon-Fri", "time": "4:30pm"}, {"days": "Sat", "time": "1:00pm"}, {"days": "Sun", "time": "Closed"}], "id": "0310900004", "name": "USPS COLLECTION BOX - BLUE BOX", "address": {"city": "MANCHESTER", "state": "NH", "street": "735 EAST INDUSTRIAL PARK DR", "postcode": "03109"}}},
{"geometry": {"type": "Point", "coordinates": [-71.4081810666, 42.9822269505]}, "type": "Feature", "properties": {"collection_times": [{"days": "Mon-Fri", "time": "4:30pm"}, {"days": "Sat", "time": "1:00pm"}, {"days": "Sun", "time": "Closed"}], "id": "0310900005", "name": "USPS COLLECTION BOX - BLUE BOX", "address": {"city": "MANCHESTER", "state": "NH", "street": "735 EAST INDUSTRIAL PARK DR", "postcode": "03109"}}},
{"geometry": {"type": "Point", "coordinates": [-71.4108574559, 42.9687407398]}, "type": "Feature", "properties": {"collection_times": [{"days": "Mon-Fri", "time": "4:30pm"}, {"days": "Sat", "time": "1:00pm"}, {"days": "Sun", "time": "Closed"}], "id": "0310900008", "name": "USPS COLLECTION BOX - BLUE BOX", "address": {"city": "MANCHESTER", "state": "NH", "street": "676 ISLAND POND RD", "postcode": "03109"}}},
{"geometry": {"type": "Point", "coordinates": [-71.5022318931, 42.9572860054]}, "type": "Feature", "properties": {"collection_times": [{"days": "Mon-Fri", "time": "4:30pm"}, {"days": "Sat", "time": "1:00pm"}, {"days": "Sun", "time": "Closed"}], "id": "0311000001", "name": "USPS COLLECTION BOX - BLUE BOX", "address": {"city": "BEDFORD", "state": "NH", "street": "48 CONSTITUTION DR", "postcode": "03110"}}},
{"geometry": {"type": "Point", "coordinates": [-71.4738598053, 42.9467198159]}, "type": "Feature", "properties": {"collection_times": [{"days": "Mon-Fri", "time": "5:15pm"}, {"days": "Sat", "time": "1:00pm"}, {"days": "Sun", "time": "Closed"}], "id": "0311000006", "name": "USPS COLLECTION BOX - BLUE BOX", "address": {"city": "BEDFORD", "state": "NH", "street": "2 EXECUTIVE PARK DR", "postcode": "03110"}}},
{"geometry": {"type": "Point", "coordinates": [-71.4738598053, 42.9467198159]}, "type": "Feature", "properties": {"collection_times": [{"days": "Mon-Fri", "time": "5:15pm"}, {"days": "Sat", "time": "1:00pm"}, {"days": "Sun", "time": "Closed"}], "id": "0311000008", "name": "USPS COLLECTION BOX - BLUE BOX", "address": {"city": "BEDFORD", "state": "NH", "street": "2 EXECUTIVE PARK DR", "postcode": "03110"}}},
{"geometry": {"type": "Point", "coordinates": [-71.4825951013, 42.9563294878]}, "type": "Feature", "properties": {"collection_times": [{"days": "Mon-Fri", "time": "5:00pm"}, {"days": "Sat", "time": "1:00pm"}, {"days": "Sun", "time": "Closed"}], "id": "0311000010", "name": "USPS COLLECTION BOX - BLUE BOX", "address": {"city": "BEDFORD", "state": "NH", "street": "1 BEDFORD FARMS DR", "postcode": "03110"}}},
{"geometry": {"type": "Point", "coordinates": [-71.4825951013, 42.9563294878]}, "type": "Feature", "properties": {"collection_times": [{"days": "Mon-Fri", "time": "5:00pm"}, {"days": "Sat", "time": "1:00pm"}, {"days": "Sun", "time": "Closed"}], "id": "0311000011", "name": "USPS COLLECTION BOX - BLUE BOX", "address": {"city": "BEDFORD", "state": "NH", "street": "1 BEDFORD FARMS DR", "postcode": "03110"}}},
{"geometry": {"type": "Point", "coordinates": [-71.516689981, 42.9463804758]}, "type": "Feature", "properties": {"collection_times": [{"days": "Mon-Fri", "time": "5:00pm"}, {"days": "Sat", "time": "1:00pm"}, {"days": "Sun", "time": "Closed"}], "id": "0311000017", "name": "USPS COLLECTION BOX - BLUE BOX", "address": {"city": "BEDFORD", "state": "NH", "street": "209 STATE ROUTE 101", "postcode": "03110"}}},
{"geometry": {"type": "Point", "coordinates": [-71.516689981, 42.9463804758]}, "type": "Feature", "properties": {"collection_times": [{"days": "Mon-Fri", "time": "5:00pm"}, {"days": "Sat", "time": "1:00pm"}, {"days": "Sun", "time": "Closed"}], "id": "0311000018", "name": "USPS COLLECTION BOX - BLUE BOX", "address": {"city": "BEDFORD", "state": "NH", "street": "209 STATE ROUTE 101", "postcode": "03110"}}},
{"geometry": {"type": "Point", "coordinates": [-71.4774678301, 42.9515167145]}, "type": "Feature", "properties": {"collection_times": [{"days": "Mon-Fri", "time": "5:15pm"}, {"days": "Sat", "time": "1:00pm"}, {"days": "Sun", "time": "Closed"}], "id": "0311000021", "name": "USPS COLLECTION BOX - BLUE BOX", "address": {"city": "BEDFORD", "state": "NH", "street": "141 S RIVER RD", "postcode": "03110"}}},
{"geometry": {"type": "Point", "coordinates": [-71.4587377142, 42.9103220513]}, "type": "Feature", "properties": {"collection_times": [{"days": "Mon-Fri", "time": "5:15pm"}, {"days": "Sat", "time": "1:00pm"}, {"days": "Sun", "time": "Closed"}], "id": "0311000024", "name": "USPS COLLECTION BOX - BLUE BOX", "address": {"city": "BEDFORD", "state": "NH", "street": "169 S RIVER RD", "postcode": "03110"}}},
{"geometry": {"type": "Point", "coordinates": [-71.4587377142, 42.9103220513]}, "type": "Feature", "properties": {"collection_times": [{"days": "Mon-Fri", "time": "5:15pm"}, {"days": "Sat", "time": "1:00pm"}, {"days": "Sun", "time": "Closed"}], "id": "0311000025", "name": "USPS COLLECTION BOX - BLUE BOX", "address": {"city": "BEDFORD", "state": "NH", "street": "169 S RIVER RD", "postcode": "03110"}}},
{"geometry": {"type": "Point", "coordinates": [-71.4802714429, 42.96338061]}, "type": "Feature", "properties": {"collection_times": [{"days": "Mon-Fri", "time": "5:30pm"}, {"days": "Sat", "time": "1:00pm"}, {"days": "Sun", "time": "Closed"}], "id": "0311000028", "name": "USPS COLLECTION BOX - BLUE BOX", "address": {"city": "BEDFORD", "state": "NH", "street": "25 S RIVER RD", "postcode": "03110"}}},
{"geometry": {"type": "Point", "coordinates": [-71.4802714429, 42.96338061]}, "type": "Feature", "properties": {"collection_times": [{"days": "Mon-Fri", "time": "5:30pm"}, {"days": "Sat", "time": "1:00pm"}, {"days": "Sun", "time": "Closed"}], "id": "0311000029", "name": "USPS COLLECTION BOX - BLUE BOX", "address": {"city": "BEDFORD", "state": "NH", "street": "25 S RIVER RD", "postcode": "03110"}}},
{"geometry": {"type": "Point", "coordinates": [-71.480024304, 42.9620351776]}, "type": "Feature", "properties": {"collection_times": [{"days": "Mon-Fri", "time": "4:30pm"}, {"days": "Sat", "time": "1:00pm"}, {"days": "Sun", "time": "Closed"}], "id": "0311000030", "name": "USPS COLLECTION BOX - BLUE BOX", "address": {"city": "BEDFORD", "state": "NH", "street": "40 S RIVER RD", "postcode": "03110"}}},
{"geometry": {"type": "Point", "coordinates": [-71.480024304, 42.9620351776]}, "type": "Feature", "properties": {"collection_times": [{"days": "Mon-Fri", "time": "4:30pm"}, {"days": "Sat", "time": "1:00pm"}, {"days": "Sun", "time": "Closed"}], "id": "0311000031", "name": "USPS COLLECTION BOX - BLUE BOX", "address": {"city": "BEDFORD", "state": "NH", "street": "40 S RIVER RD", "postcode": "03110"}}},
{"geometry": {"type": "Point", "coordinates": [-71.5202735641, 42.9411936225]}, "type": "Feature", "properties": {"collection_times": [{"days": "Mon-Fri", "time": "4:30pm"}, {"days": "Sat", "time": "1:00pm"}, {"days": "Sun", "time": "Closed"}], "id": "0311000034", "name": "USPS COLLECTION BOX - BLUE BOX", "address": {"city": "BEDFORD", "state": "NH", "street": "172 STATE ROUTE 101", "postcode": "03110"}}},
{"geometry": {"type": "Point", "coordinates": [-71.5018793663, 42.9596634894]}, "type": "Feature", "properties": {"collection_times": [{"days": "Mon-Sat", "time": "1:00pm"}, {"days": "Sun", "time": "Closed"}], "id": "0311000036", "name": "USPS COLLECTION BOX - BLUE BOX", "address": {"city": "BEDFORD", "state": "NH", "street": "399 BOYNTON ST", "postcode": "03110"}}},
{"geometry": {"type": "Point", "coordinates": [-71.4618090023, 42.9288287446]}, "type": "Feature", "properties": {"collection_times": [{"days": "Mon-Fri", "time": "2:45pm"}, {"days": "Sat", "time": "1:00pm"}, {"days": "Sun", "time": "Closed"}], "id": "0311000037", "name": "USPS COLLECTION BOX - BLUE BOX", "address": {"city": "BEDFORD", "state": "NH", "street": "2 COMMERCE DR", "postcode": "03110"}}},
{"geometry": {"type": "Point", "coordinates": [-71.4620066523, 42.9320812217]}, "type": "Feature", "properties": {"collection_times": [{"days": "Mon-Fri", "time": "2:45pm"}, {"days": "Sat", "time": "1:00pm"}, {"days": "Sun", "time": "Closed"}], "id": "0311000038", "name": "USPS COLLECTION BOX - BLUE BOX", "address": {"city": "BEDFORD", "state": "NH", "street": "10 COMMERCE PARK NORTH", "postcode": "03110"}}},
{"geometry": {"type": "Point", "coordinates": [-71.5022318931, 42.9572860054]}, "type": "Feature", "properties": {"collection_times": [{"days": "Mon-Fri", "time": "4:30pm"}, {"days": "Sat", "time": "1:00pm"}, {"days": "Sun", "time": "Closed"}], "id": "0311000039", "name": "USPS COLLECTION BOX - BLUE BOX", "address": {"city": "BEDFORD", "state": "NH", "street": "48 CONSTITUTION DR", "postcode": "03110"}}},
{"geometry": {"type": "Point", "coordinates": [-71.4802864062, 42.9652895432]}, "type": "Feature", "properties": {"collection_times": [{"days": "Mon-Sat", "time": "1:00pm"}, {"days": "Sun", "time": "Closed"}], "id": "0311000042", "name": "USPS COLLECTION BOX - BLUE BOX", "address": {"city": "BEDFORD", "state": "NH", "street": "22 EASTMAN AVE", "postcode": "03110"}}},
{"geometry": {"type": "Point", "coordinates": [-71.4819641496, 42.9635258426]}, "type": "Feature", "properties": {"collection_times": [{"days": "Mon-Fri", "time": "3:00pm"}, {"days": "Sat", "time": "1:00pm"}, {"days": "Sun", "time": "Closed"}], "id": "0311000044", "name": "USPS COLLECTION BOX - BLUE BOX", "address": {"city": "BEDFORD", "state": "NH", "street": "7 COLBY CT", "postcode": "03110"}}},
{"geometry": {"type": "Point", "coordinates": [-71.4837588059, 42.9612157951]}, "type": "Feature", "properties": {"collection_times": [{"days": "Mon-Fri", "time": "4:30pm"}, {"days": "Sat", "time": "1:00pm"}, {"days": "Sun", "time": "Closed"}], "id": "0311000045", "name": "USPS COLLECTION BOX - BLUE BOX", "address": {"city": "BEDFORD", "state": "NH", "street": "80 PALOMINO LN", "postcode": "03110"}}},
{"geometry": {"type": "Point", "coordinates": [-71.4620066523, 42.9320812217]}, "type": "Feature", "properties": {"collection_times": [{"days": "Mon-Fri", "time": "2:45pm"}, {"days": "Sat", "time": "1:00pm"}, {"days": "Sun", "time": "Closed"}], "id": "0311000047", "name": "USPS COLLECTION BOX - BLUE BOX", "address": {"city": "BEDFORD", "state": "NH", "street": "10 COMMERCE PARK NORTH", "postcode": "03110"}}},
{"geometry": {"type": "Point", "coordinates": [-71.5202735641, 42.9411936225]}, "type": "Feature", "properties": {"collection_times": [{"days": "Mon-Fri", "time": "4:30pm"}, {"days": "Sat", "time": "1:00pm"}, {"days": "Sun", "time": "Closed"}], "id": "0311000049", "name": "USPS COLLECTION BOX - BLUE BOX", "address": {"city": "BEDFORD", "state": "NH", "street": "172 STATE ROUTE 101", "postcode": "03110"}}},
{"geometry": {"type": "Point", "coordinates": [-71.516689981, 42.9463804758]}, "type": "Feature", "properties": {"collection_times": [{"days": "Mon-Fri", "time": "4:00pm"}, {"days": "Sat", "time": "1:00pm"}, {"days": "Sun", "time": "Closed"}], "id": "0311000050", "name": "USPS COLLECTION BOX - BLUE BOX", "address": {"city": "BEDFORD", "state": "NH", "street": "360 STATE ROUTE 101", "postcode": "03110"}}},
{"geometry": {"type": "Point", "coordinates": [-71.4802714429, 42.96338061]}, "type": "Feature", "properties": {"collection_times": [{"days": "Mon-Fri", "time": "5:00pm"}, {"days": "Sat", "time": "12:00pm"}, {"days": "Sun", "time": "Closed"}], "id": "0311000052", "name": "USPS COLLECTION BOX - PO LOBBY", "address": {"city": "BEDFORD", "state": "NH", "street": "25 S RIVER RD", "postcode": "03110"}}},
{"geometry": {"type": "Point", "coordinates": [-71.4587377142, 42.9103220513]}, "type": "Feature", "properties": {"collection_times": [{"days": "Mon-Fri", "time": "5:00pm"}, {"days": "Sat", "time": "1:00pm"}, {"days": "Sun", "time": "Closed"}], "id": "0311000059", "name": "USPS COLLECTION BOX - BLUE BOX", "address": {"city": "BEDFORD", "state": "NH", "street": "116 S RIVER RD", "postcode": "03110"}}},
{"geometry": {"type": "Point", "coordinates": [-71.4649107207, 42.92875895]}, "type": "Feature", "properties": {"collection_times": [{"days": "Mon-Fri", "time": "2:45pm"}, {"days": "Sat", "time": "1:00pm"}, {"days": "Sun", "time": "Closed"}], "id": "0311000062", "name": "USPS COLLECTION BOX - BLUE BOX", "address": {"city": "BEDFORD", "state": "NH", "street": "17 COMMERCE DR", "postcode": "03110"}}}
]}
