{"type": "FeatureCollection", "features": [
{"geometry": {"type": "Point", "coordinates": [-71.8789193356, 43.4236820234]}, "type": "Feature", "properties": {"collection_times": [{"days": "Mon-Fri", "time": "4:45pm"}, {"days": "Sat", "time": "11:45am"}, {"days": "Sun", "time": "Closed"}], "id": "0321600001", "name": "USPS COLLECTION BOX - BLUE BOX", "address": {"city": "ANDOVER", "state": "NH", "street": "164 MAIN ST", "postcode": "03216"}}},
{"geometry": {"type": "Point", "coordinates": [-71.8789193356, 43.4236820234]}, "type": "Feature", "properties": {"collection_times": [{"days": "Mon-Fri", "time": "4:45pm"}, {"days": "Sat", "time": "11:45am"}, {"days": "Sun", "time": "Closed"}], "id": "0321600003", "name": "USPS COLLECTION BOX - PO LOBBY", "address": {"city": "ANDOVER", "state": "NH", "street": "164 MAIN ST", "postcode": "03216"}}},
{"geometry": {"type": "Point", "coordinates": [-71.6372886162, 43.6962689098]}, "type": "Feature", "properties": {"collection_times": [{"days": "Mon-Fri", "time": "4:30pm"}, {"days": "Sat", "time": "12:00pm"}, {"days": "Sun", "time": "Closed"}], "id": "0321700001", "name": "USPS COLLECTION BOX - BLUE BOX", "address": {"city": "ASHLAND", "state": "NH", "street": "142 MAIN ST", "postcode": "03217"}}},
{"geometry": {"type": "Point", "coordinates": [-71.6372886162, 43.6962689098]}, "type": "Feature", "properties": {"collection_times": [{"days": "Mon-Fri", "time": "5:00pm"}, {"days": "Sat", "time": "12:00pm"}, {"days": "Sun", "time": "Closed"}], "id": "0321700003", "name": "USPS COLLECTION BOX - PO LOBBY", "address": {"city": "ASHLAND", "state": "NH", "street": "142 MAIN ST", "postcode": "03217"}}},
{"geometry": {"type": "Point", "coordinates": [-71.2779786973, 43.3402245465]}, "type": "Feature", "properties": {"collection_times": [{"days": "Mon-Fri", "time": "12:45pm"}, {"days": "Sat", "time": "12:15pm"}, {"days": "Sun", "time": "Closed"}], "id": "0321800001", "name": "USPS COLLECTION BOX - BLUE BOX", "address": {"city": "BARNSTEAD", "state": "NH", "street": "335 PARADE RD", "postcode": "03218"}}},
{"geometry": {"type": "Point", "coordinates": [-71.2779786973, 43.3402245465]}, "type": "Feature", "properties": {"collection_times": [{"days": "Mon-Fri", "time": "12:45pm"}, {"days": "Sat", "time": "12:15pm"}, {"days": "Sun", "time": "Closed"}], "id": "0321800002", "name": "USPS COLLECTION BOX - PO LOBBY", "address": {"city": "BARNSTEAD", "state": "NH", "street": "335 PARADE RD", "postcode": "03218"}}},
{"geometry": {"type": "Point", "coordinates": [-71.5105192108, 43.5019011771]}, "type": "Feature", "properties": {"collection_times": [{"days": "Mon-Sat", "time": "10:00am"}, {"days": "Sun", "time": "Closed"}], "id": "0322000001", "name": "USPS COLLECTION BOX - BLUE BOX", "address": {"city": "BELMONT", "state": "NH", "street": "96 DANIEL WEBSTER HWY", "postcode": "03220"}}},
{"geometry": {"type": "Point", "coordinates": [-71.4742914121, 43.466180273]}, "type": "Feature", "properties": {"collection_times": [{"days": "Mon-Fri", "time": "4:45pm"}, {"days": "Sat", "time": "12:00pm"}, {"days": "Sun", "time": "Closed"}], "id": "0322000002", "name": "USPS COLLECTION BOX - BLUE BOX", "address": {"city": "BELMONT", "state": "NH", "street": "24 POST OFFICE RD", "postcode": "03220"}}},
{"geometry": {"type": "Point", "coordinates": [-71.4835718089, 43.4418494305]}, "type": "Feature", "properties": {"collection_times": [{"days": "Mon-Sat", "time": "10:00am"}, {"days": "Sun", "time": "Closed"}], "id": "0322000003", "name": "USPS COLLECTION BOX - BLUE BOX", "address": {"city": "BELMONT", "state": "NH", "street": "10 MILL ST", "postcode": "03220"}}},
{"geometry": {"type": "Point", "coordinates": [-71.4742914121, 43.466180273]}, "type": "Feature", "properties": {"collection_times": [{"days": "Mon-Fri", "time": "4:45pm"}, {"days": "Sat", "time": "12:00pm"}, {"days": "Sun", "time": "Closed"}], "id": "0322000005", "name": "USPS COLLECTION BOX - PO LOBBY", "address": {"city": "BELMONT", "state": "NH", "street": "24 POST OFFICE RD", "postcode": "03220"}}},
{"geometry": {"type": "Point", "coordinates": [-71.5775936257, 43.6855232857]}, "type": "Feature", "properties": {"collection_times": [{"days": "Mon-Fri", "time": "4:45pm"}, {"days": "Sat", "time": "12:00pm"}, {"days": "Sun", "time": "Closed"}], "id": "0322100001", "name": "USPS COLLECTION BOX - BLUE BOX", "address": {"city": "BRADFORD", "state": "NH", "street": "2219 STATE ROUTE 114", "postcode": "03221"}}},
{"geometry": {"type": "Point", "coordinates": [-71.5775936257, 43.6855232857]}, "type": "Feature", "properties": {"collection_times": [{"days": "Mon-Fri", "time": "4:45pm"}, {"days": "Sat", "time": "12:00pm"}, {"days": "Sun", "time": "Closed"}], "id": "0322100002", "name": "USPS COLLECTION BOX - PO LOBBY", "address": {"city": "BRADFORD", "state": "NH", "street": "2219 STATE ROUTE 114", "postcode": "03221"}}},
{"geometry": {"type": "Point", "coordinates": [-71.7433668227, 43.594021982]}, "type": "Feature", "properties": {"collection_times": [{"days": "Mon-Sat", "time": "10:00am"}, {"days": "Sun", "time": "Closed"}], "id": "0322200001", "name": "USPS COLLECTION BOX - BLUE BOX", "address": {"city": "BRISTOL", "state": "NH", "street": "350 LAKE ST", "postcode": "03222"}}},
{"geometry": {"type": "Point", "coordinates": [-71.5775936257, 43.6855232857]}, "type": "Feature", "properties": {"collection_times": [{"days": "Mon-Fri", "time": "10:30am"}, {"days": "Sat", "time": "10:00am"}, {"days": "Sun", "time": "Closed"}], "id": "0322200002", "name": "USPS COLLECTION BOX - BLUE BOX", "address": {"city": "BRISTOL", "state": "NH", "street": "297 MAYHEW TPKE", "postcode": "03222"}}},
{"geometry": {"type": "Point", "coordinates": [-71.7364150719, 43.5912675034]}, "type": "Feature", "properties": {"collection_times": [{"days": "Mon-Fri", "time": "1:30pm"}, {"days": "Sat", "time": "11:00am"}, {"days": "Sun", "time": "Closed"}], "id": "0322200003", "name": "USPS COLLECTION BOX - BLUE BOX", "address": {"city": "BRISTOL", "state": "NH", "street": "10 N MAIN ST", "postcode": "03222"}}},
{"geometry": {"type": "Point", "coordinates": [-71.7412438026, 43.5900035713]}, "type": "Feature", "properties": {"collection_times": [{"days": "Mon-Fri", "time": "5:00pm"}, {"days": "Sat", "time": "2:00pm"}, {"days": "Sun", "time": "Closed"}], "id": "0322200005", "name": "USPS COLLECTION BOX - BLUE BOX", "address": {"city": "BRISTOL", "state": "NH", "street": "85 PLEASANT ST", "postcode": "03222"}}},
{"geometry": {"type": "Point", "coordinates": [-71.7412438026, 43.5900035713]}, "type": "Feature", "properties": {"collection_times": [{"days": "Mon-Fri", "time": "5:00pm"}, {"days": "Sat", "time": "2:00pm"}, {"days": "Sun", "time": "Closed"}], "id": "0322200006", "name": "USPS COLLECTION BOX - PO LOBBY", "address": {"city": "BRISTOL", "state": "NH", "street": "85 PLEASANT ST", "postcode": "03222"}}},
{"geometry": {"type": "Point", "coordinates": [-71.7507907268, 43.584903069]}, "type": "Feature", "properties": {"collection_times": [{"days": "Mon-Fri", "time": "1:00pm"}, {"days": "Sat", "time": "12:30pm"}, {"days": "Sun", "time": "Closed"}], "id": "0322200007", "name": "USPS COLLECTION BOX - BLUE BOX", "address": {"city": "BRISTOL", "state": "NH", "street": "505 PLEASANT ST", "postcode": "03222"}}},
{"geometry": {"type": "Point", "coordinates": [-71.6635510028, 43.8219698962]}, "type": "Feature", "properties": {"collection_times": [{"days": "Mon-Sat", "time": "9:00am"}, {"days": "Sun", "time": "Closed"}], "id": "0322300005", "name": "USPS COLLECTION BOX - BLUE BOX", "address": {"city": "WATERVL VLY", "state": "NH", "street": "2122 US ROUTE 3", "postcode": "03223"}}},
{"geometry": {"type": "Point", "coordinates": [-71.6584271788, 43.8362906085]}, "type": "Feature", "properties": {"collection_times": [{"days": "Mon-Sat", "time": "10:30am"}, {"days": "Sun", "time": "Closed"}], "id": "0322300006", "name": "USPS COLLECTION BOX - BLUE BOX", "address": {"city": "WATERVL VLY", "state": "NH", "street": "6 VILLAGE RD", "postcode": "03223"}}},
{"geometry": {"type": "Point", "coordinates": [-71.6584271788, 43.8362906085]}, "type": "Feature", "properties": {"collection_times": [{"days": "Mon-Sat", "time": "10:30am"}, {"days": "Sun", "time": "Closed"}], "id": "0322300007", "name": "USPS COLLECTION BOX - BLUE BOX", "address": {"city": "WATERVL VLY", "state": "NH", "street": "16 MERRILL ACCESS RD", "postcode": "03223"}}},
{"geometry": {"type": "Point", "coordinates": [-71.6403589772, 43.8519446505]}, "type": "Feature", "properties": {"collection_times": [{"days": "Mon-Fri", "time": "4:30pm"}, {"days": "Sat", "time": "1:30pm"}, {"days": "Sun", "time": "Closed"}], "id": "0322300008", "name": "USPS COLLECTION BOX - BLUE BOX", "address": {"city": "WATERVL VLY", "state": "NH", "street": "11 SOUTHMAYD ST", "postcode": "03223"}}},
{"geometry": {"type": "Point", "coordinates": [-71.6403589772, 43.8519446505]}, "type": "Feature", "properties": {"collection_times": [{"days": "Mon-Fri", "time": "5:00pm"}, {"days": "Sat", "time": "2:00pm"}, {"days": "Sun", "time": "Closed"}], "id": "0322300009", "name": "USPS COLLECTION BOX - PO LOBBY", "address": {"city": "WATERVL VLY", "state": "NH", "street": "11 SOUTHMAYD ST", "postcode": "03223"}}},
{"geometry": {"type": "Point", "coordinates": [-71.6403589772, 43.8519446505]}, "type": "Feature", "properties": {"collection_times": [{"days": "Mon-Fri", "time": "4:30pm"}, {"days": "Sat", "time": "1:30pm"}, {"days": "Sun", "time": "Closed"}], "id": "0322300010", "name": "USPS COLLECTION BOX - BLUE BOX", "address": {"city": "WATERVL VLY", "state": "NH", "street": "11 SOUTHMAYD ST", "postcode": "03223"}}},
{"geometry": {"type": "Point", "coordinates": [-71.5841152252, 43.3372600559]}, "type": "Feature", "properties": {"collection_times": [{"days": "Mon-Fri", "time": "4:45pm"}, {"days": "Sat", "time": "12:15pm"}, {"days": "Sun", "time": "Closed"}], "id": "0322400001", "name": "USPS COLLECTION BOX - BLUE BOX", "address": {"city": "CANTERBURY", "state": "NH", "street": "1 CENTER RD", "postcode": "03224"}}},
{"geometry": {"type": "Point", "coordinates": [-71.2670676895, 43.3444432256]}, "type": "Feature", "properties": {"collection_times": [{"days": "Mon-Fri", "time": "4:00pm"}, {"days": "Sat", "time": "10:45am"}, {"days": "Sun", "time": "Closed"}], "id": "0322500001", "name": "USPS COLLECTION BOX - BLUE BOX", "address": {"city": "CTR BARNSTEAD", "state": "NH", "street": "55 S BARNSTEAD RD", "postcode": "03225"}}},
{"geometry": {"type": "Point", "coordinates": [-71.2670676895, 43.3444432256]}, "type": "Feature", "properties": {"collection_times": [{"days": "Mon-Fri", "time": "4:15pm"}, {"days": "Sat", "time": "11:00am"}, {"days": "Sun", "time": "Closed"}], "id": "0322500002", "name": "USPS COLLECTION BOX - PO LOBBY", "address": {"city": "CTR BARNSTEAD", "state": "NH", "street": "55 S BARNSTEAD RD", "postcode": "03225"}}},
{"geometry": {"type": "Point", "coordinates": [-71.4620177368, 43.7091968609]}, "type": "Feature", "properties": {"collection_times": [{"days": "Mon-Fri", "time": "5:00pm"}, {"days": "Sat", "time": "12:00pm"}, {"days": "Sun", "time": "Closed"}], "id": "0322600001", "name": "USPS COLLECTION BOX - BLUE BOX", "address": {"city": "CENTER HARBOR", "state": "NH", "street": "44 MAIN ST", "postcode": "03226"}}},
{"geometry": {"type": "Point", "coordinates": [-71.46113148, 43.7095848409]}, "type": "Feature", "properties": {"collection_times": [{"days": "Mon-Sat", "time": "9:00am"}, {"days": "Sun", "time": "Closed"}], "id": "0322600003", "name": "USPS COLLECTION BOX - BLUE BOX", "address": {"city": "CENTER HARBOR", "state": "NH", "street": "12 MAIN ST", "postcode": "03226"}}},
{"geometry": {"type": "Point", "coordinates": [-71.4620177368, 43.7091968609]}, "type": "Feature", "properties": {"collection_times": [{"days": "Mon-Fri", "time": "5:00pm"}, {"days": "Sat", "time": "12:00pm"}, {"days": "Sun", "time": "Closed"}], "id": "0322600005", "name": "USPS COLLECTION BOX - PO LOBBY", "address": {"city": "CENTER HARBOR", "state": "NH", "street": "44 MAIN ST", "postcode": "03226"}}},
{"geometry": {"type": "Point", "coordinates": [-71.4379593192, 43.8061945623]}, "type": "Feature", "properties": {"collection_times": [{"days": "Mon-Fri", "time": "4:30pm"}, {"days": "Sat", "time": "12:00pm"}, {"days": "Sun", "time": "Closed"}], "id": "0322700001", "name": "USPS COLLECTION BOX - BLUE BOX", "address": {"city": "CENTER SANDWICH", "state": "NH", "street": "31 MAIN ST", "postcode": "03227"}}},
{"geometry": {"type": "Point", "coordinates": [-71.4379593192, 43.8061945623]}, "type": "Feature", "properties": {"collection_times": [{"days": "Mon-Fri", "time": "4:30pm"}, {"days": "Sat", "time": "12:00pm"}, {"days": "Sun", "time": "Closed"}], "id": "0322700002", "name": "USPS COLLECTION BOX - PO LOBBY", "address": {"city": "CENTER SANDWICH", "state": "NH", "street": "31 MAIN ST", "postcode": "03227"}}},
{"geometry": {"type": "Point", "coordinates": [-71.7137968993, 43.222671685]}, "type": "Feature", "properties": {"collection_times": [{"days": "Mon-Fri", "time": "5:15pm"}, {"days": "Sat", "time": "12:00pm"}, {"days": "Sun", "time": "Closed"}], "id": "0322900001", "name": "USPS COLLECTION BOX - BLUE BOX", "address": {"city": "CONTOOCOOK", "state": "NH", "street": "129 PARK AVE", "postcode": "03229"}}},
{"geometry": {"type": "Point", "coordinates": [-71.7046922875, 43.2206715542]}, "type": "Feature", "properties": {"collection_times": [{"days": "Mon-Sat", "time": "11:00am"}, {"days": "Sun", "time": "Closed"}], "id": "0322900003", "name": "USPS COLLECTION BOX - BLUE BOX", "address": {"city": "CONTOOCOOK", "state": "NH", "street": "377 MAIN ST", "postcode": "03229"}}},
{"geometry": {"type": "Point", "coordinates": [-71.7137968993, 43.222671685]}, "type": "Feature", "properties": {"collection_times": [{"days": "Mon-Fri", "time": "5:30pm"}, {"days": "Sat", "time": "12:00pm"}, {"days": "Sun", "time": "Closed"}], "id": "0322900004", "name": "USPS COLLECTION BOX - PO LOBBY", "address": {"city": "CONTOOCOOK", "state": "NH", "street": "129 PARK AVE", "postcode": "03229"}}},
{"geometry": {"type": "Point", "coordinates": [-71.8599268759, 43.5250199301]}, "type": "Feature", "properties": {"collection_times": [{"days": "Mon-Fri", "time": "4:45pm"}, {"days": "Sat", "time": "11:45am"}, {"days": "Sun", "time": "Closed"}], "id": "0323000001", "name": "USPS COLLECTION BOX - BLUE BOX", "address": {"city": "DANBURY", "state": "NH", "street": "41 NH ROUTE 104", "postcode": "03230"}}},
{"geometry": {"type": "Point", "coordinates": [-71.8599268759, 43.5250199301]}, "type": "Feature", "properties": {"collection_times": [{"days": "Mon-Fri", "time": "4:45pm"}, {"days": "Sat", "time": "11:45am"}, {"days": "Sun", "time": "Closed"}], "id": "0323000002", "name": "USPS COLLECTION BOX - PO LOBBY", "address": {"city": "DANBURY", "state": "NH", "street": "41 NH ROUTE 104", "postcode": "03230"}}},
{"geometry": {"type": "Point", "coordinates": [-71.7482770147, 43.456683746]}, "type": "Feature", "properties": {"collection_times": [{"days": "Mon-Fri", "time": "4:15pm"}, {"days": "Sat", "time": "11:30am"}, {"days": "Sun", "time": "Closed"}], "id": "0323100001", "name": "USPS COLLECTION BOX - BLUE BOX", "address": {"city": "EAST ANDOVER", "state": "NH", "street": "770 FRANKLIN HWY", "postcode": "03231"}}},
{"geometry": {"type": "Point", "coordinates": [-71.7482770147, 43.456683746]}, "type": "Feature", "properties": {"collection_times": [{"days": "Mon-Fri", "time": "4:15pm"}, {"days": "Sat", "time": "11:30am"}, {"days": "Sun", "time": "Closed"}], "id": "0323100002", "name": "USPS COLLECTION BOX - PO LOBBY", "address": {"city": "EAST ANDOVER", "state": "NH", "street": "770 FRANKLIN HWY", "postcode": "03231"}}},
{"geometry": {"type": "Point", "coordinates": [-71.9298162221, 43.4284423221]}, "type": "Feature", "properties": {"collection_times": [{"days": "Mon-Fri", "time": "4:30pm"}, {"days": "Sat", "time": "11:15am"}, {"days": "Sun", "time": "Closed"}], "id": "0323300001", "name": "USPS COLLECTION BOX - BLUE BOX", "address": {"city": "ELKINS", "state": "NH", "street": "349 ELKINS RD", "postcode": "03233"}}},
{"geometry": {"type": "Point", "coordinates": [-71.9298162221, 43.4284423221]}, "type": "Feature", "properties": {"collection_times": [{"days": "Mon-Fri", "time": "4:30pm"}, {"days": "Sat", "time": "11:30am"}, {"days": "Sun", "time": "Closed"}], "id": "0323300002", "name": "USPS COLLECTION BOX - PO LOBBY", "address": {"city": "ELKINS", "state": "NH", "street": "349 ELKINS RD", "postcode": "03233"}}},
{"geometry": {"type": "Point", "coordinates": [-71.347867911, 43.2168840044]}, "type": "Feature", "properties": {"collection_times": [{"days": "Mon-Fri", "time": "4:45pm"}, {"days": "Sat", "time": "12:00pm"}, {"days": "Sun", "time": "Closed"}], "id": "0323400001", "name": "USPS COLLECTION BOX - BLUE BOX", "address": {"city": "EPSOM", "state": "NH", "street": "948 SUNCOOK VALLEY HWY", "postcode": "03234"}}},
{"geometry": {"type": "Point", "coordinates": [-71.347867911, 43.2168840044]}, "type": "Feature", "properties": {"collection_times": [{"days": "Mon-Fri", "time": "5:00pm"}, {"days": "Sat", "time": "12:00pm"}, {"days": "Sun", "time": "Closed"}], "id": "0323400003", "name": "USPS COLLECTION BOX - PO LOBBY", "address": {"city": "EPSOM", "state": "NH", "street": "948 SUNCOOK VALLEY HWY", "postcode": "03234"}}},
{"geometry": {"type": "Point", "coordinates": [-71.6427133145, 43.4477904239]}, "type": "Feature", "properties": {"collection_times": [{"days": "Mon-Fri", "time": "5:00pm"}, {"days": "Sat", "time": "10:00am"}, {"days": "Sun", "time": "Closed"}], "id": "0323500001", "name": "USPS COLLECTION BOX - BLUE BOX", "address": {"city": "FRANKLIN", "state": "NH", "street": "15 AIKEN AVE", "postcode": "03235"}}},
{"geometry": {"type": "Point", "coordinates": [-71.6500760787, 43.4477428362]}, "type": "Feature", "properties": {"collection_times": [{"days": "Mon-Fri", "time": "5:00pm"}, {"days": "Sat", "time": "10:00am"}, {"days": "Sun", "time": "Closed"}], "id": "0323500003", "name": "USPS COLLECTION BOX - BLUE BOX", "address": {"city": "FRANKLIN", "state": "NH", "street": "316 CENTRAL ST", "postcode": "03235"}}},
{"geometry": {"type": "Point", "coordinates": [-71.6428110271, 43.4453865469]}, "type": "Feature", "properties": {"collection_times": [{"days": "Mon-Fri", "time": "5:00pm"}, {"days": "Sat", "time": "10:00am"}, {"days": "Sun", "time": "Closed"}], "id": "0323500005", "name": "USPS COLLECTION BOX - BLUE BOX", "address": {"city": "FRANKLIN", "state": "NH", "street": "387 CENTRAL ST", "postcode": "03235"}}},
{"geometry": {"type": "Point", "coordinates": [-71.6500760787, 43.4477428362]}, "type": "Feature", "properties": {"collection_times": [{"days": "Mon-Fri", "time": "5:00pm"}, {"days": "Sat", "time": "10:00am"}, {"days": "Sun", "time": "Closed"}], "id": "0323500006", "name": "USPS COLLECTION BOX - BLUE BOX", "address": {"city": "FRANKLIN", "state": "NH", "street": "446 CENTRAL ST", "postcode": "03235"}}},
{"geometry": {"type": "Point", "coordinates": [-71.6256531322, 43.4467929923]}, "type": "Feature", "properties": {"collection_times": [{"days": "Mon-Fri", "time": "5:00pm"}, {"days": "Sat", "time": "10:00am"}, {"days": "Sun", "time": "Closed"}], "id": "0323500008", "name": "USPS COLLECTION BOX - BLUE BOX", "address": {"city": "FRANKLIN", "state": "NH", "street": "880 CENTRAL ST", "postcode": "03235"}}},
{"geometry": {"type": "Point", "coordinates": [-71.6500760787, 43.4477428362]}, "type": "Feature", "properties": {"collection_times": [{"days": "Mon-Fri", "time": "5:15pm"}, {"days": "Sat", "time": "3:15pm"}, {"days": "Sun", "time": "Closed"}], "id": "0323500010", "name": "USPS COLLECTION BOX - BLUE BOX", "address": {"city": "FRANKLIN", "state": "NH", "street": "65 FRANKLIN ST", "postcode": "03235"}}},
{"geometry": {"type": "Point", "coordinates": [-71.5775936257, 43.6855232857]}, "type": "Feature", "properties": {"collection_times": [{"days": "Mon-Fri", "time": "5:00pm"}, {"days": "Sat", "time": "10:00am"}, {"days": "Sun", "time": "Closed"}], "id": "0323500011", "name": "USPS COLLECTION BOX - BLUE BOX", "address": {"city": "FRANKLIN", "state": "NH", "street": "59 N MAIN ST", "postcode": "03235"}}},
{"geometry": {"type": "Point", "coordinates": [-71.6500760787, 43.4477428362]}, "type": "Feature", "properties": {"collection_times": [{"days": "Mon-Sat", "time": "10:00am"}, {"days": "Sun", "time": "Closed"}], "id": "0323500015", "name": "USPS COLLECTION BOX - BLUE BOX", "address": {"city": "FRANKLIN", "state": "NH", "street": "952 CENTRAL ST", "postcode": "03235"}}},
{"geometry": {"type": "Point", "coordinates": [-71.6500760787, 43.4477428362]}, "type": "Feature", "properties": {"collection_times": [{"days": "Mon-Fri", "time": "5:15pm"}, {"days": "Sat", "time": "3:00pm"}, {"days": "Sun", "time": "Closed"}], "id": "0323500016", "name": "USPS COLLECTION BOX - PO LOBBY", "address": {"city": "FRANKLIN", "state": "NH", "street": "65 FRANKLIN ST", "postcode": "03235"}}},
{"geometry": {"type": "Point", "coordinates": [-71.4007857325, 43.420560482]}, "type": "Feature", "properties": {"collection_times": [{"days": "Mon-Fri", "time": "4:45pm"}, {"days": "Sat", "time": "12:00pm"}, {"days": "Sun", "time": "Closed"}], "id": "0323700001", "name": "USPS COLLECTION BOX - BLUE BOX", "address": {"city": "GILMANTON", "state": "NH", "street": "365 NH ROUTE 140", "postcode": "03237"}}},
{"geometry": {"type": "Point", "coordinates": [-71.4007857325, 43.420560482]}, "type": "Feature", "properties": {"collection_times": [{"days": "Mon-Fri", "time": "4:45pm"}, {"days": "Sat", "time": "12:00pm"}, {"days": "Sun", "time": "Closed"}], "id": "0323700002", "name": "USPS COLLECTION BOX - PO LOBBY", "address": {"city": "GILMANTON", "state": "NH", "street": "365 NH ROUTE 140", "postcode": "03237"}}},
{"geometry": {"type": "Point", "coordinates": [-71.8963782236, 43.9848861485]}, "type": "Feature", "properties": {"collection_times": [{"days": "Mon-Fri", "time": "1:45pm"}, {"days": "Sat", "time": "12:00pm"}, {"days": "Sun", "time": "Closed"}], "id": "0323800001", "name": "USPS COLLECTION BOX - BLUE BOX", "address": {"city": "GLENCLIFF", "state": "NH", "street": "1385 NH ROUTE 25 UNIT 1", "postcode": "03238"}}},
{"geometry": {"type": "Point", "coordinates": [-71.8963782236, 43.9848861485]}, "type": "Feature", "properties": {"collection_times": [{"days": "Mon-Fri", "time": "1:45pm"}, {"days": "Sat", "time": "12:00pm"}, {"days": "Sun", "time": "Closed"}], "id": "0323800002", "name": "USPS COLLECTION BOX - PO LOBBY", "address": {"city": "GLENCLIFF", "state": "NH", "street": "1385 NH ROUTE 25 UNIT 1", "postcode": "03238"}}},
{"geometry": {"type": "Point", "coordinates": [-71.9663577183, 43.5722011742]}, "type": "Feature", "properties": {"collection_times": [{"days": "Mon-Fri", "time": "4:30pm"}, {"days": "Sat", "time": "11:30am"}, {"days": "Sun", "time": "Closed"}], "id": "0324000001", "name": "USPS COLLECTION BOX - BLUE BOX", "address": {"city": "GRAFTON", "state": "NH", "street": "564 MAIN ST", "postcode": "03240"}}},
{"geometry": {"type": "Point", "coordinates": [-71.9663577183, 43.5722011742]}, "type": "Feature", "properties": {"collection_times": [{"days": "Mon-Fri", "time": "3:00pm"}, {"days": "Sat", "time": "11:30am"}, {"days": "Sun", "time": "Closed"}], "id": "0324000002", "name": "USPS COLLECTION BOX - PO LOBBY", "address": {"city": "GRAFTON", "state": "NH", "street": "564 MAIN ST", "postcode": "03240"}}},
{"geometry": {"type": "Point", "coordinates": [-71.8066710387, 43.6942717526]}, "type": "Feature", "properties": {"collection_times": [{"days": "Mon-Fri", "time": "4:00pm"}, {"days": "Sat", "time": "12:00pm"}, {"days": "Sun", "time": "Closed"}], "id": "0324100000", "name": "USPS COLLECTION BOX - BLUE BOX", "address": {"city": "HEBRON", "state": "NH", "street": "7 N SHORE RD UNIT 2", "postcode": "03241"}}},
{"geometry": {"type": "Point", "coordinates": [-71.8066710387, 43.6942717526]}, "type": "Feature", "properties": {"collection_times": [{"days": "Mon-Fri", "time": "2:30pm"}, {"days": "Sat", "time": "12:00pm"}, {"days": "Sun", "time": "Closed"}], "id": "0324100001", "name": "USPS COLLECTION BOX - PO LOBBY", "address": {"city": "HEBRON", "state": "NH", "street": "7 N SHORE RD UNIT 2", "postcode": "03241"}}},
{"geometry": {"type": "Point", "coordinates": [-71.8204116905, 43.1722084877]}, "type": "Feature", "properties": {"collection_times": [{"days": "Mon-Fri", "time": "5:00pm"}, {"days": "Sat", "time": "11:45am"}, {"days": "Sun", "time": "Closed"}], "id": "0324200001", "name": "USPS COLLECTION BOX - BLUE BOX", "address": {"city": "HENNIKER", "state": "NH", "street": "1 POST OFFICE PL", "postcode": "03242"}}},
{"geometry": {"type": "Point", "coordinates": [-71.8204116905, 43.1722084877]}, "type": "Feature", "properties": {"collection_times": [{"days": "Mon-Fri", "time": "5:00pm"}, {"days": "Sat", "time": "11:45am"}, {"days": "Sun", "time": "Closed"}], "id": "0324200004", "name": "USPS COLLECTION BOX - PO LOBBY", "address": {"city": "HENNIKER", "state": "NH", "street": "1 POST OFFICE PL", "postcode": "03242"}}},
{"geometry": {"type": "Point", "coordinates": [-71.7021232845, 43.5189939419]}, "type": "Feature", "properties": {"collection_times": [{"days": "Mon-Fri", "time": "4:45pm"}, {"days": "Sat", "time": "11:45am"}, {"days": "Sun", "time": "Closed"}], "id": "0324300001", "name": "USPS COLLECTION BOX - BLUE BOX", "address": {"city": "HILL", "state": "NH", "street": "20 COMMERCE ST", "postcode": "03243"}}},
{"geometry": {"type": "Point", "coordinates": [-71.7021232845, 43.5189939419]}, "type": "Feature", "properties": {"collection_times": [{"days": "Mon-Fri", "time": "2:30pm"}, {"days": "Sat", "time": "11:45am"}, {"days": "Sun", "time": "Closed"}], "id": "0324300002", "name": "USPS COLLECTION BOX - PO LOBBY", "address": {"city": "HILL", "state": "NH", "street": "20 COMMERCE ST", "postcode": "03243"}}},
{"geometry": {"type": "Point", "coordinates": [-71.8967490764, 43.1147168738]}, "type": "Feature", "properties": {"collection_times": [{"days": "Mon-Fri", "time": "4:30pm"}, {"days": "Sat", "time": "12:00pm"}, {"days": "Sun", "time": "Closed"}], "id": "0324400002", "name": "USPS COLLECTION BOX - BLUE BOX", "address": {"city": "HILLSBORO", "state": "NH", "street": "11 CENTRAL ST", "postcode": "03244"}}},
{"geometry": {"type": "Point", "coordinates": [-71.8967490764, 43.1147168738]}, "type": "Feature", "properties": {"collection_times": [{"days": "Mon-Fri", "time": "4:30pm"}, {"days": "Sat", "time": "12:00pm"}, {"days": "Sun", "time": "Closed"}], "id": "0324400005", "name": "USPS COLLECTION BOX - PO LOBBY", "address": {"city": "HILLSBORO", "state": "NH", "street": "11 CENTRAL ST", "postcode": "03244"}}},
{"geometry": {"type": "Point", "coordinates": [-71.8855474096, 43.0459895423]}, "type": "Feature", "properties": {"collection_times": [{"days": "Mon-Sat", "time": "11:30am"}, {"days": "Sun", "time": "Closed"}], "id": "0324400006", "name": "USPS COLLECTION BOX - BLUE BOX", "address": {"city": "HILLSBORO", "state": "NH", "street": "281 SECOND NEW HAMPSHIRE TPKE", "postcode": "03244"}}},
{"geometry": {"type": "Point", "coordinates": [-71.8967490764, 43.1147168738]}, "type": "Feature", "properties": {"collection_times": [{"days": "Mon-Fri", "time": "4:30pm"}, {"days": "Sat", "time": "12:00pm"}, {"days": "Sun", "time": "Closed"}], "id": "0324400007", "name": "USPS COLLECTION BOX - BLUE BOX", "address": {"city": "HILLSBORO", "state": "NH", "street": "11 CENTRAL ST", "postcode": "03244"}}},
{"geometry": {"type": "Point", "coordinates": [-71.9641398184, 43.095434368]}, "type": "Feature", "properties": {"collection_times": [{"days": "Mon-Sat", "time": "9:30am"}, {"days": "Sun", "time": "Closed"}], "id": "0324400008", "name": "USPS COLLECTION BOX - BLUE BOX", "address": {"city": "HILLSBORO", "state": "NH", "street": "276 W MAIN ST", "postcode": "03244"}}},
{"geometry": {"type": "Point", "coordinates": [-71.5229497813, 43.7073842182]}, "type": "Feature", "properties": {"collection_times": [{"days": "Mon-Fri", "time": "4:45pm"}, {"days": "Sat", "time": "12:00pm"}, {"days": "Sun", "time": "Closed"}], "id": "0324500001", "name": "USPS COLLECTION BOX - BLUE BOX", "address": {"city": "HOLDERNESS", "state": "NH", "street": "846 US ROUTE 3", "postcode": "03245"}}},
{"geometry": {"type": "Point", "coordinates": [-71.5229497813, 43.7073842182]}, "type": "Feature", "properties": {"collection_times": [{"days": "Mon-Fri", "time": "5:00pm"}, {"days": "Sat", "time": "12:00pm"}, {"days": "Sun", "time": "Closed"}], "id": "0324500002", "name": "USPS COLLECTION BOX - PO LOBBY", "address": {"city": "HOLDERNESS", "state": "NH", "street": "846 US ROUTE 3", "postcode": "03245"}}},
{"geometry": {"type": "Point", "coordinates": [-71.4690716155, 43.5286009612]}, "type": "Feature", "properties": {"collection_times": [{"days": "Mon-Fri", "time": "4:45pm"}, {"days": "Sat", "time": "2:30pm"}, {"days": "Sun", "time": "Closed"}], "id": "0324600001", "name": "USPS COLLECTION BOX - BLUE BOX", "address": {"city": "LACONIA", "state": "NH", "street": "45 BEACON ST E", "postcode": "03246"}}},
{"geometry": {"type": "Point", "coordinates": [-71.46891, 43.52799]}, "type": "Feature", "properties": {"collection_times": [{"days": "Mon-Fri", "time": "4:45pm"}, {"days": "Sat", "time": "2:30pm"}, {"days": "Sun", "time": "Closed"}], "id": "0324600002", "name": "USPS COLLECTION BOX - BLUE BOX", "address": {"city": "LACONIA", "state": "NH", "street": "45 BEACON ST E", "postcode": "03246"}}},
{"geometry": {"type": "Point", "coordinates": [-71.4067412786, 43.5476864143]}, "type": "Feature", "properties": {"collection_times": [{"days": "Mon-Sat", "time": "9:00am"}, {"days": "Sun", "time": "Closed"}], "id": "0324600005", "name": "USPS COLLECTION BOX - BLUE BOX", "address": {"city": "LACONIA", "state": "NH", "street": "7 BELKNAP MOUNTAIN RD", "postcode": "03246"}}},
{"geometry": {"type": "Point", "coordinates": [-71.4686169395, 43.5301905553]}, "type": "Feature", "properties": {"collection_times": [{"days": "Mon-Fri", "time": "5:30pm"}, {"days": "Sat", "time": "3:00pm"}, {"days": "Sun", "time": "Closed"}], "id": "0324600009", "name": "USPS COLLECTION BOX - BLUE BOX", "address": {"city": "LACONIA", "state": "NH", "street": "33 CHURCH ST", "postcode": "03246"}}},
{"geometry": {"type": "Point", "coordinates": [-71.4611050537, 43.5470162735]}, "type": "Feature", "properties": {"collection_times": [{"days": "Mon-Fri", "time": "5:00pm"}, {"days": "Sat", "time": "2:00pm"}, {"days": "Sun", "time": "Closed"}], "id": "0324600015", "name": "USPS COLLECTION BOX - BLUE BOX", "address": {"city": "LACONIA", "state": "NH", "street": "34 CLINTON ST", "postcode": "03246"}}},
{"geometry": {"type": "Point", "coordinates": [-71.4685287133, 43.548712074]}, "type": "Feature", "properties": {"collection_times": [{"days": "Mon-Fri", "time": "4:30pm"}, {"days": "Sat", "time": "2:30pm"}, {"days": "Sun", "time": "Closed"}], "id": "0324600020", "name": "USPS COLLECTION BOX - BLUE BOX", "address": {"city": "LACONIA", "state": "NH", "street": "64 COURT ST", "postcode": "03246"}}},
{"geometry": {"type": "Point", "coordinates": [-71.4733782816, 43.5261829891]}, "type": "Feature", "properties": {"collection_times": [{"days": "Mon-Fri", "time": "4:30pm"}, {"days": "Sat-Sun", "time": "Closed"}], "id": "0324600023", "name": "USPS COLLECTION BOX - BLUE BOX", "address": {"city": "LACONIA", "state": "NH", "street": "71 WATER ST", "postcode": "03246"}}},
{"geometry": {"type": "Point", "coordinates": [-71.4053729479, 43.5505337884]}, "type": "Feature", "properties": {"collection_times": [{"days": "Mon-Sat", "time": "9:30am"}, {"days": "Sun", "time": "Closed"}], "id": "0324600025", "name": "USPS COLLECTION BOX - BLUE BOX", "address": {"city": "LACONIA", "state": "NH", "street": "47 CHERRY VALLEY RD", "postcode": "03246"}}},
{"geometry": {"type": "Point", "coordinates": [-71.4685287133, 43.548712074]}, "type": "Feature", "properties": {"collection_times": [{"days": "Mon-Fri", "time": "4:45pm"}, {"days": "Sat", "time": "2:30pm"}, {"days": "Sun", "time": "Closed"}], "id": "0324600036", "name": "USPS COLLECTION BOX - BLUE BOX", "address": {"city": "LACONIA", "state": "NH", "street": "36 PLEASANT ST", "postcode": "03246"}}},
{"geometry": {"type": "Point", "coordinates": [-71.4685287133, 43.548712074]}, "type": "Feature", "properties": {"collection_times": [{"days": "Mon-Fri", "time": "4:45pm"}, {"days": "Sat", "time": "2:30pm"}, {"days": "Sun", "time": "Closed"}], "id": "0324600038", "name": "USPS COLLECTION BOX - BLUE BOX", "address": {"city": "LACONIA", "state": "NH", "street": "36 PLEASANT ST", "postcode": "03246"}}},
{"geometry": {"type": "Point", "coordinates": [-71.4739903967, 43.5332484733]}, "type": "Feature", "properties": {"collection_times": [{"days": "Mon-Fri", "time": "3:30pm"}, {"days": "Sat", "time": "2:00pm"}, {"days": "Sun", "time": "Closed"}], "id": "0324600040", "name": "USPS COLLECTION BOX - BLUE BOX", "address": {"city": "LACONIA", "state": "NH", "street": "820 N MAIN ST", "postcode": "03246"}}},
{"geometry": {"type": "Point", "coordinates": [-71.4638931721, 43.5367652536]}, "type": "Feature", "properties": {"collection_times": [{"days": "Mon-Fri", "time": "4:15pm"}, {"days": "Sat-Sun", "time": "Closed"}], "id": "0324600048", "name": "USPS COLLECTION BOX - BLUE BOX", "address": {"city": "LACONIA", "state": "NH", "street": "408 UNION AVE", "postcode": "03246"}}},
{"geometry": {"type": "Point", "coordinates": [-71.4406052277, 43.528715153]}, "type": "Feature", "properties": {"collection_times": [{"days": "Mon-Fri", "time": "3:30pm"}, {"days": "Sat-Sun", "time": "Closed"}], "id": "0324600049", "name": "USPS COLLECTION BOX - BLUE BOX", "address": {"city": "LACONIA", "state": "NH", "street": "25 COUNTRY CLUB RD", "postcode": "03246"}}},
{"geometry": {"type": "Point", "coordinates": [-71.4535477884, 43.6031059198]}, "type": "Feature", "properties": {"collection_times": [{"days": "Mon-Fri", "time": "4:00pm"}, {"days": "Sat", "time": "2:00pm"}, {"days": "Sun", "time": "Closed"}], "id": "0324600053", "name": "USPS COLLECTION BOX - BLUE BOX", "address": {"city": "LACONIA", "state": "NH", "street": "31 ENDICOTT ST E", "postcode": "03246"}}},
{"geometry": {"type": "Point", "coordinates": [-71.4685287133, 43.548712074]}, "type": "Feature", "properties": {"collection_times": [{"days": "Mon-Sat", "time": "10:00am"}, {"days": "Sun", "time": "Closed"}], "id": "0324600057", "name": "USPS COLLECTION BOX - BLUE BOX", "address": {"city": "LACONIA", "state": "NH", "street": "63 GILFORD AVE", "postcode": "03246"}}},
{"geometry": {"type": "Point", "coordinates": [-71.4633256622, 43.5324622333]}, "type": "Feature", "properties": {"collection_times": [{"days": "Mon-Fri", "time": "3:30pm"}, {"days": "Sat", "time": "2:00pm"}, {"days": "Sun", "time": "Closed"}], "id": "0324600059", "name": "USPS COLLECTION BOX - BLUE BOX", "address": {"city": "LACONIA", "state": "NH", "street": "277 UNION AVE", "postcode": "03246"}}},
{"geometry": {"type": "Point", "coordinates": [-71.4611050537, 43.5470162735]}, "type": "Feature", "properties": {"collection_times": [{"days": "Mon-Fri", "time": "5:00pm"}, {"days": "Sat", "time": "2:00pm"}, {"days": "Sun", "time": "Closed"}], "id": "0324600067", "name": "USPS COLLECTION BOX - PO LOBBY", "address": {"city": "LACONIA", "state": "NH", "street": "34 CLINTON ST", "postcode": "03246"}}},
{"geometry": {"type": "Point", "coordinates": [-71.4404004404, 43.5292928577]}, "type": "Feature", "properties": {"collection_times": [{"days": "Mon-Fri", "time": "3:30pm"}, {"days": "Sat", "time": "2:00pm"}, {"days": "Sun", "time": "Closed"}], "id": "0324600068", "name": "USPS COLLECTION BOX - PO LOBBY", "address": {"city": "LACONIA", "state": "NH", "street": "4 COUNTRY CLUB RD", "postcode": "03246"}}},
{"geometry": {"type": "Point", "coordinates": [-71.4535477884, 43.6031059198]}, "type": "Feature", "properties": {"collection_times": [{"days": "Mon-Fri", "time": "4:00pm"}, {"days": "Sat", "time": "2:00pm"}, {"days": "Sun", "time": "Closed"}], "id": "0324600069", "name": "USPS COLLECTION BOX - PO LOBBY", "address": {"city": "LACONIA", "state": "NH", "street": "31 ENDICOTT ST E", "postcode": "03246"}}},
{"geometry": {"type": "Point", "coordinates": [-71.4404004404, 43.5292928577]}, "type": "Feature", "properties": {"collection_times": [{"days": "Mon-Fri", "time": "3:30pm"}, {"days": "Sat", "time": "2:00pm"}, {"days": "Sun", "time": "Closed"}], "id": "0324600071", "name": "USPS COLLECTION BOX - BLUE BOX", "address": {"city": "LACONIA", "state": "NH", "street": "4 COUNTRY CLUB RD", "postcode": "03246"}}},
{"geometry": {"type": "Point", "coordinates": [-71.4386242523, 43.5646077999]}, "type": "Feature", "properties": {"collection_times": [{"days": "Mon-Fri", "time": "3:45pm"}, {"days": "Sat", "time": "2:00pm"}, {"days": "Sun", "time": "Closed"}], "id": "0324600072", "name": "USPS COLLECTION BOX - BLUE BOX", "address": {"city": "LACONIA", "state": "NH", "street": "1458 LAKE SHORE RD", "postcode": "03246"}}},
{"geometry": {"type": "Point", "coordinates": [-71.4479226461, 43.5682227516]}, "type": "Feature", "properties": {"collection_times": [{"days": "Mon-Sat", "time": "9:30am"}, {"days": "Sun", "time": "Closed"}], "id": "0324600073", "name": "USPS COLLECTION BOX - BLUE BOX", "address": {"city": "LACONIA", "state": "NH", "street": "18 WEIRS BLVD", "postcode": "03246"}}},
{"geometry": {"type": "Point", "coordinates": [-71.4733782816, 43.5261829891]}, "type": "Feature", "properties": {"collection_times": [{"days": "Mon-Fri", "time": "4:30pm"}, {"days": "Sat-Sun", "time": "Closed"}], "id": "0324600076", "name": "USPS COLLECTION BOX - BLUE BOX", "address": {"city": "LACONIA", "state": "NH", "street": "71 WATER ST", "postcode": "03246"}}},
{"geometry": {"type": "Point", "coordinates": [-71.4685287133, 43.548712074]}, "type": "Feature", "properties": {"collection_times": [{"days": "Mon-Fri", "time": "4:30pm"}, {"days": "Sat", "time": "2:30pm"}, {"days": "Sun", "time": "Closed"}], "id": "0324600077", "name": "USPS COLLECTION BOX - BLUE BOX", "address": {"city": "LACONIA", "state": "NH", "street": "64 COURT ST", "postcode": "03246"}}},
{"geometry": {"type": "Point", "coordinates": [-71.671236255, 44.053840689]}, "type": "Feature", "properties": {"collection_times": [{"days": "Mon-Fri", "time": "3:45pm"}, {"days": "Sat", "time": "12:00pm"}, {"days": "Sun", "time": "Closed"}], "id": "0325100001", "name": "USPS COLLECTION BOX - BLUE BOX", "address": {"city": "LINCOLN", "state": "NH", "street": "10 LUMBER YARD DR UNIT 9", "postcode": "03251"}}},
{"geometry": {"type": "Point", "coordinates": [-71.671236255, 44.053840689]}, "type": "Feature", "properties": {"collection_times": [{"days": "Mon-Fri", "time": "4:00pm"}, {"days": "Sat", "time": "12:00pm"}, {"days": "Sun", "time": "Closed"}], "id": "0325100002", "name": "USPS COLLECTION BOX - PO LOBBY", "address": {"city": "LINCOLN", "state": "NH", "street": "10 LUMBER YARD DR UNIT 9", "postcode": "03251"}}},
{"geometry": {"type": "Point", "coordinates": [-71.5775936257, 43.6855232857]}, "type": "Feature", "properties": {"collection_times": [{"days": "Mon-Fri", "time": "4:30pm"}, {"days": "Sat", "time": "11:30am"}, {"days": "Sun", "time": "Closed"}], "id": "0325200001", "name": "USPS COLLECTION BOX - PO LOBBY", "address": {"city": "LOCHMERE", "state": "NH", "street": "60 SILVER LAKE RD", "postcode": "03252"}}},
{"geometry": {"type": "Point", "coordinates": [-71.5775936257, 43.6855232857]}, "type": "Feature", "properties": {"collection_times": [{"days": "Mon-Fri", "time": "4:30pm"}, {"days": "Sat", "time": "11:30am"}, {"days": "Sun", "time": "Closed"}], "id": "0325200002", "name": "USPS COLLECTION BOX - BLUE BOX", "address": {"city": "LOCHMERE", "state": "NH", "street": "60 SILVER LAKE RD", "postcode": "03252"}}},
{"geometry": {"type": "Point", "coordinates": [-71.5775936257, 43.6855232857]}, "type": "Feature", "properties": {"collection_times": [{"days": "Mon-Fri", "time": "5:00pm"}, {"days": "Sat", "time": "2:30pm"}, {"days": "Sun", "time": "Closed"}], "id": "0325300002", "name": "USPS COLLECTION BOX - BLUE BOX", "address": {"city": "MEREDITH", "state": "NH", "street": "76 MAIN ST", "postcode": "03253"}}},
{"geometry": {"type": "Point", "coordinates": [-71.5307600996, 43.6138707244]}, "type": "Feature", "properties": {"collection_times": [{"days": "Mon-Sat", "time": "9:30am"}, {"days": "Sun", "time": "Closed"}], "id": "0325300003", "name": "USPS COLLECTION BOX - BLUE BOX", "address": {"city": "MEREDITH", "state": "NH", "street": "148 MEREDITH CENTER RD", "postcode": "03253"}}},
{"geometry": {"type": "Point", "coordinates": [-71.4577201644, 43.6857165706]}, "type": "Feature", "properties": {"collection_times": [{"days": "Mon-Sat", "time": "10:00am"}, {"days": "Sun", "time": "Closed"}], "id": "0325300004", "name": "USPS COLLECTION BOX - BLUE BOX", "address": {"city": "MEREDITH", "state": "NH", "street": "38 NH ROUTE 25", "postcode": "03253"}}},
{"geometry": {"type": "Point", "coordinates": [-71.5101941975, 43.6409912577]}, "type": "Feature", "properties": {"collection_times": [{"days": "Mon-Sat", "time": "10:30am"}, {"days": "Sun", "time": "Closed"}], "id": "0325300005", "name": "USPS COLLECTION BOX - BLUE BOX", "address": {"city": "MEREDITH", "state": "NH", "street": "71 NH ROUTE 104", "postcode": "03253"}}},
{"geometry": {"type": "Point", "coordinates": [-71.5775936257, 43.6855232857]}, "type": "Feature", "properties": {"collection_times": [{"days": "Mon-Fri", "time": "5:00pm"}, {"days": "Sat", "time": "3:45pm"}, {"days": "Sun", "time": "Closed"}], "id": "0325300006", "name": "USPS COLLECTION BOX - PO LOBBY", "address": {"city": "MEREDITH", "state": "NH", "street": "76 MAIN ST", "postcode": "03253"}}},
{"geometry": {"type": "Point", "coordinates": [-71.4603673721, 43.7097534219]}, "type": "Feature", "properties": {"collection_times": [{"days": "Mon-Fri", "time": "4:45pm"}, {"days": "Sat", "time": "12:00pm"}, {"days": "Sun", "time": "Closed"}], "id": "0325400001", "name": "USPS COLLECTION BOX - BLUE BOX", "address": {"city": "MOULTONBORO", "state": "NH", "street": "995 WHITTIER HWY", "postcode": "03254"}}},
{"geometry": {"type": "Point", "coordinates": [-71.4603673721, 43.7097534219]}, "type": "Feature", "properties": {"collection_times": [{"days": "Mon-Fri", "time": "4:45pm"}, {"days": "Sat", "time": "12:00pm"}, {"days": "Sun", "time": "Closed"}], "id": "0325400002", "name": "USPS COLLECTION BOX - BLUE BOX", "address": {"city": "MOULTONBORO", "state": "NH", "street": "995 WHITTIER HWY", "postcode": "03254"}}},
{"geometry": {"type": "Point", "coordinates": [-71.4603673721, 43.7097534219]}, "type": "Feature", "properties": {"collection_times": [{"days": "Mon-Fri", "time": "5:00pm"}, {"days": "Sat", "time": "12:00pm"}, {"days": "Sun", "time": "Closed"}], "id": "0325400003", "name": "USPS COLLECTION BOX - PO LOBBY", "address": {"city": "MOULTONBORO", "state": "NH", "street": "995 WHITTIER HWY", "postcode": "03254"}}},
{"geometry": {"type": "Point", "coordinates": [-71.4603673721, 43.7097534219]}, "type": "Feature", "properties": {"collection_times": [{"days": "Mon-Sat", "time": "9:45am"}, {"days": "Sun", "time": "Closed"}], "id": "0325400004", "name": "USPS COLLECTION BOX - BLUE BOX", "address": {"city": "MOULTONBORO", "state": "NH", "street": "268 WHITTIER HWY", "postcode": "03254"}}},
{"geometry": {"type": "Point", "coordinates": [-72.0382665622, 43.3218849785]}, "type": "Feature", "properties": {"collection_times": [{"days": "Mon-Fri", "time": "4:45pm"}, {"days": "Sat", "time": "11:45am"}, {"days": "Sun", "time": "Closed"}], "id": "0325500002", "name": "USPS COLLECTION BOX - BLUE BOX", "address": {"city": "NEWBURY", "state": "NH", "street": "976 ROUTE 103", "postcode": "03255"}}},
{"geometry": {"type": "Point", "coordinates": [-72.0382665622, 43.3218849785]}, "type": "Feature", "properties": {"collection_times": [{"days": "Mon-Fri", "time": "5:00pm"}, {"days": "Sat", "time": "11:45am"}, {"days": "Sun", "time": "Closed"}], "id": "0325500003", "name": "USPS COLLECTION BOX - PO LOBBY", "address": {"city": "NEWBURY", "state": "NH", "street": "976 ROUTE 103", "postcode": "03255"}}},
{"geometry": {"type": "Point", "coordinates": [-71.6362619847, 43.6190532233]}, "type": "Feature", "properties": {"collection_times": [{"days": "Mon-Fri", "time": "4:45pm"}, {"days": "Sat", "time": "12:00pm"}, {"days": "Sun", "time": "Closed"}], "id": "0325600001", "name": "USPS COLLECTION BOX - BLUE BOX", "address": {"city": "NEW HAMPTON", "state": "NH", "street": "15 NH ROUTE 132 N", "postcode": "03256"}}},
{"geometry": {"type": "Point", "coordinates": [-71.6362619847, 43.6190532233]}, "type": "Feature", "properties": {"collection_times": [{"days": "Mon-Fri", "time": "4:45pm"}, {"days": "Sat", "time": "12:00pm"}, {"days": "Sun", "time": "Closed"}], "id": "0325600002", "name": "USPS COLLECTION BOX - PO LOBBY", "address": {"city": "NEW HAMPTON", "state": "NH", "street": "15 NH ROUTE 132 N", "postcode": "03256"}}},
{"geometry": {"type": "Point", "coordinates": [-71.6250575366, 43.6314931188]}, "type": "Feature", "properties": {"collection_times": [{"days": "Mon-Sat", "time": "10:00am"}, {"days": "Sun", "time": "Closed"}], "id": "0325600004", "name": "USPS COLLECTION BOX - BLUE BOX", "address": {"city": "NEW HAMPTON", "state": "NH", "street": "79 MAIN ST", "postcode": "03256"}}},
{"geometry": {"type": "Point", "coordinates": [-71.6620678415, 43.6064789002]}, "type": "Feature", "properties": {"collection_times": [{"days": "Mon-Sat", "time": "10:00am"}, {"days": "Sun", "time": "Closed"}], "id": "0325600006", "name": "USPS COLLECTION BOX - BLUE BOX", "address": {"city": "NEW HAMPTON", "state": "NH", "street": "1 NH ROUTE 104", "postcode": "03256"}}},
{"geometry": {"type": "Point", "coordinates": [-71.9841140365, 43.4139554609]}, "type": "Feature", "properties": {"collection_times": [{"days": "Mon-Sat", "time": "12:30pm"}, {"days": "Sun", "time": "Closed"}], "id": "0325700001", "name": "USPS COLLECTION BOX - BLUE BOX", "address": {"city": "NEW LONDON", "state": "NH", "street": "328 MAIN ST", "postcode": "03257"}}},
{"geometry": {"type": "Point", "coordinates": [-71.9966163367, 43.4168628825]}, "type": "Feature", "properties": {"collection_times": [{"days": "Mon-Fri", "time": "5:00pm"}, {"days": "Sat", "time": "3:00pm"}, {"days": "Sun", "time": "Closed"}], "id": "0325700003", "name": "USPS COLLECTION BOX - BLUE BOX", "address": {"city": "NEW LONDON", "state": "NH", "street": "319 NEWPORT RD", "postcode": "03257"}}},
{"geometry": {"type": "Point", "coordinates": [-71.9966163367, 43.4168628825]}, "type": "Feature", "properties": {"collection_times": [{"days": "Mon-Fri", "time": "5:00pm"}, {"days": "Sat", "time": "3:00pm"}, {"days": "Sun", "time": "Closed"}], "id": "0325700005", "name": "USPS COLLECTION BOX - PO LOBBY", "address": {"city": "NEW LONDON", "state": "NH", "street": "319 NEWPORT RD", "postcode": "03257"}}},
{"geometry": {"type": "Point", "coordinates": [-71.3975444093, 43.8400603233]}, "type": "Feature", "properties": {"collection_times": [{"days": "Mon-Fri", "time": "4:15pm"}, {"days": "Sat", "time": "12:00pm"}, {"days": "Sun", "time": "Closed"}], "id": "0325900001", "name": "USPS COLLECTION BOX - BLUE BOX", "address": {"city": "NORTH SANDWICH", "state": "NH", "street": "2 MAPLE RIDGE RD", "postcode": "03259"}}},
{"geometry": {"type": "Point", "coordinates": [-71.3975444093, 43.8400603233]}, "type": "Feature", "properties": {"collection_times": [{"days": "Mon-Fri", "time": "4:30pm"}, {"days": "Sat", "time": "12:15pm"}, {"days": "Sun", "time": "Closed"}], "id": "0325900002", "name": "USPS COLLECTION BOX - PO LOBBY", "address": {"city": "NORTH SANDWICH", "state": "NH", "street": "2 MAPLE RIDGE RD", "postcode": "03259"}}},
{"geometry": {"type": "Point", "coordinates": [-71.9417984473, 43.3682337966]}, "type": "Feature", "properties": {"collection_times": [{"days": "Mon-Fri", "time": "4:30pm"}, {"days": "Sat", "time": "11:30am"}, {"days": "Sun", "time": "Closed"}], "id": "0326000001", "name": "USPS COLLECTION BOX - BLUE BOX", "address": {"city": "NORTH SUTTON", "state": "NH", "street": "1617 ROUTE 114", "postcode": "03260"}}},
{"geometry": {"type": "Point", "coordinates": [-71.9417984473, 43.3682337966]}, "type": "Feature", "properties": {"collection_times": [{"days": "Mon-Fri", "time": "4:30pm"}, {"days": "Sat", "time": "11:30am"}, {"days": "Sun", "time": "Closed"}], "id": "0326000002", "name": "USPS COLLECTION BOX - PO LOBBY", "address": {"city": "NORTH SUTTON", "state": "NH", "street": "1617 ROUTE 114", "postcode": "03260"}}},
{"geometry": {"type": "Point", "coordinates": [-71.246346341, 43.2144126845]}, "type": "Feature", "properties": {"collection_times": [{"days": "Mon-Fri", "time": "4:45pm"}, {"days": "Sat", "time": "12:00pm"}, {"days": "Sun", "time": "Closed"}], "id": "0326100001", "name": "USPS COLLECTION BOX - BLUE BOX", "address": {"city": "NORTHWOOD", "state": "NH", "street": "6 TASKER SHORE DR", "postcode": "03261"}}},
{"geometry": {"type": "Point", "coordinates": [-71.246346341, 43.2144126845]}, "type": "Feature", "properties": {"collection_times": [{"days": "Mon-Fri", "time": "4:45pm"}, {"days": "Sat", "time": "12:00pm"}, {"days": "Sun", "time": "Closed"}], "id": "0326100002", "name": "USPS COLLECTION BOX - PO LOBBY", "address": {"city": "NORTHWOOD", "state": "NH", "street": "6 TASKER SHORE DR", "postcode": "03261"}}},
{"geometry": {"type": "Point", "coordinates": [-71.1464307955, 43.1921283059]}, "type": "Feature", "properties": {"collection_times": [{"days": "Mon-Sat", "time": "11:00am"}, {"days": "Sun", "time": "Closed"}], "id": "0326100004", "name": "USPS COLLECTION BOX - BLUE BOX", "address": {"city": "NORTHWOOD", "state": "NH", "street": "174 1ST NH TPKE", "postcode": "03261"}}},
{"geometry": {"type": "Point", "coordinates": [-71.6849988942, 44.0259424943]}, "type": "Feature", "properties": {"collection_times": [{"days": "Mon-Fri", "time": "4:00pm"}, {"days": "Sat", "time": "12:00pm"}, {"days": "Sun", "time": "Closed"}], "id": "0326200001", "name": "USPS COLLECTION BOX - BLUE BOX", "address": {"city": "NORTH WOODSTOCK", "state": "NH", "street": "159 MAIN ST UNIT A", "postcode": "03262"}}},
{"geometry": {"type": "Point", "coordinates": [-71.6849988942, 44.0259424943]}, "type": "Feature", "properties": {"collection_times": [{"days": "Mon-Fri", "time": "4:15pm"}, {"days": "Sat", "time": "12:00pm"}, {"days": "Sun", "time": "Closed"}], "id": "0326200003", "name": "USPS COLLECTION BOX - PO LOBBY", "address": {"city": "NORTH WOODSTOCK", "state": "NH", "street": "159 MAIN ST UNIT A", "postcode": "03262"}}},
{"geometry": {"type": "Point", "coordinates": [-71.3247572914, 43.3058744384]}, "type": "Feature", "properties": {"collection_times": [{"days": "Mon-Sat", "time": "9:30am"}, {"days": "Sun", "time": "Closed"}], "id": "0326300001", "name": "USPS COLLECTION BOX - BLUE BOX", "address": {"city": "PITTSFIELD", "state": "NH", "street": "2 DEPOT ST", "postcode": "03263"}}},
{"geometry": {"type": "Point", "coordinates": [-71.322926071, 43.3055609543]}, "type": "Feature", "properties": {"collection_times": [{"days": "Mon-Sat", "time": "9:00am"}, {"days": "Sun", "time": "Closed"}], "id": "0326300002", "name": "USPS COLLECTION BOX - BLUE BOX", "address": {"city": "PITTSFIELD", "state": "NH", "street": "12 CATAMOUNT RD", "postcode": "03263"}}},
{"geometry": {"type": "Point", "coordinates": [-71.3269848032, 43.306060163]}, "type": "Feature", "properties": {"collection_times": [{"days": "Mon-Fri", "time": "4:45pm"}, {"days": "Sat", "time": "3:45pm"}, {"days": "Sun", "time": "Closed"}], "id": "0326300003", "name": "USPS COLLECTION BOX - BLUE BOX", "address": {"city": "PITTSFIELD", "state": "NH", "street": "2 ELM ST", "postcode": "03263"}}},
{"geometry": {"type": "Point", "coordinates": [-71.327912243, 43.3050451842]}, "type": "Feature", "properties": {"collection_times": [{"days": "Mon-Sat", "time": "9:00am"}, {"days": "Sun", "time": "Closed"}], "id": "0326300004", "name": "USPS COLLECTION BOX - BLUE BOX", "address": {"city": "PITTSFIELD", "state": "NH", "street": "34 MAIN ST", "postcode": "03263"}}},
{"geometry": {"type": "Point", "coordinates": [-71.3223158577, 43.3014621042]}, "type": "Feature", "properties": {"collection_times": [{"days": "Mon-Sat", "time": "9:00am"}, {"days": "Sun", "time": "Closed"}], "id": "0326300005", "name": "USPS COLLECTION BOX - BLUE BOX", "address": {"city": "PITTSFIELD", "state": "NH", "street": "46 MAIN ST", "postcode": "03263"}}},
{"geometry": {"type": "Point", "coordinates": [-71.3223158577, 43.3014621042]}, "type": "Feature", "properties": {"collection_times": [{"days": "Mon-Sat", "time": "9:00am"}, {"days": "Sun", "time": "Closed"}], "id": "0326300006", "name": "USPS COLLECTION BOX - BLUE BOX", "address": {"city": "PITTSFIELD", "state": "NH", "street": "67 MAIN ST", "postcode": "03263"}}},
{"geometry": {"type": "Point", "coordinates": [-71.3311322573, 43.3054414754]}, "type": "Feature", "properties": {"collection_times": [{"days": "Mon-Sat", "time": "9:00am"}, {"days": "Sun", "time": "Closed"}], "id": "0326300007", "name": "USPS COLLECTION BOX - BLUE BOX", "address": {"city": "PITTSFIELD", "state": "NH", "street": "4 WATER ST", "postcode": "03263"}}},
{"geometry": {"type": "Point", "coordinates": [-71.3269848032, 43.306060163]}, "type": "Feature", "properties": {"collection_times": [{"days": "Mon-Fri", "time": "5:00pm"}, {"days": "Sat", "time": "4:00pm"}, {"days": "Sun", "time": "Closed"}], "id": "0326300008", "name": "USPS COLLECTION BOX - PO LOBBY", "address": {"city": "PITTSFIELD", "state": "NH", "street": "2 ELM ST", "postcode": "03263"}}},
{"geometry": {"type": "Point", "coordinates": [-71.6924962066, 43.7690632297]}, "type": "Feature", "properties": {"collection_times": [{"days": "Mon-Fri", "time": "4:00pm"}, {"days": "Sat", "time": "12:00pm"}, {"days": "Sun", "time": "Closed"}], "id": "0326400002", "name": "USPS COLLECTION BOX - BLUE BOX", "address": {"city": "PLYMOUTH", "state": "NH", "street": "389 TENNEY MOUNTAIN HWY", "postcode": "03264"}}},
{"geometry": {"type": "Point", "coordinates": [-71.6877390975, 43.7574150908]}, "type": "Feature", "properties": {"collection_times": [{"days": "Mon-Fri", "time": "5:00pm"}, {"days": "Sat", "time": "12:00pm"}, {"days": "Sun", "time": "Closed"}], "id": "0326400006", "name": "USPS COLLECTION BOX - BLUE BOX", "address": {"city": "PLYMOUTH", "state": "NH", "street": "28 MAIN ST", "postcode": "03264"}}},
{"geometry": {"type": "Point", "coordinates": [-71.6877361046, 43.758009421]}, "type": "Feature", "properties": {"collection_times": [{"days": "Mon-Fri", "time": "5:00pm"}, {"days": "Sat", "time": "12:00pm"}, {"days": "Sun", "time": "Closed"}], "id": "0326400007", "name": "USPS COLLECTION BOX - BLUE BOX", "address": {"city": "PLYMOUTH", "state": "NH", "street": "70 MAIN ST", "postcode": "03264"}}},
{"geometry": {"type": "Point", "coordinates": [-71.6878909036, 43.7576946434]}, "type": "Feature", "properties": {"collection_times": [{"days": "Mon-Fri", "time": "5:00pm"}, {"days": "Sat", "time": "12:00pm"}, {"days": "Sun", "time": "Closed"}], "id": "0326400008", "name": "USPS COLLECTION BOX - BLUE BOX", "address": {"city": "PLYMOUTH", "state": "NH", "street": "71 MAIN ST", "postcode": "03264"}}},
{"geometry": {"type": "Point", "coordinates": [-71.6884549803, 43.7574630567]}, "type": "Feature", "properties": {"collection_times": [{"days": "Mon-Fri", "time": "5:30pm"}, {"days": "Sat", "time": "12:00pm"}, {"days": "Sun", "time": "Closed"}], "id": "0326400011", "name": "USPS COLLECTION BOX - BLUE BOX", "address": {"city": "PLYMOUTH", "state": "NH", "street": "1 POST OFFICE SQ", "postcode": "03264"}}},
{"geometry": {"type": "Point", "coordinates": [-71.5775936257, 43.6855232857]}, "type": "Feature", "properties": {"collection_times": [{"days": "Mon-Fri", "time": "4:00pm"}, {"days": "Sat", "time": "12:00pm"}, {"days": "Sun", "time": "Closed"}], "id": "0326400016", "name": "USPS COLLECTION BOX - BLUE BOX", "address": {"city": "PLYMOUTH", "state": "NH", "street": "607 TENNEY MOUNTAIN HWY", "postcode": "03264"}}},
{"geometry": {"type": "Point", "coordinates": [-71.6884549803, 43.7574630567]}, "type": "Feature", "properties": {"collection_times": [{"days": "Mon-Fri", "time": "5:30pm"}, {"days": "Sat", "time": "12:00pm"}, {"days": "Sun", "time": "Closed"}], "id": "0326400017", "name": "USPS COLLECTION BOX - PO LOBBY", "address": {"city": "PLYMOUTH", "state": "NH", "street": "1 POST OFFICE SQ", "postcode": "03264"}}},
{"geometry": {"type": "Point", "coordinates": [-71.8048274675, 43.793530241]}, "type": "Feature", "properties": {"collection_times": [{"days": "Mon-Fri", "time": "4:45pm"}, {"days": "Sat", "time": "12:00pm"}, {"days": "Sun", "time": "Closed"}], "id": "0326600001", "name": "USPS COLLECTION BOX - BLUE BOX", "address": {"city": "RUMNEY", "state": "NH", "street": "9 POST OFFICE LN", "postcode": "03266"}}},
{"geometry": {"type": "Point", "coordinates": [-71.8048274675, 43.793530241]}, "type": "Feature", "properties": {"collection_times": [{"days": "Mon-Fri", "time": "4:45pm"}, {"days": "Sat", "time": "12:00pm"}, {"days": "Sun", "time": "Closed"}], "id": "0326600002", "name": "USPS COLLECTION BOX - PO LOBBY", "address": {"city": "RUMNEY", "state": "NH", "street": "9 POST OFFICE LN", "postcode": "03266"}}},
{"geometry": {"type": "Point", "coordinates": [-71.6943074295, 43.3686722107]}, "type": "Feature", "properties": {"collection_times": [{"days": "Mon-Fri", "time": "4:45pm"}, {"days": "Sat", "time": "11:45am"}, {"days": "Sun", "time": "Closed"}], "id": "0326800001", "name": "USPS COLLECTION BOX - BLUE BOX", "address": {"city": "SALISBURY", "state": "NH", "street": "269 OLD TURNPIKE RD", "postcode": "03268"}}},
{"geometry": {"type": "Point", "coordinates": [-71.6943074295, 43.3686722107]}, "type": "Feature", "properties": {"collection_times": [{"days": "Mon-Fri", "time": "4:45pm"}, {"days": "Sat", "time": "11:45am"}, {"days": "Sun", "time": "Closed"}], "id": "0326800002", "name": "USPS COLLECTION BOX - PO LOBBY", "address": {"city": "SALISBURY", "state": "NH", "street": "269 OLD TURNPIKE RD", "postcode": "03268"}}},
{"geometry": {"type": "Point", "coordinates": [-71.6021094942, 43.5315520122]}, "type": "Feature", "properties": {"collection_times": [{"days": "Mon-Fri", "time": "4:45pm"}, {"days": "Sat", "time": "11:45am"}, {"days": "Sun", "time": "Closed"}], "id": "0326900003", "name": "USPS COLLECTION BOX - BLUE BOX", "address": {"city": "SANBORNTON", "state": "NH", "street": "542 SANBORN RD", "postcode": "03269"}}},
{"geometry": {"type": "Point", "coordinates": [-71.6021094942, 43.5315520122]}, "type": "Feature", "properties": {"collection_times": [{"days": "Mon-Fri", "time": "4:45pm"}, {"days": "Sat", "time": "11:45am"}, {"days": "Sun", "time": "Closed"}], "id": "0326900004", "name": "USPS COLLECTION BOX - PO LOBBY", "address": {"city": "SANBORNTON", "state": "NH", "street": "542 SANBORN RD", "postcode": "03269"}}},
{"geometry": {"type": "Point", "coordinates": [-71.9339955749, 43.3176612595]}, "type": "Feature", "properties": {"collection_times": [{"days": "Mon-Fri", "time": "4:30pm"}, {"days": "Sat", "time": "11:30am"}, {"days": "Sun", "time": "Closed"}], "id": "0327300001", "name": "USPS COLLECTION BOX - BLUE BOX", "address": {"city": "SOUTH SUTTON", "state": "NH", "street": "663 ROUTE 114", "postcode": "03273"}}},
{"geometry": {"type": "Point", "coordinates": [-71.9339955749, 43.3176612595]}, "type": "Feature", "properties": {"collection_times": [{"days": "Mon-Fri", "time": "4:45pm"}, {"days": "Sat", "time": "11:45am"}, {"days": "Sun", "time": "Closed"}], "id": "0327300002", "name": "USPS COLLECTION BOX - PO LOBBY", "address": {"city": "SOUTH SUTTON", "state": "NH", "street": "663 ROUTE 114", "postcode": "03273"}}},
{"geometry": {"type": "Point", "coordinates": [-71.4443965529, 43.141233113]}, "type": "Feature", "properties": {"collection_times": [{"days": "Mon-Sat", "time": "1:00pm"}, {"days": "Sun", "time": "Closed"}], "id": "0327500001", "name": "USPS COLLECTION BOX - BLUE BOX", "address": {"city": "PEMBROKE", "state": "NH", "street": "39 ALLENSTOWN RD", "postcode": "03275"}}},
{"geometry": {"type": "Point", "coordinates": [-71.4430680638, 43.1245865512]}, "type": "Feature", "properties": {"collection_times": [{"days": "Mon-Sat", "time": "1:00pm"}, {"days": "Sun", "time": "Closed"}], "id": "0327500002", "name": "USPS COLLECTION BOX - BLUE BOX", "address": {"city": "PEMBROKE", "state": "NH", "street": "48 ALLENSTOWN RD", "postcode": "03275"}}},
{"geometry": {"type": "Point", "coordinates": [-71.4510561075, 43.1305273158]}, "type": "Feature", "properties": {"collection_times": [{"days": "Mon-Fri", "time": "5:00pm"}, {"days": "Sat", "time": "3:30pm"}, {"days": "Sun", "time": "Closed"}], "id": "0327500004", "name": "USPS COLLECTION BOX - BLUE BOX", "address": {"city": "PEMBROKE", "state": "NH", "street": "55 GLASS ST", "postcode": "03275"}}},
{"geometry": {"type": "Point", "coordinates": [-71.4541171127, 43.1296540329]}, "type": "Feature", "properties": {"collection_times": [{"days": "Mon-Sat", "time": "1:00pm"}, {"days": "Sun", "time": "Closed"}], "id": "0327500005", "name": "USPS COLLECTION BOX - BLUE BOX", "address": {"city": "PEMBROKE", "state": "NH", "street": "157 MAIN ST", "postcode": "03275"}}},
{"geometry": {"type": "Point", "coordinates": [-71.452575084, 43.1343301977]}, "type": "Feature", "properties": {"collection_times": [{"days": "Mon-Sat", "time": "12:00pm"}, {"days": "Sun", "time": "Closed"}], "id": "0327500006", "name": "USPS COLLECTION BOX - BLUE BOX", "address": {"city": "PEMBROKE", "state": "NH", "street": "34 BROADWAY", "postcode": "03275"}}},
{"geometry": {"type": "Point", "coordinates": [-71.4516354124, 43.1269904885]}, "type": "Feature", "properties": {"collection_times": [{"days": "Mon-Sat", "time": "2:30pm"}, {"days": "Sun", "time": "Closed"}], "id": "0327500007", "name": "USPS COLLECTION BOX - BLUE BOX", "address": {"city": "PEMBROKE", "state": "NH", "street": "18 SCHOOL ST", "postcode": "03275"}}},
{"geometry": {"type": "Point", "coordinates": [-71.4605133933, 43.1498869155]}, "type": "Feature", "properties": {"collection_times": [{"days": "Mon-Fri", "time": "1:00pm"}, {"days": "Sat", "time": "12:00pm"}, {"days": "Sun", "time": "Closed"}], "id": "0327500008", "name": "USPS COLLECTION BOX - BLUE BOX", "address": {"city": "PEMBROKE", "state": "NH", "street": "311 PEMBROKE ST", "postcode": "03275"}}},
{"geometry": {"type": "Point", "coordinates": [-71.4510561075, 43.1305273158]}, "type": "Feature", "properties": {"collection_times": [{"days": "Mon-Fri", "time": "5:00pm"}, {"days": "Sat", "time": "3:30pm"}, {"days": "Sun", "time": "Closed"}], "id": "0327500009", "name": "USPS COLLECTION BOX - PO LOBBY", "address": {"city": "PEMBROKE", "state": "NH", "street": "55 GLASS ST", "postcode": "03275"}}},
{"geometry": {"type": "Point", "coordinates": [-71.5810078713, 43.4448143027]}, "type": "Feature", "properties": {"collection_times": [{"days": "Mon-Fri", "time": "4:00pm"}, {"days": "Sat", "time": "9:00am"}, {"days": "Sun", "time": "Closed"}], "id": "0327600002", "name": "USPS COLLECTION BOX - BLUE BOX", "address": {"city": "NORTHFIELD", "state": "NH", "street": "36 SCHOOL ST", "postcode": "03276"}}},
{"geometry": {"type": "Point", "coordinates": [-71.5937799937, 43.4433684057]}, "type": "Feature", "properties": {"collection_times": [{"days": "Mon-Fri", "time": "4:00pm"}, {"days": "Sat", "time": "9:00am"}, {"days": "Sun", "time": "Closed"}], "id": "0327600003", "name": "USPS COLLECTION BOX - BLUE BOX", "address": {"city": "NORTHFIELD", "state": "NH", "street": "274 MAIN ST", "postcode": "03276"}}},
{"geometry": {"type": "Point", "coordinates": [-71.5919657567, 43.4342873013]}, "type": "Feature", "properties": {"collection_times": [{"days": "Mon-Fri", "time": "3:30pm"}, {"days": "Sat", "time": "9:00am"}, {"days": "Sun", "time": "Closed"}], "id": "0327600005", "name": "USPS COLLECTION BOX - BLUE BOX", "address": {"city": "NORTHFIELD", "state": "NH", "street": "133 PARK ST", "postcode": "03276"}}},
{"geometry": {"type": "Point", "coordinates": [-71.5775936257, 43.6855232857]}, "type": "Feature", "properties": {"collection_times": [{"days": "Mon-Fri", "time": "5:00pm"}, {"days": "Sat", "time": "3:00pm"}, {"days": "Sun", "time": "Closed"}], "id": "0327600006", "name": "USPS COLLECTION BOX - BLUE BOX", "address": {"city": "NORTHFIELD", "state": "NH", "street": "66 E MAIN ST", "postcode": "03276"}}},
{"geometry": {"type": "Point", "coordinates": [-71.5928496246, 43.4435638126]}, "type": "Feature", "properties": {"collection_times": [{"days": "Mon-Fri", "time": "4:00pm"}, {"days": "Sat", "time": "9:00am"}, {"days": "Sun", "time": "Closed"}], "id": "0327600007", "name": "USPS COLLECTION BOX - BLUE BOX", "address": {"city": "NORTHFIELD", "state": "NH", "street": "257 MAIN ST", "postcode": "03276"}}},
{"geometry": {"type": "Point", "coordinates": [-71.6032290858, 43.4427023847]}, "type": "Feature", "properties": {"collection_times": [{"days": "Mon-Sat", "time": "9:00am"}, {"days": "Sun", "time": "Closed"}], "id": "0327600009", "name": "USPS COLLECTION BOX - BLUE BOX", "address": {"city": "NORTHFIELD", "state": "NH", "street": "380 W MAIN ST", "postcode": "03276"}}},
{"geometry": {"type": "Point", "coordinates": [-71.5645112048, 43.4568100124]}, "type": "Feature", "properties": {"collection_times": [{"days": "Mon-Fri", "time": "3:00pm"}, {"days": "Sat", "time": "9:00am"}, {"days": "Sun", "time": "Closed"}], "id": "0327600011", "name": "USPS COLLECTION BOX - BLUE BOX", "address": {"city": "NORTHFIELD", "state": "NH", "street": "120 LACONIA RD", "postcode": "03276"}}},
{"geometry": {"type": "Point", "coordinates": [-71.5748801494, 43.4273587434]}, "type": "Feature", "properties": {"collection_times": [{"days": "Mon-Fri", "time": "3:15pm"}, {"days": "Sat", "time": "9:00am"}, {"days": "Sun", "time": "Closed"}], "id": "0327600014", "name": "USPS COLLECTION BOX - BLUE BOX", "address": {"city": "NORTHFIELD", "state": "NH", "street": "100 MARKET ST", "postcode": "03276"}}},
{"geometry": {"type": "Point", "coordinates": [-71.5775936257, 43.6855232857]}, "type": "Feature", "properties": {"collection_times": [{"days": "Mon-Fri", "time": "5:00pm"}, {"days": "Sat", "time": "3:00pm"}, {"days": "Sun", "time": "Closed"}], "id": "0327600016", "name": "USPS COLLECTION BOX - BLUE BOX", "address": {"city": "NORTHFIELD", "state": "NH", "street": "66 E MAIN ST", "postcode": "03276"}}},
{"geometry": {"type": "Point", "coordinates": [-71.5775936257, 43.6855232857]}, "type": "Feature", "properties": {"collection_times": [{"days": "Mon-Sat", "time": "8:30am"}, {"days": "Sun", "time": "Closed"}], "id": "0327600017", "name": "USPS COLLECTION BOX - BLUE BOX", "address": {"city": "NORTHFIELD", "state": "NH", "street": "630 W MAIN ST", "postcode": "03276"}}},
{"geometry": {"type": "Point", "coordinates": [-71.5877059241, 43.4337220216]}, "type": "Feature", "properties": {"collection_times": [{"days": "Mon-Sat", "time": "9:30am"}, {"days": "Sun", "time": "Closed"}], "id": "0327600018", "name": "USPS COLLECTION BOX - BLUE BOX", "address": {"city": "NORTHFIELD", "state": "NH", "street": "21 SUMMER ST", "postcode": "03276"}}},
{"geometry": {"type": "Point", "coordinates": [-71.5775936257, 43.6855232857]}, "type": "Feature", "properties": {"collection_times": [{"days": "Mon-Fri", "time": "5:00pm"}, {"days": "Sat", "time": "3:00pm"}, {"days": "Sun", "time": "Closed"}], "id": "0327600019", "name": "USPS COLLECTION BOX - PO LOBBY", "address": {"city": "NORTHFIELD", "state": "NH", "street": "66 E MAIN ST", "postcode": "03276"}}},
{"geometry": {"type": "Point", "coordinates": [-71.5656729316, 43.4560382658]}, "type": "Feature", "properties": {"collection_times": [{"days": "Mon-Fri", "time": "3:00pm"}, {"days": "Sat", "time": "9:00am"}, {"days": "Sun", "time": "Closed"}], "id": "0327600020", "name": "USPS COLLECTION BOX - BLUE BOX", "address": {"city": "NORTHFIELD", "state": "NH", "street": "75 LACONIA RD", "postcode": "03276"}}},
{"geometry": {"type": "Point", "coordinates": [-71.8317885534, 43.2885331447]}, "type": "Feature", "properties": {"collection_times": [{"days": "Mon-Fri", "time": "4:30pm"}, {"days": "Sat", "time": "12:00pm"}, {"days": "Sun", "time": "Closed"}], "id": "0327800001", "name": "USPS COLLECTION BOX - BLUE BOX", "address": {"city": "WARNER", "state": "NH", "street": "36 E MAIN ST", "postcode": "03278"}}},
{"geometry": {"type": "Point", "coordinates": [-71.8176226261, 43.28113197]}, "type": "Feature", "properties": {"collection_times": [{"days": "Mon-Sat", "time": "11:00am"}, {"days": "Sun", "time": "Closed"}], "id": "0327800002", "name": "USPS COLLECTION BOX - BLUE BOX", "address": {"city": "WARNER", "state": "NH", "street": "30 ROUTE 103 W", "postcode": "03278"}}},
{"geometry": {"type": "Point", "coordinates": [-71.8317885534, 43.2885331447]}, "type": "Feature", "properties": {"collection_times": [{"days": "Mon-Fri", "time": "5:00pm"}, {"days": "Sat", "time": "12:00pm"}, {"days": "Sun", "time": "Closed"}], "id": "0327800003", "name": "USPS COLLECTION BOX - PO LOBBY", "address": {"city": "WARNER", "state": "NH", "street": "36 E MAIN ST", "postcode": "03278"}}},
{"geometry": {"type": "Point", "coordinates": [-71.8908280748, 43.9226070446]}, "type": "Feature", "properties": {"collection_times": [{"days": "Mon-Fri", "time": "4:15pm"}, {"days": "Sat", "time": "11:30am"}, {"days": "Sun", "time": "Closed"}], "id": "0327900001", "name": "USPS COLLECTION BOX - PO LOBBY", "address": {"city": "WARREN", "state": "NH", "street": "18 LAKE TARLETON RD UNIT 1", "postcode": "03279"}}},
{"geometry": {"type": "Point", "coordinates": [-71.8908280748, 43.9226070446]}, "type": "Feature", "properties": {"collection_times": [{"days": "Mon-Fri", "time": "4:15pm"}, {"days": "Sat", "time": "11:30am"}, {"days": "Sun", "time": "Closed"}], "id": "0327900002", "name": "USPS COLLECTION BOX - BLUE BOX", "address": {"city": "WARREN", "state": "NH", "street": "18 LAKE TARLETON RD UNIT 1", "postcode": "03279"}}},
{"geometry": {"type": "Point", "coordinates": [-72.1000097541, 43.1794654462]}, "type": "Feature", "properties": {"collection_times": [{"days": "Mon-Fri", "time": "4:30pm"}, {"days": "Sat", "time": "11:30am"}, {"days": "Sun", "time": "Closed"}], "id": "0328000001", "name": "USPS COLLECTION BOX - BLUE BOX", "address": {"city": "WASHINGTON", "state": "NH", "street": "173 N MAIN ST", "postcode": "03280"}}},
{"geometry": {"type": "Point", "coordinates": [-72.1000097541, 43.1794654462]}, "type": "Feature", "properties": {"collection_times": [{"days": "Mon-Fri", "time": "3:00pm"}, {"days": "Sat", "time": "12:00pm"}, {"days": "Sun", "time": "Closed"}], "id": "0328000002", "name": "USPS COLLECTION BOX - PO LOBBY", "address": {"city": "WASHINGTON", "state": "NH", "street": "173 N MAIN ST", "postcode": "03280"}}},
{"geometry": {"type": "Point", "coordinates": [-71.7297275476, 43.0886734114]}, "type": "Feature", "properties": {"collection_times": [{"days": "Mon-Fri", "time": "5:00pm"}, {"days": "Sat", "time": "1:00pm"}, {"days": "Sun", "time": "Closed"}], "id": "0328100004", "name": "USPS COLLECTION BOX - BLUE BOX", "address": {"city": "WEARE", "state": "NH", "street": "8 DUCK POND RD", "postcode": "03281"}}},
{"geometry": {"type": "Point", "coordinates": [-71.6817589286, 43.04415778]}, "type": "Feature", "properties": {"collection_times": [{"days": "Mon-Sat", "time": "9:30am"}, {"days": "Sun", "time": "Closed"}], "id": "0328100005", "name": "USPS COLLECTION BOX - BLUE BOX", "address": {"city": "WEARE", "state": "NH", "street": "425 S STARK HWY", "postcode": "03281"}}},
{"geometry": {"type": "Point", "coordinates": [-71.7287508846, 43.0893164143]}, "type": "Feature", "properties": {"collection_times": [{"days": "Mon-Fri", "time": "5:00pm"}, {"days": "Sat", "time": "1:00pm"}, {"days": "Sun", "time": "Closed"}], "id": "0328100006", "name": "USPS COLLECTION BOX - PO LOBBY", "address": {"city": "WEARE", "state": "NH", "street": "8 DUCK POND RD", "postcode": "03281"}}},
{"geometry": {"type": "Point", "coordinates": [-71.9090593182, 43.8684687241]}, "type": "Feature", "properties": {"collection_times": [{"days": "Mon-Fri", "time": "4:30pm"}, {"days": "Sat", "time": "12:00pm"}, {"days": "Sun", "time": "Closed"}], "id": "0328200001", "name": "USPS COLLECTION BOX - BLUE BOX", "address": {"city": "WENTWORTH", "state": "NH", "street": "12 WENTWORTH VILLAGE RD UNIT B", "postcode": "03282"}}},
{"geometry": {"type": "Point", "coordinates": [-71.9090593182, 43.8684687241]}, "type": "Feature", "properties": {"collection_times": [{"days": "Mon-Fri", "time": "4:30pm"}, {"days": "Sat", "time": "12:00pm"}, {"days": "Sun", "time": "Closed"}], "id": "0328200002", "name": "USPS COLLECTION BOX - PO LOBBY", "address": {"city": "WENTWORTH", "state": "NH", "street": "12 WENTWORTH VILLAGE RD UNIT B", "postcode": "03282"}}},
{"geometry": {"type": "Point", "coordinates": [-72.0483898131, 43.4935644554]}, "type": "Feature", "properties": {"collection_times": [{"days": "Mon-Fri", "time": "4:00pm"}, {"days": "Sat", "time": "12:00pm"}, {"days": "Sun", "time": "Closed"}], "id": "0328400001", "name": "USPS COLLECTION BOX - BLUE BOX", "address": {"city": "SPRINGFIELD", "state": "NH", "street": "2776 MAIN ST", "postcode": "03284"}}},
{"geometry": {"type": "Point", "coordinates": [-72.0483898131, 43.4935644554]}, "type": "Feature", "properties": {"collection_times": [{"days": "Mon-Fri", "time": "4:00pm"}, {"days": "Sat", "time": "12:00pm"}, {"days": "Sun", "time": "Closed"}], "id": "0328400002", "name": "USPS COLLECTION BOX - PO LOBBY", "address": {"city": "SPRINGFIELD", "state": "NH", "street": "2776 MAIN ST", "postcode": "03284"}}},
{"geometry": {"type": "Point", "coordinates": [-71.913948262, 43.4501238992]}, "type": "Feature", "properties": {"collection_times": [{"days": "Mon-Fri", "time": "4:30pm"}, {"days": "Sat", "time": "11:30am"}, {"days": "Sun", "time": "Closed"}], "id": "0328700001", "name": "USPS COLLECTION BOX - BLUE BOX", "address": {"city": "WILMOT", "state": "NH", "street": "60 VILLAGE RD", "postcode": "03287"}}},
{"geometry": {"type": "Point", "coordinates": [-71.913948262, 43.4501238992]}, "type": "Feature", "properties": {"collection_times": [{"days": "Mon-Fri", "time": "4:30pm"}, {"days": "Sat", "time": "11:30am"}, {"days": "Sun", "time": "Closed"}], "id": "0328700002", "name": "USPS COLLECTION BOX - PO LOBBY", "address": {"city": "WILMOT", "state": "NH", "street": "60 VILLAGE RD", "postcode": "03287"}}},
{"geometry": {"type": "Point", "coordinates": [-71.5775936257, 43.6855232857]}, "type": "Feature", "properties": {"collection_times": [{"days": "Mon-Fri", "time": "5:00pm"}, {"days": "Sat", "time": "12:00pm"}, {"days": "Sun", "time": "Closed"}], "id": "0328900001", "name": "USPS COLLECTION BOX - BLUE BOX", "address": {"city": "WINNISQUAM", "state": "NH", "street": "969 LACONIA RD", "postcode": "03289"}}},
{"geometry": {"type": "Point", "coordinates": [-71.5775936257, 43.6855232857]}, "type": "Feature", "properties": {"collection_times": [{"days": "Mon-Fri", "time": "5:00pm"}, {"days": "Sat", "time": "12:00pm"}, {"days": "Sun", "time": "Closed"}], "id": "0328900002", "name": "USPS COLLECTION BOX - PO LOBBY", "address": {"city": "WINNISQUAM", "state": "NH", "street": "969 LACONIA RD", "postcode": "03289"}}},
{"geometry": {"type": "Point", "coordinates": [-71.1017059689, 43.1316002363]}, "type": "Feature", "properties": {"collection_times": [{"days": "Mon-Fri", "time": "5:00pm"}, {"days": "Sat", "time": "11:00am"}, {"days": "Sun", "time": "Closed"}], "id": "0329000001", "name": "USPS COLLECTION BOX - BLUE BOX", "address": {"city": "NOTTINGHAM", "state": "NH", "street": "106 STAGE RD", "postcode": "03290"}}},
{"geometry": {"type": "Point", "coordinates": [-71.1017059689, 43.1316002363]}, "type": "Feature", "properties": {"collection_times": [{"days": "Mon-Fri", "time": "5:00pm"}, {"days": "Sat", "time": "11:00am"}, {"days": "Sun", "time": "Closed"}], "id": "0329000002", "name": "USPS COLLECTION BOX - PO LOBBY", "address": {"city": "NOTTINGHAM", "state": "NH", "street": "106 STAGE RD", "postcode": "03290"}}},
{"geometry": {"type": "Point", "coordinates": [-71.1401262981, 43.1734719567]}, "type": "Feature", "properties": {"collection_times": [{"days": "Mon-Fri", "time": "4:30pm"}, {"days": "Sat", "time": "10:30am"}, {"days": "Sun", "time": "Closed"}], "id": "0329100001", "name": "USPS COLLECTION BOX - BLUE BOX", "address": {"city": "WEST NOTTINGHAM", "state": "NH", "street": "368 STAGE RD UNIT 2", "postcode": "03291"}}}
]}
