{"type": "FeatureCollection", "features": [
{"geometry": {"type": "Point", "coordinates": [-71.5338862865, 43.2080810229]}, "type": "Feature", "properties": {"collection_times": [{"days": "Mon-Fri", "time": "3:00pm"}, {"days": "Sat", "time": "2:00pm"}, {"days": "Sun", "time": "Closed"}], "id": "0330100001", "name": "USPS COLLECTION BOX - BLUE BOX", "address": {"city": "CONCORD", "state": "NH", "street": "65 AIRPORT RD", "postcode": "03301"}}},
{"geometry": {"type": "Point", "coordinates": [-71.5324919834, 43.1923482325]}, "type": "Feature", "properties": {"collection_times": [{"days": "Mon-Fri", "time": "3:30pm"}, {"days": "Sat", "time": "11:00am"}, {"days": "Sun", "time": "Closed"}], "id": "0330100003", "name": "USPS COLLECTION BOX - BLUE BOX", "address": {"city": "CONCORD", "state": "NH", "street": "1 PILLSBURY ST", "postcode": "03301"}}},
{"geometry": {"type": "Point", "coordinates": [-71.4938594358, 43.2222604833]}, "type": "Feature", "properties": {"collection_times": [{"days": "Mon-Sat", "time": "10:00am"}, {"days": "Sun", "time": "Closed"}], "id": "0330100004", "name": "USPS COLLECTION BOX - BLUE BOX", "address": {"city": "CONCORD", "state": "NH", "street": "241 LOUDON RD", "postcode": "03301"}}},
{"geometry": {"type": "Point", "coordinates": [-71.497477439, 43.2181508964]}, "type": "Feature", "properties": {"collection_times": [{"days": "Mon-Sat", "time": "10:00am"}, {"days": "Sun", "time": "Closed"}], "id": "0330100006", "name": "USPS COLLECTION BOX - BLUE BOX", "address": {"city": "CONCORD", "state": "NH", "street": "58 BRANCH TPKE", "postcode": "03301"}}},
{"geometry": {"type": "Point", "coordinates": [-71.5340144516, 43.2083134467]}, "type": "Feature", "properties": {"collection_times": [{"days": "Mon-Fri", "time": "5:00pm"}, {"days": "Sat", "time": "9:30am"}, {"days": "Sun", "time": "Closed"}], "id": "0330100007", "name": "USPS COLLECTION BOX - BLUE BOX", "address": {"city": "CONCORD", "state": "NH", "street": "22 BRIDGE ST", "postcode": "03301"}}},
{"geometry": {"type": "Point", "coordinates": [-71.5341398453, 43.1849843129]}, "type": "Feature", "properties": {"collection_times": [{"days": "Mon-Sat", "time": "10:00am"}, {"days": "Sun", "time": "Closed"}], "id": "0330100009", "name": "USPS COLLECTION BOX - BLUE BOX", "address": {"city": "CONCORD", "state": "NH", "street": "130 BROADWAY", "postcode": "03301"}}},
{"geometry": {"type": "Point", "coordinates": [-71.4967001919, 43.2209688519]}, "type": "Feature", "properties": {"collection_times": [{"days": "Mon-Sat", "time": "12:00pm"}, {"days": "Sun", "time": "Closed"}], "id": "0330100011", "name": "USPS COLLECTION BOX - BLUE BOX", "address": {"city": "CONCORD", "state": "NH", "street": "227 LOUDON RD", "postcode": "03301"}}},
{"geometry": {"type": "Point", "coordinates": [-71.5379716152, 43.2066976582]}, "type": "Feature", "properties": {"collection_times": [{"days": "Mon-Fri", "time": "5:00pm"}, {"days": "Sat", "time": "10:00am"}, {"days": "Sun", "time": "Closed"}], "id": "0330100012", "name": "USPS COLLECTION BOX - BLUE BOX", "address": {"city": "CONCORD", "state": "NH", "street": "30 CAPITOL ST", "postcode": "03301"}}},
{"geometry": {"type": "Point", "coordinates": [-71.5338862865, 43.2080810229]}, "type": "Feature", "properties": {"collection_times": [{"days": "Mon-Sat", "time": "11:00am"}, {"days": "Sun", "time": "Closed"}], "id": "0330100015", "name": "USPS COLLECTION BOX - BLUE BOX", "address": {"city": "CONCORD", "state": "NH", "street": "36 PINE ST", "postcode": "03301"}}},
{"geometry": {"type": "Point", "coordinates": [-71.5384663269, 43.2082794825]}, "type": "Feature", "properties": {"collection_times": [{"days": "Mon-Fri", "time": "5:00pm"}, {"days": "Sat", "time": "10:00am"}, {"days": "Sun", "time": "Closed"}], "id": "0330100016", "name": "USPS COLLECTION BOX - BLUE BOX", "address": {"city": "CONCORD", "state": "NH", "street": "14 CENTRE ST", "postcode": "03301"}}},
{"geometry": {"type": "Point", "coordinates": [-71.5109752011, 43.2178239473]}, "type": "Feature", "properties": {"collection_times": [{"days": "Mon-Sat", "time": "10:00am"}, {"days": "Sun", "time": "Closed"}], "id": "0330100017", "name": "USPS COLLECTION BOX - BLUE BOX", "address": {"city": "CONCORD", "state": "NH", "street": "33 CHRISTIAN AVE", "postcode": "03301"}}},
{"geometry": {"type": "Point", "coordinates": [-71.5338862865, 43.2080810229]}, "type": "Feature", "properties": {"collection_times": [{"days": "Mon-Sat", "time": "11:00am"}, {"days": "Sun", "time": "Closed"}], "id": "0330100018", "name": "USPS COLLECTION BOX - BLUE BOX", "address": {"city": "CONCORD", "state": "NH", "street": "99 CLINTON ST", "postcode": "03301"}}},
{"geometry": {"type": "Point", "coordinates": [-71.5365904607, 43.2077946256]}, "type": "Feature", "properties": {"collection_times": [{"days": "Mon-Fri", "time": "5:00pm"}, {"days": "Sat", "time": "12:00pm"}, {"days": "Sun", "time": "Closed"}], "id": "0330100021", "name": "USPS COLLECTION BOX - BLUE BOX", "address": {"city": "CONCORD", "state": "NH", "street": "110 N MAIN ST", "postcode": "03301"}}},
{"geometry": {"type": "Point", "coordinates": [-71.5338862865, 43.2080810229]}, "type": "Feature", "properties": {"collection_times": [{"days": "Mon-Sat", "time": "12:00pm"}, {"days": "Sun", "time": "Closed"}], "id": "0330100024", "name": "USPS COLLECTION BOX - BLUE BOX", "address": {"city": "CONCORD", "state": "NH", "street": "149 E SIDE DR", "postcode": "03301"}}},
{"geometry": {"type": "Point", "coordinates": [-71.5387238113, 43.2124999384]}, "type": "Feature", "properties": {"collection_times": [{"days": "Mon-Fri", "time": "4:45pm"}, {"days": "Sat", "time": "10:00am"}, {"days": "Sun", "time": "Closed"}], "id": "0330100025", "name": "USPS COLLECTION BOX - BLUE BOX", "address": {"city": "CONCORD", "state": "NH", "street": "10 FERRY ST", "postcode": "03301"}}},
{"geometry": {"type": "Point", "coordinates": [-71.5338862865, 43.2080810229]}, "type": "Feature", "properties": {"collection_times": [{"days": "Mon-Sat", "time": "10:00am"}, {"days": "Sun", "time": "Closed"}], "id": "0330100031", "name": "USPS COLLECTION BOX - BLUE BOX", "address": {"city": "CONCORD", "state": "NH", "street": "68 FORT EDDY RD", "postcode": "03301"}}},
{"geometry": {"type": "Point", "coordinates": [-71.5315174175, 43.2143632082]}, "type": "Feature", "properties": {"collection_times": [{"days": "Mon-Sat", "time": "10:00am"}, {"days": "Sun", "time": "Closed"}], "id": "0330100032", "name": "USPS COLLECTION BOX - BLUE BOX", "address": {"city": "CONCORD", "state": "NH", "street": "73 FORT EDDY RD", "postcode": "03301"}}},
{"geometry": {"type": "Point", "coordinates": [-71.5309884426, 43.2151686939]}, "type": "Feature", "properties": {"collection_times": [{"days": "Mon-Sat", "time": "10:00am"}, {"days": "Sun", "time": "Closed"}], "id": "0330100033", "name": "USPS COLLECTION BOX - BLUE BOX", "address": {"city": "CONCORD", "state": "NH", "street": "104 FORT EDDY RD", "postcode": "03301"}}},
{"geometry": {"type": "Point", "coordinates": [-71.5338862865, 43.2080810229]}, "type": "Feature", "properties": {"collection_times": [{"days": "Mon-Sat", "time": "12:00pm"}, {"days": "Sun", "time": "Closed"}], "id": "0330100034", "name": "USPS COLLECTION BOX - BLUE BOX", "address": {"city": "CONCORD", "state": "NH", "street": "16 GREEN ST", "postcode": "03301"}}},
{"geometry": {"type": "Point", "coordinates": [-71.5338862865, 43.2080810229]}, "type": "Feature", "properties": {"collection_times": [{"days": "Mon-Fri", "time": "3:45pm"}, {"days": "Sat-Sun", "time": "Closed"}], "id": "0330100035", "name": "USPS COLLECTION BOX - BLUE BOX", "address": {"city": "CONCORD", "state": "NH", "street": "6 HAZEN DR", "postcode": "03301"}}},
{"geometry": {"type": "Point", "coordinates": [-71.5175226398, 43.2132297349]}, "type": "Feature", "properties": {"collection_times": [{"days": "Mon-Fri", "time": "3:45pm"}, {"days": "Sat-Sun", "time": "Closed"}], "id": "0330100036", "name": "USPS COLLECTION BOX - BLUE BOX", "address": {"city": "CONCORD", "state": "NH", "street": "1 HAZEN DR", "postcode": "03301"}}},
{"geometry": {"type": "Point", "coordinates": [-71.5332159543, 43.2245235334]}, "type": "Feature", "properties": {"collection_times": [{"days": "Mon-Fri", "time": "3:45pm"}, {"days": "Sat", "time": "9:30am"}, {"days": "Sun", "time": "Closed"}], "id": "0330100037", "name": "USPS COLLECTION BOX - BLUE BOX", "address": {"city": "CONCORD", "state": "NH", "street": "3 INSTITUTE DR", "postcode": "03301"}}},
{"geometry": {"type": "Point", "coordinates": [-71.5312120801, 43.2088750568]}, "type": "Feature", "properties": {"collection_times": [{"days": "Mon-Fri", "time": "5:30pm"}, {"days": "Sat", "time": "1:30pm"}, {"days": "Sun", "time": "Closed"}], "id": "0330100039", "name": "USPS COLLECTION BOX - BLUE BOX", "address": {"city": "CONCORD", "state": "NH", "street": "18 LOUDON RD", "postcode": "03301"}}},
{"geometry": {"type": "Point", "coordinates": [-71.5312120801, 43.2088750568]}, "type": "Feature", "properties": {"collection_times": [{"days": "Mon-Fri", "time": "5:30pm"}, {"days": "Sat", "time": "1:30pm"}, {"days": "Sun", "time": "Closed"}], "id": "0330100044", "name": "USPS COLLECTION BOX - BLUE BOX", "address": {"city": "CONCORD", "state": "NH", "street": "18 LOUDON RD", "postcode": "03301"}}},
{"geometry": {"type": "Point", "coordinates": [-71.5338862865, 43.2080810229]}, "type": "Feature", "properties": {"collection_times": [{"days": "Mon-Fri", "time": "4:45pm"}, {"days": "Sat", "time": "11:00am"}, {"days": "Sun", "time": "Closed"}], "id": "0330100046", "name": "USPS COLLECTION BOX - BLUE BOX", "address": {"city": "CONCORD", "state": "NH", "street": "176 LOUDON RD", "postcode": "03301"}}},
{"geometry": {"type": "Point", "coordinates": [-71.5338862865, 43.2080810229]}, "type": "Feature", "properties": {"collection_times": [{"days": "Mon-Fri", "time": "4:45pm"}, {"days": "Sat", "time": "11:00am"}, {"days": "Sun", "time": "Closed"}], "id": "0330100047", "name": "USPS COLLECTION BOX - BLUE BOX", "address": {"city": "CONCORD", "state": "NH", "street": "176 LOUDON RD", "postcode": "03301"}}},
{"geometry": {"type": "Point", "coordinates": [-71.4881605962, 43.2249470327]}, "type": "Feature", "properties": {"collection_times": [{"days": "Mon-Fri", "time": "11:00am"}, {"days": "Sat", "time": "11:30am"}, {"days": "Sun", "time": "Closed"}], "id": "0330100050", "name": "USPS COLLECTION BOX - BLUE BOX", "address": {"city": "CONCORD", "state": "NH", "street": "270 LOUDON RD", "postcode": "03301"}}},
{"geometry": {"type": "Point", "coordinates": [-71.5005473596, 43.1878458907]}, "type": "Feature", "properties": {"collection_times": [{"days": "Mon-Sat", "time": "10:00am"}, {"days": "Sun", "time": "Closed"}], "id": "0330100056", "name": "USPS COLLECTION BOX - BLUE BOX", "address": {"city": "CONCORD", "state": "NH", "street": "153 MANCHESTER ST", "postcode": "03301"}}},
{"geometry": {"type": "Point", "coordinates": [-71.5338862865, 43.2080810229]}, "type": "Feature", "properties": {"collection_times": [{"days": "Mon-Sat", "time": "10:00am"}, {"days": "Sun", "time": "Closed"}], "id": "0330100058", "name": "USPS COLLECTION BOX - BLUE BOX", "address": {"city": "CONCORD", "state": "NH", "street": "36 MERRIMACK ST", "postcode": "03301"}}},
{"geometry": {"type": "Point", "coordinates": [-71.535584002, 43.2338082304]}, "type": "Feature", "properties": {"collection_times": [{"days": "Mon-Sat", "time": "10:00am"}, {"days": "Sun", "time": "Closed"}], "id": "0330100059", "name": "USPS COLLECTION BOX - BLUE BOX", "address": {"city": "CONCORD", "state": "NH", "street": "11 EASTMAN ST", "postcode": "03301"}}},
{"geometry": {"type": "Point", "coordinates": [-71.5338862865, 43.2080810229]}, "type": "Feature", "properties": {"collection_times": [{"days": "Mon-Fri", "time": "5:00pm"}, {"days": "Sat", "time": "10:00am"}, {"days": "Sun", "time": "Closed"}], "id": "0330100060", "name": "USPS COLLECTION BOX - BLUE BOX", "address": {"city": "CONCORD", "state": "NH", "street": "163 N MAIN ST", "postcode": "03301"}}},
{"geometry": {"type": "Point", "coordinates": [-71.536075637, 43.2054748547]}, "type": "Feature", "properties": {"collection_times": [{"days": "Mon-Fri", "time": "5:00pm"}, {"days": "Sat", "time": "10:00am"}, {"days": "Sun", "time": "Closed"}], "id": "0330100063", "name": "USPS COLLECTION BOX - BLUE BOX", "address": {"city": "CONCORD", "state": "NH", "street": "43 N MAIN ST", "postcode": "03301"}}},
{"geometry": {"type": "Point", "coordinates": [-71.5369314979, 43.2084594144]}, "type": "Feature", "properties": {"collection_times": [{"days": "Mon-Fri", "time": "5:00pm"}, {"days": "Sat", "time": "10:00am"}, {"days": "Sun", "time": "Closed"}], "id": "0330100064", "name": "USPS COLLECTION BOX - BLUE BOX", "address": {"city": "CONCORD", "state": "NH", "street": "125 N MAIN ST", "postcode": "03301"}}},
{"geometry": {"type": "Point", "coordinates": [-71.5355891101, 43.2043472127]}, "type": "Feature", "properties": {"collection_times": [{"days": "Mon-Fri", "time": "5:00pm"}, {"days": "Sat", "time": "12:00pm"}, {"days": "Sun", "time": "Closed"}], "id": "0330100065", "name": "USPS COLLECTION BOX - BLUE BOX", "address": {"city": "CONCORD", "state": "NH", "street": "2 N MAIN ST", "postcode": "03301"}}},
{"geometry": {"type": "Point", "coordinates": [-71.5362124337, 43.2064382992]}, "type": "Feature", "properties": {"collection_times": [{"days": "Mon-Fri", "time": "5:00pm"}, {"days": "Sat", "time": "12:00pm"}, {"days": "Sun", "time": "Closed"}], "id": "0330100067", "name": "USPS COLLECTION BOX - BLUE BOX", "address": {"city": "CONCORD", "state": "NH", "street": "54 N MAIN ST", "postcode": "03301"}}},
{"geometry": {"type": "Point", "coordinates": [-71.5338862865, 43.2080810229]}, "type": "Feature", "properties": {"collection_times": [{"days": "Mon-Sat", "time": "10:00am"}, {"days": "Sun", "time": "Closed"}], "id": "0330100068", "name": "USPS COLLECTION BOX - BLUE BOX", "address": {"city": "CONCORD", "state": "NH", "street": "95 N STATE ST", "postcode": "03301"}}},
{"geometry": {"type": "Point", "coordinates": [-71.5715769476, 43.2472008567]}, "type": "Feature", "properties": {"collection_times": [{"days": "Mon-Sat", "time": "11:00am"}, {"days": "Sun", "time": "Closed"}], "id": "0330100069", "name": "USPS COLLECTION BOX - BLUE BOX", "address": {"city": "CONCORD", "state": "NH", "street": "538 N STATE ST", "postcode": "03301"}}},
{"geometry": {"type": "Point", "coordinates": [-71.5464703082, 43.2174572457]}, "type": "Feature", "properties": {"collection_times": [{"days": "Mon-Sat", "time": "10:00am"}, {"days": "Sun", "time": "Closed"}], "id": "0330100071", "name": "USPS COLLECTION BOX - BLUE BOX", "address": {"city": "CONCORD", "state": "NH", "street": "170 N STATE ST", "postcode": "03301"}}},
{"geometry": {"type": "Point", "coordinates": [-71.5621191907, 43.2338487989]}, "type": "Feature", "properties": {"collection_times": [{"days": "Mon-Sat", "time": "10:00am"}, {"days": "Sun", "time": "Closed"}], "id": "0330100072", "name": "USPS COLLECTION BOX - BLUE BOX", "address": {"city": "CONCORD", "state": "NH", "street": "330 N STATE ST", "postcode": "03301"}}},
{"geometry": {"type": "Point", "coordinates": [-71.5338862865, 43.2080810229]}, "type": "Feature", "properties": {"collection_times": [{"days": "Mon-Sat", "time": "9:00am"}, {"days": "Sun", "time": "Closed"}], "id": "0330100073", "name": "USPS COLLECTION BOX - BLUE BOX", "address": {"city": "CONCORD", "state": "NH", "street": "394 N STATE ST", "postcode": "03301"}}},
{"geometry": {"type": "Point", "coordinates": [-71.5373912103, 43.2043864147]}, "type": "Feature", "properties": {"collection_times": [{"days": "Mon-Sat", "time": "10:00am"}, {"days": "Sun", "time": "Closed"}], "id": "0330100074", "name": "USPS COLLECTION BOX - BLUE BOX", "address": {"city": "CONCORD", "state": "NH", "street": "7 N STATE ST", "postcode": "03301"}}},
{"geometry": {"type": "Point", "coordinates": [-71.5338862865, 43.2080810229]}, "type": "Feature", "properties": {"collection_times": [{"days": "Mon-Fri", "time": "4:00pm"}, {"days": "Sat", "time": "10:00am"}, {"days": "Sun", "time": "Closed"}], "id": "0330100079", "name": "USPS COLLECTION BOX - BLUE BOX", "address": {"city": "CONCORD", "state": "NH", "street": "194 PLEASANT ST", "postcode": "03301"}}},
{"geometry": {"type": "Point", "coordinates": [-71.5608002512, 43.1961008197]}, "type": "Feature", "properties": {"collection_times": [{"days": "Mon-Fri", "time": "4:30pm"}, {"days": "Sat", "time": "10:00am"}, {"days": "Sun", "time": "Closed"}], "id": "0330100081", "name": "USPS COLLECTION BOX - BLUE BOX", "address": {"city": "CONCORD", "state": "NH", "street": "250 PLEASANT ST", "postcode": "03301"}}},
{"geometry": {"type": "Point", "coordinates": [-71.5732531983, 43.1968856376]}, "type": "Feature", "properties": {"collection_times": [{"days": "Mon-Fri", "time": "4:45pm"}, {"days": "Sat", "time": "12:00pm"}, {"days": "Sun", "time": "Closed"}], "id": "0330100083", "name": "USPS COLLECTION BOX - BLUE BOX", "address": {"city": "CONCORD", "state": "NH", "street": "325 PLEASANT ST", "postcode": "03301"}}},
{"geometry": {"type": "Point", "coordinates": [-71.5382932142, 43.2032219913]}, "type": "Feature", "properties": {"collection_times": [{"days": "Mon-Fri", "time": "11:00am"}, {"days": "Sat", "time": "10:00am"}, {"days": "Sun", "time": "Closed"}], "id": "0330100084", "name": "USPS COLLECTION BOX - BLUE BOX", "address": {"city": "CONCORD", "state": "NH", "street": "35 PLEASANT ST", "postcode": "03301"}}},
{"geometry": {"type": "Point", "coordinates": [-71.5338862865, 43.2080810229]}, "type": "Feature", "properties": {"collection_times": [{"days": "Mon-Sat", "time": "10:00am"}, {"days": "Sun", "time": "Closed"}], "id": "0330100088", "name": "USPS COLLECTION BOX - BLUE BOX", "address": {"city": "CONCORD", "state": "NH", "street": "59 CHENELL DR", "postcode": "03301"}}},
{"geometry": {"type": "Point", "coordinates": [-71.5338862865, 43.2080810229]}, "type": "Feature", "properties": {"collection_times": [{"days": "Mon-Fri", "time": "5:00pm"}, {"days": "Sat", "time": "10:00am"}, {"days": "Sun", "time": "Closed"}], "id": "0330100093", "name": "USPS COLLECTION BOX - BLUE BOX", "address": {"city": "CONCORD", "state": "NH", "street": "89 N MAIN ST", "postcode": "03301"}}},
{"geometry": {"type": "Point", "coordinates": [-71.5346182728, 43.2019912436]}, "type": "Feature", "properties": {"collection_times": [{"days": "Mon-Sat", "time": "10:00am"}, {"days": "Sun", "time": "Closed"}], "id": "0330100095", "name": "USPS COLLECTION BOX - BLUE BOX", "address": {"city": "CONCORD", "state": "NH", "street": "40 S MAIN ST", "postcode": "03301"}}},
{"geometry": {"type": "Point", "coordinates": [-71.5420727681, 43.1809492399]}, "type": "Feature", "properties": {"collection_times": [{"days": "Mon-Sat", "time": "10:00am"}, {"days": "Sun", "time": "Closed"}], "id": "0330100097", "name": "USPS COLLECTION BOX - BLUE BOX", "address": {"city": "CONCORD", "state": "NH", "street": "250 SOUTH ST", "postcode": "03301"}}},
{"geometry": {"type": "Point", "coordinates": [-71.5338862865, 43.2080810229]}, "type": "Feature", "properties": {"collection_times": [{"days": "Mon-Sat", "time": "10:00am"}, {"days": "Sun", "time": "Closed"}], "id": "0330100099", "name": "USPS COLLECTION BOX - BLUE BOX", "address": {"city": "CONCORD", "state": "NH", "street": "49 WEST ST", "postcode": "03301"}}},
{"geometry": {"type": "Point", "coordinates": [-71.5347578231, 43.205825501]}, "type": "Feature", "properties": {"collection_times": [{"days": "Mon-Sat", "time": "10:00am"}, {"days": "Sun", "time": "Closed"}], "id": "0330100100", "name": "USPS COLLECTION BOX - BLUE BOX", "address": {"city": "CONCORD", "state": "NH", "street": "80 STORRS ST", "postcode": "03301"}}},
{"geometry": {"type": "Point", "coordinates": [-71.5391839823, 43.1977945756]}, "type": "Feature", "properties": {"collection_times": [{"days": "Mon-Sat", "time": "10:00am"}, {"days": "Sun", "time": "Closed"}], "id": "0330100101", "name": "USPS COLLECTION BOX - BLUE BOX", "address": {"city": "CONCORD", "state": "NH", "street": "47 SOUTH ST", "postcode": "03301"}}},
{"geometry": {"type": "Point", "coordinates": [-71.5384663269, 43.2082794825]}, "type": "Feature", "properties": {"collection_times": [{"days": "Mon-Fri", "time": "5:00pm"}, {"days": "Sat", "time": "10:00am"}, {"days": "Sun", "time": "Closed"}], "id": "0330100103", "name": "USPS COLLECTION BOX - BLUE BOX", "address": {"city": "CONCORD", "state": "NH", "street": "14 CENTRE ST", "postcode": "03301"}}},
{"geometry": {"type": "Point", "coordinates": [-71.4946006248, 43.2115228143]}, "type": "Feature", "properties": {"collection_times": [{"days": "Mon-Fri", "time": "5:00pm"}, {"days": "Sat", "time": "9:00am"}, {"days": "Sun", "time": "Closed"}], "id": "0330100107", "name": "USPS COLLECTION BOX - BLUE BOX", "address": {"city": "CONCORD", "state": "NH", "street": "53 REGIONAL DR", "postcode": "03301"}}},
{"geometry": {"type": "Point", "coordinates": [-71.5422734801, 43.203111481]}, "type": "Feature", "properties": {"collection_times": [{"days": "Mon-Sat", "time": "10:00am"}, {"days": "Sun", "time": "Closed"}], "id": "0330100109", "name": "USPS COLLECTION BOX - BLUE BOX", "address": {"city": "CONCORD", "state": "NH", "street": "17 RUMFORD ST", "postcode": "03301"}}},
{"geometry": {"type": "Point", "coordinates": [-71.536075637, 43.2054748547]}, "type": "Feature", "properties": {"collection_times": [{"days": "Mon-Fri", "time": "5:00pm"}, {"days": "Sat", "time": "10:00am"}, {"days": "Sun", "time": "Closed"}], "id": "0330100110", "name": "USPS COLLECTION BOX - BLUE BOX", "address": {"city": "CONCORD", "state": "NH", "street": "43 N MAIN ST", "postcode": "03301"}}},
{"geometry": {"type": "Point", "coordinates": [-71.5338862865, 43.2080810229]}, "type": "Feature", "properties": {"collection_times": [{"days": "Mon-Fri", "time": "5:00pm"}, {"days": "Sat", "time": "9:00am"}, {"days": "Sun", "time": "Closed"}], "id": "0330100111", "name": "USPS COLLECTION BOX - BLUE BOX", "address": {"city": "CONCORD", "state": "NH", "street": "261 SHEEP DAVIS RD", "postcode": "03301"}}},
{"geometry": {"type": "Point", "coordinates": [-71.5028524769, 43.2181149892]}, "type": "Feature", "properties": {"collection_times": [{"days": "Mon-Sat", "time": "10:00am"}, {"days": "Sun", "time": "Closed"}], "id": "0330100112", "name": "USPS COLLECTION BOX - BLUE BOX", "address": {"city": "CONCORD", "state": "NH", "street": "181 LOUDON RD", "postcode": "03301"}}},
{"geometry": {"type": "Point", "coordinates": [-71.5605860021, 43.1960790308]}, "type": "Feature", "properties": {"collection_times": [{"days": "Mon-Fri", "time": "4:30pm"}, {"days": "Sat", "time": "10:00am"}, {"days": "Sun", "time": "Closed"}], "id": "0330100113", "name": "USPS COLLECTION BOX - BLUE BOX", "address": {"city": "CONCORD", "state": "NH", "street": "248 PLEASANT ST", "postcode": "03301"}}},
{"geometry": {"type": "Point", "coordinates": [-71.5312120801, 43.2088750568]}, "type": "Feature", "properties": {"collection_times": [{"days": "Mon-Fri", "time": "6:00pm"}, {"days": "Sat", "time": "1:30pm"}, {"days": "Sun", "time": "Closed"}], "id": "0330100114", "name": "USPS COLLECTION BOX - PO LOBBY", "address": {"city": "CONCORD", "state": "NH", "street": "18 LOUDON RD", "postcode": "03301"}}},
{"geometry": {"type": "Point", "coordinates": [-71.5338862865, 43.2080810229]}, "type": "Feature", "properties": {"collection_times": [{"days": "Mon-Fri", "time": "4:30pm"}, {"days": "Sat-Sun", "time": "Closed"}], "id": "0330100121", "name": "USPS COLLECTION BOX - BLUE BOX", "address": {"city": "CONCORD", "state": "NH", "street": "129 PLEASANT ST", "postcode": "03301"}}},
{"geometry": {"type": "Point", "coordinates": [-71.5365615703, 43.2243844568]}, "type": "Feature", "properties": {"collection_times": [{"days": "Mon-Fri", "time": "3:45pm"}, {"days": "Sat", "time": "9:30am"}, {"days": "Sun", "time": "Closed"}], "id": "0330100123", "name": "USPS COLLECTION BOX - BLUE BOX", "address": {"city": "CONCORD", "state": "NH", "street": "70 COMMERCIAL ST", "postcode": "03301"}}},
{"geometry": {"type": "Point", "coordinates": [-71.5312120801, 43.2088750568]}, "type": "Feature", "properties": {"collection_times": [{"days": "Mon-Fri", "time": "6:00pm"}, {"days": "Sat", "time": "1:30pm"}, {"days": "Sun", "time": "Closed"}], "id": "0330100125", "name": "USPS COLLECTION BOX - APC", "address": {"city": "CONCORD", "state": "NH", "street": "18 LOUDON RD", "postcode": "03301"}}},
{"geometry": {"type": "Point", "coordinates": [-71.5327451367, 43.1923198415]}, "type": "Feature", "properties": {"collection_times": [{"days": "Mon-Fri", "time": "3:30pm"}, {"days": "Sat", "time": "11:00am"}, {"days": "Sun", "time": "Closed"}], "id": "0330100126", "name": "USPS COLLECTION BOX - BLUE BOX", "address": {"city": "CONCORD", "state": "NH", "street": "2 PILLSBURY ST", "postcode": "03301"}}},
{"geometry": {"type": "Point", "coordinates": [-71.5327451367, 43.1923198415]}, "type": "Feature", "properties": {"collection_times": [{"days": "Mon-Fri", "time": "3:30pm"}, {"days": "Sat", "time": "11:00am"}, {"days": "Sun", "time": "Closed"}], "id": "0330100127", "name": "USPS COLLECTION BOX - BLUE BOX", "address": {"city": "CONCORD", "state": "NH", "street": "2 PILLSBURY ST", "postcode": "03301"}}},
{"geometry": {"type": "Point", "coordinates": [-71.5338862865, 43.2080810229]}, "type": "Feature", "properties": {"collection_times": [{"days": "Mon-Fri", "time": "5:00pm"}, {"days": "Sat", "time": "10:00am"}, {"days": "Sun", "time": "Closed"}], "id": "0330100128", "name": "USPS COLLECTION BOX - BLUE BOX", "address": {"city": "CONCORD", "state": "NH", "street": "89 N MAIN ST", "postcode": "03301"}}},
{"geometry": {"type": "Point", "coordinates": [-71.5338862865, 43.2080810229]}, "type": "Feature", "properties": {"collection_times": [{"days": "Mon-Fri", "time": "5:00pm"}, {"days": "Sat", "time": "9:00am"}, {"days": "Sun", "time": "Closed"}], "id": "0330100129", "name": "USPS COLLECTION BOX - BLUE BOX", "address": {"city": "CONCORD", "state": "NH", "street": "261 SHEEP DAVIS RD", "postcode": "03301"}}},
{"geometry": {"type": "Point", "coordinates": [-71.4946006248, 43.2115228143]}, "type": "Feature", "properties": {"collection_times": [{"days": "Mon-Fri", "time": "5:00pm"}, {"days": "Sat", "time": "9:00am"}, {"days": "Sun", "time": "Closed"}], "id": "0330100130", "name": "USPS COLLECTION BOX - BLUE BOX", "address": {"city": "CONCORD", "state": "NH", "street": "53 REGIONAL DR", "postcode": "03301"}}},
{"geometry": {"type": "Point", "coordinates": [-71.5365904607, 43.2077946256]}, "type": "Feature", "properties": {"collection_times": [{"days": "Mon-Fri", "time": "5:00pm"}, {"days": "Sat", "time": "12:00pm"}, {"days": "Sun", "time": "Closed"}], "id": "0330100131", "name": "USPS COLLECTION BOX - BLUE BOX", "address": {"city": "CONCORD", "state": "NH", "street": "110 N MAIN ST", "postcode": "03301"}}},
{"geometry": {"type": "Point", "coordinates": [-71.5405482241, 43.1943318925]}, "type": "Feature", "properties": {"collection_times": [{"days": "Mon-Fri", "time": "3:00pm"}, {"days": "Sat", "time": "11:00am"}, {"days": "Sun", "time": "Closed"}], "id": "0330100132", "name": "USPS COLLECTION BOX - BLUE BOX", "address": {"city": "CONCORD", "state": "NH", "street": "5 CLINTON ST", "postcode": "03301"}}},
{"geometry": {"type": "Point", "coordinates": [-71.5986170691, 43.2777600031]}, "type": "Feature", "properties": {"collection_times": [{"days": "Mon-Sat", "time": "2:00pm"}, {"days": "Sun", "time": "Closed"}], "id": "0330300002", "name": "USPS COLLECTION BOX - BLUE BOX", "address": {"city": "PENACOOK", "state": "NH", "street": "62 N MAIN ST", "postcode": "03303"}}},
{"geometry": {"type": "Point", "coordinates": [-71.58730557, 43.2673289035]}, "type": "Feature", "properties": {"collection_times": [{"days": "Mon-Fri", "time": "4:45pm"}, {"days": "Sat", "time": "1:00pm"}, {"days": "Sun", "time": "Closed"}], "id": "0330300004", "name": "USPS COLLECTION BOX - BLUE BOX", "address": {"city": "PENACOOK", "state": "NH", "street": "15 VILLAGE ST", "postcode": "03303"}}},
{"geometry": {"type": "Point", "coordinates": [-71.5982206992, 43.2770896019]}, "type": "Feature", "properties": {"collection_times": [{"days": "Mon-Fri", "time": "11:00am"}, {"days": "Sat", "time": "11:30am"}, {"days": "Sun", "time": "Closed"}], "id": "0330300005", "name": "USPS COLLECTION BOX - BLUE BOX", "address": {"city": "PENACOOK", "state": "NH", "street": "308 VILLAGE ST", "postcode": "03303"}}},
{"geometry": {"type": "Point", "coordinates": [-71.6055268652, 43.273124029]}, "type": "Feature", "properties": {"collection_times": [{"days": "Mon-Sat", "time": "1:00pm"}, {"days": "Sun", "time": "Closed"}], "id": "0330300007", "name": "USPS COLLECTION BOX - BLUE BOX", "address": {"city": "PENACOOK", "state": "NH", "street": "FRANCONIA RD", "postcode": "03303"}}},
{"geometry": {"type": "Point", "coordinates": [-71.6025364644, 43.2973944527]}, "type": "Feature", "properties": {"collection_times": [{"days": "Mon-Sat", "time": "1:00pm"}, {"days": "Sun", "time": "Closed"}], "id": "0330300008", "name": "USPS COLLECTION BOX - BLUE BOX", "address": {"city": "PENACOOK", "state": "NH", "street": "228 KING ST", "postcode": "03303"}}},
{"geometry": {"type": "Point", "coordinates": [-71.6006150414, 43.2802338029]}, "type": "Feature", "properties": {"collection_times": [{"days": "Mon-Sat", "time": "12:00pm"}, {"days": "Sun", "time": "Closed"}], "id": "0330300009", "name": "USPS COLLECTION BOX - BLUE BOX", "address": {"city": "PENACOOK", "state": "NH", "street": "3 CHARLES ST", "postcode": "03303"}}},
{"geometry": {"type": "Point", "coordinates": [-71.5756759005, 43.2534409653]}, "type": "Feature", "properties": {"collection_times": [{"days": "Mon-Sat", "time": "1:30pm"}, {"days": "Sun", "time": "Closed"}], "id": "0330300010", "name": "USPS COLLECTION BOX - BLUE BOX", "address": {"city": "PENACOOK", "state": "NH", "street": "47 FISHERVILLE RD", "postcode": "03303"}}},
{"geometry": {"type": "Point", "coordinates": [-71.5809350143, 43.2599109135]}, "type": "Feature", "properties": {"collection_times": [{"days": "Mon-Sat", "time": "11:00am"}, {"days": "Sun", "time": "Closed"}], "id": "0330300011", "name": "USPS COLLECTION BOX - BLUE BOX", "address": {"city": "PENACOOK", "state": "NH", "street": "120 FISHERVILLE RD", "postcode": "03303"}}},
{"geometry": {"type": "Point", "coordinates": [-71.5362975213, 43.1556676793]}, "type": "Feature", "properties": {"collection_times": [{"days": "Mon-Sat", "time": "1:00pm"}, {"days": "Sun", "time": "Closed"}], "id": "0330400001", "name": "USPS COLLECTION BOX - BLUE BOX", "address": {"city": "BOW", "state": "NH", "street": "2 KNOX RD", "postcode": "03304"}}},
{"geometry": {"type": "Point", "coordinates": [-71.5324736362, 43.1669633209]}, "type": "Feature", "properties": {"collection_times": [{"days": "Mon-Sat", "time": "12:00pm"}, {"days": "Sun", "time": "Closed"}], "id": "0330400002", "name": "USPS COLLECTION BOX - BLUE BOX", "address": {"city": "BOW", "state": "NH", "street": "10 GRANDVIEW RD", "postcode": "03304"}}},
{"geometry": {"type": "Point", "coordinates": [-71.535986976, 43.1737035784]}, "type": "Feature", "properties": {"collection_times": [{"days": "Mon-Fri", "time": "3:00pm"}, {"days": "Sat", "time": "10:00am"}, {"days": "Sun", "time": "Closed"}], "id": "0330400003", "name": "USPS COLLECTION BOX - BLUE BOX", "address": {"city": "BOW", "state": "NH", "street": "501 SOUTH ST", "postcode": "03304"}}},
{"geometry": {"type": "Point", "coordinates": [-71.480829347, 43.1247473342]}, "type": "Feature", "properties": {"collection_times": [{"days": "Mon-Sat", "time": "10:00am"}, {"days": "Sun", "time": "Closed"}], "id": "0330400005", "name": "USPS COLLECTION BOX - BLUE BOX", "address": {"city": "BOW", "state": "NH", "street": "722 ROUTE 3A", "postcode": "03304"}}},
{"geometry": {"type": "Point", "coordinates": [-71.4787416843, 43.1423691889]}, "type": "Feature", "properties": {"collection_times": [{"days": "Mon-Sat", "time": "10:00am"}, {"days": "Sun", "time": "Closed"}], "id": "0330400006", "name": "USPS COLLECTION BOX - BLUE BOX", "address": {"city": "BOW", "state": "NH", "street": "10 DUNKLEE RD", "postcode": "03304"}}},
{"geometry": {"type": "Point", "coordinates": [-71.5289584999, 43.166414374]}, "type": "Feature", "properties": {"collection_times": [{"days": "Mon-Sat", "time": "10:00am"}, {"days": "Sun", "time": "Closed"}], "id": "0330400007", "name": "USPS COLLECTION BOX - BLUE BOX", "address": {"city": "BOW", "state": "NH", "street": "29 RIVER RD", "postcode": "03304"}}},
{"geometry": {"type": "Point", "coordinates": [-71.4520567973, 43.3166105707]}, "type": "Feature", "properties": {"collection_times": [{"days": "Mon-Sat", "time": "10:00am"}, {"days": "Sun", "time": "Closed"}], "id": "0330700000", "name": "USPS COLLECTION BOX - BLUE BOX", "address": {"city": "CONCORD", "state": "NH", "street": "58 ROUTE 129 STE 201", "postcode": "03307"}}},
{"geometry": {"type": "Point", "coordinates": [-71.4520567973, 43.3166105707]}, "type": "Feature", "properties": {"collection_times": [{"days": "Mon-Fri", "time": "3:45pm"}, {"days": "Sat", "time": "10:00am"}, {"days": "Sun", "time": "Closed"}], "id": "0330700001", "name": "USPS COLLECTION BOX - BLUE BOX", "address": {"city": "CONCORD", "state": "NH", "street": "563 ROUTE 106 N UNIT 3", "postcode": "03307"}}}
]}
