{"type": "FeatureCollection", "features": [
{"geometry": {"type": "Point", "coordinates": [-72.2859575371, 42.9357776492]}, "type": "Feature", "properties": {"collection_times": [{"days": "Mon-Sat", "time": "2:30pm"}, {"days": "Sun", "time": "Closed"}], "id": "0343100002", "name": "USPS COLLECTION BOX - BLUE BOX", "address": {"city": "KEENE", "state": "NH", "street": "105 CASTLE ST", "postcode": "03431"}}},
{"geometry": {"type": "Point", "coordinates": [-72.2790640207, 42.9340469478]}, "type": "Feature", "properties": {"collection_times": [{"days": "Mon-Fri", "time": "4:45pm"}, {"days": "Sat", "time": "3:15pm"}, {"days": "Sun", "time": "Closed"}], "id": "0343100006", "name": "USPS COLLECTION BOX - BLUE BOX", "address": {"city": "KEENE", "state": "NH", "street": "12 COURT ST", "postcode": "03431"}}},
{"geometry": {"type": "Point", "coordinates": [-72.2899084579, 42.9491058464]}, "type": "Feature", "properties": {"collection_times": [{"days": "Mon-Fri", "time": "3:15pm"}, {"days": "Sat", "time": "3:00pm"}, {"days": "Sun", "time": "Closed"}], "id": "0343100008", "name": "USPS COLLECTION BOX - BLUE BOX", "address": {"city": "KEENE", "state": "NH", "street": "580 COURT ST", "postcode": "03431"}}},
{"geometry": {"type": "Point", "coordinates": [-72.3007845413, 42.9581690728]}, "type": "Feature", "properties": {"collection_times": [{"days": "Mon-Fri", "time": "2:30pm"}, {"days": "Sat", "time": "3:00pm"}, {"days": "Sun", "time": "Closed"}], "id": "0343100009", "name": "USPS COLLECTION BOX - BLUE BOX", "address": {"city": "KEENE", "state": "NH", "street": "828 COURT ST", "postcode": "03431"}}},
{"geometry": {"type": "Point", "coordinates": [-71.5775936257, 43.6855232857]}, "type": "Feature", "properties": {"collection_times": [{"days": "Mon-Fri", "time": "4:00pm"}, {"days": "Sat", "time": "3:15pm"}, {"days": "Sun", "time": "Closed"}], "id": "0343100010", "name": "USPS COLLECTION BOX - BLUE BOX", "address": {"city": "KEENE", "state": "NH", "street": "149 EMERALD ST", "postcode": "03431"}}},
{"geometry": {"type": "Point", "coordinates": [-72.2798167874, 42.9334256076]}, "type": "Feature", "properties": {"collection_times": [{"days": "Mon-Sat", "time": "3:15pm"}, {"days": "Sun", "time": "Closed"}], "id": "0343100011", "name": "USPS COLLECTION BOX - BLUE BOX", "address": {"city": "KEENE", "state": "NH", "street": "34 WEST ST", "postcode": "03431"}}},
{"geometry": {"type": "Point", "coordinates": [-72.2762288248, 42.9339379559]}, "type": "Feature", "properties": {"collection_times": [{"days": "Mon-Fri", "time": "4:45pm"}, {"days": "Sat", "time": "2:00pm"}, {"days": "Sun", "time": "Closed"}], "id": "0343100012", "name": "USPS COLLECTION BOX - BLUE BOX", "address": {"city": "KEENE", "state": "NH", "street": "103 ROXBURY ST", "postcode": "03431"}}},
{"geometry": {"type": "Point", "coordinates": [-71.5775936257, 43.6855232857]}, "type": "Feature", "properties": {"collection_times": [{"days": "Mon-Fri", "time": "4:15pm"}, {"days": "Sat", "time": "4:00pm"}, {"days": "Sun", "time": "Closed"}], "id": "0343100013", "name": "USPS COLLECTION BOX - BLUE BOX", "address": {"city": "KEENE", "state": "NH", "street": "63 KEY RD", "postcode": "03431"}}},
{"geometry": {"type": "Point", "coordinates": [-71.5775936257, 43.6855232857]}, "type": "Feature", "properties": {"collection_times": [{"days": "Mon-Fri", "time": "5:15pm"}, {"days": "Sat", "time": "4:15pm"}, {"days": "Sun", "time": "Closed"}], "id": "0343100015", "name": "USPS COLLECTION BOX - BLUE BOX", "address": {"city": "KEENE", "state": "NH", "street": "196 MAIN ST", "postcode": "03431"}}},
{"geometry": {"type": "Point", "coordinates": [-71.5775936257, 43.6855232857]}, "type": "Feature", "properties": {"collection_times": [{"days": "Mon-Fri", "time": "5:15pm"}, {"days": "Sat", "time": "4:15pm"}, {"days": "Sun", "time": "Closed"}], "id": "0343100016", "name": "USPS COLLECTION BOX - BLUE BOX", "address": {"city": "KEENE", "state": "NH", "street": "196 MAIN ST", "postcode": "03431"}}},
{"geometry": {"type": "Point", "coordinates": [-71.5775936257, 43.6855232857]}, "type": "Feature", "properties": {"collection_times": [{"days": "Mon-Fri", "time": "5:15pm"}, {"days": "Sat", "time": "4:15pm"}, {"days": "Sun", "time": "Closed"}], "id": "0343100018", "name": "USPS COLLECTION BOX - BLUE BOX", "address": {"city": "KEENE", "state": "NH", "street": "196 MAIN ST", "postcode": "03431"}}},
{"geometry": {"type": "Point", "coordinates": [-71.5775936257, 43.6855232857]}, "type": "Feature", "properties": {"collection_times": [{"days": "Mon-Fri", "time": "5:15pm"}, {"days": "Sat", "time": "4:15pm"}, {"days": "Sun", "time": "Closed"}], "id": "0343100019", "name": "USPS COLLECTION BOX - BLUE BOX", "address": {"city": "KEENE", "state": "NH", "street": "196 MAIN ST", "postcode": "03431"}}},
{"geometry": {"type": "Point", "coordinates": [-71.5775936257, 43.6855232857]}, "type": "Feature", "properties": {"collection_times": [{"days": "Mon-Fri", "time": "5:15pm"}, {"days": "Sat", "time": "4:15pm"}, {"days": "Sun", "time": "Closed"}], "id": "0343100021", "name": "USPS COLLECTION BOX - BLUE BOX", "address": {"city": "KEENE", "state": "NH", "street": "196 MAIN ST", "postcode": "03431"}}},
{"geometry": {"type": "Point", "coordinates": [-71.5775936257, 43.6855232857]}, "type": "Feature", "properties": {"collection_times": [{"days": "Mon-Fri", "time": "5:15pm"}, {"days": "Sat", "time": "4:15pm"}, {"days": "Sun", "time": "Closed"}], "id": "0343100022", "name": "USPS COLLECTION BOX - BLUE BOX", "address": {"city": "KEENE", "state": "NH", "street": "196 MAIN ST", "postcode": "03431"}}},
{"geometry": {"type": "Point", "coordinates": [-72.278148188, 42.9331531968]}, "type": "Feature", "properties": {"collection_times": [{"days": "Mon-Fri", "time": "4:00pm"}, {"days": "Sat", "time": "3:15pm"}, {"days": "Sun", "time": "Closed"}], "id": "0343100023", "name": "USPS COLLECTION BOX - BLUE BOX", "address": {"city": "KEENE", "state": "NH", "street": "28 MAIN ST", "postcode": "03431"}}},
{"geometry": {"type": "Point", "coordinates": [-72.2783987877, 42.9323304993]}, "type": "Feature", "properties": {"collection_times": [{"days": "Mon-Fri", "time": "3:30pm"}, {"days": "Sat", "time": "3:15pm"}, {"days": "Sun", "time": "Closed"}], "id": "0343100025", "name": "USPS COLLECTION BOX - BLUE BOX", "address": {"city": "KEENE", "state": "NH", "street": "77 MAIN ST", "postcode": "03431"}}},
{"geometry": {"type": "Point", "coordinates": [-72.3006145004, 42.9345462333]}, "type": "Feature", "properties": {"collection_times": [{"days": "Mon-Sat", "time": "2:30pm"}, {"days": "Sun", "time": "Closed"}], "id": "0343100030", "name": "USPS COLLECTION BOX - BLUE BOX", "address": {"city": "KEENE", "state": "NH", "street": "37 PARK AVE", "postcode": "03431"}}},
{"geometry": {"type": "Point", "coordinates": [-71.5775936257, 43.6855232857]}, "type": "Feature", "properties": {"collection_times": [{"days": "Mon-Fri", "time": "2:30pm"}, {"days": "Sat", "time": "3:00pm"}, {"days": "Sun", "time": "Closed"}], "id": "0343100031", "name": "USPS COLLECTION BOX - BLUE BOX", "address": {"city": "KEENE", "state": "NH", "street": "630 PARK AVE", "postcode": "03431"}}},
{"geometry": {"type": "Point", "coordinates": [-72.281496137, 42.9332008617]}, "type": "Feature", "properties": {"collection_times": [{"days": "Mon-Fri", "time": "2:30pm"}, {"days": "Sat", "time": "2:00pm"}, {"days": "Sun", "time": "Closed"}], "id": "0343100032", "name": "USPS COLLECTION BOX - BLUE BOX", "address": {"city": "KEENE", "state": "NH", "street": "65 ROXBURY ST", "postcode": "03431"}}},
{"geometry": {"type": "Point", "coordinates": [-72.2778376287, 42.9346192778]}, "type": "Feature", "properties": {"collection_times": [{"days": "Mon-Fri", "time": "4:00pm"}, {"days": "Sat", "time": "3:15pm"}, {"days": "Sun", "time": "Closed"}], "id": "0343100035", "name": "USPS COLLECTION BOX - BLUE BOX", "address": {"city": "KEENE", "state": "NH", "street": "17 WASHINGTON ST", "postcode": "03431"}}},
{"geometry": {"type": "Point", "coordinates": [-72.2867413681, 42.9323511245]}, "type": "Feature", "properties": {"collection_times": [{"days": "Mon-Fri", "time": "4:15pm"}, {"days": "Sat", "time": "4:00pm"}, {"days": "Sun", "time": "Closed"}], "id": "0343100038", "name": "USPS COLLECTION BOX - BLUE BOX", "address": {"city": "KEENE", "state": "NH", "street": "222 WEST ST", "postcode": "03431"}}},
{"geometry": {"type": "Point", "coordinates": [-72.2867413681, 42.9323511245]}, "type": "Feature", "properties": {"collection_times": [{"days": "Mon-Fri", "time": "4:15pm"}, {"days": "Sat", "time": "4:00pm"}, {"days": "Sun", "time": "Closed"}], "id": "0343100039", "name": "USPS COLLECTION BOX - BLUE BOX", "address": {"city": "KEENE", "state": "NH", "street": "222 WEST ST", "postcode": "03431"}}},
{"geometry": {"type": "Point", "coordinates": [-72.2867413681, 42.9323511245]}, "type": "Feature", "properties": {"collection_times": [{"days": "Mon-Fri", "time": "4:15pm"}, {"days": "Sat", "time": "4:00pm"}, {"days": "Sun", "time": "Closed"}], "id": "0343100040", "name": "USPS COLLECTION BOX - BLUE BOX", "address": {"city": "KEENE", "state": "NH", "street": "222 WEST ST", "postcode": "03431"}}},
{"geometry": {"type": "Point", "coordinates": [-72.2902090032, 42.9232841603]}, "type": "Feature", "properties": {"collection_times": [{"days": "Mon-Fri", "time": "4:15pm"}, {"days": "Sat", "time": "4:00pm"}, {"days": "Sun", "time": "Closed"}], "id": "0343100045", "name": "USPS COLLECTION BOX - BLUE BOX", "address": {"city": "KEENE", "state": "NH", "street": "352 WINCHESTER ST", "postcode": "03431"}}},
{"geometry": {"type": "Point", "coordinates": [-72.279234319, 42.9343492584]}, "type": "Feature", "properties": {"collection_times": [{"days": "Mon-Fri", "time": "4:45pm"}, {"days": "Sat", "time": "3:15pm"}, {"days": "Sun", "time": "Closed"}], "id": "0343100046", "name": "USPS COLLECTION BOX - BLUE BOX", "address": {"city": "KEENE", "state": "NH", "street": "1 WINTER ST", "postcode": "03431"}}},
{"geometry": {"type": "Point", "coordinates": [-72.279234319, 42.9343492584]}, "type": "Feature", "properties": {"collection_times": [{"days": "Mon-Fri", "time": "4:45pm"}, {"days": "Sat", "time": "3:15pm"}, {"days": "Sun", "time": "Closed"}], "id": "0343100047", "name": "USPS COLLECTION BOX - BLUE BOX", "address": {"city": "KEENE", "state": "NH", "street": "1 WINTER ST", "postcode": "03431"}}},
{"geometry": {"type": "Point", "coordinates": [-72.279234319, 42.9343492584]}, "type": "Feature", "properties": {"collection_times": [{"days": "Mon-Fri", "time": "4:45pm"}, {"days": "Sat", "time": "3:15pm"}, {"days": "Sun", "time": "Closed"}], "id": "0343100048", "name": "USPS COLLECTION BOX - BLUE BOX", "address": {"city": "KEENE", "state": "NH", "street": "1 WINTER ST", "postcode": "03431"}}},
{"geometry": {"type": "Point", "coordinates": [-72.295815579, 42.9336780408]}, "type": "Feature", "properties": {"collection_times": [{"days": "Mon-Fri", "time": "4:00pm"}, {"days": "Sat", "time": "3:45pm"}, {"days": "Sun", "time": "Closed"}], "id": "0343100049", "name": "USPS COLLECTION BOX - BLUE BOX", "address": {"city": "KEENE", "state": "NH", "street": "451 WEST ST", "postcode": "03431"}}},
{"geometry": {"type": "Point", "coordinates": [-72.2779826332, 42.931721754]}, "type": "Feature", "properties": {"collection_times": [{"days": "Mon-Fri", "time": "4:00pm"}, {"days": "Sat", "time": "3:15pm"}, {"days": "Sun", "time": "Closed"}], "id": "0343100050", "name": "USPS COLLECTION BOX - BLUE BOX", "address": {"city": "KEENE", "state": "NH", "street": "100 MAIN ST", "postcode": "03431"}}},
{"geometry": {"type": "Point", "coordinates": [-72.2962404268, 42.933493048]}, "type": "Feature", "properties": {"collection_times": [{"days": "Mon-Fri", "time": "4:15pm"}, {"days": "Sat", "time": "3:45pm"}, {"days": "Sun", "time": "Closed"}], "id": "0343100053", "name": "USPS COLLECTION BOX - BLUE BOX", "address": {"city": "KEENE", "state": "NH", "street": "451 WEST ST", "postcode": "03431"}}},
{"geometry": {"type": "Point", "coordinates": [-71.5775936257, 43.6855232857]}, "type": "Feature", "properties": {"collection_times": [{"days": "Mon-Fri", "time": "5:30pm"}, {"days": "Sat", "time": "4:00pm"}, {"days": "Sun", "time": "Closed"}], "id": "0343100054", "name": "USPS COLLECTION BOX - PO LOBBY", "address": {"city": "KEENE", "state": "NH", "street": "196 MAIN ST", "postcode": "03431"}}},
{"geometry": {"type": "Point", "coordinates": [-72.2833443105, 42.9328662657]}, "type": "Feature", "properties": {"collection_times": [{"days": "Mon-Fri", "time": "4:45pm"}, {"days": "Sat", "time": "3:15pm"}, {"days": "Sun", "time": "Closed"}], "id": "0343100057", "name": "USPS COLLECTION BOX - BLUE BOX", "address": {"city": "KEENE", "state": "NH", "street": "122 WEST ST", "postcode": "03431"}}},
{"geometry": {"type": "Point", "coordinates": [-71.5775936257, 43.6855232857]}, "type": "Feature", "properties": {"collection_times": [{"days": "Mon-Fri", "time": "5:30pm"}, {"days": "Sat", "time": "4:00pm"}, {"days": "Sun", "time": "Closed"}], "id": "0343100059", "name": "USPS COLLECTION BOX - APC", "address": {"city": "KEENE", "state": "NH", "street": "196 MAIN ST", "postcode": "03431"}}},
{"geometry": {"type": "Point", "coordinates": [-71.9550085646, 43.0532206822]}, "type": "Feature", "properties": {"collection_times": [{"days": "Mon-Sat", "time": "2:00pm"}, {"days": "Sun", "time": "Closed"}], "id": "0344000001", "name": "USPS COLLECTION BOX - BLUE BOX", "address": {"city": "ANTRIM", "state": "NH", "street": "6 MAIN ST", "postcode": "03440"}}},
{"geometry": {"type": "Point", "coordinates": [-71.9380684625, 43.0299088946]}, "type": "Feature", "properties": {"collection_times": [{"days": "Mon-Fri", "time": "4:15pm"}, {"days": "Sat", "time": "11:45am"}, {"days": "Sun", "time": "Closed"}], "id": "0344000002", "name": "USPS COLLECTION BOX - BLUE BOX", "address": {"city": "ANTRIM", "state": "NH", "street": "1 POST RD", "postcode": "03440"}}},
{"geometry": {"type": "Point", "coordinates": [-71.9380684625, 43.0299088946]}, "type": "Feature", "properties": {"collection_times": [{"days": "Mon-Fri", "time": "4:30pm"}, {"days": "Sat", "time": "11:45am"}, {"days": "Sun", "time": "Closed"}], "id": "0344000005", "name": "USPS COLLECTION BOX - PO LOBBY", "address": {"city": "ANTRIM", "state": "NH", "street": "1 POST RD", "postcode": "03440"}}},
{"geometry": {"type": "Point", "coordinates": [-71.9550085646, 43.0532206822]}, "type": "Feature", "properties": {"collection_times": [{"days": "Mon-Sat", "time": "2:00pm"}, {"days": "Sun", "time": "Closed"}], "id": "0344000006", "name": "USPS COLLECTION BOX - PO LOBBY", "address": {"city": "ANTRIM", "state": "NH", "street": "6 MAIN ST", "postcode": "03440"}}},
{"geometry": {"type": "Point", "coordinates": [-72.4240523636, 42.7779055261]}, "type": "Feature", "properties": {"collection_times": [{"days": "Mon-Fri", "time": "4:15pm"}, {"days": "Sat", "time": "11:30am"}, {"days": "Sun", "time": "Closed"}], "id": "0344100001", "name": "USPS COLLECTION BOX - BLUE BOX", "address": {"city": "ASHUELOT", "state": "NH", "street": "8 ASHUELOT MAIN ST", "postcode": "03441"}}},
{"geometry": {"type": "Point", "coordinates": [-72.4240523636, 42.7779055261]}, "type": "Feature", "properties": {"collection_times": [{"days": "Mon-Fri", "time": "4:15pm"}, {"days": "Sat", "time": "11:30am"}, {"days": "Sun", "time": "Closed"}], "id": "0344100002", "name": "USPS COLLECTION BOX - PO LOBBY", "address": {"city": "ASHUELOT", "state": "NH", "street": "8 ASHUELOT MAIN ST", "postcode": "03441"}}},
{"geometry": {"type": "Point", "coordinates": [-72.4799885608, 42.8532308818]}, "type": "Feature", "properties": {"collection_times": [{"days": "Mon-Fri", "time": "3:00pm"}, {"days": "Sat", "time": "11:30am"}, {"days": "Sun", "time": "Closed"}], "id": "0344300001", "name": "USPS COLLECTION BOX - BLUE BOX", "address": {"city": "CHESTERFIELD", "state": "NH", "street": "523 ROUTE 63", "postcode": "03443"}}},
{"geometry": {"type": "Point", "coordinates": [-72.4799885608, 42.8532308818]}, "type": "Feature", "properties": {"collection_times": [{"days": "Mon-Fri", "time": "3:00pm"}, {"days": "Sat", "time": "11:45am"}, {"days": "Sun", "time": "Closed"}], "id": "0344300002", "name": "USPS COLLECTION BOX - PO LOBBY", "address": {"city": "CHESTERFIELD", "state": "NH", "street": "523 ROUTE 63", "postcode": "03443"}}},
{"geometry": {"type": "Point", "coordinates": [-72.0709472365, 42.8944933244]}, "type": "Feature", "properties": {"collection_times": [{"days": "Mon-Fri", "time": "4:00pm"}, {"days": "Sat", "time": "11:00am"}, {"days": "Sun", "time": "Closed"}], "id": "0344400001", "name": "USPS COLLECTION BOX - BLUE BOX", "address": {"city": "DUBLIN", "state": "NH", "street": "1251 MAIN ST", "postcode": "03444"}}},
{"geometry": {"type": "Point", "coordinates": [-72.0709472365, 42.8944933244]}, "type": "Feature", "properties": {"collection_times": [{"days": "Mon-Fri", "time": "5:00pm"}, {"days": "Sat", "time": "11:45am"}, {"days": "Sun", "time": "Closed"}], "id": "0344400003", "name": "USPS COLLECTION BOX - PO LOBBY", "address": {"city": "DUBLIN", "state": "NH", "street": "1251 MAIN ST", "postcode": "03444"}}},
{"geometry": {"type": "Point", "coordinates": [-72.2353535835, 43.012830634]}, "type": "Feature", "properties": {"collection_times": [{"days": "Mon-Fri", "time": "4:30pm"}, {"days": "Sat", "time": "11:30am"}, {"days": "Sun", "time": "Closed"}], "id": "0344500001", "name": "USPS COLLECTION BOX - BLUE BOX", "address": {"city": "SULLIVAN", "state": "NH", "street": "311 CENTRE ST", "postcode": "03445"}}},
{"geometry": {"type": "Point", "coordinates": [-72.2353535835, 43.012830634]}, "type": "Feature", "properties": {"collection_times": [{"days": "Mon-Fri", "time": "4:45pm"}, {"days": "Sat", "time": "11:45am"}, {"days": "Sun", "time": "Closed"}], "id": "0344500003", "name": "USPS COLLECTION BOX - PO LOBBY", "address": {"city": "SULLIVAN", "state": "NH", "street": "311 CENTRE ST", "postcode": "03445"}}},
{"geometry": {"type": "Point", "coordinates": [-72.2708577643, 42.878611089]}, "type": "Feature", "properties": {"collection_times": [{"days": "Mon-Fri", "time": "5:00pm"}, {"days": "Sat", "time": "12:00pm"}, {"days": "Sun", "time": "Closed"}], "id": "0344600001", "name": "USPS COLLECTION BOX - BLUE BOX", "address": {"city": "SWANZEY", "state": "NH", "street": "486 OLD HOMESTEAD HWY", "postcode": "03446"}}},
{"geometry": {"type": "Point", "coordinates": [-72.2708577643, 42.878611089]}, "type": "Feature", "properties": {"collection_times": [{"days": "Mon-Fri", "time": "5:00pm"}, {"days": "Sat", "time": "12:00pm"}, {"days": "Sun", "time": "Closed"}], "id": "0344600002", "name": "USPS COLLECTION BOX - PO LOBBY", "address": {"city": "SWANZEY", "state": "NH", "street": "486 OLD HOMESTEAD HWY", "postcode": "03446"}}},
{"geometry": {"type": "Point", "coordinates": [-72.1382375523, 42.779635704]}, "type": "Feature", "properties": {"collection_times": [{"days": "Mon-Fri", "time": "3:30pm"}, {"days": "Sat", "time": "11:30am"}, {"days": "Sun", "time": "Closed"}], "id": "0344700002", "name": "USPS COLLECTION BOX - BLUE BOX", "address": {"city": "FITZWILLIAM", "state": "NH", "street": "30 NH ROUTE 12 S", "postcode": "03447"}}},
{"geometry": {"type": "Point", "coordinates": [-72.1407761609, 42.7814201342]}, "type": "Feature", "properties": {"collection_times": [{"days": "Mon-Fri", "time": "4:00pm"}, {"days": "Sat", "time": "11:45am"}, {"days": "Sun", "time": "Closed"}], "id": "0344700004", "name": "USPS COLLECTION BOX - PO LOBBY", "address": {"city": "FITZWILLIAM", "state": "NH", "street": "30 NH ROUTE 12 S", "postcode": "03447"}}},
{"geometry": {"type": "Point", "coordinates": [-72.2633889767, 43.0478555771]}, "type": "Feature", "properties": {"collection_times": [{"days": "Mon-Fri", "time": "4:30pm"}, {"days": "Sat", "time": "11:45am"}, {"days": "Sun", "time": "Closed"}], "id": "0344800001", "name": "USPS COLLECTION BOX - BLUE BOX", "address": {"city": "GILSUM", "state": "NH", "street": "15 MAIN ST", "postcode": "03448"}}},
{"geometry": {"type": "Point", "coordinates": [-72.2633889767, 43.0478555771]}, "type": "Feature", "properties": {"collection_times": [{"days": "Mon-Fri", "time": "4:30pm"}, {"days": "Sat", "time": "11:45am"}, {"days": "Sun", "time": "Closed"}], "id": "0344800002", "name": "USPS COLLECTION BOX - PO LOBBY", "address": {"city": "GILSUM", "state": "NH", "street": "15 MAIN ST", "postcode": "03448"}}},
{"geometry": {"type": "Point", "coordinates": [-71.9809960426, 42.9746716725]}, "type": "Feature", "properties": {"collection_times": [{"days": "Mon-Fri", "time": "4:30pm"}, {"days": "Sat", "time": "12:00pm"}, {"days": "Sun", "time": "Closed"}], "id": "0344900001", "name": "USPS COLLECTION BOX - BLUE BOX", "address": {"city": "HANCOCK", "state": "NH", "street": "59 MAIN ST", "postcode": "03449"}}},
{"geometry": {"type": "Point", "coordinates": [-71.9809960426, 42.9746716725]}, "type": "Feature", "properties": {"collection_times": [{"days": "Mon-Fri", "time": "4:30pm"}, {"days": "Sat", "time": "12:00pm"}, {"days": "Sun", "time": "Closed"}], "id": "0344900003", "name": "USPS COLLECTION BOX - PO LOBBY", "address": {"city": "HANCOCK", "state": "NH", "street": "59 MAIN ST", "postcode": "03449"}}},
{"geometry": {"type": "Point", "coordinates": [-72.0994799973, 42.9457904207]}, "type": "Feature", "properties": {"collection_times": [{"days": "Mon-Fri", "time": "4:30pm"}, {"days": "Sat", "time": "11:00am"}, {"days": "Sun", "time": "Closed"}], "id": "0345000001", "name": "USPS COLLECTION BOX - BLUE BOX", "address": {"city": "HARRISVILLE", "state": "NH", "street": "29 CHURCH ST", "postcode": "03450"}}},
{"geometry": {"type": "Point", "coordinates": [-72.0994799973, 42.9457904207]}, "type": "Feature", "properties": {"collection_times": [{"days": "Mon-Fri", "time": "4:30pm"}, {"days": "Sat", "time": "11:00am"}, {"days": "Sun", "time": "Closed"}], "id": "0345000002", "name": "USPS COLLECTION BOX - PO LOBBY", "address": {"city": "HARRISVILLE", "state": "NH", "street": "29 CHURCH ST", "postcode": "03450"}}},
{"geometry": {"type": "Point", "coordinates": [-72.533195, 42.811287]}, "type": "Feature", "properties": {"collection_times": [{"days": "Mon-Sat", "time": "10:00am"}, {"days": "Sun", "time": "Closed"}], "id": "0345100001", "name": "USPS COLLECTION BOX - BLUE BOX", "address": {"city": "HINSDALE", "state": "NH", "street": "724 BRATTLEBORO RD", "postcode": "03451"}}},
{"geometry": {"type": "Point", "coordinates": [-72.4837748579, 42.7864916965]}, "type": "Feature", "properties": {"collection_times": [{"days": "Mon-Fri", "time": "4:30pm"}, {"days": "Sat", "time": "12:00pm"}, {"days": "Sun", "time": "Closed"}], "id": "0345100002", "name": "USPS COLLECTION BOX - BLUE BOX", "address": {"city": "HINSDALE", "state": "NH", "street": "13 MAIN ST", "postcode": "03451"}}},
{"geometry": {"type": "Point", "coordinates": [-72.4861662045, 42.7863927637]}, "type": "Feature", "properties": {"collection_times": [{"days": "Mon-Sat", "time": "10:00am"}, {"days": "Sun", "time": "Closed"}], "id": "0345100003", "name": "USPS COLLECTION BOX - BLUE BOX", "address": {"city": "HINSDALE", "state": "NH", "street": "849 BRATTLEBORO RD", "postcode": "03451"}}},
{"geometry": {"type": "Point", "coordinates": [-72.4837748579, 42.7864916965]}, "type": "Feature", "properties": {"collection_times": [{"days": "Mon-Fri", "time": "4:30pm"}, {"days": "Sat", "time": "12:00pm"}, {"days": "Sun", "time": "Closed"}], "id": "0345100004", "name": "USPS COLLECTION BOX - PO LOBBY", "address": {"city": "HINSDALE", "state": "NH", "street": "13 MAIN ST", "postcode": "03451"}}},
{"geometry": {"type": "Point", "coordinates": [-71.9782601514, 42.7985703989]}, "type": "Feature", "properties": {"collection_times": [{"days": "Mon-Fri", "time": "5:00pm"}, {"days": "Sat", "time": "3:00pm"}, {"days": "Sun", "time": "Closed"}], "id": "0345200002", "name": "USPS COLLECTION BOX - BLUE BOX", "address": {"city": "JAFFREY", "state": "NH", "street": "30 TURNPIKE RD", "postcode": "03452"}}},
{"geometry": {"type": "Point", "coordinates": [-72.0314893513, 42.8187728756]}, "type": "Feature", "properties": {"collection_times": [{"days": "Mon-Sat", "time": "3:00pm"}, {"days": "Sun", "time": "Closed"}], "id": "0345200004", "name": "USPS COLLECTION BOX - BLUE BOX", "address": {"city": "JAFFREY", "state": "NH", "street": "26 MAIN ST", "postcode": "03452"}}},
{"geometry": {"type": "Point", "coordinates": [-72.016273735, 42.81783124]}, "type": "Feature", "properties": {"collection_times": [{"days": "Mon-Sat", "time": "12:30pm"}, {"days": "Sun", "time": "Closed"}], "id": "0345200005", "name": "USPS COLLECTION BOX - BLUE BOX", "address": {"city": "JAFFREY", "state": "NH", "street": "51 PETERBOROUGH ST", "postcode": "03452"}}},
{"geometry": {"type": "Point", "coordinates": [-71.9782601514, 42.7985703989]}, "type": "Feature", "properties": {"collection_times": [{"days": "Mon-Fri", "time": "5:00pm"}, {"days": "Sat", "time": "3:00pm"}, {"days": "Sun", "time": "Closed"}], "id": "0345200007", "name": "USPS COLLECTION BOX - PO LOBBY", "address": {"city": "JAFFREY", "state": "NH", "street": "30 TURNPIKE RD", "postcode": "03452"}}},
{"geometry": {"type": "Point", "coordinates": [-72.196186785, 42.8990511971]}, "type": "Feature", "properties": {"collection_times": [{"days": "Mon-Fri", "time": "4:45pm"}, {"days": "Sat", "time": "12:15pm"}, {"days": "Sun", "time": "Closed"}], "id": "0345500002", "name": "USPS COLLECTION BOX - BLUE BOX", "address": {"city": "MARLBOROUGH", "state": "NH", "street": "136 MAIN ST", "postcode": "03455"}}},
{"geometry": {"type": "Point", "coordinates": [-72.196186785, 42.8990511971]}, "type": "Feature", "properties": {"collection_times": [{"days": "Mon-Fri", "time": "5:00pm"}, {"days": "Sat", "time": "12:00pm"}, {"days": "Sun", "time": "Closed"}], "id": "0345500004", "name": "USPS COLLECTION BOX - PO LOBBY", "address": {"city": "MARLBOROUGH", "state": "NH", "street": "136 MAIN ST", "postcode": "03455"}}},
{"geometry": {"type": "Point", "coordinates": [-72.1960686686, 43.1295110565]}, "type": "Feature", "properties": {"collection_times": [{"days": "Mon-Fri", "time": "4:30pm"}, {"days": "Sat", "time": "11:30am"}, {"days": "Sun", "time": "Closed"}], "id": "0345600001", "name": "USPS COLLECTION BOX - BLUE BOX", "address": {"city": "STODDARD", "state": "NH", "street": "842 NH ROUTE 10", "postcode": "03456"}}},
{"geometry": {"type": "Point", "coordinates": [-72.0959364643, 43.0788242055]}, "type": "Feature", "properties": {"collection_times": [{"days": "Mon-Fri", "time": "4:00pm"}, {"days": "Sat", "time": "12:00pm"}, {"days": "Sun", "time": "Closed"}], "id": "0345600003", "name": "USPS COLLECTION BOX - BLUE BOX", "address": {"city": "STODDARD", "state": "NH", "street": "984 ROUTE 123 N", "postcode": "03456"}}},
{"geometry": {"type": "Point", "coordinates": [-72.1960686686, 43.1295110565]}, "type": "Feature", "properties": {"collection_times": [{"days": "Mon-Fri", "time": "4:30pm"}, {"days": "Sat", "time": "11:30am"}, {"days": "Sun", "time": "Closed"}], "id": "0345600004", "name": "USPS COLLECTION BOX - PO LOBBY", "address": {"city": "STODDARD", "state": "NH", "street": "842 NH ROUTE 10", "postcode": "03456"}}},
{"geometry": {"type": "Point", "coordinates": [-72.0959364643, 43.0788242055]}, "type": "Feature", "properties": {"collection_times": [{"days": "Mon-Fri", "time": "4:00pm"}, {"days": "Sat", "time": "12:00pm"}, {"days": "Sun", "time": "Closed"}], "id": "0345600005", "name": "USPS COLLECTION BOX - PO LOBBY", "address": {"city": "STODDARD", "state": "NH", "street": "984 ROUTE 123 N", "postcode": "03456"}}},
{"geometry": {"type": "Point", "coordinates": [-71.9804966595, 42.8375989332]}, "type": "Feature", "properties": {"collection_times": [{"days": "Mon-Fri", "time": "3:00pm"}, {"days": "Sat", "time": "10:00am"}, {"days": "Sun", "time": "Closed"}], "id": "0345800002", "name": "USPS COLLECTION BOX - BLUE BOX", "address": {"city": "PETERBOROUGH", "state": "NH", "street": "1 JAFFREY RD", "postcode": "03458"}}},
{"geometry": {"type": "Point", "coordinates": [-71.9508293356, 42.8765883242]}, "type": "Feature", "properties": {"collection_times": [{"days": "Mon-Fri", "time": "5:00pm"}, {"days": "Sat", "time": "2:15pm"}, {"days": "Sun", "time": "Closed"}], "id": "0345800004", "name": "USPS COLLECTION BOX - BLUE BOX", "address": {"city": "PETERBOROUGH", "state": "NH", "street": "21 GROVE ST", "postcode": "03458"}}},
{"geometry": {"type": "Point", "coordinates": [-71.9508541804, 42.8765282276]}, "type": "Feature", "properties": {"collection_times": [{"days": "Mon-Fri", "time": "5:00pm"}, {"days": "Sat", "time": "2:15pm"}, {"days": "Sun", "time": "Closed"}], "id": "0345800005", "name": "USPS COLLECTION BOX - BLUE BOX", "address": {"city": "PETERBOROUGH", "state": "NH", "street": "23 GROVE ST", "postcode": "03458"}}},
{"geometry": {"type": "Point", "coordinates": [-71.9359866564, 42.8908357249]}, "type": "Feature", "properties": {"collection_times": [{"days": "Mon-Fri", "time": "12:00pm"}, {"days": "Sat", "time": "10:00am"}, {"days": "Sun", "time": "Closed"}], "id": "0345800009", "name": "USPS COLLECTION BOX - BLUE BOX", "address": {"city": "PETERBOROUGH", "state": "NH", "street": "452 OLD STREET RD", "postcode": "03458"}}},
{"geometry": {"type": "Point", "coordinates": [-71.9367580862, 42.9036173146]}, "type": "Feature", "properties": {"collection_times": [{"days": "Mon-Fri", "time": "3:00pm"}, {"days": "Sat", "time": "10:00am"}, {"days": "Sun", "time": "Closed"}], "id": "0345800011", "name": "USPS COLLECTION BOX - BLUE BOX", "address": {"city": "PETERBOROUGH", "state": "NH", "street": "70 HANCOCK RD", "postcode": "03458"}}},
{"geometry": {"type": "Point", "coordinates": [-71.9464184886, 42.8811541191]}, "type": "Feature", "properties": {"collection_times": [{"days": "Mon-Fri", "time": "3:00pm"}, {"days": "Sat", "time": "10:00am"}, {"days": "Sun", "time": "Closed"}], "id": "0345800013", "name": "USPS COLLECTION BOX - BLUE BOX", "address": {"city": "PETERBOROUGH", "state": "NH", "street": "19 WILTON RD", "postcode": "03458"}}},
{"geometry": {"type": "Point", "coordinates": [-71.9508541804, 42.8765282276]}, "type": "Feature", "properties": {"collection_times": [{"days": "Mon-Fri", "time": "5:00pm"}, {"days": "Sat", "time": "2:15pm"}, {"days": "Sun", "time": "Closed"}], "id": "0345800014", "name": "USPS COLLECTION BOX - PO LOBBY", "address": {"city": "PETERBOROUGH", "state": "NH", "street": "23 GROVE ST", "postcode": "03458"}}},
{"geometry": {"type": "Point", "coordinates": [-71.5775936257, 43.6855232857]}, "type": "Feature", "properties": {"collection_times": [{"days": "Mon-Sat", "time": "10:00am"}, {"days": "Sun", "time": "Closed"}], "id": "0346100002", "name": "USPS COLLECTION BOX - BLUE BOX", "address": {"city": "RINDGE", "state": "NH", "street": "497 US ROUTE 202", "postcode": "03461"}}},
{"geometry": {"type": "Point", "coordinates": [-71.9680456838, 42.735643089]}, "type": "Feature", "properties": {"collection_times": [{"days": "Mon-Fri", "time": "4:30pm"}, {"days": "Sat", "time": "12:30pm"}, {"days": "Sun", "time": "Closed"}], "id": "0346100007", "name": "USPS COLLECTION BOX - BLUE BOX", "address": {"city": "RINDGE", "state": "NH", "street": "1056 NH ROUTE 119", "postcode": "03461"}}},
{"geometry": {"type": "Point", "coordinates": [-71.9680456838, 42.735643089]}, "type": "Feature", "properties": {"collection_times": [{"days": "Mon-Fri", "time": "4:30pm"}, {"days": "Sat", "time": "12:30pm"}, {"days": "Sun", "time": "Closed"}], "id": "0346100008", "name": "USPS COLLECTION BOX - PO LOBBY", "address": {"city": "RINDGE", "state": "NH", "street": "1056 NH ROUTE 119", "postcode": "03461"}}},
{"geometry": {"type": "Point", "coordinates": [-72.0122034594, 42.7524233479]}, "type": "Feature", "properties": {"collection_times": [{"days": "Mon-Sat", "time": "10:15am"}, {"days": "Sun", "time": "Closed"}], "id": "0346100009", "name": "USPS COLLECTION BOX - BLUE BOX", "address": {"city": "RINDGE", "state": "NH", "street": "752 US ROUTE 202", "postcode": "03461"}}},
{"geometry": {"type": "Point", "coordinates": [-72.0102016243, 42.7558652308]}, "type": "Feature", "properties": {"collection_times": [{"days": "Mon-Sat", "time": "12:00pm"}, {"days": "Sun", "time": "Closed"}], "id": "0346100010", "name": "USPS COLLECTION BOX - BLUE BOX", "address": {"city": "RINDGE", "state": "NH", "street": "30 PAYSON HILL RD", "postcode": "03461"}}},
{"geometry": {"type": "Point", "coordinates": [-71.5775936257, 43.6855232857]}, "type": "Feature", "properties": {"collection_times": [{"days": "Mon-Fri", "time": "4:30pm"}, {"days": "Sat", "time": "12:30pm"}, {"days": "Sun", "time": "Closed"}], "id": "0346200001", "name": "USPS COLLECTION BOX - BLUE BOX", "address": {"city": "SPOFFORD", "state": "NH", "street": "562 N SHORE RD", "postcode": "03462"}}},
{"geometry": {"type": "Point", "coordinates": [-71.5775936257, 43.6855232857]}, "type": "Feature", "properties": {"collection_times": [{"days": "Mon-Fri", "time": "4:30pm"}, {"days": "Sat", "time": "12:30pm"}, {"days": "Sun", "time": "Closed"}], "id": "0346200002", "name": "USPS COLLECTION BOX - PO LOBBY", "address": {"city": "SPOFFORD", "state": "NH", "street": "562 N SHORE RD", "postcode": "03462"}}},
{"geometry": {"type": "Point", "coordinates": [-72.1836504032, 42.8271878469]}, "type": "Feature", "properties": {"collection_times": [{"days": "Mon-Sat", "time": "1:00pm"}, {"days": "Sun", "time": "Closed"}], "id": "0346500001", "name": "USPS COLLECTION BOX - BLUE BOX", "address": {"city": "TROY", "state": "NH", "street": "15 CENTRAL SQ", "postcode": "03465"}}},
{"geometry": {"type": "Point", "coordinates": [-72.1844644946, 42.851030678]}, "type": "Feature", "properties": {"collection_times": [{"days": "Mon-Fri", "time": "3:45pm"}, {"days": "Sat", "time": "10:30am"}, {"days": "Sun", "time": "Closed"}], "id": "0346500002", "name": "USPS COLLECTION BOX - BLUE BOX", "address": {"city": "TROY", "state": "NH", "street": "7 MARLBORO RD", "postcode": "03465"}}},
{"geometry": {"type": "Point", "coordinates": [-72.1844644946, 42.851030678]}, "type": "Feature", "properties": {"collection_times": [{"days": "Mon-Fri", "time": "4:00pm"}, {"days": "Sat", "time": "12:00pm"}, {"days": "Sun", "time": "Closed"}], "id": "0346500003", "name": "USPS COLLECTION BOX - PO LOBBY", "address": {"city": "TROY", "state": "NH", "street": "7 MARLBORO RD", "postcode": "03465"}}},
{"geometry": {"type": "Point", "coordinates": [-71.5775936257, 43.6855232857]}, "type": "Feature", "properties": {"collection_times": [{"days": "Mon-Fri", "time": "4:00pm"}, {"days": "Sat", "time": "11:30am"}, {"days": "Sun", "time": "Closed"}], "id": "0346600001", "name": "USPS COLLECTION BOX - BLUE BOX", "address": {"city": "W CHESTERFLD", "state": "NH", "street": "913 GULF RD UNIT C", "postcode": "03466"}}},
{"geometry": {"type": "Point", "coordinates": [-71.5775936257, 43.6855232857]}, "type": "Feature", "properties": {"collection_times": [{"days": "Mon-Fri", "time": "4:15pm"}, {"days": "Sat", "time": "11:30am"}, {"days": "Sun", "time": "Closed"}], "id": "0346600003", "name": "USPS COLLECTION BOX - PO LOBBY", "address": {"city": "W CHESTERFLD", "state": "NH", "street": "913 GULF RD UNIT C", "postcode": "03466"}}},
{"geometry": {"type": "Point", "coordinates": [-72.4540557436, 42.9306706344]}, "type": "Feature", "properties": {"collection_times": [{"days": "Mon-Fri", "time": "4:30pm"}, {"days": "Sat", "time": "11:30am"}, {"days": "Sun", "time": "Closed"}], "id": "0346700001", "name": "USPS COLLECTION BOX - BLUE BOX", "address": {"city": "WESTMORELAND", "state": "NH", "street": "776 ROUTE 63", "postcode": "03467"}}},
{"geometry": {"type": "Point", "coordinates": [-72.4540557436, 42.9306706344]}, "type": "Feature", "properties": {"collection_times": [{"days": "Mon-Fri", "time": "4:30pm"}, {"days": "Sat", "time": "11:30am"}, {"days": "Sun", "time": "Closed"}], "id": "0346700002", "name": "USPS COLLECTION BOX - PO LOBBY", "address": {"city": "WESTMORELAND", "state": "NH", "street": "776 ROUTE 63", "postcode": "03467"}}},
{"geometry": {"type": "Point", "coordinates": [-71.9671574706, 42.9074366759]}, "type": "Feature", "properties": {"collection_times": [{"days": "Mon-Fri", "time": "4:45pm"}, {"days": "Sat", "time": "11:45am"}, {"days": "Sun", "time": "Closed"}], "id": "0346800001", "name": "USPS COLLECTION BOX - BLUE BOX", "address": {"city": "W PETERBOROUGH", "state": "NH", "street": "301 UNION ST UNIT C", "postcode": "03468"}}},
{"geometry": {"type": "Point", "coordinates": [-71.9671574706, 42.9074366759]}, "type": "Feature", "properties": {"collection_times": [{"days": "Mon-Fri", "time": "4:45pm"}, {"days": "Sat", "time": "12:00pm"}, {"days": "Sun", "time": "Closed"}], "id": "0346800002", "name": "USPS COLLECTION BOX - PO LOBBY", "address": {"city": "W PETERBOROUGH", "state": "NH", "street": "301 UNION ST UNIT C", "postcode": "03468"}}},
{"geometry": {"type": "Point", "coordinates": [-72.3317269461, 42.876150239]}, "type": "Feature", "properties": {"collection_times": [{"days": "Mon-Fri", "time": "3:45pm"}, {"days": "Sat", "time": "11:30am"}, {"days": "Sun", "time": "Closed"}], "id": "0346900002", "name": "USPS COLLECTION BOX - BLUE BOX", "address": {"city": "WEST SWANZEY", "state": "NH", "street": "769 W SWANZEY RD", "postcode": "03469"}}},
{"geometry": {"type": "Point", "coordinates": [-72.3317269461, 42.876150239]}, "type": "Feature", "properties": {"collection_times": [{"days": "Mon-Fri", "time": "3:45pm"}, {"days": "Sat", "time": "11:30am"}, {"days": "Sun", "time": "Closed"}], "id": "0346900003", "name": "USPS COLLECTION BOX - PO LOBBY", "address": {"city": "WEST SWANZEY", "state": "NH", "street": "769 W SWANZEY RD", "postcode": "03469"}}},
{"geometry": {"type": "Point", "coordinates": [-72.3827777533, 42.7730567988]}, "type": "Feature", "properties": {"collection_times": [{"days": "Mon-Fri", "time": "4:45pm"}, {"days": "Sat", "time": "12:00pm"}, {"days": "Sun", "time": "Closed"}], "id": "0347000005", "name": "USPS COLLECTION BOX - BLUE BOX", "address": {"city": "RICHMOND", "state": "NH", "street": "11 RICHMOND RD", "postcode": "03470"}}},
{"geometry": {"type": "Point", "coordinates": [-72.3953110485, 42.7705620542]}, "type": "Feature", "properties": {"collection_times": [{"days": "Mon-Sat", "time": "8:00am"}, {"days": "Sun", "time": "Closed"}], "id": "0347000006", "name": "USPS COLLECTION BOX - BLUE BOX", "address": {"city": "RICHMOND", "state": "NH", "street": "30 WARWICK RD", "postcode": "03470"}}},
{"geometry": {"type": "Point", "coordinates": [-72.3827777533, 42.7730567988]}, "type": "Feature", "properties": {"collection_times": [{"days": "Mon-Fri", "time": "4:45pm"}, {"days": "Sat", "time": "12:00pm"}, {"days": "Sun", "time": "Closed"}], "id": "0347000008", "name": "USPS COLLECTION BOX - PO LOBBY", "address": {"city": "RICHMOND", "state": "NH", "street": "11 RICHMOND RD", "postcode": "03470"}}}
]}
