{"type": "FeatureCollection", "features": [
{"geometry": {"type": "Point", "coordinates": [-71.7700181457, 44.3053193397]}, "type": "Feature", "properties": {"collection_times": [{"days": "Mon-Fri", "time": "3:30pm"}, {"days": "Sat", "time": "12:30pm"}, {"days": "Sun", "time": "Closed"}], "id": "0356100001", "name": "USPS COLLECTION BOX - BLUE BOX", "address": {"city": "LITTLETON", "state": "NH", "street": "74 COTTAGE ST", "postcode": "03561"}}},
{"geometry": {"type": "Point", "coordinates": [-71.8236648125, 44.3171539304]}, "type": "Feature", "properties": {"collection_times": [{"days": "Mon-Sat", "time": "9:00am"}, {"days": "Sun", "time": "Closed"}], "id": "0356100002", "name": "USPS COLLECTION BOX - BLUE BOX", "address": {"city": "LITTLETON", "state": "NH", "street": "580 SAINT JOHNSBURY RD", "postcode": "03561"}}},
{"geometry": {"type": "Point", "coordinates": [-71.779948223, 44.3081364041]}, "type": "Feature", "properties": {"collection_times": [{"days": "Mon-Sat", "time": "2:30pm"}, {"days": "Sun", "time": "Closed"}], "id": "0356100005", "name": "USPS COLLECTION BOX - BLUE BOX", "address": {"city": "LITTLETON", "state": "NH", "street": "231 MAIN ST", "postcode": "03561"}}},
{"geometry": {"type": "Point", "coordinates": [-71.7757968181, 44.307384537]}, "type": "Feature", "properties": {"collection_times": [{"days": "Mon-Fri", "time": "6:00pm"}, {"days": "Sat", "time": "3:30pm"}, {"days": "Sun", "time": "Closed"}], "id": "0356100007", "name": "USPS COLLECTION BOX - BLUE BOX", "address": {"city": "LITTLETON", "state": "NH", "street": "134 MAIN ST", "postcode": "03561"}}},
{"geometry": {"type": "Point", "coordinates": [-71.7895681353, 44.3125205915]}, "type": "Feature", "properties": {"collection_times": [{"days": "Mon-Fri", "time": "3:30pm"}, {"days": "Sat", "time": "1:30pm"}, {"days": "Sun", "time": "Closed"}], "id": "0356100008", "name": "USPS COLLECTION BOX - BLUE BOX", "address": {"city": "LITTLETON", "state": "NH", "street": "9 MAIN ST", "postcode": "03561"}}},
{"geometry": {"type": "Point", "coordinates": [-71.7721476134, 44.3064885138]}, "type": "Feature", "properties": {"collection_times": [{"days": "Mon-Fri", "time": "3:30pm"}, {"days": "Sat", "time": "1:30pm"}, {"days": "Sun", "time": "Closed"}], "id": "0356100009", "name": "USPS COLLECTION BOX - BLUE BOX", "address": {"city": "LITTLETON", "state": "NH", "street": "51 MAIN ST", "postcode": "03561"}}},
{"geometry": {"type": "Point", "coordinates": [-71.7895681353, 44.3125205915]}, "type": "Feature", "properties": {"collection_times": [{"days": "Mon-Sat", "time": "2:00pm"}, {"days": "Sun", "time": "Closed"}], "id": "0356100010", "name": "USPS COLLECTION BOX - BLUE BOX", "address": {"city": "LITTLETON", "state": "NH", "street": "136 MEADOW ST", "postcode": "03561"}}},
{"geometry": {"type": "Point", "coordinates": [-71.7677451123, 44.3067951104]}, "type": "Feature", "properties": {"collection_times": [{"days": "Mon-Fri", "time": "2:30pm"}, {"days": "Sat", "time": "1:30pm"}, {"days": "Sun", "time": "Closed"}], "id": "0356100014", "name": "USPS COLLECTION BOX - BLUE BOX", "address": {"city": "LITTLETON", "state": "NH", "street": "70 UNION ST", "postcode": "03561"}}},
{"geometry": {"type": "Point", "coordinates": [-71.7628192813, 44.3090472476]}, "type": "Feature", "properties": {"collection_times": [{"days": "Mon-Fri", "time": "2:30pm"}, {"days": "Sat", "time": "1:30pm"}, {"days": "Sun", "time": "Closed"}], "id": "0356100015", "name": "USPS COLLECTION BOX - BLUE BOX", "address": {"city": "LITTLETON", "state": "NH", "street": "227 UNION ST", "postcode": "03561"}}},
{"geometry": {"type": "Point", "coordinates": [-71.7558852628, 44.3081469428]}, "type": "Feature", "properties": {"collection_times": [{"days": "Mon-Sat", "time": "12:30pm"}, {"days": "Sun", "time": "Closed"}], "id": "0356100016", "name": "USPS COLLECTION BOX - BLUE BOX", "address": {"city": "LITTLETON", "state": "NH", "street": "406 UNION ST", "postcode": "03561"}}},
{"geometry": {"type": "Point", "coordinates": [-71.7757968181, 44.307384537]}, "type": "Feature", "properties": {"collection_times": [{"days": "Mon-Fri", "time": "6:00pm"}, {"days": "Sat", "time": "3:30pm"}, {"days": "Sun", "time": "Closed"}], "id": "0356100017", "name": "USPS COLLECTION BOX - PO LOBBY", "address": {"city": "LITTLETON", "state": "NH", "street": "134 MAIN ST", "postcode": "03561"}}},
{"geometry": {"type": "Point", "coordinates": [-71.7895681353, 44.3125205915]}, "type": "Feature", "properties": {"collection_times": [{"days": "Mon-Sat", "time": "9:30am"}, {"days": "Sun", "time": "Closed"}], "id": "0356100018", "name": "USPS COLLECTION BOX - BLUE BOX", "address": {"city": "LITTLETON", "state": "NH", "street": "615 MEADOW ST", "postcode": "03561"}}},
{"geometry": {"type": "Point", "coordinates": [-71.7671824294, 44.2979634598]}, "type": "Feature", "properties": {"collection_times": [{"days": "Mon-Sat", "time": "8:30am"}, {"days": "Sun", "time": "Closed"}], "id": "0356100019", "name": "USPS COLLECTION BOX - BLUE BOX", "address": {"city": "LITTLETON", "state": "NH", "street": "43 BETHLEHEM RD", "postcode": "03561"}}},
{"geometry": {"type": "Point", "coordinates": [-71.1613946842, 44.4883282691]}, "type": "Feature", "properties": {"collection_times": [{"days": "Mon-Sat", "time": "1:30pm"}, {"days": "Sun", "time": "Closed"}], "id": "0357000001", "name": "USPS COLLECTION BOX - BLUE BOX", "address": {"city": "BERLIN", "state": "NH", "street": "3 12TH ST", "postcode": "03570"}}},
{"geometry": {"type": "Point", "coordinates": [-71.1763661985, 44.4763186087]}, "type": "Feature", "properties": {"collection_times": [{"days": "Mon-Sat", "time": "1:30pm"}, {"days": "Sun", "time": "Closed"}], "id": "0357000003", "name": "USPS COLLECTION BOX - BLUE BOX", "address": {"city": "BERLIN", "state": "NH", "street": "563 BURGESS ST", "postcode": "03570"}}},
{"geometry": {"type": "Point", "coordinates": [-71.1842070078, 44.4736217233]}, "type": "Feature", "properties": {"collection_times": [{"days": "Mon-Sat", "time": "11:00am"}, {"days": "Sun", "time": "Closed"}], "id": "0357000008", "name": "USPS COLLECTION BOX - BLUE BOX", "address": {"city": "BERLIN", "state": "NH", "street": "71 HILLSIDE AVE", "postcode": "03570"}}},
{"geometry": {"type": "Point", "coordinates": [-71.1717172701, 44.4747862818]}, "type": "Feature", "properties": {"collection_times": [{"days": "Mon-Sat", "time": "4:00pm"}, {"days": "Sun", "time": "Closed"}], "id": "0357000010", "name": "USPS COLLECTION BOX - BLUE BOX", "address": {"city": "BERLIN", "state": "NH", "street": "725 MAIN ST", "postcode": "03570"}}},
{"geometry": {"type": "Point", "coordinates": [-71.1763661985, 44.4763186087]}, "type": "Feature", "properties": {"collection_times": [{"days": "Mon-Fri", "time": "4:30pm"}, {"days": "Sat", "time": "3:45pm"}, {"days": "Sun", "time": "Closed"}], "id": "0357000014", "name": "USPS COLLECTION BOX - BLUE BOX", "address": {"city": "BERLIN", "state": "NH", "street": "168 MAIN ST", "postcode": "03570"}}},
{"geometry": {"type": "Point", "coordinates": [-71.1789271499, 44.4710582932]}, "type": "Feature", "properties": {"collection_times": [{"days": "Mon-Fri", "time": "4:30pm"}, {"days": "Sat", "time": "3:45pm"}, {"days": "Sun", "time": "Closed"}], "id": "0357000015", "name": "USPS COLLECTION BOX - BLUE BOX", "address": {"city": "BERLIN", "state": "NH", "street": "231 MAIN ST", "postcode": "03570"}}},
{"geometry": {"type": "Point", "coordinates": [-71.1810850075, 44.4695211333]}, "type": "Feature", "properties": {"collection_times": [{"days": "Mon-Fri", "time": "4:30pm"}, {"days": "Sat", "time": "3:45pm"}, {"days": "Sun", "time": "Closed"}], "id": "0357000019", "name": "USPS COLLECTION BOX - BLUE BOX", "address": {"city": "BERLIN", "state": "NH", "street": "102 MAIN ST", "postcode": "03570"}}},
{"geometry": {"type": "Point", "coordinates": [-71.1864740719, 44.4677552507]}, "type": "Feature", "properties": {"collection_times": [{"days": "Mon-Fri", "time": "5:00pm"}, {"days": "Sat", "time": "4:00pm"}, {"days": "Sun", "time": "Closed"}], "id": "0357000020", "name": "USPS COLLECTION BOX - BLUE BOX", "address": {"city": "BERLIN", "state": "NH", "street": "15 MOUNT FORIST ST", "postcode": "03570"}}},
{"geometry": {"type": "Point", "coordinates": [-71.1864740719, 44.4677552507]}, "type": "Feature", "properties": {"collection_times": [{"days": "Mon-Fri", "time": "5:00pm"}, {"days": "Sat", "time": "4:00pm"}, {"days": "Sun", "time": "Closed"}], "id": "0357000021", "name": "USPS COLLECTION BOX - BLUE BOX", "address": {"city": "BERLIN", "state": "NH", "street": "15 MOUNT FORIST ST", "postcode": "03570"}}},
{"geometry": {"type": "Point", "coordinates": [-71.1763661985, 44.4763186087]}, "type": "Feature", "properties": {"collection_times": [{"days": "Mon-Fri", "time": "3:15pm"}, {"days": "Sat", "time": "9:00am"}, {"days": "Sun", "time": "Closed"}], "id": "0357000022", "name": "USPS COLLECTION BOX - BLUE BOX", "address": {"city": "BERLIN", "state": "NH", "street": "59 PAGE HILL RD", "postcode": "03570"}}},
{"geometry": {"type": "Point", "coordinates": [-71.1826504355, 44.4695125164]}, "type": "Feature", "properties": {"collection_times": [{"days": "Mon-Fri", "time": "4:30pm"}, {"days": "Sat", "time": "3:45pm"}, {"days": "Sun", "time": "Closed"}], "id": "0357000024", "name": "USPS COLLECTION BOX - BLUE BOX", "address": {"city": "BERLIN", "state": "NH", "street": "133 PLEASANT ST", "postcode": "03570"}}},
{"geometry": {"type": "Point", "coordinates": [-71.1785811525, 44.472388126]}, "type": "Feature", "properties": {"collection_times": [{"days": "Mon-Fri", "time": "4:30pm"}, {"days": "Sat", "time": "3:45pm"}, {"days": "Sun", "time": "Closed"}], "id": "0357000026", "name": "USPS COLLECTION BOX - BLUE BOX", "address": {"city": "BERLIN", "state": "NH", "street": "301 PLEASANT ST", "postcode": "03570"}}},
{"geometry": {"type": "Point", "coordinates": [-71.1711182627, 44.4688272372]}, "type": "Feature", "properties": {"collection_times": [{"days": "Mon-Sat", "time": "2:00pm"}, {"days": "Sun", "time": "Closed"}], "id": "0357000028", "name": "USPS COLLECTION BOX - BLUE BOX", "address": {"city": "BERLIN", "state": "NH", "street": "200 COOS ST", "postcode": "03570"}}},
{"geometry": {"type": "Point", "coordinates": [-71.1864740719, 44.4677552507]}, "type": "Feature", "properties": {"collection_times": [{"days": "Mon-Fri", "time": "5:00pm"}, {"days": "Sat", "time": "4:00pm"}, {"days": "Sun", "time": "Closed"}], "id": "0357000032", "name": "USPS COLLECTION BOX - PO LOBBY", "address": {"city": "BERLIN", "state": "NH", "street": "15 MOUNT FORIST ST", "postcode": "03570"}}},
{"geometry": {"type": "Point", "coordinates": [-71.6901370286, 44.2844735805]}, "type": "Feature", "properties": {"collection_times": [{"days": "Mon-Fri", "time": "5:00pm"}, {"days": "Sat", "time": "11:00am"}, {"days": "Sun", "time": "Closed"}], "id": "0357400002", "name": "USPS COLLECTION BOX - BLUE BOX", "address": {"city": "BETHLEHEM", "state": "NH", "street": "2159 MAIN ST", "postcode": "03574"}}},
{"geometry": {"type": "Point", "coordinates": [-71.6901370286, 44.2844735805]}, "type": "Feature", "properties": {"collection_times": [{"days": "Mon-Fri", "time": "5:00pm"}, {"days": "Sat", "time": "11:15am"}, {"days": "Sun", "time": "Closed"}], "id": "0357400003", "name": "USPS COLLECTION BOX - PO LOBBY", "address": {"city": "BETHLEHEM", "state": "NH", "street": "2159 MAIN ST", "postcode": "03574"}}},
{"geometry": {"type": "Point", "coordinates": [-71.4934117153, 44.9021754437]}, "type": "Feature", "properties": {"collection_times": [{"days": "Mon-Fri", "time": "2:00pm"}, {"days": "Sat", "time": "1:30pm"}, {"days": "Sun", "time": "Closed"}], "id": "0357600001", "name": "USPS COLLECTION BOX - BLUE BOX", "address": {"city": "COLEBROOK", "state": "NH", "street": "120 MAIN ST", "postcode": "03576"}}},
{"geometry": {"type": "Point", "coordinates": [-71.3918460994, 44.8903893774]}, "type": "Feature", "properties": {"collection_times": [{"days": "Mon-Sat", "time": "9:00am"}, {"days": "Sun", "time": "Closed"}], "id": "0357600003", "name": "USPS COLLECTION BOX - BLUE BOX", "address": {"city": "COLEBROOK", "state": "NH", "street": "21 VILLAGE WAY", "postcode": "03576"}}},
{"geometry": {"type": "Point", "coordinates": [-71.4956368607, 44.8928216889]}, "type": "Feature", "properties": {"collection_times": [{"days": "Mon-Fri", "time": "4:45pm"}, {"days": "Sat", "time": "3:45pm"}, {"days": "Sun", "time": "Closed"}], "id": "0357600005", "name": "USPS COLLECTION BOX - BLUE BOX", "address": {"city": "COLEBROOK", "state": "NH", "street": "21 PARSONS ST", "postcode": "03576"}}},
{"geometry": {"type": "Point", "coordinates": [-71.4956368607, 44.8928216889]}, "type": "Feature", "properties": {"collection_times": [{"days": "Mon-Fri", "time": "4:45pm"}, {"days": "Sat", "time": "3:45pm"}, {"days": "Sun", "time": "Closed"}], "id": "0357600006", "name": "USPS COLLECTION BOX - PO LOBBY", "address": {"city": "COLEBROOK", "state": "NH", "street": "21 PARSONS ST", "postcode": "03576"}}},
{"geometry": {"type": "Point", "coordinates": [-71.4566277437, 44.9101283028]}, "type": "Feature", "properties": {"collection_times": [{"days": "Mon-Sat", "time": "10:15am"}, {"days": "Sun", "time": "Closed"}], "id": "0357600007", "name": "USPS COLLECTION BOX - BLUE BOX", "address": {"city": "COLEBROOK", "state": "NH", "street": "64 TROOPER LESLIE G LORD MEM HWY", "postcode": "03576"}}},
{"geometry": {"type": "Point", "coordinates": [-71.1379303585, 44.7812194992]}, "type": "Feature", "properties": {"collection_times": [{"days": "Mon-Fri", "time": "3:30pm"}, {"days": "Sat", "time": "12:30pm"}, {"days": "Sun", "time": "Closed"}], "id": "0357900001", "name": "USPS COLLECTION BOX - BLUE BOX", "address": {"city": "ERROL", "state": "NH", "street": "25 MAIN ST UNIT 1", "postcode": "03579"}}},
{"geometry": {"type": "Point", "coordinates": [-71.1379303585, 44.7812194992]}, "type": "Feature", "properties": {"collection_times": [{"days": "Mon-Fri", "time": "3:30pm"}, {"days": "Sat", "time": "12:30pm"}, {"days": "Sun", "time": "Closed"}], "id": "0357900002", "name": "USPS COLLECTION BOX - PO LOBBY", "address": {"city": "ERROL", "state": "NH", "street": "25 MAIN ST UNIT 1", "postcode": "03579"}}},
{"geometry": {"type": "Point", "coordinates": [-71.7425813116, 44.2255413497]}, "type": "Feature", "properties": {"collection_times": [{"days": "Mon-Fri", "time": "4:45pm"}, {"days": "Sat", "time": "11:45am"}, {"days": "Sun", "time": "Closed"}], "id": "0358000002", "name": "USPS COLLECTION BOX - BLUE BOX", "address": {"city": "FRANCONIA", "state": "NH", "street": "308 MAIN ST", "postcode": "03580"}}},
{"geometry": {"type": "Point", "coordinates": [-71.7425813116, 44.2255413497]}, "type": "Feature", "properties": {"collection_times": [{"days": "Mon-Fri", "time": "5:15pm"}, {"days": "Sat", "time": "12:00pm"}, {"days": "Sun", "time": "Closed"}], "id": "0358000003", "name": "USPS COLLECTION BOX - PO LOBBY", "address": {"city": "FRANCONIA", "state": "NH", "street": "308 MAIN ST", "postcode": "03580"}}},
{"geometry": {"type": "Point", "coordinates": [-71.1892257572, 44.446353747]}, "type": "Feature", "properties": {"collection_times": [{"days": "Mon-Sat", "time": "9:00am"}, {"days": "Sun", "time": "Closed"}], "id": "0358100001", "name": "USPS COLLECTION BOX - BLUE BOX", "address": {"city": "GORHAM", "state": "NH", "street": "72 CASCADE FLT", "postcode": "03581"}}},
{"geometry": {"type": "Point", "coordinates": [-71.1755190873, 44.3886763002]}, "type": "Feature", "properties": {"collection_times": [{"days": "Mon-Sat", "time": "3:00pm"}, {"days": "Sun", "time": "Closed"}], "id": "0358100003", "name": "USPS COLLECTION BOX - BLUE BOX", "address": {"city": "GORHAM", "state": "NH", "street": "123 MAIN ST", "postcode": "03581"}}},
{"geometry": {"type": "Point", "coordinates": [-71.1793077676, 44.3897009239]}, "type": "Feature", "properties": {"collection_times": [{"days": "Mon-Fri", "time": "4:45pm"}, {"days": "Sat", "time": "4:30pm"}, {"days": "Sun", "time": "Closed"}], "id": "0358100005", "name": "USPS COLLECTION BOX - BLUE BOX", "address": {"city": "GORHAM", "state": "NH", "street": "165 MAIN ST", "postcode": "03581"}}},
{"geometry": {"type": "Point", "coordinates": [-71.1793077676, 44.3897009239]}, "type": "Feature", "properties": {"collection_times": [{"days": "Mon-Sat", "time": "3:00pm"}, {"days": "Sun", "time": "Closed"}], "id": "0358100006", "name": "USPS COLLECTION BOX - BLUE BOX", "address": {"city": "GORHAM", "state": "NH", "street": "60 MAIN ST", "postcode": "03581"}}},
{"geometry": {"type": "Point", "coordinates": [-71.1793077676, 44.3897009239]}, "type": "Feature", "properties": {"collection_times": [{"days": "Mon-Fri", "time": "4:45pm"}, {"days": "Sat", "time": "4:30pm"}, {"days": "Sun", "time": "Closed"}], "id": "0358100008", "name": "USPS COLLECTION BOX - PO LOBBY", "address": {"city": "GORHAM", "state": "NH", "street": "165 MAIN ST", "postcode": "03581"}}},
{"geometry": {"type": "Point", "coordinates": [-71.4808989438, 44.6102273331]}, "type": "Feature", "properties": {"collection_times": [{"days": "Mon-Fri", "time": "5:00pm"}, {"days": "Sat", "time": "11:45am"}, {"days": "Sun", "time": "Closed"}], "id": "0358200002", "name": "USPS COLLECTION BOX - BLUE BOX", "address": {"city": "GROVETON", "state": "NH", "street": "59 CHURCH ST", "postcode": "03582"}}},
{"geometry": {"type": "Point", "coordinates": [-71.515007585, 44.5971305865]}, "type": "Feature", "properties": {"collection_times": [{"days": "Mon-Sat", "time": "9:00am"}, {"days": "Sun", "time": "Closed"}], "id": "0358200004", "name": "USPS COLLECTION BOX - BLUE BOX", "address": {"city": "GROVETON", "state": "NH", "street": "4 ODELL PARK", "postcode": "03582"}}},
{"geometry": {"type": "Point", "coordinates": [-71.5113701466, 44.5989512358]}, "type": "Feature", "properties": {"collection_times": [{"days": "Mon-Fri", "time": "2:00pm"}, {"days": "Sat", "time": "12:00pm"}, {"days": "Sun", "time": "Closed"}], "id": "0358200005", "name": "USPS COLLECTION BOX - BLUE BOX", "address": {"city": "GROVETON", "state": "NH", "street": "4 STATE ST", "postcode": "03582"}}},
{"geometry": {"type": "Point", "coordinates": [-71.516506432, 44.5957072301]}, "type": "Feature", "properties": {"collection_times": [{"days": "Mon-Sat", "time": "11:00am"}, {"days": "Sun", "time": "Closed"}], "id": "0358200006", "name": "USPS COLLECTION BOX - BLUE BOX", "address": {"city": "GROVETON", "state": "NH", "street": "19 WEST ST", "postcode": "03582"}}},
{"geometry": {"type": "Point", "coordinates": [-71.4808989438, 44.6102273331]}, "type": "Feature", "properties": {"collection_times": [{"days": "Mon-Fri", "time": "5:00pm"}, {"days": "Sat", "time": "11:45am"}, {"days": "Sun", "time": "Closed"}], "id": "0358200007", "name": "USPS COLLECTION BOX - PO LOBBY", "address": {"city": "GROVETON", "state": "NH", "street": "59 CHURCH ST", "postcode": "03582"}}},
{"geometry": {"type": "Point", "coordinates": [-71.4751070517, 44.3959707669]}, "type": "Feature", "properties": {"collection_times": [{"days": "Mon-Fri", "time": "4:30pm"}, {"days": "Sat", "time": "11:00am"}, {"days": "Sun", "time": "Closed"}], "id": "0358300001", "name": "USPS COLLECTION BOX - BLUE BOX", "address": {"city": "JEFFERSON", "state": "NH", "street": "736 PRESIDENTIAL HWY", "postcode": "03583"}}},
{"geometry": {"type": "Point", "coordinates": [-71.4751070517, 44.3959707669]}, "type": "Feature", "properties": {"collection_times": [{"days": "Mon-Fri", "time": "4:45pm"}, {"days": "Sat", "time": "11:45am"}, {"days": "Sun", "time": "Closed"}], "id": "0358300002", "name": "USPS COLLECTION BOX - PO LOBBY", "address": {"city": "JEFFERSON", "state": "NH", "street": "736 PRESIDENTIAL HWY", "postcode": "03583"}}},
{"geometry": {"type": "Point", "coordinates": [-71.5693281229, 44.4866963501]}, "type": "Feature", "properties": {"collection_times": [{"days": "Mon-Fri", "time": "5:00pm"}, {"days": "Sat", "time": "4:00pm"}, {"days": "Sun", "time": "Closed"}], "id": "0358400001", "name": "USPS COLLECTION BOX - BLUE BOX", "address": {"city": "LANCASTER", "state": "NH", "street": "120 MAIN ST", "postcode": "03584"}}},
{"geometry": {"type": "Point", "coordinates": [-71.5693281229, 44.4866963501]}, "type": "Feature", "properties": {"collection_times": [{"days": "Mon-Fri", "time": "5:00pm"}, {"days": "Sat", "time": "4:00pm"}, {"days": "Sun", "time": "Closed"}], "id": "0358400002", "name": "USPS COLLECTION BOX - BLUE BOX", "address": {"city": "LANCASTER", "state": "NH", "street": "120 MAIN ST", "postcode": "03584"}}},
{"geometry": {"type": "Point", "coordinates": [-71.5693432601, 44.4864010655]}, "type": "Feature", "properties": {"collection_times": [{"days": "Mon-Sat", "time": "3:45pm"}, {"days": "Sun", "time": "Closed"}], "id": "0358400003", "name": "USPS COLLECTION BOX - BLUE BOX", "address": {"city": "LANCASTER", "state": "NH", "street": "101 MAIN ST", "postcode": "03584"}}},
{"geometry": {"type": "Point", "coordinates": [-71.5574970462, 44.4868074512]}, "type": "Feature", "properties": {"collection_times": [{"days": "Mon-Sat", "time": "3:45pm"}, {"days": "Sun", "time": "Closed"}], "id": "0358400004", "name": "USPS COLLECTION BOX - BLUE BOX", "address": {"city": "LANCASTER", "state": "NH", "street": "86 MAIN ST", "postcode": "03584"}}},
{"geometry": {"type": "Point", "coordinates": [-71.5692912146, 44.4885384322]}, "type": "Feature", "properties": {"collection_times": [{"days": "Mon-Sat", "time": "3:45pm"}, {"days": "Sun", "time": "Closed"}], "id": "0358400005", "name": "USPS COLLECTION BOX - BLUE BOX", "address": {"city": "LANCASTER", "state": "NH", "street": "5 MIDDLE ST", "postcode": "03584"}}},
{"geometry": {"type": "Point", "coordinates": [-71.5678144153, 44.4853885849]}, "type": "Feature", "properties": {"collection_times": [{"days": "Mon-Sat", "time": "1:00pm"}, {"days": "Sun", "time": "Closed"}], "id": "0358400006", "name": "USPS COLLECTION BOX - BLUE BOX", "address": {"city": "LANCASTER", "state": "NH", "street": "2 PLEASANT ST", "postcode": "03584"}}},
{"geometry": {"type": "Point", "coordinates": [-71.5694261679, 44.4883227543]}, "type": "Feature", "properties": {"collection_times": [{"days": "Mon-Fri", "time": "12:30pm"}, {"days": "Sat", "time": "12:00pm"}, {"days": "Sun", "time": "Closed"}], "id": "0358400009", "name": "USPS COLLECTION BOX - BLUE BOX", "address": {"city": "LANCASTER", "state": "NH", "street": "210 MAIN ST", "postcode": "03584"}}},
{"geometry": {"type": "Point", "coordinates": [-71.5693281229, 44.4866963501]}, "type": "Feature", "properties": {"collection_times": [{"days": "Mon-Fri", "time": "5:00pm"}, {"days": "Sat", "time": "4:00pm"}, {"days": "Sun", "time": "Closed"}], "id": "0358400010", "name": "USPS COLLECTION BOX - PO LOBBY", "address": {"city": "LANCASTER", "state": "NH", "street": "120 MAIN ST", "postcode": "03584"}}},
{"geometry": {"type": "Point", "coordinates": [-71.9078555736, 44.2144552509]}, "type": "Feature", "properties": {"collection_times": [{"days": "Mon-Fri", "time": "5:00pm"}, {"days": "Sat", "time": "4:00pm"}, {"days": "Sun", "time": "Closed"}], "id": "0358500003", "name": "USPS COLLECTION BOX - BLUE BOX", "address": {"city": "SUGAR HILL", "state": "NH", "street": "80 N MAIN ST", "postcode": "03585"}}},
{"geometry": {"type": "Point", "coordinates": [-71.9078555736, 44.2144552509]}, "type": "Feature", "properties": {"collection_times": [{"days": "Mon-Fri", "time": "5:00pm"}, {"days": "Sat", "time": "4:00pm"}, {"days": "Sun", "time": "Closed"}], "id": "0358500005", "name": "USPS COLLECTION BOX - PO LOBBY", "address": {"city": "SUGAR HILL", "state": "NH", "street": "80 N MAIN ST", "postcode": "03585"}}},
{"geometry": {"type": "Point", "coordinates": [-71.8350724586, 44.2204696666]}, "type": "Feature", "properties": {"collection_times": [{"days": "Mon-Sat", "time": "12:00pm"}, {"days": "Sun", "time": "Closed"}], "id": "0358500006", "name": "USPS COLLECTION BOX - BLUE BOX", "address": {"city": "SUGAR HILL", "state": "NH", "street": "1410 ROUTE 117", "postcode": "03585"}}},
{"geometry": {"type": "Point", "coordinates": [-71.183385542, 44.5734174226]}, "type": "Feature", "properties": {"collection_times": [{"days": "Mon-Fri", "time": "3:45pm"}, {"days": "Sat", "time": "11:15am"}, {"days": "Sun", "time": "Closed"}], "id": "0358800001", "name": "USPS COLLECTION BOX - BLUE BOX", "address": {"city": "MILAN", "state": "NH", "street": "19 BRIDGE ST", "postcode": "03588"}}},
{"geometry": {"type": "Point", "coordinates": [-71.183385542, 44.5734174226]}, "type": "Feature", "properties": {"collection_times": [{"days": "Mon-Fri", "time": "3:45pm"}, {"days": "Sat", "time": "11:15am"}, {"days": "Sun", "time": "Closed"}], "id": "0358800002", "name": "USPS COLLECTION BOX - PO LOBBY", "address": {"city": "MILAN", "state": "NH", "street": "19 BRIDGE ST", "postcode": "03588"}}},
{"geometry": {"type": "Point", "coordinates": [-71.5112986118, 44.5941174284]}, "type": "Feature", "properties": {"collection_times": [{"days": "Mon-Fri", "time": "4:45pm"}, {"days": "Sat", "time": "2:30pm"}, {"days": "Sun", "time": "Closed"}], "id": "0359000001", "name": "USPS COLLECTION BOX - BLUE BOX", "address": {"city": "NORTH STRATFORD", "state": "NH", "street": "79 MAIN ST UNIT 1", "postcode": "03590"}}},
{"geometry": {"type": "Point", "coordinates": [-71.5112986118, 44.5941174284]}, "type": "Feature", "properties": {"collection_times": [{"days": "Mon-Fri", "time": "4:45pm"}, {"days": "Sat", "time": "11:00am"}, {"days": "Sun", "time": "Closed"}], "id": "0359000002", "name": "USPS COLLECTION BOX - PO LOBBY", "address": {"city": "NORTH STRATFORD", "state": "NH", "street": "79 MAIN ST UNIT 1", "postcode": "03590"}}},
{"geometry": {"type": "Point", "coordinates": [-71.2548810034, 45.1128928351]}, "type": "Feature", "properties": {"collection_times": [{"days": "Mon-Fri", "time": "4:15pm"}, {"days": "Sat", "time": "11:45am"}, {"days": "Sun", "time": "Closed"}], "id": "0359200001", "name": "USPS COLLECTION BOX - BLUE BOX", "address": {"city": "PITTSBURG", "state": "NH", "street": "1551 MAIN ST", "postcode": "03592"}}},
{"geometry": {"type": "Point", "coordinates": [-71.2548810034, 45.1128928351]}, "type": "Feature", "properties": {"collection_times": [{"days": "Mon-Fri", "time": "4:15pm"}, {"days": "Sat", "time": "11:45am"}, {"days": "Sun", "time": "Closed"}], "id": "0359200002", "name": "USPS COLLECTION BOX - PO LOBBY", "address": {"city": "PITTSBURG", "state": "NH", "street": "1551 MAIN ST", "postcode": "03592"}}},
{"geometry": {"type": "Point", "coordinates": [-71.5396361564, 44.2720267996]}, "type": "Feature", "properties": {"collection_times": [{"days": "Mon-Fri", "time": "4:30pm"}, {"days": "Sat", "time": "11:50am"}, {"days": "Sun", "time": "Closed"}], "id": "0359500001", "name": "USPS COLLECTION BOX - BLUE BOX", "address": {"city": "TWIN MOUNTAIN", "state": "NH", "street": "120 US HIGHWAY 3 N", "postcode": "03595"}}},
{"geometry": {"type": "Point", "coordinates": [-71.5396361564, 44.2720267996]}, "type": "Feature", "properties": {"collection_times": [{"days": "Mon-Fri", "time": "4:30pm"}, {"days": "Sat", "time": "11:50am"}, {"days": "Sun", "time": "Closed"}], "id": "0359500002", "name": "USPS COLLECTION BOX - PO LOBBY", "address": {"city": "TWIN MOUNTAIN", "state": "NH", "street": "120 US HIGHWAY 3 N", "postcode": "03595"}}},
{"geometry": {"type": "Point", "coordinates": [-71.5326885177, 44.9950316144]}, "type": "Feature", "properties": {"collection_times": [{"days": "Mon-Fri", "time": "3:45pm"}, {"days": "Sat", "time": "12:00pm"}, {"days": "Sun", "time": "Closed"}], "id": "0359700001", "name": "USPS COLLECTION BOX - BLUE BOX", "address": {"city": "W STEWARTSTWN", "state": "NH", "street": "20 MAIN ST", "postcode": "03597"}}},
{"geometry": {"type": "Point", "coordinates": [-71.5326885177, 44.9950316144]}, "type": "Feature", "properties": {"collection_times": [{"days": "Mon-Fri", "time": "3:45pm"}, {"days": "Sat", "time": "12:00pm"}, {"days": "Sun", "time": "Closed"}], "id": "0359700002", "name": "USPS COLLECTION BOX - PO LOBBY", "address": {"city": "W STEWARTSTWN", "state": "NH", "street": "20 MAIN ST", "postcode": "03597"}}},
{"geometry": {"type": "Point", "coordinates": [-71.610565246, 44.3716900259]}, "type": "Feature", "properties": {"collection_times": [{"days": "Mon-Sat", "time": "1:30pm"}, {"days": "Sun", "time": "Closed"}], "id": "0359800003", "name": "USPS COLLECTION BOX - BLUE BOX", "address": {"city": "DALTON", "state": "NH", "street": "20 UNION ST", "postcode": "03598"}}},
{"geometry": {"type": "Point", "coordinates": [-71.6124187454, 44.3735094464]}, "type": "Feature", "properties": {"collection_times": [{"days": "Mon-Sat", "time": "9:45am"}, {"days": "Sun", "time": "Closed"}], "id": "0359800004", "name": "USPS COLLECTION BOX - BLUE BOX", "address": {"city": "DALTON", "state": "NH", "street": "28 KING SQ", "postcode": "03598"}}},
{"geometry": {"type": "Point", "coordinates": [-71.6233760193, 44.37514081]}, "type": "Feature", "properties": {"collection_times": [{"days": "Mon-Fri", "time": "5:00pm"}, {"days": "Sat", "time": "4:00pm"}, {"days": "Sun", "time": "Closed"}], "id": "0359800006", "name": "USPS COLLECTION BOX - BLUE BOX", "address": {"city": "DALTON", "state": "NH", "street": "26 JEFFERSON RD", "postcode": "03598"}}},
{"geometry": {"type": "Point", "coordinates": [-71.6089110456, 44.3740566036]}, "type": "Feature", "properties": {"collection_times": [{"days": "Mon-Sat", "time": "9:00am"}, {"days": "Sun", "time": "Closed"}], "id": "0359800009", "name": "USPS COLLECTION BOX - BLUE BOX", "address": {"city": "DALTON", "state": "NH", "street": "34 MAPLE ST", "postcode": "03598"}}},
{"geometry": {"type": "Point", "coordinates": [-71.61953923, 44.3761926465]}, "type": "Feature", "properties": {"collection_times": [{"days": "Mon-Sat", "time": "11:00am"}, {"days": "Sun", "time": "Closed"}], "id": "0359800010", "name": "USPS COLLECTION BOX - BLUE BOX", "address": {"city": "DALTON", "state": "NH", "street": "48 BROWN ST", "postcode": "03598"}}},
{"geometry": {"type": "Point", "coordinates": [-71.6233760193, 44.37514081]}, "type": "Feature", "properties": {"collection_times": [{"days": "Mon-Sat", "time": "12:00pm"}, {"days": "Sun", "time": "Closed"}], "id": "0359800011", "name": "USPS COLLECTION BOX - BLUE BOX", "address": {"city": "DALTON", "state": "NH", "street": "6 LITTLETON RD", "postcode": "03598"}}},
{"geometry": {"type": "Point", "coordinates": [-71.6233760193, 44.37514081]}, "type": "Feature", "properties": {"collection_times": [{"days": "Mon-Fri", "time": "5:00pm"}, {"days": "Sat", "time": "4:00pm"}, {"days": "Sun", "time": "Closed"}], "id": "0359800012", "name": "USPS COLLECTION BOX - PO LOBBY", "address": {"city": "DALTON", "state": "NH", "street": "26 JEFFERSON RD", "postcode": "03598"}}}
]}
