{"type": "FeatureCollection", "features": [
{"geometry": {"type": "Point", "coordinates": [-72.2925882777, 43.2185360246]}, "type": "Feature", "properties": {"collection_times": [{"days": "Mon-Fri", "time": "4:45pm"}, {"days": "Sat", "time": "11:45am"}, {"days": "Sun", "time": "Closed"}], "id": "0360100000", "name": "USPS COLLECTION BOX - BLUE BOX", "address": {"city": "ACWORTH", "state": "NH", "street": "123 HILL RD", "postcode": "03601"}}},
{"geometry": {"type": "Point", "coordinates": [-72.2925882777, 43.2185360246]}, "type": "Feature", "properties": {"collection_times": [{"days": "Mon-Fri", "time": "4:45pm"}, {"days": "Sat", "time": "11:45am"}, {"days": "Sun", "time": "Closed"}], "id": "0360100001", "name": "USPS COLLECTION BOX - PO LOBBY", "address": {"city": "ACWORTH", "state": "NH", "street": "123 HILL RD", "postcode": "03601"}}},
{"geometry": {"type": "Point", "coordinates": [-72.3701120159, 43.1547716711]}, "type": "Feature", "properties": {"collection_times": [{"days": "Mon-Fri", "time": "4:30pm"}, {"days": "Sat", "time": "11:45am"}, {"days": "Sun", "time": "Closed"}], "id": "0360200001", "name": "USPS COLLECTION BOX - BLUE BOX", "address": {"city": "ALSTEAD", "state": "NH", "street": "42 HIGH ST", "postcode": "03602"}}},
{"geometry": {"type": "Point", "coordinates": [-72.3701120159, 43.1547716711]}, "type": "Feature", "properties": {"collection_times": [{"days": "Mon-Fri", "time": "4:45pm"}, {"days": "Sat", "time": "11:45am"}, {"days": "Sun", "time": "Closed"}], "id": "0360200002", "name": "USPS COLLECTION BOX - PO LOBBY", "address": {"city": "ALSTEAD", "state": "NH", "street": "42 HIGH ST", "postcode": "03602"}}},
{"geometry": {"type": "Point", "coordinates": [-72.426288777, 43.23577371]}, "type": "Feature", "properties": {"collection_times": [{"days": "Mon-Fri", "time": "5:00pm"}, {"days": "Sat", "time": "11:45am"}, {"days": "Sun", "time": "Closed"}], "id": "0360300002", "name": "USPS COLLECTION BOX - BLUE BOX", "address": {"city": "CHARLESTOWN", "state": "NH", "street": "26 CHURCH ST", "postcode": "03603"}}},
{"geometry": {"type": "Point", "coordinates": [-72.426288777, 43.23577371]}, "type": "Feature", "properties": {"collection_times": [{"days": "Mon-Fri", "time": "5:00pm"}, {"days": "Sat", "time": "11:45am"}, {"days": "Sun", "time": "Closed"}], "id": "0360300003", "name": "USPS COLLECTION BOX - PO LOBBY", "address": {"city": "CHARLESTOWN", "state": "NH", "street": "26 CHURCH ST", "postcode": "03603"}}},
{"geometry": {"type": "Point", "coordinates": [-72.1932973559, 43.238300536]}, "type": "Feature", "properties": {"collection_times": [{"days": "Mon-Fri", "time": "4:00pm"}, {"days": "Sat", "time": "11:45am"}, {"days": "Sun", "time": "Closed"}], "id": "0360500000", "name": "USPS COLLECTION BOX - BLUE BOX", "address": {"city": "LEMPSTER", "state": "NH", "street": "767 US ROUTE 10", "postcode": "03605"}}},
{"geometry": {"type": "Point", "coordinates": [-72.1932973559, 43.238300536]}, "type": "Feature", "properties": {"collection_times": [{"days": "Mon-Fri", "time": "4:00pm"}, {"days": "Sat", "time": "11:45am"}, {"days": "Sun", "time": "Closed"}], "id": "0360500001", "name": "USPS COLLECTION BOX - PO LOBBY", "address": {"city": "LEMPSTER", "state": "NH", "street": "767 US ROUTE 10", "postcode": "03605"}}},
{"geometry": {"type": "Point", "coordinates": [-72.407775581, 43.0662704948]}, "type": "Feature", "properties": {"collection_times": [{"days": "Mon-Sat", "time": "11:00am"}, {"days": "Sun", "time": "Closed"}], "id": "0360800001", "name": "USPS COLLECTION BOX - BLUE BOX", "address": {"city": "WALPOLE", "state": "NH", "street": "32 AMES PLAZA LN", "postcode": "03608"}}},
{"geometry": {"type": "Point", "coordinates": [-72.42914044, 43.0978775819]}, "type": "Feature", "properties": {"collection_times": [{"days": "Mon-Fri", "time": "4:15pm"}, {"days": "Sat", "time": "11:30am"}, {"days": "Sun", "time": "Closed"}], "id": "0360800003", "name": "USPS COLLECTION BOX - BLUE BOX", "address": {"city": "WALPOLE", "state": "NH", "street": "47 MAIN ST UNIT 1", "postcode": "03608"}}},
{"geometry": {"type": "Point", "coordinates": [-72.42914044, 43.0978775819]}, "type": "Feature", "properties": {"collection_times": [{"days": "Mon-Fri", "time": "4:30pm"}, {"days": "Sat", "time": "11:30am"}, {"days": "Sun", "time": "Closed"}], "id": "0360800005", "name": "USPS COLLECTION BOX - PO LOBBY", "address": {"city": "WALPOLE", "state": "NH", "street": "47 MAIN ST UNIT 1", "postcode": "03608"}}}
]}
