{"type": "FeatureCollection", "features": [
{"geometry": {"type": "Point", "coordinates": [-71.9884351469, 44.1805637644]}, "type": "Feature", "properties": {"collection_times": [{"days": "Mon-Fri", "time": "4:45pm"}, {"days": "Sat", "time": "11:45am"}, {"days": "Sun", "time": "Closed"}], "id": "0374000001", "name": "USPS COLLECTION BOX - BLUE BOX", "address": {"city": "BATH", "state": "NH", "street": "4 W BATH RD UNIT 2", "postcode": "03740"}}},
{"geometry": {"type": "Point", "coordinates": [-71.9884351469, 44.1805637644]}, "type": "Feature", "properties": {"collection_times": [{"days": "Mon-Fri", "time": "4:45pm"}, {"days": "Sat", "time": "11:45am"}, {"days": "Sun", "time": "Closed"}], "id": "0374000002", "name": "USPS COLLECTION BOX - PO LOBBY", "address": {"city": "BATH", "state": "NH", "street": "4 W BATH RD UNIT 2", "postcode": "03740"}}},
{"geometry": {"type": "Point", "coordinates": [-72.0092481055, 43.6462247452]}, "type": "Feature", "properties": {"collection_times": [{"days": "Mon-Fri", "time": "4:45pm"}, {"days": "Sat", "time": "11:30am"}, {"days": "Sun", "time": "Closed"}], "id": "0374100001", "name": "USPS COLLECTION BOX - BLUE BOX", "address": {"city": "CANAAN", "state": "NH", "street": "1205 US ROUTE 4", "postcode": "03741"}}},
{"geometry": {"type": "Point", "coordinates": [-72.0092481055, 43.6462247452]}, "type": "Feature", "properties": {"collection_times": [{"days": "Mon-Fri", "time": "5:00pm"}, {"days": "Sat", "time": "11:30am"}, {"days": "Sun", "time": "Closed"}], "id": "0374100002", "name": "USPS COLLECTION BOX - PO LOBBY", "address": {"city": "CANAAN", "state": "NH", "street": "1205 US ROUTE 4", "postcode": "03741"}}},
{"geometry": {"type": "Point", "coordinates": [-72.3436693064, 43.3711533784]}, "type": "Feature", "properties": {"collection_times": [{"days": "Mon-Fri", "time": "5:15pm"}, {"days": "Sat", "time": "12:00pm"}, {"days": "Sun", "time": "Closed"}], "id": "0374300002", "name": "USPS COLLECTION BOX - EXPRESS", "address": {"city": "CLAREMONT", "state": "NH", "street": "140 BROAD ST", "postcode": "03743"}}},
{"geometry": {"type": "Point", "coordinates": [-72.3365400603, 43.3710870162]}, "type": "Feature", "properties": {"collection_times": [{"days": "Mon-Fri", "time": "5:15pm"}, {"days": "Sat", "time": "3:30pm"}, {"days": "Sun", "time": "Closed"}], "id": "0374300003", "name": "USPS COLLECTION BOX - BLUE BOX", "address": {"city": "CLAREMONT", "state": "NH", "street": "140 BROAD ST", "postcode": "03743"}}},
{"geometry": {"type": "Point", "coordinates": [-72.3365400603, 43.3710870162]}, "type": "Feature", "properties": {"collection_times": [{"days": "Mon-Fri", "time": "5:15pm"}, {"days": "Sat", "time": "3:30pm"}, {"days": "Sun", "time": "Closed"}], "id": "0374300006", "name": "USPS COLLECTION BOX - BLUE BOX", "address": {"city": "CLAREMONT", "state": "NH", "street": "140 BROAD ST", "postcode": "03743"}}},
{"geometry": {"type": "Point", "coordinates": [-72.33749642, 43.372352772]}, "type": "Feature", "properties": {"collection_times": [{"days": "Mon-Fri", "time": "4:30pm"}, {"days": "Sat", "time": "10:00am"}, {"days": "Sun", "time": "Closed"}], "id": "0374300009", "name": "USPS COLLECTION BOX - BLUE BOX", "address": {"city": "CLAREMONT", "state": "NH", "street": "1 POLICE CT", "postcode": "03743"}}},
{"geometry": {"type": "Point", "coordinates": [-72.3597863509, 43.3647516411]}, "type": "Feature", "properties": {"collection_times": [{"days": "Mon-Sat", "time": "1:00pm"}, {"days": "Sun", "time": "Closed"}], "id": "0374300016", "name": "USPS COLLECTION BOX - BLUE BOX", "address": {"city": "CLAREMONT", "state": "NH", "street": "127 MAPLE AVE", "postcode": "03743"}}},
{"geometry": {"type": "Point", "coordinates": [-72.3506987472, 43.3774535144]}, "type": "Feature", "properties": {"collection_times": [{"days": "Mon-Sat", "time": "1:00pm"}, {"days": "Sun", "time": "Closed"}], "id": "0374300018", "name": "USPS COLLECTION BOX - BLUE BOX", "address": {"city": "CLAREMONT", "state": "NH", "street": "247 MAIN ST", "postcode": "03743"}}},
{"geometry": {"type": "Point", "coordinates": [-72.3256350783, 43.3697041483]}, "type": "Feature", "properties": {"collection_times": [{"days": "Mon-Sat", "time": "9:00am"}, {"days": "Sun", "time": "Closed"}], "id": "0374300023", "name": "USPS COLLECTION BOX - BLUE BOX", "address": {"city": "CLAREMONT", "state": "NH", "street": "220 WASHINGTON ST", "postcode": "03743"}}},
{"geometry": {"type": "Point", "coordinates": [-72.3420914968, 43.38567401]}, "type": "Feature", "properties": {"collection_times": [{"days": "Mon-Fri", "time": "4:45pm"}, {"days": "Sat", "time": "10:00am"}, {"days": "Sun", "time": "Closed"}], "id": "0374300025", "name": "USPS COLLECTION BOX - BLUE BOX", "address": {"city": "CLAREMONT", "state": "NH", "street": "243 ELM ST", "postcode": "03743"}}},
{"geometry": {"type": "Point", "coordinates": [-72.3371169798, 43.3734941646]}, "type": "Feature", "properties": {"collection_times": [{"days": "Mon-Fri", "time": "4:45pm"}, {"days": "Sat-Sun", "time": "Closed"}], "id": "0374300027", "name": "USPS COLLECTION BOX - BLUE BOX", "address": {"city": "CLAREMONT", "state": "NH", "street": "17 WATER ST", "postcode": "03743"}}},
{"geometry": {"type": "Point", "coordinates": [-72.3335749328, 43.3762363862]}, "type": "Feature", "properties": {"collection_times": [{"days": "Mon-Sat", "time": "11:00am"}, {"days": "Sun", "time": "Closed"}], "id": "0374300028", "name": "USPS COLLECTION BOX - BLUE BOX", "address": {"city": "CLAREMONT", "state": "NH", "street": "2 WINTER ST", "postcode": "03743"}}},
{"geometry": {"type": "Point", "coordinates": [-72.3198932305, 43.3652343426]}, "type": "Feature", "properties": {"collection_times": [{"days": "Mon-Sat", "time": "9:00am"}, {"days": "Sun", "time": "Closed"}], "id": "0374300029", "name": "USPS COLLECTION BOX - BLUE BOX", "address": {"city": "CLAREMONT", "state": "NH", "street": "345 WASHINGTON ST STE 8", "postcode": "03743"}}},
{"geometry": {"type": "Point", "coordinates": [-72.3365400603, 43.3710870162]}, "type": "Feature", "properties": {"collection_times": [{"days": "Mon-Fri", "time": "5:15pm"}, {"days": "Sat", "time": "3:30pm"}, {"days": "Sun", "time": "Closed"}], "id": "0374300031", "name": "USPS COLLECTION BOX - PO LOBBY", "address": {"city": "CLAREMONT", "state": "NH", "street": "140 BROAD ST", "postcode": "03743"}}},
{"geometry": {"type": "Point", "coordinates": [-72.3441669232, 43.3796181975]}, "type": "Feature", "properties": {"collection_times": [{"days": "Mon-Sat", "time": "1:00pm"}, {"days": "Sun", "time": "Closed"}], "id": "0374300032", "name": "USPS COLLECTION BOX - BLUE BOX", "address": {"city": "CLAREMONT", "state": "NH", "street": "102 ELM ST", "postcode": "03743"}}},
{"geometry": {"type": "Point", "coordinates": [-72.3436693062, 43.3711403892]}, "type": "Feature", "properties": {"collection_times": [{"days": "Mon-Sat", "time": "1:00pm"}, {"days": "Sun", "time": "Closed"}], "id": "0374300033", "name": "USPS COLLECTION BOX - BLUE BOX", "address": {"city": "CLAREMONT", "state": "NH", "street": "98 CHARLESTOWN RD", "postcode": "03743"}}},
{"geometry": {"type": "Point", "coordinates": [-72.3291686987, 43.3756083722]}, "type": "Feature", "properties": {"collection_times": [{"days": "Mon-Sat", "time": "10:00am"}, {"days": "Sun", "time": "Closed"}], "id": "0374300035", "name": "USPS COLLECTION BOX - BLUE BOX", "address": {"city": "CLAREMONT", "state": "NH", "street": "14 BOWEN ST", "postcode": "03743"}}},
{"geometry": {"type": "Point", "coordinates": [-72.3365400603, 43.3710870162]}, "type": "Feature", "properties": {"collection_times": [{"days": "Mon-Fri", "time": "5:15pm"}, {"days": "Sat", "time": "3:30pm"}, {"days": "Sun", "time": "Closed"}], "id": "0374300036", "name": "USPS COLLECTION BOX - BLUE BOX", "address": {"city": "CLAREMONT", "state": "NH", "street": "140 BROAD ST", "postcode": "03743"}}},
{"geometry": {"type": "Point", "coordinates": [-72.2805357584, 43.4968024524]}, "type": "Feature", "properties": {"collection_times": [{"days": "Mon-Fri", "time": "4:45pm"}, {"days": "Sat", "time": "12:00pm"}, {"days": "Sun", "time": "Closed"}], "id": "0374600001", "name": "USPS COLLECTION BOX - BLUE BOX", "address": {"city": "CORNISH FLAT", "state": "NH", "street": "241 NH ROUTE 120", "postcode": "03746"}}},
{"geometry": {"type": "Point", "coordinates": [-72.2805357584, 43.4968024524]}, "type": "Feature", "properties": {"collection_times": [{"days": "Mon-Fri", "time": "4:45pm"}, {"days": "Sat", "time": "12:00pm"}, {"days": "Sun", "time": "Closed"}], "id": "0374600002", "name": "USPS COLLECTION BOX - PO LOBBY", "address": {"city": "CORNISH FLAT", "state": "NH", "street": "241 NH ROUTE 120", "postcode": "03746"}}},
{"geometry": {"type": "Point", "coordinates": [-72.1437876095, 43.6456547009]}, "type": "Feature", "properties": {"collection_times": [{"days": "Mon-Fri", "time": "5:00pm"}, {"days": "Sat", "time": "12:00pm"}, {"days": "Sun", "time": "Closed"}], "id": "0374800002", "name": "USPS COLLECTION BOX - BLUE BOX", "address": {"city": "ENFIELD", "state": "NH", "street": "17 MAPLE ST", "postcode": "03748"}}},
{"geometry": {"type": "Point", "coordinates": [-72.1437876095, 43.6456547009]}, "type": "Feature", "properties": {"collection_times": [{"days": "Mon-Fri", "time": "5:00pm"}, {"days": "Sat", "time": "12:00pm"}, {"days": "Sun", "time": "Closed"}], "id": "0374800003", "name": "USPS COLLECTION BOX - PO LOBBY", "address": {"city": "ENFIELD", "state": "NH", "street": "17 MAPLE ST", "postcode": "03748"}}},
{"geometry": {"type": "Point", "coordinates": [-71.5775936257, 43.6855232857]}, "type": "Feature", "properties": {"collection_times": [{"days": "Mon-Fri", "time": "4:00pm"}, {"days": "Sat", "time": "11:30am"}, {"days": "Sun", "time": "Closed"}], "id": "0374900001", "name": "USPS COLLECTION BOX - BLUE BOX", "address": {"city": "ENFIELD CENTER", "state": "NH", "street": "1089 NH ROUTE 4A", "postcode": "03749"}}},
{"geometry": {"type": "Point", "coordinates": [-71.5775936257, 43.6855232857]}, "type": "Feature", "properties": {"collection_times": [{"days": "Mon-Fri", "time": "4:00pm"}, {"days": "Sat", "time": "11:30am"}, {"days": "Sun", "time": "Closed"}], "id": "0374900002", "name": "USPS COLLECTION BOX - PO LOBBY", "address": {"city": "ENFIELD CENTER", "state": "NH", "street": "1089 NH ROUTE 4A", "postcode": "03749"}}},
{"geometry": {"type": "Point", "coordinates": [-72.2198313627, 43.6933396349]}, "type": "Feature", "properties": {"collection_times": [{"days": "Mon-Fri", "time": "4:15pm"}, {"days": "Sat", "time": "11:30am"}, {"days": "Sun", "time": "Closed"}], "id": "0375000001", "name": "USPS COLLECTION BOX - BLUE BOX", "address": {"city": "ETNA", "state": "NH", "street": "3 SCHOOL HOUSE LN", "postcode": "03750"}}},
{"geometry": {"type": "Point", "coordinates": [-72.2198313627, 43.6933396349]}, "type": "Feature", "properties": {"collection_times": [{"days": "Mon-Fri", "time": "4:15pm"}, {"days": "Sat", "time": "11:30am"}, {"days": "Sun", "time": "Closed"}], "id": "0375000002", "name": "USPS COLLECTION BOX - PO LOBBY", "address": {"city": "ETNA", "state": "NH", "street": "3 SCHOOL HOUSE LN", "postcode": "03750"}}},
{"geometry": {"type": "Point", "coordinates": [-71.5775936257, 43.6855232857]}, "type": "Feature", "properties": {"collection_times": [{"days": "Mon-Fri", "time": "4:30pm"}, {"days": "Sat", "time": "11:45am"}, {"days": "Sun", "time": "Closed"}], "id": "0375100001", "name": "USPS COLLECTION BOX - BLUE BOX", "address": {"city": "GEORGES MILLS", "state": "NH", "street": "1294 ROUTE 11", "postcode": "03751"}}},
{"geometry": {"type": "Point", "coordinates": [-71.5775936257, 43.6855232857]}, "type": "Feature", "properties": {"collection_times": [{"days": "Mon-Fri", "time": "4:30pm"}, {"days": "Sat", "time": "11:45am"}, {"days": "Sun", "time": "Closed"}], "id": "0375100002", "name": "USPS COLLECTION BOX - PO LOBBY", "address": {"city": "GEORGES MILLS", "state": "NH", "street": "1294 ROUTE 11", "postcode": "03751"}}},
{"geometry": {"type": "Point", "coordinates": [-72.1489970099, 43.3017121022]}, "type": "Feature", "properties": {"collection_times": [{"days": "Mon-Fri", "time": "4:15pm"}, {"days": "Sat", "time": "11:30am"}, {"days": "Sun", "time": "Closed"}], "id": "0375200001", "name": "USPS COLLECTION BOX - BLUE BOX", "address": {"city": "GOSHEN", "state": "NH", "street": "25 MILL VILLAGE RD N", "postcode": "03752"}}},
{"geometry": {"type": "Point", "coordinates": [-72.1489970099, 43.3017121022]}, "type": "Feature", "properties": {"collection_times": [{"days": "Mon-Fri", "time": "4:30pm"}, {"days": "Sat", "time": "11:45am"}, {"days": "Sun", "time": "Closed"}], "id": "0375200002", "name": "USPS COLLECTION BOX - PO LOBBY", "address": {"city": "GOSHEN", "state": "NH", "street": "25 MILL VILLAGE RD N", "postcode": "03752"}}},
{"geometry": {"type": "Point", "coordinates": [-72.136627867, 43.4921262477]}, "type": "Feature", "properties": {"collection_times": [{"days": "Mon-Fri", "time": "4:30pm"}, {"days": "Sat", "time": "12:00pm"}, {"days": "Sun", "time": "Closed"}], "id": "0375300001", "name": "USPS COLLECTION BOX - BLUE BOX", "address": {"city": "GRANTHAM", "state": "NH", "street": "10 WILLIS AVE", "postcode": "03753"}}},
{"geometry": {"type": "Point", "coordinates": [-72.136627867, 43.4921262477]}, "type": "Feature", "properties": {"collection_times": [{"days": "Mon-Fri", "time": "4:30pm"}, {"days": "Sat", "time": "12:00pm"}, {"days": "Sun", "time": "Closed"}], "id": "0375300002", "name": "USPS COLLECTION BOX - PO LOBBY", "address": {"city": "GRANTHAM", "state": "NH", "street": "10 WILLIS AVE", "postcode": "03753"}}},
{"geometry": {"type": "Point", "coordinates": [-71.5775936257, 43.6855232857]}, "type": "Feature", "properties": {"collection_times": [{"days": "Mon-Fri", "time": "4:30pm"}, {"days": "Sat", "time": "11:45am"}, {"days": "Sun", "time": "Closed"}], "id": "0375400001", "name": "USPS COLLECTION BOX - BLUE BOX", "address": {"city": "GUILD", "state": "NH", "street": "16 HALE ST", "postcode": "03754"}}},
{"geometry": {"type": "Point", "coordinates": [-71.5775936257, 43.6855232857]}, "type": "Feature", "properties": {"collection_times": [{"days": "Mon-Fri", "time": "4:30pm"}, {"days": "Sat", "time": "11:45am"}, {"days": "Sun", "time": "Closed"}], "id": "0375400003", "name": "USPS COLLECTION BOX - PO LOBBY", "address": {"city": "GUILD", "state": "NH", "street": "16 HALE ST", "postcode": "03754"}}},
{"geometry": {"type": "Point", "coordinates": [-72.2893769956, 43.7007823329]}, "type": "Feature", "properties": {"collection_times": [{"days": "Mon-Fri", "time": "5:00pm"}, {"days": "Sat", "time": "12:00pm"}, {"days": "Sun", "time": "Closed"}], "id": "0375500009", "name": "USPS COLLECTION BOX - BLUE BOX", "address": {"city": "HANOVER", "state": "NH", "street": "1 LEBANON ST", "postcode": "03755"}}},
{"geometry": {"type": "Point", "coordinates": [-72.2893769956, 43.7007823329]}, "type": "Feature", "properties": {"collection_times": [{"days": "Mon-Fri", "time": "5:00pm"}, {"days": "Sat", "time": "12:00pm"}, {"days": "Sun", "time": "Closed"}], "id": "0375500010", "name": "USPS COLLECTION BOX - BLUE BOX", "address": {"city": "HANOVER", "state": "NH", "street": "1 LEBANON ST", "postcode": "03755"}}},
{"geometry": {"type": "Point", "coordinates": [-72.2894662422, 43.7004799752]}, "type": "Feature", "properties": {"collection_times": [{"days": "Mon-Fri", "time": "5:00pm"}, {"days": "Sat", "time": "12:00pm"}, {"days": "Sun", "time": "Closed"}], "id": "0375500012", "name": "USPS COLLECTION BOX - PO LOBBY", "address": {"city": "HANOVER", "state": "NH", "street": "50 S MAIN ST", "postcode": "03755"}}},
{"geometry": {"type": "Point", "coordinates": [-72.2894662422, 43.7004799752]}, "type": "Feature", "properties": {"collection_times": [{"days": "Mon-Fri", "time": "5:00pm"}, {"days": "Sat", "time": "12:00pm"}, {"days": "Sun", "time": "Closed"}], "id": "0375500014", "name": "USPS COLLECTION BOX - BLUE BOX", "address": {"city": "HANOVER", "state": "NH", "street": "50 S MAIN ST", "postcode": "03755"}}},
{"geometry": {"type": "Point", "coordinates": [-72.1435607169, 43.7313115434]}, "type": "Feature", "properties": {"collection_times": [{"days": "Mon-Fri", "time": "4:00pm"}, {"days": "Sat", "time": "10:30am"}, {"days": "Sun", "time": "Closed"}], "id": "0375500018", "name": "USPS COLLECTION BOX - BLUE BOX", "address": {"city": "HANOVER", "state": "NH", "street": "8000 CUMMINGS HALL", "postcode": "03755"}}},
{"geometry": {"type": "Point", "coordinates": [-72.2874950084, 43.7009953281]}, "type": "Feature", "properties": {"collection_times": [{"days": "Mon-Fri", "time": "4:00pm"}, {"days": "Sat", "time": "10:00am"}, {"days": "Sun", "time": "Closed"}], "id": "0375500019", "name": "USPS COLLECTION BOX - BLUE BOX", "address": {"city": "HANOVER", "state": "NH", "street": "10 LEBANON ST", "postcode": "03755"}}},
{"geometry": {"type": "Point", "coordinates": [-72.273269168, 43.7191245914]}, "type": "Feature", "properties": {"collection_times": [{"days": "Mon-Fri", "time": "4:30pm"}, {"days": "Sat", "time": "10:00am"}, {"days": "Sun", "time": "Closed"}], "id": "0375500020", "name": "USPS COLLECTION BOX - BLUE BOX", "address": {"city": "HANOVER", "state": "NH", "street": "45 LYME RD", "postcode": "03755"}}},
{"geometry": {"type": "Point", "coordinates": [-72.2650377414, 43.7084301315]}, "type": "Feature", "properties": {"collection_times": [{"days": "Mon-Fri", "time": "4:45pm"}, {"days": "Sat", "time": "11:00am"}, {"days": "Sun", "time": "Closed"}], "id": "0375500021", "name": "USPS COLLECTION BOX - BLUE BOX", "address": {"city": "HANOVER", "state": "NH", "street": "26 N MAIN ST", "postcode": "03755"}}},
{"geometry": {"type": "Point", "coordinates": [-72.2878846261, 43.7085264621]}, "type": "Feature", "properties": {"collection_times": [{"days": "Mon-Fri", "time": "4:45pm"}, {"days": "Sat", "time": "12:00pm"}, {"days": "Sun", "time": "Closed"}], "id": "0375500024", "name": "USPS COLLECTION BOX - BLUE BOX", "address": {"city": "HANOVER", "state": "NH", "street": "1 ROPE FERRY RD", "postcode": "03755"}}},
{"geometry": {"type": "Point", "coordinates": [-71.5775936257, 43.6855232857]}, "type": "Feature", "properties": {"collection_times": [{"days": "Mon-Fri", "time": "4:45pm"}, {"days": "Sat-Sun", "time": "Closed"}], "id": "0375500026", "name": "USPS COLLECTION BOX - BLUE BOX", "address": {"city": "HANOVER", "state": "NH", "street": "6 WEBSTER AVE", "postcode": "03755"}}},
{"geometry": {"type": "Point", "coordinates": [-72.2901286992, 43.7024105642]}, "type": "Feature", "properties": {"collection_times": [{"days": "Mon-Fri", "time": "4:45pm"}, {"days": "Sat", "time": "11:00am"}, {"days": "Sun", "time": "Closed"}], "id": "0375500027", "name": "USPS COLLECTION BOX - BLUE BOX", "address": {"city": "HANOVER", "state": "NH", "street": "2 E WHEELOCK ST", "postcode": "03755"}}},
{"geometry": {"type": "Point", "coordinates": [-72.2809028022, 43.697889295]}, "type": "Feature", "properties": {"collection_times": [{"days": "Mon-Fri", "time": "4:45pm"}, {"days": "Sat", "time": "10:00am"}, {"days": "Sun", "time": "Closed"}], "id": "0375500028", "name": "USPS COLLECTION BOX - BLUE BOX", "address": {"city": "HANOVER", "state": "NH", "street": "45 S PARK ST", "postcode": "03755"}}},
{"geometry": {"type": "Point", "coordinates": [-72.0473182062, 44.0311206548]}, "type": "Feature", "properties": {"collection_times": [{"days": "Mon-Fri", "time": "4:45pm"}, {"days": "Sat", "time": "11:45am"}, {"days": "Sun", "time": "Closed"}], "id": "0376500001", "name": "USPS COLLECTION BOX - BLUE BOX", "address": {"city": "HAVERHILL", "state": "NH", "street": "630 DARTMOUTH COLLEGE HWY", "postcode": "03765"}}},
{"geometry": {"type": "Point", "coordinates": [-72.0473182062, 44.0311206548]}, "type": "Feature", "properties": {"collection_times": [{"days": "Mon-Fri", "time": "4:45pm"}, {"days": "Sat", "time": "11:45am"}, {"days": "Sun", "time": "Closed"}], "id": "0376500002", "name": "USPS COLLECTION BOX - PO LOBBY", "address": {"city": "HAVERHILL", "state": "NH", "street": "630 DARTMOUTH COLLEGE HWY", "postcode": "03765"}}},
{"geometry": {"type": "Point", "coordinates": [-72.2481632299, 43.6388075925]}, "type": "Feature", "properties": {"collection_times": [{"days": "Mon-Sat", "time": "11:00am"}, {"days": "Sun", "time": "Closed"}], "id": "0376600001", "name": "USPS COLLECTION BOX - BLUE BOX", "address": {"city": "LEBANON", "state": "NH", "street": "52 SCHOOL ST", "postcode": "03766"}}},
{"geometry": {"type": "Point", "coordinates": [-72.3129769919, 43.6284303424]}, "type": "Feature", "properties": {"collection_times": [{"days": "Mon-Fri", "time": "10:00am"}, {"days": "Sat-Sun", "time": "Closed"}], "id": "0376600003", "name": "USPS COLLECTION BOX - BLUE BOX", "address": {"city": "LEBANON", "state": "NH", "street": "5 AIRPARK RD", "postcode": "03766"}}},
{"geometry": {"type": "Point", "coordinates": [-72.2485204835, 43.6429940843]}, "type": "Feature", "properties": {"collection_times": [{"days": "Mon-Fri", "time": "5:00pm"}, {"days": "Sat", "time": "9:00am"}, {"days": "Sun", "time": "Closed"}], "id": "0376600005", "name": "USPS COLLECTION BOX - BLUE BOX", "address": {"city": "LEBANON", "state": "NH", "street": "20 BANK ST", "postcode": "03766"}}},
{"geometry": {"type": "Point", "coordinates": [-72.2518528789, 43.6428710565]}, "type": "Feature", "properties": {"collection_times": [{"days": "Mon-Fri", "time": "5:00pm"}, {"days": "Sat", "time": "3:00pm"}, {"days": "Sun", "time": "Closed"}], "id": "0376600008", "name": "USPS COLLECTION BOX - BLUE BOX", "address": {"city": "LEBANON", "state": "NH", "street": "51 N PARK ST", "postcode": "03766"}}},
{"geometry": {"type": "Point", "coordinates": [-72.3167300738, 43.6345529155]}, "type": "Feature", "properties": {"collection_times": [{"days": "Mon-Fri", "time": "4:45pm"}, {"days": "Sat", "time": "9:00am"}, {"days": "Sun", "time": "Closed"}], "id": "0376600016", "name": "USPS COLLECTION BOX - BLUE BOX", "address": {"city": "LEBANON", "state": "NH", "street": "1 GLEN RD", "postcode": "03766"}}},
{"geometry": {"type": "Point", "coordinates": [-72.2481965008, 43.6431116636]}, "type": "Feature", "properties": {"collection_times": [{"days": "Mon-Fri", "time": "5:00pm"}, {"days": "Sat", "time": "9:00am"}, {"days": "Sun", "time": "Closed"}], "id": "0376600017", "name": "USPS COLLECTION BOX - BLUE BOX", "address": {"city": "LEBANON", "state": "NH", "street": "59 HANOVER ST", "postcode": "03766"}}},
{"geometry": {"type": "Point", "coordinates": [-72.3185958295, 43.6329190348]}, "type": "Feature", "properties": {"collection_times": [{"days": "Mon-Sat", "time": "9:00am"}, {"days": "Sun", "time": "Closed"}], "id": "0376600020", "name": "USPS COLLECTION BOX - BLUE BOX", "address": {"city": "LEBANON", "state": "NH", "street": "200 S MAIN ST", "postcode": "03766"}}},
{"geometry": {"type": "Point", "coordinates": [-72.2615768016, 43.6759726143]}, "type": "Feature", "properties": {"collection_times": [{"days": "Mon-Fri", "time": "4:00pm"}, {"days": "Sat-Sun", "time": "Closed"}], "id": "0376600021", "name": "USPS COLLECTION BOX - BLUE BOX", "address": {"city": "LEBANON", "state": "NH", "street": "12 CENTERRA PKWY", "postcode": "03766"}}},
{"geometry": {"type": "Point", "coordinates": [-72.2481965008, 43.6431116636]}, "type": "Feature", "properties": {"collection_times": [{"days": "Mon-Fri", "time": "4:45pm"}, {"days": "Sat", "time": "12:00pm"}, {"days": "Sun", "time": "Closed"}], "id": "0376600026", "name": "USPS COLLECTION BOX - BLUE BOX", "address": {"city": "LEBANON", "state": "NH", "street": "66 BENNING ST", "postcode": "03766"}}},
{"geometry": {"type": "Point", "coordinates": [-72.307617597, 43.6509259587]}, "type": "Feature", "properties": {"collection_times": [{"days": "Mon-Sat", "time": "12:00pm"}, {"days": "Sun", "time": "Closed"}], "id": "0376600028", "name": "USPS COLLECTION BOX - BLUE BOX", "address": {"city": "LEBANON", "state": "NH", "street": "82 MAPLE ST", "postcode": "03766"}}},
{"geometry": {"type": "Point", "coordinates": [-72.3164432416, 43.6343907336]}, "type": "Feature", "properties": {"collection_times": [{"days": "Mon-Sat", "time": "9:00am"}, {"days": "Sun", "time": "Closed"}], "id": "0376600042", "name": "USPS COLLECTION BOX - BLUE BOX", "address": {"city": "LEBANON", "state": "NH", "street": "8 GLEN RD", "postcode": "03766"}}},
{"geometry": {"type": "Point", "coordinates": [-72.3221672027, 43.629366851]}, "type": "Feature", "properties": {"collection_times": [{"days": "Mon-Sat", "time": "11:00am"}, {"days": "Sun", "time": "Closed"}], "id": "0376600044", "name": "USPS COLLECTION BOX - BLUE BOX", "address": {"city": "LEBANON", "state": "NH", "street": "250 PLAINFIELD RD", "postcode": "03766"}}},
{"geometry": {"type": "Point", "coordinates": [-72.2506214187, 43.6422097825]}, "type": "Feature", "properties": {"collection_times": [{"days": "Mon-Fri", "time": "5:15pm"}, {"days": "Sat", "time": "2:00pm"}, {"days": "Sun", "time": "Closed"}], "id": "0376600045", "name": "USPS COLLECTION BOX - BLUE BOX", "address": {"city": "LEBANON", "state": "NH", "street": "11 E PARK ST", "postcode": "03766"}}},
{"geometry": {"type": "Point", "coordinates": [-72.317062386, 43.6329826828]}, "type": "Feature", "properties": {"collection_times": [{"days": "Mon-Fri", "time": "1:00pm"}, {"days": "Sat", "time": "9:00am"}, {"days": "Sun", "time": "Closed"}], "id": "0376600048", "name": "USPS COLLECTION BOX - BLUE BOX", "address": {"city": "LEBANON", "state": "NH", "street": "10 BENNING ST", "postcode": "03766"}}},
{"geometry": {"type": "Point", "coordinates": [-72.2535504251, 43.6465843647]}, "type": "Feature", "properties": {"collection_times": [{"days": "Mon-Fri", "time": "5:00pm"}, {"days": "Sat", "time": "9:00am"}, {"days": "Sun", "time": "Closed"}], "id": "0376600059", "name": "USPS COLLECTION BOX - BLUE BOX", "address": {"city": "LEBANON", "state": "NH", "street": "103 HANOVER ST", "postcode": "03766"}}},
{"geometry": {"type": "Point", "coordinates": [-72.24778807, 43.6431941727]}, "type": "Feature", "properties": {"collection_times": [{"days": "Mon-Sat", "time": "10:00am"}, {"days": "Sun", "time": "Closed"}], "id": "0376600060", "name": "USPS COLLECTION BOX - BLUE BOX", "address": {"city": "LEBANON", "state": "NH", "street": "85 MECHANIC ST", "postcode": "03766"}}},
{"geometry": {"type": "Point", "coordinates": [-72.2506214187, 43.6422097825]}, "type": "Feature", "properties": {"collection_times": [{"days": "Mon-Fri", "time": "5:15pm"}, {"days": "Sat", "time": "2:00pm"}, {"days": "Sun", "time": "Closed"}], "id": "0376600062", "name": "USPS COLLECTION BOX - PO LOBBY", "address": {"city": "LEBANON", "state": "NH", "street": "11 E PARK ST", "postcode": "03766"}}},
{"geometry": {"type": "Point", "coordinates": [-72.2481965008, 43.6431116636]}, "type": "Feature", "properties": {"collection_times": [{"days": "Mon-Fri", "time": "4:45pm"}, {"days": "Sat", "time": "12:00pm"}, {"days": "Sun", "time": "Closed"}], "id": "0376600063", "name": "USPS COLLECTION BOX - PO LOBBY", "address": {"city": "LEBANON", "state": "NH", "street": "66 BENNING ST", "postcode": "03766"}}},
{"geometry": {"type": "Point", "coordinates": [-72.2524939091, 43.6426543122]}, "type": "Feature", "properties": {"collection_times": [{"days": "Mon-Fri", "time": "5:00pm"}, {"days": "Sat", "time": "3:00pm"}, {"days": "Sun", "time": "Closed"}], "id": "0376600064", "name": "USPS COLLECTION BOX - BLUE BOX", "address": {"city": "LEBANON", "state": "NH", "street": "10 W PARK ST", "postcode": "03766"}}},
{"geometry": {"type": "Point", "coordinates": [-72.2471671785, 43.6583737338]}, "type": "Feature", "properties": {"collection_times": [{"days": "Mon-Sat", "time": "9:00am"}, {"days": "Sun", "time": "Closed"}], "id": "0376600065", "name": "USPS COLLECTION BOX - BLUE BOX", "address": {"city": "LEBANON", "state": "NH", "street": "31 OLD ETNA RD", "postcode": "03766"}}},
{"geometry": {"type": "Point", "coordinates": [-72.2737464121, 43.6781610375]}, "type": "Feature", "properties": {"collection_times": [{"days": "Mon-Fri", "time": "4:00pm"}, {"days": "Sat-Sun", "time": "Closed"}], "id": "0376600067", "name": "USPS COLLECTION BOX - BLUE BOX", "address": {"city": "LEBANON", "state": "NH", "street": "1 MEDICAL CENTER DR", "postcode": "03766"}}},
{"geometry": {"type": "Point", "coordinates": [-72.312146818, 43.6253091662]}, "type": "Feature", "properties": {"collection_times": [{"days": "Mon-Fri", "time": "4:45pm"}, {"days": "Sat-Sun", "time": "Closed"}], "id": "0376600068", "name": "USPS COLLECTION BOX - BLUE BOX", "address": {"city": "LEBANON", "state": "NH", "street": "21 AIRPARK RD", "postcode": "03766"}}},
{"geometry": {"type": "Point", "coordinates": [-72.2481965008, 43.6431116636]}, "type": "Feature", "properties": {"collection_times": [{"days": "Mon-Fri", "time": "4:00pm"}, {"days": "Sat-Sun", "time": "Closed"}], "id": "0376600069", "name": "USPS COLLECTION BOX - BLUE BOX", "address": {"city": "LEBANON", "state": "NH", "street": "46 CENTERRA PKWY", "postcode": "03766"}}},
{"geometry": {"type": "Point", "coordinates": [-72.2917955516, 43.6360922116]}, "type": "Feature", "properties": {"collection_times": [{"days": "Mon-Fri", "time": "4:30pm"}, {"days": "Sat-Sun", "time": "Closed"}], "id": "0376600070", "name": "USPS COLLECTION BOX - BLUE BOX", "address": {"city": "LEBANON", "state": "NH", "street": "410 MIRACLE MILE", "postcode": "03766"}}},
{"geometry": {"type": "Point", "coordinates": [-72.3257781374, 43.6241882667]}, "type": "Feature", "properties": {"collection_times": [{"days": "Mon-Sat", "time": "12:00pm"}, {"days": "Sun", "time": "Closed"}], "id": "0376600071", "name": "USPS COLLECTION BOX - BLUE BOX", "address": {"city": "LEBANON", "state": "NH", "street": "285 PLAINFIELD RD", "postcode": "03766"}}},
{"geometry": {"type": "Point", "coordinates": [-72.24778807, 43.6431941727]}, "type": "Feature", "properties": {"collection_times": [{"days": "Mon-Fri", "time": "4:00pm"}, {"days": "Sat", "time": "2:00pm"}, {"days": "Sun", "time": "Closed"}], "id": "0376600072", "name": "USPS COLLECTION BOX - BLUE BOX", "address": {"city": "LEBANON", "state": "NH", "street": "44 LAFAYETTE ST", "postcode": "03766"}}},
{"geometry": {"type": "Point", "coordinates": [-72.3210700392, 43.6295254281]}, "type": "Feature", "properties": {"collection_times": [{"days": "Mon-Fri", "time": "4:45pm"}, {"days": "Sat", "time": "12:00pm"}, {"days": "Sun", "time": "Closed"}], "id": "0376600077", "name": "USPS COLLECTION BOX - BLUE BOX", "address": {"city": "LEBANON", "state": "NH", "street": "3 AIRPORT RD", "postcode": "03766"}}},
{"geometry": {"type": "Point", "coordinates": [-72.1581258572, 43.8108512296]}, "type": "Feature", "properties": {"collection_times": [{"days": "Mon-Fri", "time": "4:45pm"}, {"days": "Sat", "time": "11:45am"}, {"days": "Sun", "time": "Closed"}], "id": "0376800001", "name": "USPS COLLECTION BOX - BLUE BOX", "address": {"city": "LYME", "state": "NH", "street": "5 MAIN ST", "postcode": "03768"}}},
{"geometry": {"type": "Point", "coordinates": [-72.1580480892, 43.8108566047]}, "type": "Feature", "properties": {"collection_times": [{"days": "Mon-Fri", "time": "4:45pm"}, {"days": "Sat", "time": "12:00pm"}, {"days": "Sun", "time": "Closed"}], "id": "0376800002", "name": "USPS COLLECTION BOX - PO LOBBY", "address": {"city": "LYME", "state": "NH", "street": "5 MAIN ST", "postcode": "03768"}}},
{"geometry": {"type": "Point", "coordinates": [-72.0637893216, 43.7939042272]}, "type": "Feature", "properties": {"collection_times": [{"days": "Mon-Fri", "time": "4:45pm"}, {"days": "Sat", "time": "11:15am"}, {"days": "Sun", "time": "Closed"}], "id": "0376900002", "name": "USPS COLLECTION BOX - PO LOBBY", "address": {"city": "LYME CENTER", "state": "NH", "street": "181 DORCHESTER RD", "postcode": "03769"}}},
{"geometry": {"type": "Point", "coordinates": [-72.2570153119, 43.5458707873]}, "type": "Feature", "properties": {"collection_times": [{"days": "Mon-Fri", "time": "4:30pm"}, {"days": "Sat", "time": "11:15am"}, {"days": "Sun", "time": "Closed"}], "id": "0377000001", "name": "USPS COLLECTION BOX - BLUE BOX", "address": {"city": "MERIDEN", "state": "NH", "street": "54 MAIN ST UNIT 1", "postcode": "03770"}}},
{"geometry": {"type": "Point", "coordinates": [-72.2770075766, 43.5118739751]}, "type": "Feature", "properties": {"collection_times": [{"days": "Mon-Fri", "time": "11:00am"}, {"days": "Sat-Sun", "time": "Closed"}], "id": "0377000002", "name": "USPS COLLECTION BOX - BLUE BOX", "address": {"city": "MERIDEN", "state": "NH", "street": "809 ROUTE 120", "postcode": "03770"}}},
{"geometry": {"type": "Point", "coordinates": [-72.2570153119, 43.5458707873]}, "type": "Feature", "properties": {"collection_times": [{"days": "Mon-Fri", "time": "4:45pm"}, {"days": "Sat", "time": "11:15am"}, {"days": "Sun", "time": "Closed"}], "id": "0377000003", "name": "USPS COLLECTION BOX - PO LOBBY", "address": {"city": "MERIDEN", "state": "NH", "street": "54 MAIN ST UNIT 1", "postcode": "03770"}}},
{"geometry": {"type": "Point", "coordinates": [-72.0232599106, 44.2780516621]}, "type": "Feature", "properties": {"collection_times": [{"days": "Mon-Fri", "time": "4:30pm"}, {"days": "Sat", "time": "11:30am"}, {"days": "Sun", "time": "Closed"}], "id": "0377100000", "name": "USPS COLLECTION BOX - BLUE BOX", "address": {"city": "MONROE", "state": "NH", "street": "89 MAIN ST", "postcode": "03771"}}},
{"geometry": {"type": "Point", "coordinates": [-72.0232599106, 44.2780516621]}, "type": "Feature", "properties": {"collection_times": [{"days": "Mon-Fri", "time": "4:30pm"}, {"days": "Sat", "time": "11:30am"}, {"days": "Sun", "time": "Closed"}], "id": "0377100001", "name": "USPS COLLECTION BOX - PO LOBBY", "address": {"city": "MONROE", "state": "NH", "street": "89 MAIN ST", "postcode": "03771"}}},
{"geometry": {"type": "Point", "coordinates": [-72.1725013314, 43.3634653021]}, "type": "Feature", "properties": {"collection_times": [{"days": "Mon-Fri", "time": "1:00pm"}, {"days": "Sat", "time": "9:30am"}, {"days": "Sun", "time": "Closed"}], "id": "0377300003", "name": "USPS COLLECTION BOX - BLUE BOX", "address": {"city": "CROYDON", "state": "NH", "street": "57 MAIN ST", "postcode": "03773"}}},
{"geometry": {"type": "Point", "coordinates": [-71.5775936257, 43.6855232857]}, "type": "Feature", "properties": {"collection_times": [{"days": "Mon-Sat", "time": "12:00pm"}, {"days": "Sun", "time": "Closed"}], "id": "0377300006", "name": "USPS COLLECTION BOX - BLUE BOX", "address": {"city": "CROYDON", "state": "NH", "street": "190 N MAIN ST", "postcode": "03773"}}},
{"geometry": {"type": "Point", "coordinates": [-72.1738799654, 43.3651270543]}, "type": "Feature", "properties": {"collection_times": [{"days": "Mon-Fri", "time": "1:00pm"}, {"days": "Sat", "time": "9:00am"}, {"days": "Sun", "time": "Closed"}], "id": "0377300007", "name": "USPS COLLECTION BOX - BLUE BOX", "address": {"city": "CROYDON", "state": "NH", "street": "4 N MAIN ST", "postcode": "03773"}}},
{"geometry": {"type": "Point", "coordinates": [-72.1736634731, 43.3656812183]}, "type": "Feature", "properties": {"collection_times": [{"days": "Mon-Fri", "time": "5:00pm"}, {"days": "Sat", "time": "3:45pm"}, {"days": "Sun", "time": "Closed"}], "id": "0377300009", "name": "USPS COLLECTION BOX - BLUE BOX", "address": {"city": "CROYDON", "state": "NH", "street": "15 PARK ST", "postcode": "03773"}}},
{"geometry": {"type": "Point", "coordinates": [-72.1736634731, 43.3656812183]}, "type": "Feature", "properties": {"collection_times": [{"days": "Mon-Fri", "time": "5:00pm"}, {"days": "Sat", "time": "3:45pm"}, {"days": "Sun", "time": "Closed"}], "id": "0377300011", "name": "USPS COLLECTION BOX - BLUE BOX", "address": {"city": "CROYDON", "state": "NH", "street": "15 PARK ST", "postcode": "03773"}}},
{"geometry": {"type": "Point", "coordinates": [-72.1809879555, 43.362593764]}, "type": "Feature", "properties": {"collection_times": [{"days": "Mon-Sat", "time": "12:00pm"}, {"days": "Sun", "time": "Closed"}], "id": "0377300013", "name": "USPS COLLECTION BOX - BLUE BOX", "address": {"city": "CROYDON", "state": "NH", "street": "76 S MAIN ST", "postcode": "03773"}}},
{"geometry": {"type": "Point", "coordinates": [-72.1725592512, 43.3650853598]}, "type": "Feature", "properties": {"collection_times": [{"days": "Mon-Fri", "time": "1:00pm"}, {"days": "Sat", "time": "9:00am"}, {"days": "Sun", "time": "Closed"}], "id": "0377300015", "name": "USPS COLLECTION BOX - BLUE BOX", "address": {"city": "CROYDON", "state": "NH", "street": "15 SUNAPEE ST", "postcode": "03773"}}},
{"geometry": {"type": "Point", "coordinates": [-72.1690062399, 43.3655398961]}, "type": "Feature", "properties": {"collection_times": [{"days": "Mon-Fri", "time": "12:00pm"}, {"days": "Sat", "time": "11:30am"}, {"days": "Sun", "time": "Closed"}], "id": "0377300016", "name": "USPS COLLECTION BOX - BLUE BOX", "address": {"city": "CROYDON", "state": "NH", "street": "81 SUNAPEE ST", "postcode": "03773"}}},
{"geometry": {"type": "Point", "coordinates": [-72.1598645854, 43.453137576]}, "type": "Feature", "properties": {"collection_times": [{"days": "Mon-Sat", "time": "11:30am"}, {"days": "Sun", "time": "Closed"}], "id": "0377300018", "name": "USPS COLLECTION BOX - BLUE BOX", "address": {"city": "CROYDON", "state": "NH", "street": "870 NH ROUTE 10", "postcode": "03773"}}},
{"geometry": {"type": "Point", "coordinates": [-72.1736634731, 43.3656812183]}, "type": "Feature", "properties": {"collection_times": [{"days": "Mon-Fri", "time": "5:00pm"}, {"days": "Sat", "time": "4:00pm"}, {"days": "Sun", "time": "Closed"}], "id": "0377300020", "name": "USPS COLLECTION BOX - PO LOBBY", "address": {"city": "CROYDON", "state": "NH", "street": "15 PARK ST", "postcode": "03773"}}},
{"geometry": {"type": "Point", "coordinates": [-72.1730546609, 43.36464273]}, "type": "Feature", "properties": {"collection_times": [{"days": "Mon-Fri", "time": "1:00pm"}, {"days": "Sat", "time": "12:00pm"}, {"days": "Sun", "time": "Closed"}], "id": "0377300021", "name": "USPS COLLECTION BOX - BLUE BOX", "address": {"city": "CROYDON", "state": "NH", "street": "14 MAIN ST", "postcode": "03773"}}},
{"geometry": {"type": "Point", "coordinates": [-72.1725691824, 43.3616890515]}, "type": "Feature", "properties": {"collection_times": [{"days": "Mon-Sat", "time": "10:30am"}, {"days": "Sun", "time": "Closed"}], "id": "0377300022", "name": "USPS COLLECTION BOX - BLUE BOX", "address": {"city": "CROYDON", "state": "NH", "street": "34 ELM ST", "postcode": "03773"}}},
{"geometry": {"type": "Point", "coordinates": [-72.1736634731, 43.3656812183]}, "type": "Feature", "properties": {"collection_times": [{"days": "Mon-Fri", "time": "5:00pm"}, {"days": "Sat", "time": "3:45pm"}, {"days": "Sun", "time": "Closed"}], "id": "0377300023", "name": "USPS COLLECTION BOX - BLUE BOX", "address": {"city": "CROYDON", "state": "NH", "street": "15 PARK ST", "postcode": "03773"}}},
{"geometry": {"type": "Point", "coordinates": [-72.0260044486, 44.0894448534]}, "type": "Feature", "properties": {"collection_times": [{"days": "Mon-Fri", "time": "5:00pm"}, {"days": "Sat", "time": "11:30am"}, {"days": "Sun", "time": "Closed"}], "id": "0377400001", "name": "USPS COLLECTION BOX - BLUE BOX", "address": {"city": "NORTH HAVERHILL", "state": "NH", "street": "2730 DARTMOUTH COLLEGE HWY", "postcode": "03774"}}},
{"geometry": {"type": "Point", "coordinates": [-72.040611392, 44.1128565949]}, "type": "Feature", "properties": {"collection_times": [{"days": "Mon-Fri", "time": "8:15am"}, {"days": "Sat-Sun", "time": "Closed"}], "id": "0377400002", "name": "USPS COLLECTION BOX - BLUE BOX", "address": {"city": "NORTH HAVERHILL", "state": "NH", "street": "3785 DARTMOUTH COLLEGE HWY", "postcode": "03774"}}},
{"geometry": {"type": "Point", "coordinates": [-72.0260044486, 44.0894448534]}, "type": "Feature", "properties": {"collection_times": [{"days": "Mon-Fri", "time": "5:00pm"}, {"days": "Sat", "time": "11:30am"}, {"days": "Sun", "time": "Closed"}], "id": "0377400004", "name": "USPS COLLECTION BOX - PO LOBBY", "address": {"city": "NORTH HAVERHILL", "state": "NH", "street": "2730 DARTMOUTH COLLEGE HWY", "postcode": "03774"}}},
{"geometry": {"type": "Point", "coordinates": [-72.0405792449, 44.1139409986]}, "type": "Feature", "properties": {"collection_times": [{"days": "Mon-Fri", "time": "8:15am"}, {"days": "Sat-Sun", "time": "Closed"}], "id": "0377400005", "name": "USPS COLLECTION BOX - BLUE BOX", "address": {"city": "NORTH HAVERHILL", "state": "NH", "street": "3855 DARTMOUTH COLLEGE HWY", "postcode": "03774"}}},
{"geometry": {"type": "Point", "coordinates": [-72.040611392, 44.1128565949]}, "type": "Feature", "properties": {"collection_times": [{"days": "Mon-Fri", "time": "8:15am"}, {"days": "Sat-Sun", "time": "Closed"}], "id": "0377400006", "name": "USPS COLLECTION BOX - BLUE BOX", "address": {"city": "NORTH HAVERHILL", "state": "NH", "street": "3785 DARTMOUTH COLLEGE HWY", "postcode": "03774"}}},
{"geometry": {"type": "Point", "coordinates": [-72.0822390152, 43.8946136172]}, "type": "Feature", "properties": {"collection_times": [{"days": "Mon-Fri", "time": "4:30pm"}, {"days": "Sat", "time": "11:30am"}, {"days": "Sun", "time": "Closed"}], "id": "0377700001", "name": "USPS COLLECTION BOX - BLUE BOX", "address": {"city": "ORFORD", "state": "NH", "street": "621 NH ROUTE 10", "postcode": "03777"}}},
{"geometry": {"type": "Point", "coordinates": [-72.0822390152, 43.8946136172]}, "type": "Feature", "properties": {"collection_times": [{"days": "Mon-Fri", "time": "4:30pm"}, {"days": "Sat", "time": "11:45am"}, {"days": "Sun", "time": "Closed"}], "id": "0377700002", "name": "USPS COLLECTION BOX - PO LOBBY", "address": {"city": "ORFORD", "state": "NH", "street": "621 NH ROUTE 10", "postcode": "03777"}}},
{"geometry": {"type": "Point", "coordinates": [-72.0822390152, 43.8946136172]}, "type": "Feature", "properties": {"collection_times": [{"days": "Mon-Fri", "time": "4:30pm"}, {"days": "Sat", "time": "11:45am"}, {"days": "Sun", "time": "Closed"}], "id": "0377700003", "name": "USPS COLLECTION BOX - PO LOBBY", "address": {"city": "ORFORD", "state": "NH", "street": "621 NH ROUTE 10", "postcode": "03777"}}},
{"geometry": {"type": "Point", "coordinates": [-72.0815872955, 43.9718205873]}, "type": "Feature", "properties": {"collection_times": [{"days": "Mon-Fri", "time": "4:00pm"}, {"days": "Sat", "time": "11:30am"}, {"days": "Sun", "time": "Closed"}], "id": "0377900001", "name": "USPS COLLECTION BOX - BLUE BOX", "address": {"city": "PIERMONT", "state": "NH", "street": "15 CHURCH ST UNIT 2", "postcode": "03779"}}},
{"geometry": {"type": "Point", "coordinates": [-72.0815872955, 43.9718205873]}, "type": "Feature", "properties": {"collection_times": [{"days": "Mon-Fri", "time": "4:45pm"}, {"days": "Sat", "time": "11:45am"}, {"days": "Sun", "time": "Closed"}], "id": "0377900002", "name": "USPS COLLECTION BOX - PO LOBBY", "address": {"city": "PIERMONT", "state": "NH", "street": "15 CHURCH ST UNIT 2", "postcode": "03779"}}},
{"geometry": {"type": "Point", "coordinates": [-72.0077812157, 44.031113185]}, "type": "Feature", "properties": {"collection_times": [{"days": "Mon-Fri", "time": "4:30pm"}, {"days": "Sat", "time": "11:30am"}, {"days": "Sun", "time": "Closed"}], "id": "0378000001", "name": "USPS COLLECTION BOX - BLUE BOX", "address": {"city": "PIKE", "state": "NH", "street": "1572 MOUNT MOOSILAUKE HWY", "postcode": "03780"}}},
{"geometry": {"type": "Point", "coordinates": [-72.0077812157, 44.031113185]}, "type": "Feature", "properties": {"collection_times": [{"days": "Mon-Fri", "time": "4:30pm"}, {"days": "Sat", "time": "11:30am"}, {"days": "Sun", "time": "Closed"}], "id": "0378000002", "name": "USPS COLLECTION BOX - PO LOBBY", "address": {"city": "PIKE", "state": "NH", "street": "1572 MOUNT MOOSILAUKE HWY", "postcode": "03780"}}},
{"geometry": {"type": "Point", "coordinates": [-72.3573328734, 43.5328573816]}, "type": "Feature", "properties": {"collection_times": [{"days": "Mon-Fri", "time": "4:45pm"}, {"days": "Sat", "time": "11:15am"}, {"days": "Sun", "time": "Closed"}], "id": "0378100001", "name": "USPS COLLECTION BOX - BLUE BOX", "address": {"city": "PLAINFIELD", "state": "NH", "street": "1132 ROUTE 12A", "postcode": "03781"}}},
{"geometry": {"type": "Point", "coordinates": [-72.3573328734, 43.5328573816]}, "type": "Feature", "properties": {"collection_times": [{"days": "Mon-Fri", "time": "5:00pm"}, {"days": "Sat", "time": "11:15am"}, {"days": "Sun", "time": "Closed"}], "id": "0378100002", "name": "USPS COLLECTION BOX - PO LOBBY", "address": {"city": "PLAINFIELD", "state": "NH", "street": "1132 ROUTE 12A", "postcode": "03781"}}},
{"geometry": {"type": "Point", "coordinates": [-72.0837479556, 43.3836522763]}, "type": "Feature", "properties": {"collection_times": [{"days": "Mon-Fri", "time": "4:30pm"}, {"days": "Sat", "time": "12:00pm"}, {"days": "Sun", "time": "Closed"}], "id": "0378200001", "name": "USPS COLLECTION BOX - BLUE BOX", "address": {"city": "SUNAPEE", "state": "NH", "street": "5 ELM ST", "postcode": "03782"}}},
{"geometry": {"type": "Point", "coordinates": [-72.0837479556, 43.3836522763]}, "type": "Feature", "properties": {"collection_times": [{"days": "Mon-Fri", "time": "4:30pm"}, {"days": "Sat", "time": "12:00pm"}, {"days": "Sun", "time": "Closed"}], "id": "0378200003", "name": "USPS COLLECTION BOX - PO LOBBY", "address": {"city": "SUNAPEE", "state": "NH", "street": "5 ELM ST", "postcode": "03782"}}},
{"geometry": {"type": "Point", "coordinates": [-72.0295897452, 44.1429512821]}, "type": "Feature", "properties": {"collection_times": [{"days": "Mon-Sat", "time": "10:30am"}, {"days": "Sun", "time": "Closed"}], "id": "0378500003", "name": "USPS COLLECTION BOX - BLUE BOX", "address": {"city": "WOODSVILLE", "state": "NH", "street": "15 FOREST ST", "postcode": "03785"}}},
{"geometry": {"type": "Point", "coordinates": [-72.0374856998, 44.1503433939]}, "type": "Feature", "properties": {"collection_times": [{"days": "Mon-Fri", "time": "4:30pm"}, {"days": "Sat", "time": "12:00pm"}, {"days": "Sun", "time": "Closed"}], "id": "0378500004", "name": "USPS COLLECTION BOX - BLUE BOX", "address": {"city": "WOODSVILLE", "state": "NH", "street": "31 S COURT ST", "postcode": "03785"}}},
{"geometry": {"type": "Point", "coordinates": [-72.0374856998, 44.1503433939]}, "type": "Feature", "properties": {"collection_times": [{"days": "Mon-Fri", "time": "5:00pm"}, {"days": "Sat", "time": "12:00pm"}, {"days": "Sun", "time": "Closed"}], "id": "0378500005", "name": "USPS COLLECTION BOX - PO LOBBY", "address": {"city": "WOODSVILLE", "state": "NH", "street": "31 S COURT ST", "postcode": "03785"}}},
{"geometry": {"type": "Point", "coordinates": [-72.0307476588, 44.1304310257]}, "type": "Feature", "properties": {"collection_times": [{"days": "Mon-Sat", "time": "9:00am"}, {"days": "Sun", "time": "Closed"}], "id": "0378500006", "name": "USPS COLLECTION BOX - BLUE BOX", "address": {"city": "WOODSVILLE", "state": "NH", "street": "4901 DARTMOUTH COLLEGE HWY", "postcode": "03785"}}}
]}
