{"type": "FeatureCollection", "features": [
{"geometry": {"type": "Point", "coordinates": [-70.7607392674, 43.0757323345]}, "type": "Feature", "properties": {"collection_times": [{"days": "Mon-Fri", "time": "9:00am"}, {"days": "Sat-Sun", "time": "Closed"}], "id": "0380100002", "name": "USPS COLLECTION BOX - BLUE BOX", "address": {"city": "NEWINGTON", "state": "NH", "street": "650 MAPLEWOOD AVE", "postcode": "03801"}}},
{"geometry": {"type": "Point", "coordinates": [-70.7700802351, 43.0537368626]}, "type": "Feature", "properties": {"collection_times": [{"days": "Mon-Sat", "time": "9:00am"}, {"days": "Sun", "time": "Closed"}], "id": "0380100003", "name": "USPS COLLECTION BOX - BLUE BOX", "address": {"city": "NEWINGTON", "state": "NH", "street": "751 LAFAYETTE RD", "postcode": "03801"}}},
{"geometry": {"type": "Point", "coordinates": [-70.7866482072, 43.0926173413]}, "type": "Feature", "properties": {"collection_times": [{"days": "Mon-Fri", "time": "4:30pm"}, {"days": "Sat-Sun", "time": "Closed"}], "id": "0380100005", "name": "USPS COLLECTION BOX - BLUE BOX", "address": {"city": "NEWINGTON", "state": "NH", "street": "155 COMMERCE WAY", "postcode": "03801"}}},
{"geometry": {"type": "Point", "coordinates": [-70.7755394414, 43.0663121375]}, "type": "Feature", "properties": {"collection_times": [{"days": "Mon-Fri", "time": "4:30pm"}, {"days": "Sat-Sun", "time": "Closed"}], "id": "0380100007", "name": "USPS COLLECTION BOX - EXPRESS", "address": {"city": "NEWINGTON", "state": "NH", "street": "155 COMMERCE WAY", "postcode": "03801"}}},
{"geometry": {"type": "Point", "coordinates": [-70.7581844215, 43.0748889927]}, "type": "Feature", "properties": {"collection_times": [{"days": "Mon-Fri", "time": "5:00pm"}, {"days": "Sat", "time": "3:30pm"}, {"days": "Sun", "time": "Closed"}], "id": "0380100008", "name": "USPS COLLECTION BOX - BLUE BOX", "address": {"city": "NEWINGTON", "state": "NH", "street": "140 COURT ST", "postcode": "03801"}}},
{"geometry": {"type": "Point", "coordinates": [-70.7755394414, 43.0663121375]}, "type": "Feature", "properties": {"collection_times": [{"days": "Mon-Fri", "time": "5:30pm"}, {"days": "Sat", "time": "4:00pm"}, {"days": "Sun", "time": "Closed"}], "id": "0380100009", "name": "USPS COLLECTION BOX - EXPRESS", "address": {"city": "NEWINGTON", "state": "NH", "street": "80 DANIEL ST", "postcode": "03801"}}},
{"geometry": {"type": "Point", "coordinates": [-70.7559549524, 43.077554637]}, "type": "Feature", "properties": {"collection_times": [{"days": "Mon-Fri", "time": "5:30pm"}, {"days": "Sat", "time": "4:00pm"}, {"days": "Sun", "time": "Closed"}], "id": "0380100010", "name": "USPS COLLECTION BOX - BLUE BOX", "address": {"city": "NEWINGTON", "state": "NH", "street": "80 DANIEL ST", "postcode": "03801"}}},
{"geometry": {"type": "Point", "coordinates": [-70.7559549524, 43.077554637]}, "type": "Feature", "properties": {"collection_times": [{"days": "Mon-Fri", "time": "5:30pm"}, {"days": "Sat", "time": "4:00pm"}, {"days": "Sun", "time": "Closed"}], "id": "0380100011", "name": "USPS COLLECTION BOX - BLUE BOX", "address": {"city": "NEWINGTON", "state": "NH", "street": "80 DANIEL ST", "postcode": "03801"}}},
{"geometry": {"type": "Point", "coordinates": [-70.7559549524, 43.077554637]}, "type": "Feature", "properties": {"collection_times": [{"days": "Mon-Fri", "time": "5:30pm"}, {"days": "Sat", "time": "4:00pm"}, {"days": "Sun", "time": "Closed"}], "id": "0380100013", "name": "USPS COLLECTION BOX - BLUE BOX", "address": {"city": "NEWINGTON", "state": "NH", "street": "80 DANIEL ST", "postcode": "03801"}}},
{"geometry": {"type": "Point", "coordinates": [-70.8073153906, 43.099837059]}, "type": "Feature", "properties": {"collection_times": [{"days": "Mon-Sat", "time": "9:00am"}, {"days": "Sun", "time": "Closed"}], "id": "0380100018", "name": "USPS COLLECTION BOX - BLUE BOX", "address": {"city": "NEWINGTON", "state": "NH", "street": "50 FOX RUN RD", "postcode": "03801"}}},
{"geometry": {"type": "Point", "coordinates": [-70.7759495461, 43.0484570893]}, "type": "Feature", "properties": {"collection_times": [{"days": "Mon-Fri", "time": "9:00am"}, {"days": "Sat-Sun", "time": "Closed"}], "id": "0380100019", "name": "USPS COLLECTION BOX - BLUE BOX", "address": {"city": "NEWINGTON", "state": "NH", "street": "72 MIRONA RD", "postcode": "03801"}}},
{"geometry": {"type": "Point", "coordinates": [-70.7617980305, 43.0778379128]}, "type": "Feature", "properties": {"collection_times": [{"days": "Mon-Fri", "time": "5:00pm"}, {"days": "Sat", "time": "3:30pm"}, {"days": "Sun", "time": "Closed"}], "id": "0380100023", "name": "USPS COLLECTION BOX - BLUE BOX", "address": {"city": "NEWINGTON", "state": "NH", "street": "30 MAPLEWOOD AVE", "postcode": "03801"}}},
{"geometry": {"type": "Point", "coordinates": [-70.7617980305, 43.0778379128]}, "type": "Feature", "properties": {"collection_times": [{"days": "Mon-Fri", "time": "5:00pm"}, {"days": "Sat", "time": "3:30pm"}, {"days": "Sun", "time": "Closed"}], "id": "0380100024", "name": "USPS COLLECTION BOX - BLUE BOX", "address": {"city": "NEWINGTON", "state": "NH", "street": "30 MAPLEWOOD AVE", "postcode": "03801"}}},
{"geometry": {"type": "Point", "coordinates": [-70.7541930903, 43.0780154516]}, "type": "Feature", "properties": {"collection_times": [{"days": "Mon-Fri", "time": "5:00pm"}, {"days": "Sat-Sun", "time": "Closed"}], "id": "0380100025", "name": "USPS COLLECTION BOX - BLUE BOX", "address": {"city": "NEWINGTON", "state": "NH", "street": "1 HARBOUR PL", "postcode": "03801"}}},
{"geometry": {"type": "Point", "coordinates": [-70.7755394414, 43.0663121375]}, "type": "Feature", "properties": {"collection_times": [{"days": "Mon-Fri", "time": "5:00pm"}, {"days": "Sat-Sun", "time": "Closed"}], "id": "0380100026", "name": "USPS COLLECTION BOX - EXPRESS", "address": {"city": "NEWINGTON", "state": "NH", "street": "1 HARBOUR PL", "postcode": "03801"}}},
{"geometry": {"type": "Point", "coordinates": [-70.7990355257, 43.0362177766]}, "type": "Feature", "properties": {"collection_times": [{"days": "Mon-Fri", "time": "6:00pm"}, {"days": "Sat", "time": "5:00pm"}, {"days": "Sun", "time": "Closed"}], "id": "0380100027", "name": "USPS COLLECTION BOX - BLUE BOX", "address": {"city": "NEWINGTON", "state": "NH", "street": "345 HERITAGE AVE", "postcode": "03801"}}},
{"geometry": {"type": "Point", "coordinates": [-70.7755394414, 43.0663121375]}, "type": "Feature", "properties": {"collection_times": [{"days": "Mon-Fri", "time": "6:00pm"}, {"days": "Sat", "time": "5:00pm"}, {"days": "Sun", "time": "Closed"}], "id": "0380100028", "name": "USPS COLLECTION BOX - EXPRESS", "address": {"city": "NEWINGTON", "state": "NH", "street": "345 HERITAGE AVE", "postcode": "03801"}}},
{"geometry": {"type": "Point", "coordinates": [-70.7990355257, 43.0362177766]}, "type": "Feature", "properties": {"collection_times": [{"days": "Mon-Fri", "time": "6:00pm"}, {"days": "Sat", "time": "5:00pm"}, {"days": "Sun", "time": "Closed"}], "id": "0380100029", "name": "USPS COLLECTION BOX - BLUE BOX", "address": {"city": "NEWINGTON", "state": "NH", "street": "345 HERITAGE AVE", "postcode": "03801"}}},
{"geometry": {"type": "Point", "coordinates": [-70.79495, 43.024235]}, "type": "Feature", "properties": {"collection_times": [{"days": "Mon-Fri", "time": "10:30am"}, {"days": "Sat-Sun", "time": "Closed"}], "id": "0380100030", "name": "USPS COLLECTION BOX - BLUE BOX", "address": {"city": "NEWINGTON", "state": "NH", "street": "3205 LAFAYETTE RD", "postcode": "03801"}}},
{"geometry": {"type": "Point", "coordinates": [-70.7755394414, 43.0663121375]}, "type": "Feature", "properties": {"collection_times": [{"days": "Mon-Fri", "time": "5:45pm"}, {"days": "Sat", "time": "4:30pm"}, {"days": "Sun", "time": "Closed"}], "id": "0380100032", "name": "USPS COLLECTION BOX - EXPRESS", "address": {"city": "NEWINGTON", "state": "NH", "street": "800 ISLINGTON ST", "postcode": "03801"}}},
{"geometry": {"type": "Point", "coordinates": [-70.7728684078, 43.0686416394]}, "type": "Feature", "properties": {"collection_times": [{"days": "Mon-Fri", "time": "5:45pm"}, {"days": "Sat", "time": "4:30pm"}, {"days": "Sun", "time": "Closed"}], "id": "0380100035", "name": "USPS COLLECTION BOX - BLUE BOX", "address": {"city": "NEWINGTON", "state": "NH", "street": "800 ISLINGTON ST", "postcode": "03801"}}},
{"geometry": {"type": "Point", "coordinates": [-70.7903005527, 43.0636669476]}, "type": "Feature", "properties": {"collection_times": [{"days": "Mon-Fri", "time": "4:00pm"}, {"days": "Sat", "time": "3:00pm"}, {"days": "Sun", "time": "Closed"}], "id": "0380100036", "name": "USPS COLLECTION BOX - BLUE BOX", "address": {"city": "NEWINGTON", "state": "NH", "street": "330 BORTHWICK AVE", "postcode": "03801"}}},
{"geometry": {"type": "Point", "coordinates": [-70.7556476402, 43.0746946277]}, "type": "Feature", "properties": {"collection_times": [{"days": "Mon-Fri", "time": "9:00am"}, {"days": "Sat-Sun", "time": "Closed"}], "id": "0380100037", "name": "USPS COLLECTION BOX - BLUE BOX", "address": {"city": "NEWINGTON", "state": "NH", "street": "1 JUNKINS AVE", "postcode": "03801"}}},
{"geometry": {"type": "Point", "coordinates": [-70.7755394409, 43.0663121834]}, "type": "Feature", "properties": {"collection_times": [{"days": "Mon-Fri", "time": "5:00pm"}, {"days": "Sat", "time": "3:30pm"}, {"days": "Sun", "time": "Closed"}], "id": "0380100038", "name": "USPS COLLECTION BOX - BLUE BOX", "address": {"city": "NEWINGTON", "state": "NH", "street": "1465 WOODBURY AVE", "postcode": "03801"}}},
{"geometry": {"type": "Point", "coordinates": [-70.7755394414, 43.0663121375]}, "type": "Feature", "properties": {"collection_times": [{"days": "Mon-Sat", "time": "9:00am"}, {"days": "Sun", "time": "Closed"}], "id": "0380100039", "name": "USPS COLLECTION BOX - BLUE BOX", "address": {"city": "NEWINGTON", "state": "NH", "street": "1 FALKLAND PL", "postcode": "03801"}}},
{"geometry": {"type": "Point", "coordinates": [-70.7677697595, 43.0555708147]}, "type": "Feature", "properties": {"collection_times": [{"days": "Mon-Sat", "time": "9:00am"}, {"days": "Sun", "time": "Closed"}], "id": "0380100041", "name": "USPS COLLECTION BOX - BLUE BOX", "address": {"city": "NEWINGTON", "state": "NH", "street": "107 LEDGEWOOD DR", "postcode": "03801"}}},
{"geometry": {"type": "Point", "coordinates": [-70.7857497533, 43.0662698596]}, "type": "Feature", "properties": {"collection_times": [{"days": "Mon-Fri", "time": "4:00pm"}, {"days": "Sat", "time": "3:00pm"}, {"days": "Sun", "time": "Closed"}], "id": "0380100042", "name": "USPS COLLECTION BOX - BLUE BOX", "address": {"city": "NEWINGTON", "state": "NH", "street": "225 BORTHWICK AVE", "postcode": "03801"}}},
{"geometry": {"type": "Point", "coordinates": [-70.7576203112, 43.0771237316]}, "type": "Feature", "properties": {"collection_times": [{"days": "Mon-Fri", "time": "5:30pm"}, {"days": "Sat", "time": "4:00pm"}, {"days": "Sun", "time": "Closed"}], "id": "0380100044", "name": "USPS COLLECTION BOX - BLUE BOX", "address": {"city": "NEWINGTON", "state": "NH", "street": "10 MARKET SQ", "postcode": "03801"}}},
{"geometry": {"type": "Point", "coordinates": [-70.7643851732, 43.0836932399]}, "type": "Feature", "properties": {"collection_times": [{"days": "Mon-Fri", "time": "5:00pm"}, {"days": "Sat", "time": "3:30pm"}, {"days": "Sun", "time": "Closed"}], "id": "0380100046", "name": "USPS COLLECTION BOX - BLUE BOX", "address": {"city": "NEWINGTON", "state": "NH", "street": "500 MARKET ST", "postcode": "03801"}}},
{"geometry": {"type": "Point", "coordinates": [-70.7745072197, 43.040982536]}, "type": "Feature", "properties": {"collection_times": [{"days": "Mon-Sat", "time": "9:30am"}, {"days": "Sun", "time": "Closed"}], "id": "0380100048", "name": "USPS COLLECTION BOX - BLUE BOX", "address": {"city": "NEWINGTON", "state": "NH", "street": "196 MCKINLEY RD", "postcode": "03801"}}},
{"geometry": {"type": "Point", "coordinates": [-70.7672180428, 43.064701145]}, "type": "Feature", "properties": {"collection_times": [{"days": "Mon-Sat", "time": "9:00am"}, {"days": "Sun", "time": "Closed"}], "id": "0380100049", "name": "USPS COLLECTION BOX - BLUE BOX", "address": {"city": "NEWINGTON", "state": "NH", "street": "546 MIDDLE ST", "postcode": "03801"}}},
{"geometry": {"type": "Point", "coordinates": [-70.7617085497, 43.0723278597]}, "type": "Feature", "properties": {"collection_times": [{"days": "Mon-Fri", "time": "5:00pm"}, {"days": "Sat", "time": "3:30pm"}, {"days": "Sun", "time": "Closed"}], "id": "0380100050", "name": "USPS COLLECTION BOX - BLUE BOX", "address": {"city": "NEWINGTON", "state": "NH", "street": "245 MIDDLE ST", "postcode": "03801"}}},
{"geometry": {"type": "Point", "coordinates": [-70.8311907057, 43.1050688064]}, "type": "Feature", "properties": {"collection_times": [{"days": "Mon-Sat", "time": "9:00am"}, {"days": "Sun", "time": "Closed"}], "id": "0380100053", "name": "USPS COLLECTION BOX - BLUE BOX", "address": {"city": "NEWINGTON", "state": "NH", "street": "205 NIMBLE HILL RD", "postcode": "03801"}}},
{"geometry": {"type": "Point", "coordinates": [-70.7624663506, 43.0639217431]}, "type": "Feature", "properties": {"collection_times": [{"days": "Mon-Fri", "time": "9:00am"}, {"days": "Sat-Sun", "time": "Closed"}], "id": "0380100055", "name": "USPS COLLECTION BOX - BLUE BOX", "address": {"city": "NEWINGTON", "state": "NH", "street": "256 WIBIRD ST", "postcode": "03801"}}},
{"geometry": {"type": "Point", "coordinates": [-70.7977167933, 43.057506362]}, "type": "Feature", "properties": {"collection_times": [{"days": "Mon-Fri", "time": "4:00pm"}, {"days": "Sat", "time": "3:00pm"}, {"days": "Sun", "time": "Closed"}], "id": "0380100056", "name": "USPS COLLECTION BOX - BLUE BOX", "address": {"city": "NEWINGTON", "state": "NH", "street": "875 GREENLAND RD", "postcode": "03801"}}},
{"geometry": {"type": "Point", "coordinates": [-70.7755394414, 43.0663121375]}, "type": "Feature", "properties": {"collection_times": [{"days": "Mon-Fri", "time": "4:00pm"}, {"days": "Sat", "time": "3:00pm"}, {"days": "Sun", "time": "Closed"}], "id": "0380100057", "name": "USPS COLLECTION BOX - EXPRESS", "address": {"city": "NEWINGTON", "state": "NH", "street": "875 GREENLAND RD", "postcode": "03801"}}},
{"geometry": {"type": "Point", "coordinates": [-70.7508063247, 43.0730619982]}, "type": "Feature", "properties": {"collection_times": [{"days": "Mon-Fri", "time": "5:00pm"}, {"days": "Sat", "time": "3:30pm"}, {"days": "Sun", "time": "Closed"}], "id": "0380100064", "name": "USPS COLLECTION BOX - BLUE BOX", "address": {"city": "NEWINGTON", "state": "NH", "street": "93 PLEASANT ST", "postcode": "03801"}}},
{"geometry": {"type": "Point", "coordinates": [-70.7607392674, 43.0757323345]}, "type": "Feature", "properties": {"collection_times": [{"days": "Mon-Fri", "time": "5:00pm"}, {"days": "Sat", "time": "3:30pm"}, {"days": "Sun", "time": "Closed"}], "id": "0380100065", "name": "USPS COLLECTION BOX - BLUE BOX", "address": {"city": "NEWINGTON", "state": "NH", "street": "111 MAPLEWOOD AVE", "postcode": "03801"}}},
{"geometry": {"type": "Point", "coordinates": [-70.7904659221, 43.0637362463]}, "type": "Feature", "properties": {"collection_times": [{"days": "Mon-Fri", "time": "4:00pm"}, {"days": "Sat", "time": "3:00pm"}, {"days": "Sun", "time": "Closed"}], "id": "0380100066", "name": "USPS COLLECTION BOX - BLUE BOX", "address": {"city": "NEWINGTON", "state": "NH", "street": "333 BORTHWICK AVE", "postcode": "03801"}}},
{"geometry": {"type": "Point", "coordinates": [-70.7585742812, 43.069090235]}, "type": "Feature", "properties": {"collection_times": [{"days": "Mon-Fri", "time": "9:00am"}, {"days": "Sat-Sun", "time": "Closed"}], "id": "0380100067", "name": "USPS COLLECTION BOX - BLUE BOX", "address": {"city": "NEWINGTON", "state": "NH", "street": "337 RICHARDS AVE", "postcode": "03801"}}},
{"geometry": {"type": "Point", "coordinates": [-70.788775918, 43.0292243775]}, "type": "Feature", "properties": {"collection_times": [{"days": "Mon-Fri", "time": "9:00am"}, {"days": "Sat-Sun", "time": "Closed"}], "id": "0380100068", "name": "USPS COLLECTION BOX - BLUE BOX", "address": {"city": "NEWINGTON", "state": "NH", "street": "3 ROBERT AVE", "postcode": "03801"}}},
{"geometry": {"type": "Point", "coordinates": [-70.761638236, 43.0691915607]}, "type": "Feature", "properties": {"collection_times": [{"days": "Mon-Sat", "time": "9:00am"}, {"days": "Sun", "time": "Closed"}], "id": "0380100069", "name": "USPS COLLECTION BOX - BLUE BOX", "address": {"city": "NEWINGTON", "state": "NH", "street": "263 ROCKLAND ST", "postcode": "03801"}}},
{"geometry": {"type": "Point", "coordinates": [-70.8009866455, 43.0624096336]}, "type": "Feature", "properties": {"collection_times": [{"days": "Mon-Fri", "time": "9:00am"}, {"days": "Sat-Sun", "time": "Closed"}], "id": "0380100071", "name": "USPS COLLECTION BOX - BLUE BOX", "address": {"city": "NEWINGTON", "state": "NH", "street": "725 COLONIAL DR", "postcode": "03801"}}},
{"geometry": {"type": "Point", "coordinates": [-70.7593179754, 43.0661739485]}, "type": "Feature", "properties": {"collection_times": [{"days": "Mon-Fri", "time": "9:00am"}, {"days": "Sat-Sun", "time": "Closed"}], "id": "0380100072", "name": "USPS COLLECTION BOX - BLUE BOX", "address": {"city": "NEWINGTON", "state": "NH", "street": "332 BROAD ST", "postcode": "03801"}}},
{"geometry": {"type": "Point", "coordinates": [-70.7532445239, 43.0693112506]}, "type": "Feature", "properties": {"collection_times": [{"days": "Mon-Sat", "time": "9:00am"}, {"days": "Sun", "time": "Closed"}], "id": "0380100073", "name": "USPS COLLECTION BOX - BLUE BOX", "address": {"city": "NEWINGTON", "state": "NH", "street": "283 SOUTH ST", "postcode": "03801"}}},
{"geometry": {"type": "Point", "coordinates": [-70.7821719912, 43.0338004378]}, "type": "Feature", "properties": {"collection_times": [{"days": "Mon-Fri", "time": "10:00am"}, {"days": "Sat-Sun", "time": "Closed"}], "id": "0380100075", "name": "USPS COLLECTION BOX - BLUE BOX", "address": {"city": "NEWINGTON", "state": "NH", "street": "100 SPRINGBROOK CIR", "postcode": "03801"}}},
{"geometry": {"type": "Point", "coordinates": [-70.7828288822, 43.0797291383]}, "type": "Feature", "properties": {"collection_times": [{"days": "Mon-Sat", "time": "9:30am"}, {"days": "Sun", "time": "Closed"}], "id": "0380100076", "name": "USPS COLLECTION BOX - BLUE BOX", "address": {"city": "NEWINGTON", "state": "NH", "street": "845 WOODBURY AVE", "postcode": "03801"}}},
{"geometry": {"type": "Point", "coordinates": [-70.7684092875, 43.0704713734]}, "type": "Feature", "properties": {"collection_times": [{"days": "Mon-Fri", "time": "5:00pm"}, {"days": "Sat-Sun", "time": "Closed"}], "id": "0380100079", "name": "USPS COLLECTION BOX - BLUE BOX", "address": {"city": "NEWINGTON", "state": "NH", "street": "600 STATE ST", "postcode": "03801"}}},
{"geometry": {"type": "Point", "coordinates": [-70.7684092875, 43.0704713734]}, "type": "Feature", "properties": {"collection_times": [{"days": "Mon-Fri", "time": "5:00pm"}, {"days": "Sat-Sun", "time": "Closed"}], "id": "0380100080", "name": "USPS COLLECTION BOX - BLUE BOX", "address": {"city": "NEWINGTON", "state": "NH", "street": "600 STATE ST", "postcode": "03801"}}},
{"geometry": {"type": "Point", "coordinates": [-70.7732661414, 43.0586366169]}, "type": "Feature", "properties": {"collection_times": [{"days": "Mon-Fri", "time": "5:30pm"}, {"days": "Sat", "time": "4:00pm"}, {"days": "Sun", "time": "Closed"}], "id": "0380100082", "name": "USPS COLLECTION BOX - BLUE BOX", "address": {"city": "NEWINGTON", "state": "NH", "street": "10 VAUGHAN MALL", "postcode": "03801"}}},
{"geometry": {"type": "Point", "coordinates": [-70.7755394414, 43.0663121375]}, "type": "Feature", "properties": {"collection_times": [{"days": "Mon-Fri", "time": "5:30pm"}, {"days": "Sat", "time": "4:00pm"}, {"days": "Sun", "time": "Closed"}], "id": "0380100083", "name": "USPS COLLECTION BOX - EXPRESS", "address": {"city": "NEWINGTON", "state": "NH", "street": "10 VAUGHAN MALL", "postcode": "03801"}}},
{"geometry": {"type": "Point", "coordinates": [-70.7508063247, 43.0730619982]}, "type": "Feature", "properties": {"collection_times": [{"days": "Mon-Sat", "time": "9:00am"}, {"days": "Sun", "time": "Closed"}], "id": "0380100085", "name": "USPS COLLECTION BOX - BLUE BOX", "address": {"city": "NEWINGTON", "state": "NH", "street": "346 PLEASANT ST", "postcode": "03801"}}},
{"geometry": {"type": "Point", "coordinates": [-70.7764323074, 43.0416327663]}, "type": "Feature", "properties": {"collection_times": [{"days": "Mon-Sat", "time": "9:00am"}, {"days": "Sun", "time": "Closed"}], "id": "0380100086", "name": "USPS COLLECTION BOX - BLUE BOX", "address": {"city": "NEWINGTON", "state": "NH", "street": "240 WEST RD", "postcode": "03801"}}},
{"geometry": {"type": "Point", "coordinates": [-70.7855786602, 43.0313817565]}, "type": "Feature", "properties": {"collection_times": [{"days": "Mon-Sat", "time": "10:00am"}, {"days": "Sun", "time": "Closed"}], "id": "0380100089", "name": "USPS COLLECTION BOX - BLUE BOX", "address": {"city": "NEWINGTON", "state": "NH", "street": "100 WHITE CEDAR BLVD", "postcode": "03801"}}},
{"geometry": {"type": "Point", "coordinates": [-70.7732661414, 43.0586366169]}, "type": "Feature", "properties": {"collection_times": [{"days": "Mon-Sat", "time": "9:00am"}, {"days": "Sun", "time": "Closed"}], "id": "0380100090", "name": "USPS COLLECTION BOX - BLUE BOX", "address": {"city": "NEWINGTON", "state": "NH", "street": "131 WOODBURY AVE", "postcode": "03801"}}},
{"geometry": {"type": "Point", "coordinates": [-70.7990355257, 43.0362177766]}, "type": "Feature", "properties": {"collection_times": [{"days": "Mon-Fri", "time": "6:00pm"}, {"days": "Sat", "time": "5:00pm"}, {"days": "Sun", "time": "Closed"}], "id": "0380100092", "name": "USPS COLLECTION BOX - BLUE BOX", "address": {"city": "NEWINGTON", "state": "NH", "street": "345 HERITAGE AVE", "postcode": "03801"}}},
{"geometry": {"type": "Point", "coordinates": [-70.7796002577, 43.0847240666]}, "type": "Feature", "properties": {"collection_times": [{"days": "Mon-Fri", "time": "4:30pm"}, {"days": "Sat-Sun", "time": "Closed"}], "id": "0380100095", "name": "USPS COLLECTION BOX - BLUE BOX", "address": {"city": "NEWINGTON", "state": "NH", "street": "1000 MARKET ST", "postcode": "03801"}}},
{"geometry": {"type": "Point", "coordinates": [-70.7541930903, 43.0780154516]}, "type": "Feature", "properties": {"collection_times": [{"days": "Mon-Fri", "time": "5:00pm"}, {"days": "Sat-Sun", "time": "Closed"}], "id": "0380100096", "name": "USPS COLLECTION BOX - BLUE BOX", "address": {"city": "NEWINGTON", "state": "NH", "street": "1 HARBOUR PL", "postcode": "03801"}}},
{"geometry": {"type": "Point", "coordinates": [-70.7647806581, 43.0716134947]}, "type": "Feature", "properties": {"collection_times": [{"days": "Mon-Sat", "time": "9:00am"}, {"days": "Sun", "time": "Closed"}], "id": "0380100097", "name": "USPS COLLECTION BOX - BLUE BOX", "address": {"city": "NEWINGTON", "state": "NH", "street": "125 CABOT ST", "postcode": "03801"}}},
{"geometry": {"type": "Point", "coordinates": [-70.7755394409, 43.0663121834]}, "type": "Feature", "properties": {"collection_times": [{"days": "Mon-Fri", "time": "3:00pm"}, {"days": "Sat", "time": "12:00pm"}, {"days": "Sun", "time": "Closed"}], "id": "0380100098", "name": "USPS COLLECTION BOX - BLUE BOX", "address": {"city": "NEWINGTON", "state": "NH", "street": "1 GREENLEAF WOODS DR", "postcode": "03801"}}},
{"geometry": {"type": "Point", "coordinates": [-70.7684092875, 43.0704713734]}, "type": "Feature", "properties": {"collection_times": [{"days": "Mon-Fri", "time": "5:00pm"}, {"days": "Sat-Sun", "time": "Closed"}], "id": "0380100099", "name": "USPS COLLECTION BOX - EXPRESS", "address": {"city": "NEWINGTON", "state": "NH", "street": "600 STATE ST", "postcode": "03801"}}},
{"geometry": {"type": "Point", "coordinates": [-70.7732195432, 43.0443863889]}, "type": "Feature", "properties": {"collection_times": [{"days": "Mon-Sat", "time": "9:00am"}, {"days": "Sun", "time": "Closed"}], "id": "0380100102", "name": "USPS COLLECTION BOX - BLUE BOX", "address": {"city": "NEWINGTON", "state": "NH", "street": "1500 LAFAYETTE RD", "postcode": "03801"}}},
{"geometry": {"type": "Point", "coordinates": [-70.7776838181, 43.0861301132]}, "type": "Feature", "properties": {"collection_times": [{"days": "Mon-Fri", "time": "9:30am"}, {"days": "Sat-Sun", "time": "Closed"}], "id": "0380100103", "name": "USPS COLLECTION BOX - BLUE BOX", "address": {"city": "NEWINGTON", "state": "NH", "street": "70 SPINNAKER WAY", "postcode": "03801"}}},
{"geometry": {"type": "Point", "coordinates": [-70.7724161812, 43.0707732964]}, "type": "Feature", "properties": {"collection_times": [{"days": "Mon-Fri", "time": "4:00pm"}, {"days": "Sat-Sun", "time": "Closed"}], "id": "0380100105", "name": "USPS COLLECTION BOX - BLUE BOX", "address": {"city": "NEWINGTON", "state": "NH", "street": "1 CATE ST", "postcode": "03801"}}},
{"geometry": {"type": "Point", "coordinates": [-70.7643851732, 43.0836932399]}, "type": "Feature", "properties": {"collection_times": [{"days": "Mon-Fri", "time": "5:00pm"}, {"days": "Sat", "time": "3:30pm"}, {"days": "Sun", "time": "Closed"}], "id": "0380100107", "name": "USPS COLLECTION BOX - BLUE BOX", "address": {"city": "NEWINGTON", "state": "NH", "street": "500 MARKET ST", "postcode": "03801"}}},
{"geometry": {"type": "Point", "coordinates": [-70.7581844215, 43.0748889927]}, "type": "Feature", "properties": {"collection_times": [{"days": "Mon-Fri", "time": "5:00pm"}, {"days": "Sat", "time": "3:30pm"}, {"days": "Sun", "time": "Closed"}], "id": "0380100109", "name": "USPS COLLECTION BOX - BLUE BOX", "address": {"city": "NEWINGTON", "state": "NH", "street": "140 COURT ST", "postcode": "03801"}}},
{"geometry": {"type": "Point", "coordinates": [-70.7755394409, 43.0663121834]}, "type": "Feature", "properties": {"collection_times": [{"days": "Mon-Fri", "time": "5:00pm"}, {"days": "Sat", "time": "3:30pm"}, {"days": "Sun", "time": "Closed"}], "id": "0380100110", "name": "USPS COLLECTION BOX - BLUE BOX", "address": {"city": "NEWINGTON", "state": "NH", "street": "1465 WOODBURY AVE", "postcode": "03801"}}},
{"geometry": {"type": "Point", "coordinates": [-70.768566914, 43.0619836566]}, "type": "Feature", "properties": {"collection_times": [{"days": "Mon-Fri", "time": "5:00pm"}, {"days": "Sat", "time": "3:00pm"}, {"days": "Sun", "time": "Closed"}], "id": "0380100111", "name": "USPS COLLECTION BOX - BLUE BOX", "address": {"city": "NEWINGTON", "state": "NH", "street": "230 LAFAYETTE RD", "postcode": "03801"}}},
{"geometry": {"type": "Point", "coordinates": [-70.7728684078, 43.0686416394]}, "type": "Feature", "properties": {"collection_times": [{"days": "Mon-Fri", "time": "5:45pm"}, {"days": "Sat", "time": "4:30pm"}, {"days": "Sun", "time": "Closed"}], "id": "0380100114", "name": "USPS COLLECTION BOX - BLUE BOX", "address": {"city": "NEWINGTON", "state": "NH", "street": "800 ISLINGTON ST", "postcode": "03801"}}},
{"geometry": {"type": "Point", "coordinates": [-70.7755394414, 43.0663121375]}, "type": "Feature", "properties": {"collection_times": [{"days": "Mon-Fri", "time": "4:45pm"}, {"days": "Sat", "time": "1:30pm"}, {"days": "Sun", "time": "Closed"}], "id": "0380100117", "name": "USPS COLLECTION BOX - EXPRESS", "address": {"city": "NEWINGTON", "state": "NH", "street": "1 MANCHESTER SQ", "postcode": "03801"}}},
{"geometry": {"type": "Point", "coordinates": [-70.7990355257, 43.0362177766]}, "type": "Feature", "properties": {"collection_times": [{"days": "Mon-Fri", "time": "6:00pm"}, {"days": "Sat", "time": "5:00pm"}, {"days": "Sun", "time": "Closed"}], "id": "0380100118", "name": "USPS COLLECTION BOX - BLUE BOX", "address": {"city": "NEWINGTON", "state": "NH", "street": "345 HERITAGE AVE", "postcode": "03801"}}},
{"geometry": {"type": "Point", "coordinates": [-70.8084653636, 43.0880713134]}, "type": "Feature", "properties": {"collection_times": [{"days": "Mon-Fri", "time": "4:30pm"}, {"days": "Sat-Sun", "time": "Closed"}], "id": "0380100119", "name": "USPS COLLECTION BOX - BLUE BOX", "address": {"city": "NEWINGTON", "state": "NH", "street": "2 INTERNATIONAL DR", "postcode": "03801"}}},
{"geometry": {"type": "Point", "coordinates": [-70.8076633501, 43.0855482531]}, "type": "Feature", "properties": {"collection_times": [{"days": "Mon-Fri", "time": "4:45pm"}, {"days": "Sat", "time": "1:30pm"}, {"days": "Sun", "time": "Closed"}], "id": "0380100121", "name": "USPS COLLECTION BOX - BLUE BOX", "address": {"city": "NEWINGTON", "state": "NH", "street": "1 MANCHESTER SQ", "postcode": "03801"}}},
{"geometry": {"type": "Point", "coordinates": [-70.8068052909, 43.074098769]}, "type": "Feature", "properties": {"collection_times": [{"days": "Mon-Fri", "time": "5:15pm"}, {"days": "Sat-Sun", "time": "Closed"}], "id": "0380100124", "name": "USPS COLLECTION BOX - BLUE BOX", "address": {"city": "NEWINGTON", "state": "NH", "street": "144 AVIATION AVE", "postcode": "03801"}}},
{"geometry": {"type": "Point", "coordinates": [-70.8068052909, 43.074098769]}, "type": "Feature", "properties": {"collection_times": [{"days": "Mon-Fri", "time": "5:15pm"}, {"days": "Sat-Sun", "time": "Closed"}], "id": "0380100125", "name": "USPS COLLECTION BOX - EXPRESS", "address": {"city": "NEWINGTON", "state": "NH", "street": "144 AVIATION AVE", "postcode": "03801"}}},
{"geometry": {"type": "Point", "coordinates": [-70.8084653636, 43.0880713134]}, "type": "Feature", "properties": {"collection_times": [{"days": "Mon-Fri", "time": "4:30pm"}, {"days": "Sat-Sun", "time": "Closed"}], "id": "0380100127", "name": "USPS COLLECTION BOX - BLUE BOX", "address": {"city": "NEWINGTON", "state": "NH", "street": "2 INTERNATIONAL DR", "postcode": "03801"}}},
{"geometry": {"type": "Point", "coordinates": [-70.8091906312, 43.0852301278]}, "type": "Feature", "properties": {"collection_times": [{"days": "Mon-Fri", "time": "4:30pm"}, {"days": "Sat-Sun", "time": "Closed"}], "id": "0380100133", "name": "USPS COLLECTION BOX - BLUE BOX", "address": {"city": "NEWINGTON", "state": "NH", "street": "14 MANCHESTER SQ", "postcode": "03801"}}},
{"geometry": {"type": "Point", "coordinates": [-71.2192089934, 43.4544241038]}, "type": "Feature", "properties": {"collection_times": [{"days": "Mon-Fri", "time": "4:00pm"}, {"days": "Sat", "time": "12:00pm"}, {"days": "Sun", "time": "Closed"}], "id": "0380900001", "name": "USPS COLLECTION BOX - BLUE BOX", "address": {"city": "ALTON", "state": "NH", "street": "9 SCHOOL ST", "postcode": "03809"}}},
{"geometry": {"type": "Point", "coordinates": [-71.2192089934, 43.4544241038]}, "type": "Feature", "properties": {"collection_times": [{"days": "Mon-Fri", "time": "4:00pm"}, {"days": "Sat", "time": "12:00pm"}, {"days": "Sun", "time": "Closed"}], "id": "0380900003", "name": "USPS COLLECTION BOX - PO LOBBY", "address": {"city": "ALTON", "state": "NH", "street": "9 SCHOOL ST", "postcode": "03809"}}},
{"geometry": {"type": "Point", "coordinates": [-71.2763888469, 43.5068530856]}, "type": "Feature", "properties": {"collection_times": [{"days": "Mon-Fri", "time": "4:00pm"}, {"days": "Sat", "time": "12:00pm"}, {"days": "Sun", "time": "Closed"}], "id": "0381000001", "name": "USPS COLLECTION BOX - BLUE BOX", "address": {"city": "ALTON BAY", "state": "NH", "street": "5 MOUNT MAJOR HWY UNIT 1", "postcode": "03810"}}},
{"geometry": {"type": "Point", "coordinates": [-71.2763888469, 43.5068530856]}, "type": "Feature", "properties": {"collection_times": [{"days": "Mon-Fri", "time": "4:00pm"}, {"days": "Sat", "time": "12:00pm"}, {"days": "Sun", "time": "Closed"}], "id": "0381000002", "name": "USPS COLLECTION BOX - PO LOBBY", "address": {"city": "ALTON BAY", "state": "NH", "street": "5 MOUNT MAJOR HWY UNIT 1", "postcode": "03810"}}},
{"geometry": {"type": "Point", "coordinates": [-71.1437613062, 42.8401357576]}, "type": "Feature", "properties": {"collection_times": [{"days": "Mon-Fri", "time": "9:15am"}, {"days": "Sat", "time": "9:00am"}, {"days": "Sun", "time": "Closed"}], "id": "0381100001", "name": "USPS COLLECTION BOX - BLUE BOX", "address": {"city": "ATKINSON", "state": "NH", "street": "21 ACADEMY AVE", "postcode": "03811"}}},
{"geometry": {"type": "Point", "coordinates": [-71.1609273321, 42.8378622546]}, "type": "Feature", "properties": {"collection_times": [{"days": "Mon-Fri", "time": "9:30am"}, {"days": "Sat", "time": "9:00am"}, {"days": "Sun", "time": "Closed"}], "id": "0381100002", "name": "USPS COLLECTION BOX - BLUE BOX", "address": {"city": "ATKINSON", "state": "NH", "street": "1 BRYANT WOODS RD", "postcode": "03811"}}},
{"geometry": {"type": "Point", "coordinates": [-71.160134778, 42.8427154518]}, "type": "Feature", "properties": {"collection_times": [{"days": "Mon-Sat", "time": "11:00am"}, {"days": "Sun", "time": "Closed"}], "id": "0381100004", "name": "USPS COLLECTION BOX - BLUE BOX", "address": {"city": "ATKINSON", "state": "NH", "street": "130 MAIN ST", "postcode": "03811"}}},
{"geometry": {"type": "Point", "coordinates": [-71.1975230172, 42.8523722268]}, "type": "Feature", "properties": {"collection_times": [{"days": "Mon-Fri", "time": "11:00am"}, {"days": "Sat", "time": "10:30am"}, {"days": "Sun", "time": "Closed"}], "id": "0381100009", "name": "USPS COLLECTION BOX - BLUE BOX", "address": {"city": "ATKINSON", "state": "NH", "street": "3 COMMERCE DR", "postcode": "03811"}}},
{"geometry": {"type": "Point", "coordinates": [-71.1964713553, 42.8548225265]}, "type": "Feature", "properties": {"collection_times": [{"days": "Mon-Fri", "time": "11:00am"}, {"days": "Sat", "time": "10:30am"}, {"days": "Sun", "time": "Closed"}], "id": "0381100012", "name": "USPS COLLECTION BOX - BLUE BOX", "address": {"city": "ATKINSON", "state": "NH", "street": "2 HALL FARM RD", "postcode": "03811"}}},
{"geometry": {"type": "Point", "coordinates": [-71.4068907373, 44.2132276537]}, "type": "Feature", "properties": {"collection_times": [{"days": "Mon-Fri", "time": "3:30pm"}, {"days": "Sat", "time": "12:00pm"}, {"days": "Sun", "time": "Closed"}], "id": "0381200001", "name": "USPS COLLECTION BOX - BLUE BOX", "address": {"city": "HARTS LOCATION", "state": "NH", "street": "1 US ROUTE 302", "postcode": "03812"}}},
{"geometry": {"type": "Point", "coordinates": [-71.4068907373, 44.2132276537]}, "type": "Feature", "properties": {"collection_times": [{"days": "Mon-Fri", "time": "3:30pm"}, {"days": "Sat", "time": "12:00pm"}, {"days": "Sun", "time": "Closed"}], "id": "0381200002", "name": "USPS COLLECTION BOX - PO LOBBY", "address": {"city": "HARTS LOCATION", "state": "NH", "street": "1 US ROUTE 302", "postcode": "03812"}}},
{"geometry": {"type": "Point", "coordinates": [-71.0645019731, 43.9955638647]}, "type": "Feature", "properties": {"collection_times": [{"days": "Mon-Fri", "time": "4:15pm"}, {"days": "Sat", "time": "11:30am"}, {"days": "Sun", "time": "Closed"}], "id": "0381300001", "name": "USPS COLLECTION BOX - BLUE BOX", "address": {"city": "CENTER CONWAY", "state": "NH", "street": "1848 E MAIN ST", "postcode": "03813"}}},
{"geometry": {"type": "Point", "coordinates": [-71.0645019731, 43.9955638647]}, "type": "Feature", "properties": {"collection_times": [{"days": "Mon-Fri", "time": "4:15pm"}, {"days": "Sat", "time": "11:30am"}, {"days": "Sun", "time": "Closed"}], "id": "0381300002", "name": "USPS COLLECTION BOX - PO LOBBY", "address": {"city": "CENTER CONWAY", "state": "NH", "street": "1848 E MAIN ST", "postcode": "03813"}}},
{"geometry": {"type": "Point", "coordinates": [-71.1098659941, 44.0163464393]}, "type": "Feature", "properties": {"collection_times": [{"days": "Mon-Fri", "time": "12:00pm"}, {"days": "Sat-Sun", "time": "Closed"}], "id": "0381300003", "name": "USPS COLLECTION BOX - BLUE BOX", "address": {"city": "CENTER CONWAY", "state": "NH", "street": "1150 EASTMAN RD", "postcode": "03813"}}},
{"geometry": {"type": "Point", "coordinates": [-71.1501459696, 43.7530851617]}, "type": "Feature", "properties": {"collection_times": [{"days": "Mon-Fri", "time": "4:30pm"}, {"days": "Sat", "time": "12:00pm"}, {"days": "Sun", "time": "Closed"}], "id": "0381400002", "name": "USPS COLLECTION BOX - BLUE BOX", "address": {"city": "CENTER OSSIPEE", "state": "NH", "street": "71 MAIN ST", "postcode": "03814"}}},
{"geometry": {"type": "Point", "coordinates": [-71.1335766669, 43.7491309185]}, "type": "Feature", "properties": {"collection_times": [{"days": "Mon-Sat", "time": "9:30am"}, {"days": "Sun", "time": "Closed"}], "id": "0381400003", "name": "USPS COLLECTION BOX - BLUE BOX", "address": {"city": "CENTER OSSIPEE", "state": "NH", "street": "250 ROUTE 16B", "postcode": "03814"}}},
{"geometry": {"type": "Point", "coordinates": [-71.1501459696, 43.7530851617]}, "type": "Feature", "properties": {"collection_times": [{"days": "Mon-Fri", "time": "4:30pm"}, {"days": "Sat", "time": "12:00pm"}, {"days": "Sun", "time": "Closed"}], "id": "0381400005", "name": "USPS COLLECTION BOX - PO LOBBY", "address": {"city": "CENTER OSSIPEE", "state": "NH", "street": "71 MAIN ST", "postcode": "03814"}}},
{"geometry": {"type": "Point", "coordinates": [-71.2212097284, 43.878882642]}, "type": "Feature", "properties": {"collection_times": [{"days": "Mon-Fri", "time": "4:30pm"}, {"days": "Sat", "time": "11:30am"}, {"days": "Sun", "time": "Closed"}], "id": "0381700001", "name": "USPS COLLECTION BOX - BLUE BOX", "address": {"city": "CHOCORUA", "state": "NH", "street": "40 CHOCORUA MOUNTAIN HWY", "postcode": "03817"}}},
{"geometry": {"type": "Point", "coordinates": [-71.2212097284, 43.878882642]}, "type": "Feature", "properties": {"collection_times": [{"days": "Mon-Fri", "time": "4:30pm"}, {"days": "Sat", "time": "12:00pm"}, {"days": "Sun", "time": "Closed"}], "id": "0381700002", "name": "USPS COLLECTION BOX - PO LOBBY", "address": {"city": "CHOCORUA", "state": "NH", "street": "40 CHOCORUA MOUNTAIN HWY", "postcode": "03817"}}},
{"geometry": {"type": "Point", "coordinates": [-71.1306958938, 43.9787450212]}, "type": "Feature", "properties": {"collection_times": [{"days": "Mon-Sat", "time": "10:30am"}, {"days": "Sun", "time": "Closed"}], "id": "0381800001", "name": "USPS COLLECTION BOX - BLUE BOX", "address": {"city": "CONWAY", "state": "NH", "street": "234 WHITE MOUNTAIN HWY", "postcode": "03818"}}},
{"geometry": {"type": "Point", "coordinates": [-71.1274450552, 43.9787800308]}, "type": "Feature", "properties": {"collection_times": [{"days": "Mon-Fri", "time": "5:00pm"}, {"days": "Sat", "time": "2:15pm"}, {"days": "Sun", "time": "Closed"}], "id": "0381800002", "name": "USPS COLLECTION BOX - BLUE BOX", "address": {"city": "CONWAY", "state": "NH", "street": "175 MAIN ST", "postcode": "03818"}}},
{"geometry": {"type": "Point", "coordinates": [-71.1274450552, 43.9787800308]}, "type": "Feature", "properties": {"collection_times": [{"days": "Mon-Fri", "time": "5:00pm"}, {"days": "Sat", "time": "2:15pm"}, {"days": "Sun", "time": "Closed"}], "id": "0381800005", "name": "USPS COLLECTION BOX - PO LOBBY", "address": {"city": "CONWAY", "state": "NH", "street": "175 MAIN ST", "postcode": "03818"}}},
{"geometry": {"type": "Point", "coordinates": [-71.1274450552, 43.9787800308]}, "type": "Feature", "properties": {"collection_times": [{"days": "Mon-Fri", "time": "5:00pm"}, {"days": "Sat", "time": "2:15pm"}, {"days": "Sun", "time": "Closed"}], "id": "0381800006", "name": "USPS COLLECTION BOX - PO LOBBY", "address": {"city": "CONWAY", "state": "NH", "street": "175 MAIN ST", "postcode": "03818"}}},
{"geometry": {"type": "Point", "coordinates": [-71.1274450552, 43.9787800308]}, "type": "Feature", "properties": {"collection_times": [{"days": "Mon-Fri", "time": "5:00pm"}, {"days": "Sat", "time": "2:15pm"}, {"days": "Sun", "time": "Closed"}], "id": "0381800007", "name": "USPS COLLECTION BOX - BLUE BOX", "address": {"city": "CONWAY", "state": "NH", "street": "175 MAIN ST", "postcode": "03818"}}},
{"geometry": {"type": "Point", "coordinates": [-71.1163108242, 43.9782466121]}, "type": "Feature", "properties": {"collection_times": [{"days": "Mon-Sat", "time": "10:00am"}, {"days": "Sun", "time": "Closed"}], "id": "0381800009", "name": "USPS COLLECTION BOX - BLUE BOX", "address": {"city": "CONWAY", "state": "NH", "street": "7 GREENWOOD AVE", "postcode": "03818"}}},
{"geometry": {"type": "Point", "coordinates": [-71.1372157718, 43.9749071123]}, "type": "Feature", "properties": {"collection_times": [{"days": "Mon-Sat", "time": "10:30am"}, {"days": "Sun", "time": "Closed"}], "id": "0381800010", "name": "USPS COLLECTION BOX - BLUE BOX", "address": {"city": "CONWAY", "state": "NH", "street": "128 W MAIN ST", "postcode": "03818"}}},
{"geometry": {"type": "Point", "coordinates": [-71.1294517983, 43.9744738724]}, "type": "Feature", "properties": {"collection_times": [{"days": "Mon-Fri", "time": "11:00am"}, {"days": "Sat", "time": "10:30am"}, {"days": "Sun", "time": "Closed"}], "id": "0381800012", "name": "USPS COLLECTION BOX - BLUE BOX", "address": {"city": "CONWAY", "state": "NH", "street": "73 HOBBS ST", "postcode": "03818"}}},
{"geometry": {"type": "Point", "coordinates": [-71.1227233213, 42.9179894567]}, "type": "Feature", "properties": {"collection_times": [{"days": "Mon-Fri", "time": "4:45pm"}, {"days": "Sat", "time": "12:00pm"}, {"days": "Sun", "time": "Closed"}], "id": "0381900001", "name": "USPS COLLECTION BOX - BLUE BOX", "address": {"city": "DANVILLE", "state": "NH", "street": "5 PINE ST", "postcode": "03819"}}},
{"geometry": {"type": "Point", "coordinates": [-71.1227233213, 42.9179894567]}, "type": "Feature", "properties": {"collection_times": [{"days": "Mon-Fri", "time": "5:00pm"}, {"days": "Sat", "time": "12:00pm"}, {"days": "Sun", "time": "Closed"}], "id": "0381900002", "name": "USPS COLLECTION BOX - PO LOBBY", "address": {"city": "DANVILLE", "state": "NH", "street": "5 PINE ST", "postcode": "03819"}}},
{"geometry": {"type": "Point", "coordinates": [-70.87814442, 43.1794682143]}, "type": "Feature", "properties": {"collection_times": [{"days": "Mon-Sat", "time": "9:00am"}, {"days": "Sun", "time": "Closed"}], "id": "0382000001", "name": "USPS COLLECTION BOX - BLUE BOX", "address": {"city": "DOVER", "state": "NH", "street": "2 BACK RIVER RD", "postcode": "03820"}}},
{"geometry": {"type": "Point", "coordinates": [-70.8736859087, 43.1855912844]}, "type": "Feature", "properties": {"collection_times": [{"days": "Mon-Fri", "time": "3:00pm"}, {"days": "Sat", "time": "12:00pm"}, {"days": "Sun", "time": "Closed"}], "id": "0382000004", "name": "USPS COLLECTION BOX - BLUE BOX", "address": {"city": "DOVER", "state": "NH", "street": "118 CENTRAL AVE", "postcode": "03820"}}},
{"geometry": {"type": "Point", "coordinates": [-70.8743177119, 43.193550913]}, "type": "Feature", "properties": {"collection_times": [{"days": "Mon-Fri", "time": "4:00pm"}, {"days": "Sat", "time": "2:45pm"}, {"days": "Sun", "time": "Closed"}], "id": "0382000006", "name": "USPS COLLECTION BOX - BLUE BOX", "address": {"city": "DOVER", "state": "NH", "street": "288 CENTRAL AVE", "postcode": "03820"}}},
{"geometry": {"type": "Point", "coordinates": [-70.8745170474, 43.1950990407]}, "type": "Feature", "properties": {"collection_times": [{"days": "Mon-Fri", "time": "3:00pm"}, {"days": "Sat", "time": "2:45pm"}, {"days": "Sun", "time": "Closed"}], "id": "0382000007", "name": "USPS COLLECTION BOX - BLUE BOX", "address": {"city": "DOVER", "state": "NH", "street": "353 CENTRAL AVE", "postcode": "03820"}}},
{"geometry": {"type": "Point", "coordinates": [-70.8740711554, 43.1976387242]}, "type": "Feature", "properties": {"collection_times": [{"days": "Mon-Fri", "time": "5:00pm"}, {"days": "Sat", "time": "2:45pm"}, {"days": "Sun", "time": "Closed"}], "id": "0382000008", "name": "USPS COLLECTION BOX - BLUE BOX", "address": {"city": "DOVER", "state": "NH", "street": "432 CENTRAL AVE", "postcode": "03820"}}},
{"geometry": {"type": "Point", "coordinates": [-70.875902788, 43.2010164117]}, "type": "Feature", "properties": {"collection_times": [{"days": "Mon-Fri", "time": "5:00pm"}, {"days": "Sat", "time": "2:30pm"}, {"days": "Sun", "time": "Closed"}], "id": "0382000013", "name": "USPS COLLECTION BOX - BLUE BOX", "address": {"city": "DOVER", "state": "NH", "street": "550 CENTRAL AVE", "postcode": "03820"}}},
{"geometry": {"type": "Point", "coordinates": [-70.8797891582, 43.1931602737]}, "type": "Feature", "properties": {"collection_times": [{"days": "Mon-Fri", "time": "4:00pm"}, {"days": "Sat", "time": "2:30pm"}, {"days": "Sun", "time": "Closed"}], "id": "0382000014", "name": "USPS COLLECTION BOX - BLUE BOX", "address": {"city": "DOVER", "state": "NH", "street": "633 CENTRAL AVE", "postcode": "03820"}}},
{"geometry": {"type": "Point", "coordinates": [-70.8746316045, 43.2107318695]}, "type": "Feature", "properties": {"collection_times": [{"days": "Mon-Fri", "time": "5:00pm"}, {"days": "Sat", "time": "2:30pm"}, {"days": "Sun", "time": "Closed"}], "id": "0382000015", "name": "USPS COLLECTION BOX - BLUE BOX", "address": {"city": "DOVER", "state": "NH", "street": "750 CENTRAL AVE", "postcode": "03820"}}},
{"geometry": {"type": "Point", "coordinates": [-70.8804776205, 43.2160039514]}, "type": "Feature", "properties": {"collection_times": [{"days": "Mon-Fri", "time": "12:00pm"}, {"days": "Sat", "time": "10:00am"}, {"days": "Sun", "time": "Closed"}], "id": "0382000017", "name": "USPS COLLECTION BOX - BLUE BOX", "address": {"city": "DOVER", "state": "NH", "street": "851 CENTRAL AVE", "postcode": "03820"}}},
{"geometry": {"type": "Point", "coordinates": [-70.8669239836, 43.1762480864]}, "type": "Feature", "properties": {"collection_times": [{"days": "Mon-Sat", "time": "9:00am"}, {"days": "Sun", "time": "Closed"}], "id": "0382000022", "name": "USPS COLLECTION BOX - BLUE BOX", "address": {"city": "DOVER", "state": "NH", "street": "2 DOVER POINT RD", "postcode": "03820"}}},
{"geometry": {"type": "Point", "coordinates": [-70.8772568958, 43.194685938]}, "type": "Feature", "properties": {"collection_times": [{"days": "Mon-Fri", "time": "5:30pm"}, {"days": "Sat", "time": "3:00pm"}, {"days": "Sun", "time": "Closed"}], "id": "0382000025", "name": "USPS COLLECTION BOX - BLUE BOX", "address": {"city": "DOVER", "state": "NH", "street": "133 WASHINGTON ST", "postcode": "03820"}}},
{"geometry": {"type": "Point", "coordinates": [-70.8772568958, 43.194685938]}, "type": "Feature", "properties": {"collection_times": [{"days": "Mon-Fri", "time": "5:30pm"}, {"days": "Sat", "time": "3:00pm"}, {"days": "Sun", "time": "Closed"}], "id": "0382000026", "name": "USPS COLLECTION BOX - BLUE BOX", "address": {"city": "DOVER", "state": "NH", "street": "133 WASHINGTON ST", "postcode": "03820"}}},
{"geometry": {"type": "Point", "coordinates": [-70.8772568958, 43.194685938]}, "type": "Feature", "properties": {"collection_times": [{"days": "Mon-Fri", "time": "5:30pm"}, {"days": "Sat", "time": "3:00pm"}, {"days": "Sun", "time": "Closed"}], "id": "0382000027", "name": "USPS COLLECTION BOX - BLUE BOX", "address": {"city": "DOVER", "state": "NH", "street": "133 WASHINGTON ST", "postcode": "03820"}}},
{"geometry": {"type": "Point", "coordinates": [-70.8568154041, 43.1693981749]}, "type": "Feature", "properties": {"collection_times": [{"days": "Mon-Sat", "time": "10:00am"}, {"days": "Sun", "time": "Closed"}], "id": "0382000029", "name": "USPS COLLECTION BOX - BLUE BOX", "address": {"city": "DOVER", "state": "NH", "street": "30 GRAPEVINE DR", "postcode": "03820"}}},
{"geometry": {"type": "Point", "coordinates": [-70.8910473876, 43.2249138916]}, "type": "Feature", "properties": {"collection_times": [{"days": "Mon-Sat", "time": "10:00am"}, {"days": "Sun", "time": "Closed"}], "id": "0382000035", "name": "USPS COLLECTION BOX - BLUE BOX", "address": {"city": "DOVER", "state": "NH", "street": "51 NEW ROCHESTER RD", "postcode": "03820"}}},
{"geometry": {"type": "Point", "coordinates": [-70.8867150637, 43.2211478231]}, "type": "Feature", "properties": {"collection_times": [{"days": "Mon-Fri", "time": "5:00pm"}, {"days": "Sat", "time": "10:00am"}, {"days": "Sun", "time": "Closed"}], "id": "0382000037", "name": "USPS COLLECTION BOX - BLUE BOX", "address": {"city": "DOVER", "state": "NH", "street": "2 WEBB PL", "postcode": "03820"}}},
{"geometry": {"type": "Point", "coordinates": [-70.8797891582, 43.1931602737]}, "type": "Feature", "properties": {"collection_times": [{"days": "Mon-Sat", "time": "10:00am"}, {"days": "Sun", "time": "Closed"}], "id": "0382000039", "name": "USPS COLLECTION BOX - BLUE BOX", "address": {"city": "DOVER", "state": "NH", "street": "149 PORTLAND AVE", "postcode": "03820"}}},
{"geometry": {"type": "Point", "coordinates": [-70.8730903107, 43.1657190231]}, "type": "Feature", "properties": {"collection_times": [{"days": "Mon-Sat", "time": "9:00am"}, {"days": "Sun", "time": "Closed"}], "id": "0382000046", "name": "USPS COLLECTION BOX - BLUE BOX", "address": {"city": "DOVER", "state": "NH", "street": "2 GARRISON RD", "postcode": "03820"}}},
{"geometry": {"type": "Point", "coordinates": [-70.8962758621, 43.2006939139]}, "type": "Feature", "properties": {"collection_times": [{"days": "Mon-Sat", "time": "9:00am"}, {"days": "Sun", "time": "Closed"}], "id": "0382000049", "name": "USPS COLLECTION BOX - BLUE BOX", "address": {"city": "DOVER", "state": "NH", "street": "118 WHITTIER ST", "postcode": "03820"}}},
{"geometry": {"type": "Point", "coordinates": [-70.8797891582, 43.1931602737]}, "type": "Feature", "properties": {"collection_times": [{"days": "Mon-Fri", "time": "2:30pm"}, {"days": "Sat", "time": "10:00am"}, {"days": "Sun", "time": "Closed"}], "id": "0382000053", "name": "USPS COLLECTION BOX - BLUE BOX", "address": {"city": "DOVER", "state": "NH", "street": "789 CENTRAL AVE", "postcode": "03820"}}},
{"geometry": {"type": "Point", "coordinates": [-70.8784190086, 43.215142501]}, "type": "Feature", "properties": {"collection_times": [{"days": "Mon-Fri", "time": "12:00pm"}, {"days": "Sat", "time": "10:00am"}, {"days": "Sun", "time": "Closed"}], "id": "0382000054", "name": "USPS COLLECTION BOX - BLUE BOX", "address": {"city": "DOVER", "state": "NH", "street": "831 CENTRAL AVE", "postcode": "03820"}}},
{"geometry": {"type": "Point", "coordinates": [-70.8771009426, 43.1947376122]}, "type": "Feature", "properties": {"collection_times": [{"days": "Mon-Fri", "time": "5:30pm"}, {"days": "Sat", "time": "2:00pm"}, {"days": "Sun", "time": "Closed"}], "id": "0382000055", "name": "USPS COLLECTION BOX - PO LOBBY", "address": {"city": "DOVER", "state": "NH", "street": "133 WASHINGTON ST", "postcode": "03820"}}},
{"geometry": {"type": "Point", "coordinates": [-70.9104035665, 43.1769951471]}, "type": "Feature", "properties": {"collection_times": [{"days": "Mon-Sat", "time": "9:00am"}, {"days": "Sun", "time": "Closed"}], "id": "0382000059", "name": "USPS COLLECTION BOX - BLUE BOX", "address": {"city": "DOVER", "state": "NH", "street": "1 OLDE MADBURY LN", "postcode": "03820"}}},
{"geometry": {"type": "Point", "coordinates": [-70.9112373001, 43.2110726635]}, "type": "Feature", "properties": {"collection_times": [{"days": "Mon-Fri", "time": "10:00am"}, {"days": "Sat-Sun", "time": "Closed"}], "id": "0382000061", "name": "USPS COLLECTION BOX - BLUE BOX", "address": {"city": "DOVER", "state": "NH", "street": "100 LIBERTY WAY", "postcode": "03820"}}},
{"geometry": {"type": "Point", "coordinates": [-70.8771009426, 43.1947376122]}, "type": "Feature", "properties": {"collection_times": [{"days": "Mon-Fri", "time": "5:30pm"}, {"days": "Sat", "time": "3:00pm"}, {"days": "Sun", "time": "Closed"}], "id": "0382000064", "name": "USPS COLLECTION BOX - BLUE BOX", "address": {"city": "DOVER", "state": "NH", "street": "133 WASHINGTON ST", "postcode": "03820"}}},
{"geometry": {"type": "Point", "coordinates": [-70.8797891582, 43.1931602737]}, "type": "Feature", "properties": {"collection_times": [{"days": "Mon-Sat", "time": "9:00am"}, {"days": "Sun", "time": "Closed"}], "id": "0382000065", "name": "USPS COLLECTION BOX - BLUE BOX", "address": {"city": "DOVER", "state": "NH", "street": "259 COUNTY FARM RD", "postcode": "03820"}}},
{"geometry": {"type": "Point", "coordinates": [-70.8771009426, 43.1947376122]}, "type": "Feature", "properties": {"collection_times": [{"days": "Mon-Fri", "time": "5:00pm"}, {"days": "Sat", "time": "2:00pm"}, {"days": "Sun", "time": "Closed"}], "id": "0382000066", "name": "USPS COLLECTION BOX - APC", "address": {"city": "DOVER", "state": "NH", "street": "133 WASHINGTON ST", "postcode": "03820"}}},
{"geometry": {"type": "Point", "coordinates": [-70.9260069819, 43.1333364323]}, "type": "Feature", "properties": {"collection_times": [{"days": "Mon-Sat", "time": "1:30pm"}, {"days": "Sun", "time": "Closed"}], "id": "0382400002", "name": "USPS COLLECTION BOX - BLUE BOX", "address": {"city": "LEE", "state": "NH", "street": "191 FOREST PARK", "postcode": "03824"}}},
{"geometry": {"type": "Point", "coordinates": [-70.9248485496, 43.1344222808]}, "type": "Feature", "properties": {"collection_times": [{"days": "Mon-Fri", "time": "5:00pm"}, {"days": "Sat", "time": "3:00pm"}, {"days": "Sun", "time": "Closed"}], "id": "0382400004", "name": "USPS COLLECTION BOX - BLUE BOX", "address": {"city": "LEE", "state": "NH", "street": "2 MADBURY RD", "postcode": "03824"}}},
{"geometry": {"type": "Point", "coordinates": [-70.9274818163, 43.1434340622]}, "type": "Feature", "properties": {"collection_times": [{"days": "Mon-Sat", "time": "1:30pm"}, {"days": "Sun", "time": "Closed"}], "id": "0382400005", "name": "USPS COLLECTION BOX - BLUE BOX", "address": {"city": "LEE", "state": "NH", "street": "85 MADBURY RD", "postcode": "03824"}}},
{"geometry": {"type": "Point", "coordinates": [-70.9277329056, 43.1347875547]}, "type": "Feature", "properties": {"collection_times": [{"days": "Mon-Sat", "time": "1:30pm"}, {"days": "Sun", "time": "Closed"}], "id": "0382400006", "name": "USPS COLLECTION BOX - BLUE BOX", "address": {"city": "LEE", "state": "NH", "street": "74 MAIN ST", "postcode": "03824"}}},
{"geometry": {"type": "Point", "coordinates": [-70.9266442352, 43.1343425764]}, "type": "Feature", "properties": {"collection_times": [{"days": "Mon-Sat", "time": "1:30pm"}, {"days": "Sun", "time": "Closed"}], "id": "0382400007", "name": "USPS COLLECTION BOX - BLUE BOX", "address": {"city": "LEE", "state": "NH", "street": "54 MAIN ST", "postcode": "03824"}}},
{"geometry": {"type": "Point", "coordinates": [-70.9253839397, 43.1327696814]}, "type": "Feature", "properties": {"collection_times": [{"days": "Mon-Sat", "time": "1:30pm"}, {"days": "Sun", "time": "Closed"}], "id": "0382400008", "name": "USPS COLLECTION BOX - BLUE BOX", "address": {"city": "LEE", "state": "NH", "street": "21 MILL ROAD PLZ", "postcode": "03824"}}},
{"geometry": {"type": "Point", "coordinates": [-70.9201896543, 43.1325258005]}, "type": "Feature", "properties": {"collection_times": [{"days": "Mon-Sat", "time": "1:30pm"}, {"days": "Sun", "time": "Closed"}], "id": "0382400009", "name": "USPS COLLECTION BOX - BLUE BOX", "address": {"city": "LEE", "state": "NH", "street": "8 NEWMARKET RD", "postcode": "03824"}}},
{"geometry": {"type": "Point", "coordinates": [-71.0106409649, 43.1231111346]}, "type": "Feature", "properties": {"collection_times": [{"days": "Mon-Sat", "time": "10:00am"}, {"days": "Sun", "time": "Closed"}], "id": "0382400011", "name": "USPS COLLECTION BOX - BLUE BOX", "address": {"city": "LEE", "state": "NH", "street": "7 MAST RD", "postcode": "03824"}}},
{"geometry": {"type": "Point", "coordinates": [-70.9248485496, 43.1344222808]}, "type": "Feature", "properties": {"collection_times": [{"days": "Mon-Fri", "time": "5:00pm"}, {"days": "Sat", "time": "3:00pm"}, {"days": "Sun", "time": "Closed"}], "id": "0382400014", "name": "USPS COLLECTION BOX - BLUE BOX", "address": {"city": "LEE", "state": "NH", "street": "2 MADBURY RD", "postcode": "03824"}}},
{"geometry": {"type": "Point", "coordinates": [-70.9248485496, 43.1344222808]}, "type": "Feature", "properties": {"collection_times": [{"days": "Mon-Fri", "time": "5:00pm"}, {"days": "Sat", "time": "1:30pm"}, {"days": "Sun", "time": "Closed"}], "id": "0382400017", "name": "USPS COLLECTION BOX - PO LOBBY", "address": {"city": "LEE", "state": "NH", "street": "2 MADBURY RD", "postcode": "03824"}}},
{"geometry": {"type": "Point", "coordinates": [-70.9552044596, 43.1525049916]}, "type": "Feature", "properties": {"collection_times": [{"days": "Mon-Sat", "time": "10:00am"}, {"days": "Sun", "time": "Closed"}], "id": "0382400018", "name": "USPS COLLECTION BOX - BLUE BOX", "address": {"city": "LEE", "state": "NH", "street": "121 TECHNOLOGY DR", "postcode": "03824"}}},
{"geometry": {"type": "Point", "coordinates": [-71.0058876511, 43.1629721766]}, "type": "Feature", "properties": {"collection_times": [{"days": "Mon-Sat", "time": "9:00am"}, {"days": "Sun", "time": "Closed"}], "id": "0382500002", "name": "USPS COLLECTION BOX - BLUE BOX", "address": {"city": "BARRINGTON", "state": "NH", "street": "368 ROUTE 125", "postcode": "03825"}}},
{"geometry": {"type": "Point", "coordinates": [-70.9996365734, 43.2129403346]}, "type": "Feature", "properties": {"collection_times": [{"days": "Mon-Fri", "time": "5:00pm"}, {"days": "Sat", "time": "12:00pm"}, {"days": "Sun", "time": "Closed"}], "id": "0382500003", "name": "USPS COLLECTION BOX - BLUE BOX", "address": {"city": "BARRINGTON", "state": "NH", "street": "15 MALLEGO RD", "postcode": "03825"}}},
{"geometry": {"type": "Point", "coordinates": [-70.9996365734, 43.2129403346]}, "type": "Feature", "properties": {"collection_times": [{"days": "Mon-Fri", "time": "5:00pm"}, {"days": "Sat", "time": "12:00pm"}, {"days": "Sun", "time": "Closed"}], "id": "0382500004", "name": "USPS COLLECTION BOX - BLUE BOX", "address": {"city": "BARRINGTON", "state": "NH", "street": "15 MALLEGO RD", "postcode": "03825"}}},
{"geometry": {"type": "Point", "coordinates": [-71.0027568438, 43.1732669304]}, "type": "Feature", "properties": {"collection_times": [{"days": "Mon-Sat", "time": "9:30am"}, {"days": "Sun", "time": "Closed"}], "id": "0382500006", "name": "USPS COLLECTION BOX - BLUE BOX", "address": {"city": "BARRINGTON", "state": "NH", "street": "3 LEE OAK RD", "postcode": "03825"}}},
{"geometry": {"type": "Point", "coordinates": [-70.9996365734, 43.2129403346]}, "type": "Feature", "properties": {"collection_times": [{"days": "Mon-Fri", "time": "5:00pm"}, {"days": "Sat", "time": "12:00pm"}, {"days": "Sun", "time": "Closed"}], "id": "0382500008", "name": "USPS COLLECTION BOX - PO LOBBY", "address": {"city": "BARRINGTON", "state": "NH", "street": "15 MALLEGO RD", "postcode": "03825"}}},
{"geometry": {"type": "Point", "coordinates": [-71.1404362872, 42.8907041584]}, "type": "Feature", "properties": {"collection_times": [{"days": "Mon-Fri", "time": "4:00pm"}, {"days": "Sat", "time": "11:45am"}, {"days": "Sun", "time": "Closed"}], "id": "0382600001", "name": "USPS COLLECTION BOX - BLUE BOX", "address": {"city": "EAST HAMPSTEAD", "state": "NH", "street": "59 COLBY COR", "postcode": "03826"}}},
{"geometry": {"type": "Point", "coordinates": [-71.1404362872, 42.8907041584]}, "type": "Feature", "properties": {"collection_times": [{"days": "Mon-Fri", "time": "4:00pm"}, {"days": "Sat", "time": "11:45am"}, {"days": "Sun", "time": "Closed"}], "id": "0382600004", "name": "USPS COLLECTION BOX - PO LOBBY", "address": {"city": "EAST HAMPSTEAD", "state": "NH", "street": "59 COLBY COR", "postcode": "03826"}}},
{"geometry": {"type": "Point", "coordinates": [-71.009147684, 42.9230719406]}, "type": "Feature", "properties": {"collection_times": [{"days": "Mon-Fri", "time": "10:30am"}, {"days": "Sat-Sun", "time": "Closed"}], "id": "0382700001", "name": "USPS COLLECTION BOX - BLUE BOX", "address": {"city": "EAST KINGSTON", "state": "NH", "street": "8 DEPOT RD", "postcode": "03827"}}},
{"geometry": {"type": "Point", "coordinates": [-70.9929461362, 42.9168439942]}, "type": "Feature", "properties": {"collection_times": [{"days": "Mon-Fri", "time": "5:00pm"}, {"days": "Sat", "time": "12:00pm"}, {"days": "Sun", "time": "Closed"}], "id": "0382700002", "name": "USPS COLLECTION BOX - BLUE BOX", "address": {"city": "EAST KINGSTON", "state": "NH", "street": "176 HAVERHILL RD", "postcode": "03827"}}},
{"geometry": {"type": "Point", "coordinates": [-70.9929461362, 42.9168439942]}, "type": "Feature", "properties": {"collection_times": [{"days": "Mon-Fri", "time": "5:00pm"}, {"days": "Sat", "time": "12:00pm"}, {"days": "Sun", "time": "Closed"}], "id": "0382700003", "name": "USPS COLLECTION BOX - PO LOBBY", "address": {"city": "EAST KINGSTON", "state": "NH", "street": "176 HAVERHILL RD", "postcode": "03827"}}},
{"geometry": {"type": "Point", "coordinates": [-70.9870431375, 43.6146480445]}, "type": "Feature", "properties": {"collection_times": [{"days": "Mon-Fri", "time": "3:15pm"}, {"days": "Sat", "time": "11:45am"}, {"days": "Sun", "time": "Closed"}], "id": "0383000001", "name": "USPS COLLECTION BOX - BLUE BOX", "address": {"city": "EAST WAKEFIELD", "state": "NH", "street": "8 ROUTE 110", "postcode": "03830"}}},
{"geometry": {"type": "Point", "coordinates": [-70.9870431375, 43.6146480445]}, "type": "Feature", "properties": {"collection_times": [{"days": "Mon-Fri", "time": "3:00pm"}, {"days": "Sat", "time": "12:00pm"}, {"days": "Sun", "time": "Closed"}], "id": "0383000003", "name": "USPS COLLECTION BOX - PO LOBBY", "address": {"city": "EAST WAKEFIELD", "state": "NH", "street": "8 ROUTE 110", "postcode": "03830"}}},
{"geometry": {"type": "Point", "coordinates": [-71.0805994983, 43.9108036165]}, "type": "Feature", "properties": {"collection_times": [{"days": "Mon-Fri", "time": "2:00pm"}, {"days": "Sat", "time": "9:30am"}, {"days": "Sun", "time": "Closed"}], "id": "0383200001", "name": "USPS COLLECTION BOX - PO LOBBY", "address": {"city": "MADISON", "state": "NH", "street": "2316 EATON RD UNIT 1", "postcode": "03832"}}},
{"geometry": {"type": "Point", "coordinates": [-70.9354230198, 42.9837558952]}, "type": "Feature", "properties": {"collection_times": [{"days": "Mon-Fri", "time": "4:30pm"}, {"days": "Sat", "time": "2:30pm"}, {"days": "Sun", "time": "Closed"}], "id": "0383300001", "name": "USPS COLLECTION BOX - BLUE BOX", "address": {"city": "BRENTWOOD", "state": "NH", "street": "3 ALUMNI DR", "postcode": "03833"}}},
{"geometry": {"type": "Point", "coordinates": [-70.9451682358, 42.9833252982]}, "type": "Feature", "properties": {"collection_times": [{"days": "Mon-Sat", "time": "12:00pm"}, {"days": "Sun", "time": "Closed"}], "id": "0383300003", "name": "USPS COLLECTION BOX - BLUE BOX", "address": {"city": "BRENTWOOD", "state": "NH", "street": "10 CHESTNUT ST", "postcode": "03833"}}},
{"geometry": {"type": "Point", "coordinates": [-70.9583087242, 42.9576928428]}, "type": "Feature", "properties": {"collection_times": [{"days": "Mon-Sat", "time": "10:00am"}, {"days": "Sun", "time": "Closed"}], "id": "0383300005", "name": "USPS COLLECTION BOX - BLUE BOX", "address": {"city": "BRENTWOOD", "state": "NH", "street": "65 COURT ST", "postcode": "03833"}}},
{"geometry": {"type": "Point", "coordinates": [-70.9696998268, 42.991175259]}, "type": "Feature", "properties": {"collection_times": [{"days": "Mon-Fri", "time": "4:00pm"}, {"days": "Sat", "time": "2:30pm"}, {"days": "Sun", "time": "Closed"}], "id": "0383300007", "name": "USPS COLLECTION BOX - BLUE BOX", "address": {"city": "BRENTWOOD", "state": "NH", "street": "137 EPPING RD", "postcode": "03833"}}},
{"geometry": {"type": "Point", "coordinates": [-70.9467865236, 42.9807026781]}, "type": "Feature", "properties": {"collection_times": [{"days": "Mon-Fri", "time": "4:45pm"}, {"days": "Sat", "time": "3:00pm"}, {"days": "Sun", "time": "Closed"}], "id": "0383300010", "name": "USPS COLLECTION BOX - BLUE BOX", "address": {"city": "BRENTWOOD", "state": "NH", "street": "14 FRONT ST", "postcode": "03833"}}},
{"geometry": {"type": "Point", "coordinates": [-70.9606861568, 42.9784409699]}, "type": "Feature", "properties": {"collection_times": [{"days": "Mon-Sat", "time": "2:00pm"}, {"days": "Sun", "time": "Closed"}], "id": "0383300011", "name": "USPS COLLECTION BOX - BLUE BOX", "address": {"city": "BRENTWOOD", "state": "NH", "street": "148 FRONT ST", "postcode": "03833"}}},
{"geometry": {"type": "Point", "coordinates": [-70.9476772918, 42.9802898255]}, "type": "Feature", "properties": {"collection_times": [{"days": "Mon-Fri", "time": "4:45pm"}, {"days": "Sat", "time": "3:00pm"}, {"days": "Sun", "time": "Closed"}], "id": "0383300013", "name": "USPS COLLECTION BOX - BLUE BOX", "address": {"city": "BRENTWOOD", "state": "NH", "street": "27 FRONT ST", "postcode": "03833"}}},
{"geometry": {"type": "Point", "coordinates": [-70.9484580447, 42.9801242112]}, "type": "Feature", "properties": {"collection_times": [{"days": "Mon-Fri", "time": "5:00pm"}, {"days": "Sat", "time": "3:00pm"}, {"days": "Sun", "time": "Closed"}], "id": "0383300016", "name": "USPS COLLECTION BOX - BLUE BOX", "address": {"city": "BRENTWOOD", "state": "NH", "street": "40 FRONT ST", "postcode": "03833"}}},
{"geometry": {"type": "Point", "coordinates": [-70.936767458, 42.9857476799]}, "type": "Feature", "properties": {"collection_times": [{"days": "Mon-Sat", "time": "10:30am"}, {"days": "Sun", "time": "Closed"}], "id": "0383300018", "name": "USPS COLLECTION BOX - BLUE BOX", "address": {"city": "BRENTWOOD", "state": "NH", "street": "77 PORTSMOUTH AVE", "postcode": "03833"}}},
{"geometry": {"type": "Point", "coordinates": [-70.9106530421, 42.9758395338]}, "type": "Feature", "properties": {"collection_times": [{"days": "Mon-Fri", "time": "4:15pm"}, {"days": "Sat", "time": "2:00pm"}, {"days": "Sun", "time": "Closed"}], "id": "0383300020", "name": "USPS COLLECTION BOX - BLUE BOX", "address": {"city": "BRENTWOOD", "state": "NH", "street": "21 HAMPTON RD", "postcode": "03833"}}},
{"geometry": {"type": "Point", "coordinates": [-70.9408937088, 42.9807396543]}, "type": "Feature", "properties": {"collection_times": [{"days": "Mon-Sat", "time": "9:00am"}, {"days": "Sun", "time": "Closed"}], "id": "0383300021", "name": "USPS COLLECTION BOX - BLUE BOX", "address": {"city": "BRENTWOOD", "state": "NH", "street": "47 HIGH ST", "postcode": "03833"}}},
{"geometry": {"type": "Point", "coordinates": [-70.9689130451, 42.9653075411]}, "type": "Feature", "properties": {"collection_times": [{"days": "Mon-Sat", "time": "10:00am"}, {"days": "Sun", "time": "Closed"}], "id": "0383300023", "name": "USPS COLLECTION BOX - BLUE BOX", "address": {"city": "BRENTWOOD", "state": "NH", "street": "1 DEEP MDWS", "postcode": "03833"}}},
{"geometry": {"type": "Point", "coordinates": [-71.0664471811, 42.9833733246]}, "type": "Feature", "properties": {"collection_times": [{"days": "Mon-Sat", "time": "9:30am"}, {"days": "Sun", "time": "Closed"}], "id": "0383300026", "name": "USPS COLLECTION BOX - BLUE BOX", "address": {"city": "BRENTWOOD", "state": "NH", "street": "405 MIDDLE RD", "postcode": "03833"}}},
{"geometry": {"type": "Point", "coordinates": [-70.9444079195, 42.9808224723]}, "type": "Feature", "properties": {"collection_times": [{"days": "Mon-Fri", "time": "4:45pm"}, {"days": "Sat", "time": "2:30pm"}, {"days": "Sun", "time": "Closed"}], "id": "0383300032", "name": "USPS COLLECTION BOX - BLUE BOX", "address": {"city": "BRENTWOOD", "state": "NH", "street": "161 WATER ST", "postcode": "03833"}}},
{"geometry": {"type": "Point", "coordinates": [-70.9444079195, 42.9808224723]}, "type": "Feature", "properties": {"collection_times": [{"days": "Mon-Fri", "time": "4:45pm"}, {"days": "Sat", "time": "2:30pm"}, {"days": "Sun", "time": "Closed"}], "id": "0383300033", "name": "USPS COLLECTION BOX - BLUE BOX", "address": {"city": "BRENTWOOD", "state": "NH", "street": "190 WATER ST", "postcode": "03833"}}},
{"geometry": {"type": "Point", "coordinates": [-70.9514367353, 42.9838162261]}, "type": "Feature", "properties": {"collection_times": [{"days": "Mon-Sat", "time": "9:30am"}, {"days": "Sun", "time": "Closed"}], "id": "0383300034", "name": "USPS COLLECTION BOX - BLUE BOX", "address": {"city": "BRENTWOOD", "state": "NH", "street": "277 WATER ST", "postcode": "03833"}}},
{"geometry": {"type": "Point", "coordinates": [-70.9666675434, 42.978251911]}, "type": "Feature", "properties": {"collection_times": [{"days": "Mon-Fri", "time": "4:15pm"}, {"days": "Sat", "time": "2:00pm"}, {"days": "Sun", "time": "Closed"}], "id": "0383300038", "name": "USPS COLLECTION BOX - EXPRESS", "address": {"city": "BRENTWOOD", "state": "NH", "street": "21 HAMPTON RD", "postcode": "03833"}}},
{"geometry": {"type": "Point", "coordinates": [-70.9873102451, 42.9729206571]}, "type": "Feature", "properties": {"collection_times": [{"days": "Mon-Sat", "time": "10:30am"}, {"days": "Sun", "time": "Closed"}], "id": "0383300039", "name": "USPS COLLECTION BOX - BLUE BOX", "address": {"city": "BRENTWOOD", "state": "NH", "street": "317 EXETER RIVER LNDG", "postcode": "03833"}}},
{"geometry": {"type": "Point", "coordinates": [-70.9482840087, 42.9801069978]}, "type": "Feature", "properties": {"collection_times": [{"days": "Mon-Fri", "time": "5:00pm"}, {"days": "Sat", "time": "3:30pm"}, {"days": "Sun", "time": "Closed"}], "id": "0383300040", "name": "USPS COLLECTION BOX - PO LOBBY", "address": {"city": "BRENTWOOD", "state": "NH", "street": "34 FRONT ST", "postcode": "03833"}}},
{"geometry": {"type": "Point", "coordinates": [-70.9717324273, 42.9787241124]}, "type": "Feature", "properties": {"collection_times": [{"days": "Mon-Sat", "time": "10:30am"}, {"days": "Sun", "time": "Closed"}], "id": "0383300041", "name": "USPS COLLECTION BOX - BLUE BOX", "address": {"city": "BRENTWOOD", "state": "NH", "street": "27 ERNEST AVE", "postcode": "03833"}}},
{"geometry": {"type": "Point", "coordinates": [-70.917025642, 42.9778493811]}, "type": "Feature", "properties": {"collection_times": [{"days": "Mon-Fri", "time": "4:15pm"}, {"days": "Sat", "time": "2:30pm"}, {"days": "Sun", "time": "Closed"}], "id": "0383300042", "name": "USPS COLLECTION BOX - BLUE BOX", "address": {"city": "BRENTWOOD", "state": "NH", "street": "1 HAMPTON RD", "postcode": "03833"}}},
{"geometry": {"type": "Point", "coordinates": [-70.9318800577, 42.9898363043]}, "type": "Feature", "properties": {"collection_times": [{"days": "Mon-Sat", "time": "11:00am"}, {"days": "Sun", "time": "Closed"}], "id": "0383300043", "name": "USPS COLLECTION BOX - BLUE BOX", "address": {"city": "BRENTWOOD", "state": "NH", "street": "137 PORTSMOUTH AVE", "postcode": "03833"}}},
{"geometry": {"type": "Point", "coordinates": [-71.0649443272, 43.3886477019]}, "type": "Feature", "properties": {"collection_times": [{"days": "Mon-Fri", "time": "4:30pm"}, {"days": "Sat", "time": "2:30pm"}, {"days": "Sun", "time": "Closed"}], "id": "0383500002", "name": "USPS COLLECTION BOX - BLUE BOX", "address": {"city": "FARMINGTON", "state": "NH", "street": "14 PLEASANT ST", "postcode": "03835"}}},
{"geometry": {"type": "Point", "coordinates": [-71.0651339106, 43.3895403789]}, "type": "Feature", "properties": {"collection_times": [{"days": "Mon-Sat", "time": "10:00am"}, {"days": "Sun", "time": "Closed"}], "id": "0383500005", "name": "USPS COLLECTION BOX - BLUE BOX", "address": {"city": "FARMINGTON", "state": "NH", "street": "4 CENTRAL ST", "postcode": "03835"}}},
{"geometry": {"type": "Point", "coordinates": [-71.0477710645, 43.3796055319]}, "type": "Feature", "properties": {"collection_times": [{"days": "Mon-Sat", "time": "10:00am"}, {"days": "Sun", "time": "Closed"}], "id": "0383500008", "name": "USPS COLLECTION BOX - BLUE BOX", "address": {"city": "FARMINGTON", "state": "NH", "street": "351 MAIN ST", "postcode": "03835"}}},
{"geometry": {"type": "Point", "coordinates": [-71.0704393094, 43.3821419433]}, "type": "Feature", "properties": {"collection_times": [{"days": "Mon-Sat", "time": "10:00am"}, {"days": "Sun", "time": "Closed"}], "id": "0383500009", "name": "USPS COLLECTION BOX - BLUE BOX", "address": {"city": "FARMINGTON", "state": "NH", "street": "829 NH ROUTE 11", "postcode": "03835"}}},
{"geometry": {"type": "Point", "coordinates": [-71.0649443272, 43.3886477019]}, "type": "Feature", "properties": {"collection_times": [{"days": "Mon-Fri", "time": "4:30pm"}, {"days": "Sat", "time": "2:30pm"}, {"days": "Sun", "time": "Closed"}], "id": "0383500010", "name": "USPS COLLECTION BOX - PO LOBBY", "address": {"city": "FARMINGTON", "state": "NH", "street": "14 PLEASANT ST", "postcode": "03835"}}},
{"geometry": {"type": "Point", "coordinates": [-71.0911562962, 43.8133402894]}, "type": "Feature", "properties": {"collection_times": [{"days": "Mon-Fri", "time": "4:15pm"}, {"days": "Sat", "time": "12:00pm"}, {"days": "Sun", "time": "Closed"}], "id": "0383600001", "name": "USPS COLLECTION BOX - BLUE BOX", "address": {"city": "FREEDOM", "state": "NH", "street": "19 ELM ST UNIT 2", "postcode": "03836"}}},
{"geometry": {"type": "Point", "coordinates": [-71.0911562962, 43.8133402894]}, "type": "Feature", "properties": {"collection_times": [{"days": "Mon-Fri", "time": "4:30pm"}, {"days": "Sat", "time": "12:00pm"}, {"days": "Sun", "time": "Closed"}], "id": "0383600004", "name": "USPS COLLECTION BOX - PO LOBBY", "address": {"city": "FREEDOM", "state": "NH", "street": "19 ELM ST UNIT 2", "postcode": "03836"}}},
{"geometry": {"type": "Point", "coordinates": [-71.2968651421, 43.4167251731]}, "type": "Feature", "properties": {"collection_times": [{"days": "Mon-Fri", "time": "4:00pm"}, {"days": "Sat", "time": "11:30am"}, {"days": "Sun", "time": "Closed"}], "id": "0383700001", "name": "USPS COLLECTION BOX - BLUE BOX", "address": {"city": "GILMANTON I W", "state": "NH", "street": "5 ELM ST", "postcode": "03837"}}},
{"geometry": {"type": "Point", "coordinates": [-71.2968651421, 43.4167251731]}, "type": "Feature", "properties": {"collection_times": [{"days": "Mon-Fri", "time": "4:15pm"}, {"days": "Sat", "time": "11:45am"}, {"days": "Sun", "time": "Closed"}], "id": "0383700002", "name": "USPS COLLECTION BOX - PO LOBBY", "address": {"city": "GILMANTON I W", "state": "NH", "street": "5 ELM ST", "postcode": "03837"}}},
{"geometry": {"type": "Point", "coordinates": [-71.1853563096, 44.1151110404]}, "type": "Feature", "properties": {"collection_times": [{"days": "Mon-Fri", "time": "3:45pm"}, {"days": "Sat", "time": "11:45am"}, {"days": "Sun", "time": "Closed"}], "id": "0383800001", "name": "USPS COLLECTION BOX - BLUE BOX", "address": {"city": "GLEN", "state": "NH", "street": "1 US ROUTE 302", "postcode": "03838"}}},
{"geometry": {"type": "Point", "coordinates": [-71.1853563096, 44.1151110404]}, "type": "Feature", "properties": {"collection_times": [{"days": "Mon-Fri", "time": "3:45pm"}, {"days": "Sat", "time": "11:45am"}, {"days": "Sun", "time": "Closed"}], "id": "0383800002", "name": "USPS COLLECTION BOX - PO LOBBY", "address": {"city": "GLEN", "state": "NH", "street": "1 US ROUTE 302", "postcode": "03838"}}},
{"geometry": {"type": "Point", "coordinates": [-70.979098293, 43.2574212366]}, "type": "Feature", "properties": {"collection_times": [{"days": "Mon-Sat", "time": "9:30am"}, {"days": "Sun", "time": "Closed"}], "id": "0383900001", "name": "USPS COLLECTION BOX - BLUE BOX", "address": {"city": "ROCHESTER", "state": "NH", "street": "201 GONIC RD", "postcode": "03839"}}},
{"geometry": {"type": "Point", "coordinates": [-70.9891877065, 43.2708837328]}, "type": "Feature", "properties": {"collection_times": [{"days": "Mon-Fri", "time": "4:45pm"}, {"days": "Sat", "time": "1:30pm"}, {"days": "Sun", "time": "Closed"}], "id": "0383900002", "name": "USPS COLLECTION BOX - BLUE BOX", "address": {"city": "ROCHESTER", "state": "NH", "street": "36 MAIN ST", "postcode": "03839"}}},
{"geometry": {"type": "Point", "coordinates": [-70.9891877065, 43.2708837328]}, "type": "Feature", "properties": {"collection_times": [{"days": "Mon-Fri", "time": "4:15pm"}, {"days": "Sat", "time": "1:30pm"}, {"days": "Sun", "time": "Closed"}], "id": "0383900003", "name": "USPS COLLECTION BOX - PO LOBBY", "address": {"city": "ROCHESTER", "state": "NH", "street": "36 MAIN ST", "postcode": "03839"}}},
{"geometry": {"type": "Point", "coordinates": [-70.8695189364, 43.0379933532]}, "type": "Feature", "properties": {"collection_times": [{"days": "Mon-Fri", "time": "5:00pm"}, {"days": "Sat", "time": "12:00pm"}, {"days": "Sun", "time": "Closed"}], "id": "0384000001", "name": "USPS COLLECTION BOX - BLUE BOX", "address": {"city": "GREENLAND", "state": "NH", "street": "609 PORTSMOUTH AVE", "postcode": "03840"}}},
{"geometry": {"type": "Point", "coordinates": [-70.8695189364, 43.0379933532]}, "type": "Feature", "properties": {"collection_times": [{"days": "Mon-Fri", "time": "5:00pm"}, {"days": "Sat", "time": "12:00pm"}, {"days": "Sun", "time": "Closed"}], "id": "0384000003", "name": "USPS COLLECTION BOX - PO LOBBY", "address": {"city": "GREENLAND", "state": "NH", "street": "609 PORTSMOUTH AVE", "postcode": "03840"}}},
{"geometry": {"type": "Point", "coordinates": [-70.8196423718, 43.0446335763]}, "type": "Feature", "properties": {"collection_times": [{"days": "Mon-Sat", "time": "9:00am"}, {"days": "Sun", "time": "Closed"}], "id": "0384000004", "name": "USPS COLLECTION BOX - BLUE BOX", "address": {"city": "GREENLAND", "state": "NH", "street": "108 OCEAN RD", "postcode": "03840"}}},
{"geometry": {"type": "Point", "coordinates": [-71.1939740801, 42.885575033]}, "type": "Feature", "properties": {"collection_times": [{"days": "Mon-Fri", "time": "4:45pm"}, {"days": "Sat", "time": "12:00pm"}, {"days": "Sun", "time": "Closed"}], "id": "0384100002", "name": "USPS COLLECTION BOX - BLUE BOX", "address": {"city": "HAMPSTEAD", "state": "NH", "street": "212 MAIN ST", "postcode": "03841"}}},
{"geometry": {"type": "Point", "coordinates": [-71.1814051411, 42.8752761922]}, "type": "Feature", "properties": {"collection_times": [{"days": "Mon-Fri", "time": "11:45am"}, {"days": "Sat-Sun", "time": "Closed"}], "id": "0384100003", "name": "USPS COLLECTION BOX - BLUE BOX", "address": {"city": "HAMPSTEAD", "state": "NH", "street": "10 MAIN ST", "postcode": "03841"}}},
{"geometry": {"type": "Point", "coordinates": [-71.1939740801, 42.885575033]}, "type": "Feature", "properties": {"collection_times": [{"days": "Mon-Fri", "time": "5:00pm"}, {"days": "Sat", "time": "12:00pm"}, {"days": "Sun", "time": "Closed"}], "id": "0384100004", "name": "USPS COLLECTION BOX - PO LOBBY", "address": {"city": "HAMPSTEAD", "state": "NH", "street": "212 MAIN ST", "postcode": "03841"}}},
{"geometry": {"type": "Point", "coordinates": [-70.8131657776, 42.9079699249]}, "type": "Feature", "properties": {"collection_times": [{"days": "Mon-Sat", "time": "10:00am"}, {"days": "Sun", "time": "Closed"}], "id": "0384200001", "name": "USPS COLLECTION BOX - BLUE BOX", "address": {"city": "HAMPTON", "state": "NH", "street": "94 ASHWORTH AVE", "postcode": "03842"}}},
{"geometry": {"type": "Point", "coordinates": [-70.8372361877, 42.9414885684]}, "type": "Feature", "properties": {"collection_times": [{"days": "Mon-Fri", "time": "5:00pm"}, {"days": "Sat", "time": "2:00pm"}, {"days": "Sun", "time": "Closed"}], "id": "0384200004", "name": "USPS COLLECTION BOX - BLUE BOX", "address": {"city": "HAMPTON", "state": "NH", "street": "21 HIGH ST", "postcode": "03842"}}},
{"geometry": {"type": "Point", "coordinates": [-70.8381424166, 42.9410080149]}, "type": "Feature", "properties": {"collection_times": [{"days": "Mon-Fri", "time": "5:00pm"}, {"days": "Sat", "time": "2:00pm"}, {"days": "Sun", "time": "Closed"}], "id": "0384200006", "name": "USPS COLLECTION BOX - BLUE BOX", "address": {"city": "HAMPTON", "state": "NH", "street": "448 LAFAYETTE RD", "postcode": "03842"}}},
{"geometry": {"type": "Point", "coordinates": [-70.8216964344, 42.9331942499]}, "type": "Feature", "properties": {"collection_times": [{"days": "Mon-Fri", "time": "5:00pm"}, {"days": "Sat", "time": "2:00pm"}, {"days": "Sun", "time": "Closed"}], "id": "0384200007", "name": "USPS COLLECTION BOX - BLUE BOX", "address": {"city": "HAMPTON", "state": "NH", "street": "356 LAFAYETTE RD", "postcode": "03842"}}},
{"geometry": {"type": "Point", "coordinates": [-70.852828227, 42.92455056]}, "type": "Feature", "properties": {"collection_times": [{"days": "Mon-Fri", "time": "5:00pm"}, {"days": "Sat", "time": "2:00pm"}, {"days": "Sun", "time": "Closed"}], "id": "0384200008", "name": "USPS COLLECTION BOX - BLUE BOX", "address": {"city": "HAMPTON", "state": "NH", "street": "449 LAFAYETTE RD", "postcode": "03842"}}},
{"geometry": {"type": "Point", "coordinates": [-70.8216964344, 42.9331942499]}, "type": "Feature", "properties": {"collection_times": [{"days": "Mon-Fri", "time": "4:45pm"}, {"days": "Sat", "time": "2:00pm"}, {"days": "Sun", "time": "Closed"}], "id": "0384200009", "name": "USPS COLLECTION BOX - BLUE BOX", "address": {"city": "HAMPTON", "state": "NH", "street": "630 LAFAYETTE RD", "postcode": "03842"}}},
{"geometry": {"type": "Point", "coordinates": [-70.8216964344, 42.9331942499]}, "type": "Feature", "properties": {"collection_times": [{"days": "Mon-Fri", "time": "5:00pm"}, {"days": "Sat", "time": "2:00pm"}, {"days": "Sun", "time": "Closed"}], "id": "0384200010", "name": "USPS COLLECTION BOX - BLUE BOX", "address": {"city": "HAMPTON", "state": "NH", "street": "685 LAFAYETTE RD", "postcode": "03842"}}},
{"geometry": {"type": "Point", "coordinates": [-70.8324285122, 42.9479163107]}, "type": "Feature", "properties": {"collection_times": [{"days": "Mon-Fri", "time": "4:45pm"}, {"days": "Sat", "time": "2:00pm"}, {"days": "Sun", "time": "Closed"}], "id": "0384200011", "name": "USPS COLLECTION BOX - BLUE BOX", "address": {"city": "HAMPTON", "state": "NH", "street": "725 LAFAYETTE RD", "postcode": "03842"}}},
{"geometry": {"type": "Point", "coordinates": [-70.841636299, 42.9550798236]}, "type": "Feature", "properties": {"collection_times": [{"days": "Mon-Sat", "time": "10:00am"}, {"days": "Sun", "time": "Closed"}], "id": "0384200012", "name": "USPS COLLECTION BOX - BLUE BOX", "address": {"city": "HAMPTON", "state": "NH", "street": "2 LONGWOOD DR", "postcode": "03842"}}},
{"geometry": {"type": "Point", "coordinates": [-70.8116023673, 42.9052022279]}, "type": "Feature", "properties": {"collection_times": [{"days": "Mon-Sat", "time": "10:00am"}, {"days": "Sun", "time": "Closed"}], "id": "0384200013", "name": "USPS COLLECTION BOX - BLUE BOX", "address": {"city": "HAMPTON", "state": "NH", "street": "131 OCEAN BLVD", "postcode": "03842"}}},
{"geometry": {"type": "Point", "coordinates": [-70.8113110519, 42.9078202454]}, "type": "Feature", "properties": {"collection_times": [{"days": "Mon-Sat", "time": "10:00am"}, {"days": "Sun", "time": "Closed"}], "id": "0384200014", "name": "USPS COLLECTION BOX - BLUE BOX", "address": {"city": "HAMPTON", "state": "NH", "street": "180 OCEAN BLVD", "postcode": "03842"}}},
{"geometry": {"type": "Point", "coordinates": [-70.8140146446, 42.9012880276]}, "type": "Feature", "properties": {"collection_times": [{"days": "Mon-Sat", "time": "10:00am"}, {"days": "Sun", "time": "Closed"}], "id": "0384200015", "name": "USPS COLLECTION BOX - BLUE BOX", "address": {"city": "HAMPTON", "state": "NH", "street": "31 OCEAN BLVD", "postcode": "03842"}}},
{"geometry": {"type": "Point", "coordinates": [-70.8390533084, 42.9356662725]}, "type": "Feature", "properties": {"collection_times": [{"days": "Mon-Fri", "time": "5:00pm"}, {"days": "Sat", "time": "3:00pm"}, {"days": "Sun", "time": "Closed"}], "id": "0384200018", "name": "USPS COLLECTION BOX - BLUE BOX", "address": {"city": "HAMPTON", "state": "NH", "street": "25 STICKNEY TER", "postcode": "03842"}}},
{"geometry": {"type": "Point", "coordinates": [-70.8318953946, 42.9372688535]}, "type": "Feature", "properties": {"collection_times": [{"days": "Mon-Fri", "time": "5:00pm"}, {"days": "Sat", "time": "2:00pm"}, {"days": "Sun", "time": "Closed"}], "id": "0384200019", "name": "USPS COLLECTION BOX - BLUE BOX", "address": {"city": "HAMPTON", "state": "NH", "street": "100 WINNACUNNET RD", "postcode": "03842"}}},
{"geometry": {"type": "Point", "coordinates": [-70.8216964349, 42.933202894]}, "type": "Feature", "properties": {"collection_times": [{"days": "Mon-Fri", "time": "5:00pm"}, {"days": "Sat", "time": "3:00pm"}, {"days": "Sun", "time": "Closed"}], "id": "0384200022", "name": "USPS COLLECTION BOX - EXPRESS", "address": {"city": "HAMPTON", "state": "NH", "street": "25 STICKNEY TER", "postcode": "03842"}}},
{"geometry": {"type": "Point", "coordinates": [-70.852828227, 42.92455056]}, "type": "Feature", "properties": {"collection_times": [{"days": "Mon-Fri", "time": "5:00pm"}, {"days": "Sat", "time": "2:00pm"}, {"days": "Sun", "time": "Closed"}], "id": "0384200023", "name": "USPS COLLECTION BOX - EXPRESS", "address": {"city": "HAMPTON", "state": "NH", "street": "449 LAFAYETTE RD", "postcode": "03842"}}},
{"geometry": {"type": "Point", "coordinates": [-70.8216964349, 42.933202894]}, "type": "Feature", "properties": {"collection_times": [{"days": "Mon-Fri", "time": "4:30pm"}, {"days": "Sat", "time": "2:00pm"}, {"days": "Sun", "time": "Closed"}], "id": "0384200024", "name": "USPS COLLECTION BOX - EXPRESS", "address": {"city": "HAMPTON", "state": "NH", "street": "1 MERRILL INDUSTRIAL DR", "postcode": "03842"}}},
{"geometry": {"type": "Point", "coordinates": [-70.8327856212, 42.9533091055]}, "type": "Feature", "properties": {"collection_times": [{"days": "Mon-Fri", "time": "5:00pm"}, {"days": "Sat", "time": "2:00pm"}, {"days": "Sun", "time": "Closed"}], "id": "0384200025", "name": "USPS COLLECTION BOX - BLUE BOX", "address": {"city": "HAMPTON", "state": "NH", "street": "861 LAFAYETTE RD", "postcode": "03842"}}},
{"geometry": {"type": "Point", "coordinates": [-70.8453181993, 42.9403450086]}, "type": "Feature", "properties": {"collection_times": [{"days": "Mon-Fri", "time": "4:30pm"}, {"days": "Sat", "time": "2:00pm"}, {"days": "Sun", "time": "Closed"}], "id": "0384200027", "name": "USPS COLLECTION BOX - BLUE BOX", "address": {"city": "HAMPTON", "state": "NH", "street": "1 MERRILL INDUSTRIAL DR", "postcode": "03842"}}},
{"geometry": {"type": "Point", "coordinates": [-70.8390533084, 42.9356662725]}, "type": "Feature", "properties": {"collection_times": [{"days": "Mon-Fri", "time": "5:00pm"}, {"days": "Sat", "time": "3:00pm"}, {"days": "Sun", "time": "Closed"}], "id": "0384200029", "name": "USPS COLLECTION BOX - PO LOBBY", "address": {"city": "HAMPTON", "state": "NH", "street": "25 STICKNEY TER", "postcode": "03842"}}},
{"geometry": {"type": "Point", "coordinates": [-70.8643780655, 42.9158298491]}, "type": "Feature", "properties": {"collection_times": [{"days": "Mon-Fri", "time": "4:45pm"}, {"days": "Sat", "time": "12:00pm"}, {"days": "Sun", "time": "Closed"}], "id": "0384400001", "name": "USPS COLLECTION BOX - BLUE BOX", "address": {"city": "HAMPTON FALLS", "state": "NH", "street": "2 EXETER RD", "postcode": "03844"}}},
{"geometry": {"type": "Point", "coordinates": [-70.8643780655, 42.9158298491]}, "type": "Feature", "properties": {"collection_times": [{"days": "Mon-Fri", "time": "5:00pm"}, {"days": "Sat", "time": "12:00pm"}, {"days": "Sun", "time": "Closed"}], "id": "0384400002", "name": "USPS COLLECTION BOX - PO LOBBY", "address": {"city": "HAMPTON FALLS", "state": "NH", "street": "2 EXETER RD", "postcode": "03844"}}},
{"geometry": {"type": "Point", "coordinates": [-70.8736490236, 42.9215189358]}, "type": "Feature", "properties": {"collection_times": [{"days": "Mon-Sat", "time": "10:30am"}, {"days": "Sun", "time": "Closed"}], "id": "0384400003", "name": "USPS COLLECTION BOX - BLUE BOX", "address": {"city": "HAMPTON FALLS", "state": "NH", "street": "1 DRINKWATER RD", "postcode": "03844"}}},
{"geometry": {"type": "Point", "coordinates": [-71.1449691887, 44.1011100036]}, "type": "Feature", "properties": {"collection_times": [{"days": "Mon-Fri", "time": "4:00pm"}, {"days": "Sat", "time": "12:30pm"}, {"days": "Sun", "time": "Closed"}], "id": "0384500001", "name": "USPS COLLECTION BOX - BLUE BOX", "address": {"city": "INTERVALE", "state": "NH", "street": "99 INTERVALE CROSS RD", "postcode": "03845"}}},
{"geometry": {"type": "Point", "coordinates": [-71.1449691887, 44.1011100036]}, "type": "Feature", "properties": {"collection_times": [{"days": "Mon-Fri", "time": "4:15pm"}, {"days": "Sat", "time": "1:00pm"}, {"days": "Sun", "time": "Closed"}], "id": "0384500002", "name": "USPS COLLECTION BOX - PO LOBBY", "address": {"city": "INTERVALE", "state": "NH", "street": "99 INTERVALE CROSS RD", "postcode": "03845"}}},
{"geometry": {"type": "Point", "coordinates": [-71.1596385624, 44.178099409]}, "type": "Feature", "properties": {"collection_times": [{"days": "Mon-Fri", "time": "3:45pm"}, {"days": "Sat", "time": "11:45am"}, {"days": "Sun", "time": "Closed"}], "id": "0384600001", "name": "USPS COLLECTION BOX - BLUE BOX", "address": {"city": "JACKSON", "state": "NH", "street": "20 BLACK MOUNTAIN RD", "postcode": "03846"}}},
{"geometry": {"type": "Point", "coordinates": [-71.1596385624, 44.178099409]}, "type": "Feature", "properties": {"collection_times": [{"days": "Mon-Fri", "time": "3:45pm"}, {"days": "Sat", "time": "11:45am"}, {"days": "Sun", "time": "Closed"}], "id": "0384600002", "name": "USPS COLLECTION BOX - PO LOBBY", "address": {"city": "JACKSON", "state": "NH", "street": "20 BLACK MOUNTAIN RD", "postcode": "03846"}}},
{"geometry": {"type": "Point", "coordinates": [-71.0573537381, 42.9429178668]}, "type": "Feature", "properties": {"collection_times": [{"days": "Mon-Fri", "time": "5:00pm"}, {"days": "Sat", "time": "12:00pm"}, {"days": "Sun", "time": "Closed"}], "id": "0384800002", "name": "USPS COLLECTION BOX - BLUE BOX", "address": {"city": "KINGSTON", "state": "NH", "street": "53 CHURCH ST", "postcode": "03848"}}},
{"geometry": {"type": "Point", "coordinates": [-71.0573537381, 42.9429178668]}, "type": "Feature", "properties": {"collection_times": [{"days": "Mon-Fri", "time": "5:00pm"}, {"days": "Sat", "time": "12:00pm"}, {"days": "Sun", "time": "Closed"}], "id": "0384800004", "name": "USPS COLLECTION BOX - PO LOBBY", "address": {"city": "KINGSTON", "state": "NH", "street": "53 CHURCH ST", "postcode": "03848"}}},
{"geometry": {"type": "Point", "coordinates": [-71.1505861239, 43.8970142738]}, "type": "Feature", "properties": {"collection_times": [{"days": "Mon-Fri", "time": "4:30pm"}, {"days": "Sat", "time": "11:30am"}, {"days": "Sun", "time": "Closed"}], "id": "0384900001", "name": "USPS COLLECTION BOX - BLUE BOX", "address": {"city": "MADISON", "state": "NH", "street": "1904 VILLAGE RD", "postcode": "03849"}}},
{"geometry": {"type": "Point", "coordinates": [-71.1017928391, 43.8887018448]}, "type": "Feature", "properties": {"collection_times": [{"days": "Mon-Sat", "time": "10:15am"}, {"days": "Sun", "time": "Closed"}], "id": "0384900002", "name": "USPS COLLECTION BOX - BLUE BOX", "address": {"city": "MADISON", "state": "NH", "street": "1483 CONWAY RD", "postcode": "03849"}}},
{"geometry": {"type": "Point", "coordinates": [-71.1505861239, 43.8970142738]}, "type": "Feature", "properties": {"collection_times": [{"days": "Mon-Fri", "time": "4:30pm"}, {"days": "Sat", "time": "11:30am"}, {"days": "Sun", "time": "Closed"}], "id": "0384900003", "name": "USPS COLLECTION BOX - PO LOBBY", "address": {"city": "MADISON", "state": "NH", "street": "1904 VILLAGE RD", "postcode": "03849"}}},
{"geometry": {"type": "Point", "coordinates": [-71.304322901, 43.6889920411]}, "type": "Feature", "properties": {"collection_times": [{"days": "Mon-Fri", "time": "4:00pm"}, {"days": "Sat", "time": "12:00pm"}, {"days": "Sun", "time": "Closed"}], "id": "0385000001", "name": "USPS COLLECTION BOX - BLUE BOX", "address": {"city": "MELVIN VILLAGE", "state": "NH", "street": "448 GOVERNOR WENTWORTH HWY UNIT 0", "postcode": "03850"}}},
{"geometry": {"type": "Point", "coordinates": [-71.304322901, 43.6889920411]}, "type": "Feature", "properties": {"collection_times": [{"days": "Mon-Fri", "time": "4:00pm"}, {"days": "Sat", "time": "12:00pm"}, {"days": "Sun", "time": "Closed"}], "id": "0385000002", "name": "USPS COLLECTION BOX - PO LOBBY", "address": {"city": "MELVIN VILLAGE", "state": "NH", "street": "448 GOVERNOR WENTWORTH HWY UNIT 0", "postcode": "03850"}}},
{"geometry": {"type": "Point", "coordinates": [-70.987152972, 43.4390375471]}, "type": "Feature", "properties": {"collection_times": [{"days": "Mon-Fri", "time": "4:45pm"}, {"days": "Sat", "time": "12:15pm"}, {"days": "Sun", "time": "Closed"}], "id": "0385100001", "name": "USPS COLLECTION BOX - BLUE BOX", "address": {"city": "MILTON", "state": "NH", "street": "851 WHITE MOUNTAIN HWY", "postcode": "03851"}}},
{"geometry": {"type": "Point", "coordinates": [-70.987152972, 43.4390375471]}, "type": "Feature", "properties": {"collection_times": [{"days": "Mon-Fri", "time": "5:00pm"}, {"days": "Sat", "time": "12:30pm"}, {"days": "Sun", "time": "Closed"}], "id": "0385100002", "name": "USPS COLLECTION BOX - PO LOBBY", "address": {"city": "MILTON", "state": "NH", "street": "851 WHITE MOUNTAIN HWY", "postcode": "03851"}}},
{"geometry": {"type": "Point", "coordinates": [-70.9752931805, 43.4353951853]}, "type": "Feature", "properties": {"collection_times": [{"days": "Mon-Sat", "time": "9:00am"}, {"days": "Sun", "time": "Closed"}], "id": "0385100003", "name": "USPS COLLECTION BOX - BLUE BOX", "address": {"city": "MILTON", "state": "NH", "street": "5 SAINT JAMES AVE", "postcode": "03851"}}},
{"geometry": {"type": "Point", "coordinates": [-70.987152972, 43.4390375471]}, "type": "Feature", "properties": {"collection_times": [{"days": "Mon-Fri", "time": "4:45pm"}, {"days": "Sat", "time": "12:15pm"}, {"days": "Sun", "time": "Closed"}], "id": "0385100004", "name": "USPS COLLECTION BOX - BLUE BOX", "address": {"city": "MILTON", "state": "NH", "street": "851 WHITE MOUNTAIN HWY", "postcode": "03851"}}},
{"geometry": {"type": "Point", "coordinates": [-70.9759013415, 43.5060546044]}, "type": "Feature", "properties": {"collection_times": [{"days": "Mon-Fri", "time": "4:30pm"}, {"days": "Sat", "time": "11:30am"}, {"days": "Sun", "time": "Closed"}], "id": "0385200001", "name": "USPS COLLECTION BOX - BLUE BOX", "address": {"city": "MILTON MILLS", "state": "NH", "street": "70 MAIN ST", "postcode": "03852"}}},
{"geometry": {"type": "Point", "coordinates": [-70.9759013415, 43.5060546044]}, "type": "Feature", "properties": {"collection_times": [{"days": "Mon-Fri", "time": "4:45pm"}, {"days": "Sat", "time": "11:45am"}, {"days": "Sun", "time": "Closed"}], "id": "0385200002", "name": "USPS COLLECTION BOX - PO LOBBY", "address": {"city": "MILTON MILLS", "state": "NH", "street": "70 MAIN ST", "postcode": "03852"}}},
{"geometry": {"type": "Point", "coordinates": [-71.2786259033, 43.6404307953]}, "type": "Feature", "properties": {"collection_times": [{"days": "Mon-Fri", "time": "4:00pm"}, {"days": "Sat", "time": "11:45am"}, {"days": "Sun", "time": "Closed"}], "id": "0385300001", "name": "USPS COLLECTION BOX - BLUE BOX", "address": {"city": "MIRROR LAKE", "state": "NH", "street": "36 TUFTONBORO NECK RD", "postcode": "03853"}}},
{"geometry": {"type": "Point", "coordinates": [-71.2786259033, 43.6404307953]}, "type": "Feature", "properties": {"collection_times": [{"days": "Mon-Fri", "time": "4:00pm"}, {"days": "Sat", "time": "11:45am"}, {"days": "Sun", "time": "Closed"}], "id": "0385300002", "name": "USPS COLLECTION BOX - PO LOBBY", "address": {"city": "MIRROR LAKE", "state": "NH", "street": "36 TUFTONBORO NECK RD", "postcode": "03853"}}},
{"geometry": {"type": "Point", "coordinates": [-70.7162897631, 43.0713557326]}, "type": "Feature", "properties": {"collection_times": [{"days": "Mon-Fri", "time": "4:45pm"}, {"days": "Sat", "time": "11:30am"}, {"days": "Sun", "time": "Closed"}], "id": "0385400002", "name": "USPS COLLECTION BOX - PO LOBBY", "address": {"city": "NEW CASTLE", "state": "NH", "street": "73 MAIN ST", "postcode": "03854"}}},
{"geometry": {"type": "Point", "coordinates": [-70.7159303622, 43.0659138777]}, "type": "Feature", "properties": {"collection_times": [{"days": "Mon-Fri", "time": "9:00am"}, {"days": "Sat-Sun", "time": "Closed"}], "id": "0385400003", "name": "USPS COLLECTION BOX - PO LOBBY", "address": {"city": "NEW CASTLE", "state": "NH", "street": "521 WENTWORTH RD", "postcode": "03854"}}},
{"geometry": {"type": "Point", "coordinates": [-71.1634844957, 43.4342787193]}, "type": "Feature", "properties": {"collection_times": [{"days": "Mon-Fri", "time": "4:30pm"}, {"days": "Sat", "time": "12:00pm"}, {"days": "Sun", "time": "Closed"}], "id": "0385500002", "name": "USPS COLLECTION BOX - PO LOBBY", "address": {"city": "NEW DURHAM", "state": "NH", "street": "7 DEPOT RD", "postcode": "03855"}}},
{"geometry": {"type": "Point", "coordinates": [-71.1634844957, 43.4342787193]}, "type": "Feature", "properties": {"collection_times": [{"days": "Mon-Fri", "time": "4:30pm"}, {"days": "Sat", "time": "12:00pm"}, {"days": "Sun", "time": "Closed"}], "id": "0385500003", "name": "USPS COLLECTION BOX - BLUE BOX", "address": {"city": "NEW DURHAM", "state": "NH", "street": "7 DEPOT RD", "postcode": "03855"}}},
{"geometry": {"type": "Point", "coordinates": [-70.942747262, 43.0348004641]}, "type": "Feature", "properties": {"collection_times": [{"days": "Mon-Fri", "time": "4:00pm"}, {"days": "Sat", "time": "12:00pm"}, {"days": "Sun", "time": "Closed"}], "id": "0385600001", "name": "USPS COLLECTION BOX - BLUE BOX", "address": {"city": "NEWFIELDS", "state": "NH", "street": "6 MAIN ST", "postcode": "03856"}}},
{"geometry": {"type": "Point", "coordinates": [-70.942747262, 43.0348004641]}, "type": "Feature", "properties": {"collection_times": [{"days": "Mon-Fri", "time": "4:15pm"}, {"days": "Sat", "time": "12:00pm"}, {"days": "Sun", "time": "Closed"}], "id": "0385600002", "name": "USPS COLLECTION BOX - PO LOBBY", "address": {"city": "NEWFIELDS", "state": "NH", "street": "6 MAIN ST", "postcode": "03856"}}},
{"geometry": {"type": "Point", "coordinates": [-70.9453110189, 43.0819721068]}, "type": "Feature", "properties": {"collection_times": [{"days": "Mon-Sat", "time": "1:00pm"}, {"days": "Sun", "time": "Closed"}], "id": "0385700002", "name": "USPS COLLECTION BOX - BLUE BOX", "address": {"city": "NEWMARKET", "state": "NH", "street": "22 ELM ST", "postcode": "03857"}}},
{"geometry": {"type": "Point", "coordinates": [-70.9578801044, 43.0691731586]}, "type": "Feature", "properties": {"collection_times": [{"days": "Mon-Sat", "time": "12:00pm"}, {"days": "Sun", "time": "Closed"}], "id": "0385700005", "name": "USPS COLLECTION BOX - BLUE BOX", "address": {"city": "NEWMARKET", "state": "NH", "street": "115 LITA LN", "postcode": "03857"}}},
{"geometry": {"type": "Point", "coordinates": [-70.9418467219, 43.0850680702]}, "type": "Feature", "properties": {"collection_times": [{"days": "Mon-Sat", "time": "1:00pm"}, {"days": "Sun", "time": "Closed"}], "id": "0385700015", "name": "USPS COLLECTION BOX - BLUE BOX", "address": {"city": "NEWMARKET", "state": "NH", "street": "8 PISCASSIC ST", "postcode": "03857"}}},
{"geometry": {"type": "Point", "coordinates": [-71.0437038228, 42.8566925564]}, "type": "Feature", "properties": {"collection_times": [{"days": "Mon-Fri", "time": "4:00pm"}, {"days": "Sat", "time": "12:00pm"}, {"days": "Sun", "time": "Closed"}], "id": "0385800001", "name": "USPS COLLECTION BOX - BLUE BOX", "address": {"city": "NEWTON", "state": "NH", "street": "77 S MAIN ST", "postcode": "03858"}}},
{"geometry": {"type": "Point", "coordinates": [-71.0437038228, 42.8566925564]}, "type": "Feature", "properties": {"collection_times": [{"days": "Mon-Fri", "time": "4:30pm"}, {"days": "Sat", "time": "12:00pm"}, {"days": "Sun", "time": "Closed"}], "id": "0385800003", "name": "USPS COLLECTION BOX - PO LOBBY", "address": {"city": "NEWTON", "state": "NH", "street": "77 S MAIN ST", "postcode": "03858"}}},
{"geometry": {"type": "Point", "coordinates": [-71.122760165, 44.050840631]}, "type": "Feature", "properties": {"collection_times": [{"days": "Mon-Fri", "time": "4:45pm"}, {"days": "Sat", "time": "12:30pm"}, {"days": "Sun", "time": "Closed"}], "id": "0386000002", "name": "USPS COLLECTION BOX - BLUE BOX", "address": {"city": "NORTH CONWAY", "state": "NH", "street": "78 GROVE ST", "postcode": "03860"}}},
{"geometry": {"type": "Point", "coordinates": [-71.1123554148, 44.0206054812]}, "type": "Feature", "properties": {"collection_times": [{"days": "Mon-Sat", "time": "11:00am"}, {"days": "Sun", "time": "Closed"}], "id": "0386000003", "name": "USPS COLLECTION BOX - PO LOBBY", "address": {"city": "NORTH CONWAY", "state": "NH", "street": "7 MOUNTAIN VALLEY MALL BLVD", "postcode": "03860"}}},
{"geometry": {"type": "Point", "coordinates": [-71.1172574131, 44.0236372584]}, "type": "Feature", "properties": {"collection_times": [{"days": "Mon-Sat", "time": "10:00am"}, {"days": "Sun", "time": "Closed"}], "id": "0386000006", "name": "USPS COLLECTION BOX - BLUE BOX", "address": {"city": "NORTH CONWAY", "state": "NH", "street": "1500 WHITE MOUNTAIN HWY", "postcode": "03860"}}},
{"geometry": {"type": "Point", "coordinates": [-71.122760165, 44.050840631]}, "type": "Feature", "properties": {"collection_times": [{"days": "Mon-Fri", "time": "5:00pm"}, {"days": "Sat", "time": "12:30pm"}, {"days": "Sun", "time": "Closed"}], "id": "0386000008", "name": "USPS COLLECTION BOX - PO LOBBY", "address": {"city": "NORTH CONWAY", "state": "NH", "street": "78 GROVE ST", "postcode": "03860"}}},
{"geometry": {"type": "Point", "coordinates": [-71.1123554148, 44.0206054812]}, "type": "Feature", "properties": {"collection_times": [{"days": "Mon-Sat", "time": "11:00am"}, {"days": "Sun", "time": "Closed"}], "id": "0386000010", "name": "USPS COLLECTION BOX - BLUE BOX", "address": {"city": "NORTH CONWAY", "state": "NH", "street": "7 MOUNTAIN VALLEY MALL BLVD", "postcode": "03860"}}},
{"geometry": {"type": "Point", "coordinates": [-71.122760165, 44.050840631]}, "type": "Feature", "properties": {"collection_times": [{"days": "Mon-Fri", "time": "4:45pm"}, {"days": "Sat", "time": "12:30pm"}, {"days": "Sun", "time": "Closed"}], "id": "0386000012", "name": "USPS COLLECTION BOX - BLUE BOX", "address": {"city": "NORTH CONWAY", "state": "NH", "street": "78 GROVE ST", "postcode": "03860"}}},
{"geometry": {"type": "Point", "coordinates": [-70.8358146647, 42.9679310911]}, "type": "Feature", "properties": {"collection_times": [{"days": "Mon-Fri", "time": "5:00pm"}, {"days": "Sat", "time": "12:00pm"}, {"days": "Sun", "time": "Closed"}], "id": "0386200002", "name": "USPS COLLECTION BOX - BLUE BOX", "address": {"city": "NORTH HAMPTON", "state": "NH", "street": "44 LAFAYETTE RD", "postcode": "03862"}}},
{"geometry": {"type": "Point", "coordinates": [-70.8349869893, 42.9650057281]}, "type": "Feature", "properties": {"collection_times": [{"days": "Mon-Sat", "time": "9:30am"}, {"days": "Sun", "time": "Closed"}], "id": "0386200003", "name": "USPS COLLECTION BOX - BLUE BOX", "address": {"city": "NORTH HAMPTON", "state": "NH", "street": "35 LAFAYETTE RD", "postcode": "03862"}}},
{"geometry": {"type": "Point", "coordinates": [-70.8299693249, 42.9751930733]}, "type": "Feature", "properties": {"collection_times": [{"days": "Mon-Sat", "time": "10:00am"}, {"days": "Sun", "time": "Closed"}], "id": "0386200005", "name": "USPS COLLECTION BOX - BLUE BOX", "address": {"city": "NORTH HAMPTON", "state": "NH", "street": "69 LAFAYETTE RD", "postcode": "03862"}}},
{"geometry": {"type": "Point", "coordinates": [-70.8358146647, 42.9679310911]}, "type": "Feature", "properties": {"collection_times": [{"days": "Mon-Fri", "time": "5:00pm"}, {"days": "Sat", "time": "12:00pm"}, {"days": "Sun", "time": "Closed"}], "id": "0386200007", "name": "USPS COLLECTION BOX - PO LOBBY", "address": {"city": "NORTH HAMPTON", "state": "NH", "street": "44 LAFAYETTE RD", "postcode": "03862"}}},
{"geometry": {"type": "Point", "coordinates": [-70.8168878898, 42.9943210603]}, "type": "Feature", "properties": {"collection_times": [{"days": "Mon-Sat", "time": "10:30am"}, {"days": "Sun", "time": "Closed"}], "id": "0386200008", "name": "USPS COLLECTION BOX - BLUE BOX", "address": {"city": "NORTH HAMPTON", "state": "NH", "street": "180 LAFAYETTE RD", "postcode": "03862"}}},
{"geometry": {"type": "Point", "coordinates": [-71.1146088958, 43.6936248156]}, "type": "Feature", "properties": {"collection_times": [{"days": "Mon-Fri", "time": "4:45pm"}, {"days": "Sat", "time": "12:00pm"}, {"days": "Sun", "time": "Closed"}], "id": "0386400001", "name": "USPS COLLECTION BOX - BLUE BOX", "address": {"city": "OSSIPEE", "state": "NH", "street": "10 OLD ROUTE 28", "postcode": "03864"}}},
{"geometry": {"type": "Point", "coordinates": [-71.1097066813, 43.702457929]}, "type": "Feature", "properties": {"collection_times": [{"days": "Mon-Sat", "time": "11:00am"}, {"days": "Sun", "time": "Closed"}], "id": "0386400002", "name": "USPS COLLECTION BOX - BLUE BOX", "address": {"city": "OSSIPEE", "state": "NH", "street": "891 ROUTE 16", "postcode": "03864"}}},
{"geometry": {"type": "Point", "coordinates": [-71.1146088958, 43.6936248156]}, "type": "Feature", "properties": {"collection_times": [{"days": "Mon-Fri", "time": "4:45pm"}, {"days": "Sat", "time": "12:00pm"}, {"days": "Sun", "time": "Closed"}], "id": "0386400003", "name": "USPS COLLECTION BOX - PO LOBBY", "address": {"city": "OSSIPEE", "state": "NH", "street": "10 OLD ROUTE 28", "postcode": "03864"}}},
{"geometry": {"type": "Point", "coordinates": [-71.1146088958, 43.6936248156]}, "type": "Feature", "properties": {"collection_times": [{"days": "Mon-Fri", "time": "4:45pm"}, {"days": "Sat", "time": "12:00pm"}, {"days": "Sun", "time": "Closed"}], "id": "0386400004", "name": "USPS COLLECTION BOX - BLUE BOX", "address": {"city": "OSSIPEE", "state": "NH", "street": "10 OLD ROUTE 28", "postcode": "03864"}}},
{"geometry": {"type": "Point", "coordinates": [-71.0946836023, 42.820075778]}, "type": "Feature", "properties": {"collection_times": [{"days": "Mon-Fri", "time": "5:00pm"}, {"days": "Sat", "time": "12:00pm"}, {"days": "Sun", "time": "Closed"}], "id": "0386500002", "name": "USPS COLLECTION BOX - BLUE BOX", "address": {"city": "PLAISTOW", "state": "NH", "street": "38 MAIN ST", "postcode": "03865"}}},
{"geometry": {"type": "Point", "coordinates": [-71.1043518982, 42.8215300426]}, "type": "Feature", "properties": {"collection_times": [{"days": "Mon-Sat", "time": "9:30am"}, {"days": "Sun", "time": "Closed"}], "id": "0386500003", "name": "USPS COLLECTION BOX - BLUE BOX", "address": {"city": "PLAISTOW", "state": "NH", "street": "34 PLAISTOW RD", "postcode": "03865"}}},
{"geometry": {"type": "Point", "coordinates": [-71.0906840181, 42.8398489371]}, "type": "Feature", "properties": {"collection_times": [{"days": "Mon-Sat", "time": "9:30am"}, {"days": "Sun", "time": "Closed"}], "id": "0386500007", "name": "USPS COLLECTION BOX - BLUE BOX", "address": {"city": "PLAISTOW", "state": "NH", "street": "27 ELM ST", "postcode": "03865"}}},
{"geometry": {"type": "Point", "coordinates": [-71.0563190601, 42.8331959759]}, "type": "Feature", "properties": {"collection_times": [{"days": "Mon-Sat", "time": "9:30am"}, {"days": "Sun", "time": "Closed"}], "id": "0386500008", "name": "USPS COLLECTION BOX - BLUE BOX", "address": {"city": "PLAISTOW", "state": "NH", "street": "134 NEWTON RD", "postcode": "03865"}}},
{"geometry": {"type": "Point", "coordinates": [-71.1031240145, 42.8163104196]}, "type": "Feature", "properties": {"collection_times": [{"days": "Mon-Sat", "time": "9:30am"}, {"days": "Sun", "time": "Closed"}], "id": "0386500009", "name": "USPS COLLECTION BOX - BLUE BOX", "address": {"city": "PLAISTOW", "state": "NH", "street": "4 PLAISTOW RD", "postcode": "03865"}}},
{"geometry": {"type": "Point", "coordinates": [-71.1069550785, 42.8271684927]}, "type": "Feature", "properties": {"collection_times": [{"days": "Mon-Sat", "time": "9:30am"}, {"days": "Sun", "time": "Closed"}], "id": "0386500011", "name": "USPS COLLECTION BOX - BLUE BOX", "address": {"city": "PLAISTOW", "state": "NH", "street": "58 PLAISTOW RD", "postcode": "03865"}}},
{"geometry": {"type": "Point", "coordinates": [-71.0946836023, 42.820075778]}, "type": "Feature", "properties": {"collection_times": [{"days": "Mon-Fri", "time": "5:00pm"}, {"days": "Sat", "time": "12:00pm"}, {"days": "Sun", "time": "Closed"}], "id": "0386500012", "name": "USPS COLLECTION BOX - PO LOBBY", "address": {"city": "PLAISTOW", "state": "NH", "street": "38 MAIN ST", "postcode": "03865"}}},
{"geometry": {"type": "Point", "coordinates": [-71.1068822752, 42.8443997803]}, "type": "Feature", "properties": {"collection_times": [{"days": "Mon-Sat", "time": "9:30am"}, {"days": "Sun", "time": "Closed"}], "id": "0386500013", "name": "USPS COLLECTION BOX - BLUE BOX", "address": {"city": "PLAISTOW", "state": "NH", "street": "142 PLAISTOW RD", "postcode": "03865"}}},
{"geometry": {"type": "Point", "coordinates": [-70.974480776, 43.3089536806]}, "type": "Feature", "properties": {"collection_times": [{"days": "Mon-Fri", "time": "5:15pm"}, {"days": "Sat", "time": "3:15pm"}, {"days": "Sun", "time": "Closed"}], "id": "0386700003", "name": "USPS COLLECTION BOX - PO LOBBY", "address": {"city": "ROCHESTER", "state": "NH", "street": "20 ALLEN ST", "postcode": "03867"}}},
{"geometry": {"type": "Point", "coordinates": [-70.9745379024, 43.3109492989]}, "type": "Feature", "properties": {"collection_times": [{"days": "Mon-Fri", "time": "5:00pm"}, {"days": "Sat", "time": "3:00pm"}, {"days": "Sun", "time": "Closed"}], "id": "0386700005", "name": "USPS COLLECTION BOX - BLUE BOX", "address": {"city": "ROCHESTER", "state": "NH", "street": "20 ALLEN ST", "postcode": "03867"}}},
{"geometry": {"type": "Point", "coordinates": [-70.974480776, 43.3089536806]}, "type": "Feature", "properties": {"collection_times": [{"days": "Mon-Fri", "time": "5:00pm"}, {"days": "Sat", "time": "3:00pm"}, {"days": "Sun", "time": "Closed"}], "id": "0386700006", "name": "USPS COLLECTION BOX - BLUE BOX", "address": {"city": "ROCHESTER", "state": "NH", "street": "20 ALLEN ST", "postcode": "03867"}}},
{"geometry": {"type": "Point", "coordinates": [-70.9708680193, 43.2966923109]}, "type": "Feature", "properties": {"collection_times": [{"days": "Mon-Fri", "time": "2:00pm"}, {"days": "Sat", "time": "12:30pm"}, {"days": "Sun", "time": "Closed"}], "id": "0386700012", "name": "USPS COLLECTION BOX - BLUE BOX", "address": {"city": "ROCHESTER", "state": "NH", "street": "1 HANCOCK ST", "postcode": "03867"}}},
{"geometry": {"type": "Point", "coordinates": [-70.946053037, 43.269457603]}, "type": "Feature", "properties": {"collection_times": [{"days": "Mon-Sat", "time": "9:00am"}, {"days": "Sun", "time": "Closed"}], "id": "0386700017", "name": "USPS COLLECTION BOX - BLUE BOX", "address": {"city": "ROCHESTER", "state": "NH", "street": "241 OLD DOVER RD", "postcode": "03867"}}},
{"geometry": {"type": "Point", "coordinates": [-70.9751659878, 43.3193628213]}, "type": "Feature", "properties": {"collection_times": [{"days": "Mon-Sat", "time": "11:30am"}, {"days": "Sun", "time": "Closed"}], "id": "0386700018", "name": "USPS COLLECTION BOX - BLUE BOX", "address": {"city": "ROCHESTER", "state": "NH", "street": "21 LILAC MALL", "postcode": "03867"}}},
{"geometry": {"type": "Point", "coordinates": [-70.974499022, 43.3193706288]}, "type": "Feature", "properties": {"collection_times": [{"days": "Mon-Sat", "time": "11:30am"}, {"days": "Sun", "time": "Closed"}], "id": "0386700019", "name": "USPS COLLECTION BOX - BLUE BOX", "address": {"city": "ROCHESTER", "state": "NH", "street": "26 LILAC MALL", "postcode": "03867"}}},
{"geometry": {"type": "Point", "coordinates": [-70.9741279177, 43.3005123248]}, "type": "Feature", "properties": {"collection_times": [{"days": "Mon-Sat", "time": "11:00am"}, {"days": "Sun", "time": "Closed"}], "id": "0386700025", "name": "USPS COLLECTION BOX - BLUE BOX", "address": {"city": "ROCHESTER", "state": "NH", "street": "306 N MAIN ST", "postcode": "03867"}}},
{"geometry": {"type": "Point", "coordinates": [-70.974296336, 43.2900730833]}, "type": "Feature", "properties": {"collection_times": [{"days": "Mon-Fri", "time": "4:45pm"}, {"days": "Sat", "time": "2:00pm"}, {"days": "Sun", "time": "Closed"}], "id": "0386700028", "name": "USPS COLLECTION BOX - BLUE BOX", "address": {"city": "ROCHESTER", "state": "NH", "street": "1 OLD DOVER RD", "postcode": "03867"}}},
{"geometry": {"type": "Point", "coordinates": [-70.9714141213, 43.3002597021]}, "type": "Feature", "properties": {"collection_times": [{"days": "Mon-Fri", "time": "3:30pm"}, {"days": "Sat", "time": "1:00pm"}, {"days": "Sun", "time": "Closed"}], "id": "0386700040", "name": "USPS COLLECTION BOX - BLUE BOX", "address": {"city": "ROCHESTER", "state": "NH", "street": "124 S MAIN ST", "postcode": "03867"}}},
{"geometry": {"type": "Point", "coordinates": [-70.9741279177, 43.3005123248]}, "type": "Feature", "properties": {"collection_times": [{"days": "Mon-Fri", "time": "4:45pm"}, {"days": "Sat", "time": "2:00pm"}, {"days": "Sun", "time": "Closed"}], "id": "0386700041", "name": "USPS COLLECTION BOX - BLUE BOX", "address": {"city": "ROCHESTER", "state": "NH", "street": "66 S MAIN ST", "postcode": "03867"}}},
{"geometry": {"type": "Point", "coordinates": [-70.9761404674, 43.3053870593]}, "type": "Feature", "properties": {"collection_times": [{"days": "Mon-Fri", "time": "5:00pm"}, {"days": "Sat", "time": "2:00pm"}, {"days": "Sun", "time": "Closed"}], "id": "0386700044", "name": "USPS COLLECTION BOX - BLUE BOX", "address": {"city": "ROCHESTER", "state": "NH", "street": "31 WAKEFIELD ST", "postcode": "03867"}}},
{"geometry": {"type": "Point", "coordinates": [-70.9450347871, 43.2651761342]}, "type": "Feature", "properties": {"collection_times": [{"days": "Mon-Sat", "time": "9:30am"}, {"days": "Sun", "time": "Closed"}], "id": "0386700049", "name": "USPS COLLECTION BOX - BLUE BOX", "address": {"city": "ROCHESTER", "state": "NH", "street": "77 OLDE FARM LN", "postcode": "03867"}}},
{"geometry": {"type": "Point", "coordinates": [-70.9584043636, 43.2982419872]}, "type": "Feature", "properties": {"collection_times": [{"days": "Mon-Fri", "time": "1:30pm"}, {"days": "Sat", "time": "1:00pm"}, {"days": "Sun", "time": "Closed"}], "id": "0386700050", "name": "USPS COLLECTION BOX - BLUE BOX", "address": {"city": "ROCHESTER", "state": "NH", "street": "11 WHITEHALL RD", "postcode": "03867"}}},
{"geometry": {"type": "Point", "coordinates": [-70.9741279177, 43.3005123248]}, "type": "Feature", "properties": {"collection_times": [{"days": "Mon-Fri", "time": "3:30pm"}, {"days": "Sat", "time": "12:30pm"}, {"days": "Sun", "time": "Closed"}], "id": "0386700053", "name": "USPS COLLECTION BOX - BLUE BOX", "address": {"city": "ROCHESTER", "state": "NH", "street": "161 S MAIN ST", "postcode": "03867"}}},
{"geometry": {"type": "Point", "coordinates": [-70.9774897946, 43.3108062842]}, "type": "Feature", "properties": {"collection_times": [{"days": "Mon-Fri", "time": "12:00pm"}, {"days": "Sat-Sun", "time": "Closed"}], "id": "0386700054", "name": "USPS COLLECTION BOX - BLUE BOX", "address": {"city": "ROCHESTER", "state": "NH", "street": "150 WAKEFIELD ST", "postcode": "03867"}}},
{"geometry": {"type": "Point", "coordinates": [-70.9745379024, 43.3109492989]}, "type": "Feature", "properties": {"collection_times": [{"days": "Mon-Fri", "time": "5:00pm"}, {"days": "Sat", "time": "3:00pm"}, {"days": "Sun", "time": "Closed"}], "id": "0386700056", "name": "USPS COLLECTION BOX - BLUE BOX", "address": {"city": "ROCHESTER", "state": "NH", "street": "20 ALLEN ST", "postcode": "03867"}}},
{"geometry": {"type": "Point", "coordinates": [-70.9741279177, 43.3005123248]}, "type": "Feature", "properties": {"collection_times": [{"days": "Mon-Sat", "time": "9:00am"}, {"days": "Sun", "time": "Closed"}], "id": "0386700062", "name": "USPS COLLECTION BOX - BLUE BOX", "address": {"city": "ROCHESTER", "state": "NH", "street": "116 FARMINGTON RD", "postcode": "03867"}}},
{"geometry": {"type": "Point", "coordinates": [-70.9744750131, 43.2866044538]}, "type": "Feature", "properties": {"collection_times": [{"days": "Mon-Sat", "time": "9:30am"}, {"days": "Sun", "time": "Closed"}], "id": "0386700063", "name": "USPS COLLECTION BOX - BLUE BOX", "address": {"city": "ROCHESTER", "state": "NH", "street": "25 OLD DOVER RD", "postcode": "03867"}}},
{"geometry": {"type": "Point", "coordinates": [-70.9757008301, 43.3039023705]}, "type": "Feature", "properties": {"collection_times": [{"days": "Mon-Fri", "time": "4:45pm"}, {"days": "Sat", "time": "2:00pm"}, {"days": "Sun", "time": "Closed"}], "id": "0386700065", "name": "USPS COLLECTION BOX - BLUE BOX", "address": {"city": "ROCHESTER", "state": "NH", "street": "10 S MAIN ST", "postcode": "03867"}}},
{"geometry": {"type": "Point", "coordinates": [-70.9741279177, 43.3005123248]}, "type": "Feature", "properties": {"collection_times": [{"days": "Mon-Fri", "time": "11:00am"}, {"days": "Sat-Sun", "time": "Closed"}], "id": "0386700066", "name": "USPS COLLECTION BOX - BLUE BOX", "address": {"city": "ROCHESTER", "state": "NH", "street": "36 INDUSTRIAL WAY", "postcode": "03867"}}},
{"geometry": {"type": "Point", "coordinates": [-70.9741279177, 43.3005123248]}, "type": "Feature", "properties": {"collection_times": [{"days": "Mon-Sat", "time": "11:00am"}, {"days": "Sun", "time": "Closed"}], "id": "0386700067", "name": "USPS COLLECTION BOX - BLUE BOX", "address": {"city": "ROCHESTER", "state": "NH", "street": "290 N MAIN ST", "postcode": "03867"}}},
{"geometry": {"type": "Point", "coordinates": [-70.9478510169, 43.3293269096]}, "type": "Feature", "properties": {"collection_times": [{"days": "Mon-Fri", "time": "3:00pm"}, {"days": "Sat", "time": "1:00pm"}, {"days": "Sun", "time": "Closed"}], "id": "0386800001", "name": "USPS COLLECTION BOX - BLUE BOX", "address": {"city": "ROCHESTER", "state": "NH", "street": "101 HIGHLAND ST", "postcode": "03868"}}},
{"geometry": {"type": "Point", "coordinates": [-70.9498958218, 43.3298628374]}, "type": "Feature", "properties": {"collection_times": [{"days": "Mon-Fri", "time": "4:00pm"}, {"days": "Sat", "time": "1:30pm"}, {"days": "Sun", "time": "Closed"}], "id": "0386800002", "name": "USPS COLLECTION BOX - BLUE BOX", "address": {"city": "ROCHESTER", "state": "NH", "street": "62 MAIN ST", "postcode": "03868"}}},
{"geometry": {"type": "Point", "coordinates": [-70.9738568502, 43.3427088264]}, "type": "Feature", "properties": {"collection_times": [{"days": "Mon-Sat", "time": "9:00am"}, {"days": "Sun", "time": "Closed"}], "id": "0386800003", "name": "USPS COLLECTION BOX - BLUE BOX", "address": {"city": "ROCHESTER", "state": "NH", "street": "100 MILTON RD", "postcode": "03868"}}},
{"geometry": {"type": "Point", "coordinates": [-70.832806614, 43.2248918494]}, "type": "Feature", "properties": {"collection_times": [{"days": "Mon-Fri", "time": "5:00pm"}, {"days": "Sat", "time": "12:00pm"}, {"days": "Sun", "time": "Closed"}], "id": "0386900001", "name": "USPS COLLECTION BOX - BLUE BOX", "address": {"city": "ROLLINSFORD", "state": "NH", "street": "664 MAIN ST", "postcode": "03869"}}},
{"geometry": {"type": "Point", "coordinates": [-70.832806614, 43.2248918494]}, "type": "Feature", "properties": {"collection_times": [{"days": "Mon-Fri", "time": "5:00pm"}, {"days": "Sat", "time": "12:00pm"}, {"days": "Sun", "time": "Closed"}], "id": "0386900002", "name": "USPS COLLECTION BOX - PO LOBBY", "address": {"city": "ROLLINSFORD", "state": "NH", "street": "664 MAIN ST", "postcode": "03869"}}},
{"geometry": {"type": "Point", "coordinates": [-70.7713247288, 42.9998735009]}, "type": "Feature", "properties": {"collection_times": [{"days": "Mon-Fri", "time": "5:00pm"}, {"days": "Sat", "time": "12:00pm"}, {"days": "Sun", "time": "Closed"}], "id": "0387000001", "name": "USPS COLLECTION BOX - BLUE BOX", "address": {"city": "RYE", "state": "NH", "street": "301 CENTRAL RD", "postcode": "03870"}}},
{"geometry": {"type": "Point", "coordinates": [-70.7713247288, 42.9998735009]}, "type": "Feature", "properties": {"collection_times": [{"days": "Mon-Fri", "time": "5:00pm"}, {"days": "Sat", "time": "12:00pm"}, {"days": "Sun", "time": "Closed"}], "id": "0387000002", "name": "USPS COLLECTION BOX - BLUE BOX", "address": {"city": "RYE", "state": "NH", "street": "301 CENTRAL RD", "postcode": "03870"}}},
{"geometry": {"type": "Point", "coordinates": [-70.7713247288, 42.9998735009]}, "type": "Feature", "properties": {"collection_times": [{"days": "Mon-Fri", "time": "5:00pm"}, {"days": "Sat", "time": "12:00pm"}, {"days": "Sun", "time": "Closed"}], "id": "0387000004", "name": "USPS COLLECTION BOX - PO LOBBY", "address": {"city": "RYE", "state": "NH", "street": "301 CENTRAL RD", "postcode": "03870"}}},
{"geometry": {"type": "Point", "coordinates": [-70.7732826998, 42.9768789326]}, "type": "Feature", "properties": {"collection_times": [{"days": "Mon-Fri", "time": "5:00pm"}, {"days": "Sat", "time": "12:00pm"}, {"days": "Sun", "time": "Closed"}], "id": "0387100001", "name": "USPS COLLECTION BOX - BLUE BOX", "address": {"city": "RYE BEACH", "state": "NH", "street": "830 CENTRAL RD", "postcode": "03871"}}},
{"geometry": {"type": "Point", "coordinates": [-70.7732826998, 42.9768789326]}, "type": "Feature", "properties": {"collection_times": [{"days": "Mon-Fri", "time": "5:00pm"}, {"days": "Sat", "time": "12:00pm"}, {"days": "Sun", "time": "Closed"}], "id": "0387100002", "name": "USPS COLLECTION BOX - PO LOBBY", "address": {"city": "RYE BEACH", "state": "NH", "street": "830 CENTRAL RD", "postcode": "03871"}}},
{"geometry": {"type": "Point", "coordinates": [-71.0394931378, 43.5509897504]}, "type": "Feature", "properties": {"collection_times": [{"days": "Mon-Fri", "time": "4:45pm"}, {"days": "Sat", "time": "12:00pm"}, {"days": "Sun", "time": "Closed"}], "id": "0387200002", "name": "USPS COLLECTION BOX - BLUE BOX", "address": {"city": "SANBORNVILLE", "state": "NH", "street": "378 MEADOW ST", "postcode": "03872"}}},
{"geometry": {"type": "Point", "coordinates": [-71.040176895, 43.5506934909]}, "type": "Feature", "properties": {"collection_times": [{"days": "Mon-Fri", "time": "1:00pm"}, {"days": "Sat", "time": "10:00am"}, {"days": "Sun", "time": "Closed"}], "id": "0387200003", "name": "USPS COLLECTION BOX - BLUE BOX", "address": {"city": "SANBORNVILLE", "state": "NH", "street": "65 MEADOW ST", "postcode": "03872"}}},
{"geometry": {"type": "Point", "coordinates": [-71.0394931378, 43.5509897504]}, "type": "Feature", "properties": {"collection_times": [{"days": "Mon-Fri", "time": "4:45pm"}, {"days": "Sat", "time": "12:00pm"}, {"days": "Sun", "time": "Closed"}], "id": "0387200004", "name": "USPS COLLECTION BOX - PO LOBBY", "address": {"city": "SANBORNVILLE", "state": "NH", "street": "378 MEADOW ST", "postcode": "03872"}}},
{"geometry": {"type": "Point", "coordinates": [-71.187802912, 42.9300587506]}, "type": "Feature", "properties": {"collection_times": [{"days": "Mon-Fri", "time": "5:00pm"}, {"days": "Sat", "time": "12:00pm"}, {"days": "Sun", "time": "Closed"}], "id": "0387300001", "name": "USPS COLLECTION BOX - BLUE BOX", "address": {"city": "SANDOWN", "state": "NH", "street": "345 MAIN ST", "postcode": "03873"}}},
{"geometry": {"type": "Point", "coordinates": [-71.187802912, 42.9300587506]}, "type": "Feature", "properties": {"collection_times": [{"days": "Mon-Fri", "time": "5:00pm"}, {"days": "Sat", "time": "12:00pm"}, {"days": "Sun", "time": "Closed"}], "id": "0387300003", "name": "USPS COLLECTION BOX - PO LOBBY", "address": {"city": "SANDOWN", "state": "NH", "street": "345 MAIN ST", "postcode": "03873"}}},
{"geometry": {"type": "Point", "coordinates": [-70.8680117133, 42.8826921298]}, "type": "Feature", "properties": {"collection_times": [{"days": "Mon-Sat", "time": "8:00am"}, {"days": "Sun", "time": "Closed"}], "id": "0387400001", "name": "USPS COLLECTION BOX - BLUE BOX", "address": {"city": "SEABROOK", "state": "NH", "street": "270 LAFAYETTE RD", "postcode": "03874"}}},
{"geometry": {"type": "Point", "coordinates": [-70.8707658021, 42.8961436986]}, "type": "Feature", "properties": {"collection_times": [{"days": "Mon-Sat", "time": "9:00am"}, {"days": "Sun", "time": "Closed"}], "id": "0387400002", "name": "USPS COLLECTION BOX - BLUE BOX", "address": {"city": "SEABROOK", "state": "NH", "street": "720 LAFAYETTE RD", "postcode": "03874"}}},
{"geometry": {"type": "Point", "coordinates": [-70.8719071869, 42.875681293]}, "type": "Feature", "properties": {"collection_times": [{"days": "Mon-Fri", "time": "4:45pm"}, {"days": "Sat", "time": "12:45pm"}, {"days": "Sun", "time": "Closed"}], "id": "0387400003", "name": "USPS COLLECTION BOX - BLUE BOX", "address": {"city": "SEABROOK", "state": "NH", "street": "19 MAIN ST", "postcode": "03874"}}},
{"geometry": {"type": "Point", "coordinates": [-70.873354527, 42.8917559641]}, "type": "Feature", "properties": {"collection_times": [{"days": "Mon-Sat", "time": "9:30am"}, {"days": "Sun", "time": "Closed"}], "id": "0387400005", "name": "USPS COLLECTION BOX - BLUE BOX", "address": {"city": "SEABROOK", "state": "NH", "street": "25 PERKINS AVE", "postcode": "03874"}}},
{"geometry": {"type": "Point", "coordinates": [-70.8250136739, 42.8872271961]}, "type": "Feature", "properties": {"collection_times": [{"days": "Mon-Sat", "time": "9:30am"}, {"days": "Sun", "time": "Closed"}], "id": "0387400006", "name": "USPS COLLECTION BOX - BLUE BOX", "address": {"city": "SEABROOK", "state": "NH", "street": "1 RIVER ST", "postcode": "03874"}}},
{"geometry": {"type": "Point", "coordinates": [-70.8866719675, 42.8847284216]}, "type": "Feature", "properties": {"collection_times": [{"days": "Mon-Sat", "time": "9:30am"}, {"days": "Sun", "time": "Closed"}], "id": "0387400007", "name": "USPS COLLECTION BOX - BLUE BOX", "address": {"city": "SEABROOK", "state": "NH", "street": "8 BATCHELDER RD", "postcode": "03874"}}},
{"geometry": {"type": "Point", "coordinates": [-70.8719071869, 42.875681293]}, "type": "Feature", "properties": {"collection_times": [{"days": "Mon-Fri", "time": "4:45pm"}, {"days": "Sat", "time": "12:45pm"}, {"days": "Sun", "time": "Closed"}], "id": "0387400008", "name": "USPS COLLECTION BOX - PO LOBBY", "address": {"city": "SEABROOK", "state": "NH", "street": "19 MAIN ST", "postcode": "03874"}}},
{"geometry": {"type": "Point", "coordinates": [-70.8719071869, 42.875681293]}, "type": "Feature", "properties": {"collection_times": [{"days": "Mon-Fri", "time": "4:45pm"}, {"days": "Sat", "time": "12:45pm"}, {"days": "Sun", "time": "Closed"}], "id": "0387400009", "name": "USPS COLLECTION BOX - EXPRESS", "address": {"city": "SEABROOK", "state": "NH", "street": "19 MAIN ST", "postcode": "03874"}}},
{"geometry": {"type": "Point", "coordinates": [-71.1818057678, 43.8740990164]}, "type": "Feature", "properties": {"collection_times": [{"days": "Mon-Fri", "time": "2:30pm"}, {"days": "Sat", "time": "11:15am"}, {"days": "Sun", "time": "Closed"}], "id": "0387500001", "name": "USPS COLLECTION BOX - BLUE BOX", "address": {"city": "SILVER LAKE", "state": "NH", "street": "1381 VILLAGE RD", "postcode": "03875"}}},
{"geometry": {"type": "Point", "coordinates": [-71.1818057678, 43.8740990164]}, "type": "Feature", "properties": {"collection_times": [{"days": "Mon-Fri", "time": "2:30pm"}, {"days": "Sat", "time": "11:15am"}, {"days": "Sun", "time": "Closed"}], "id": "0387500002", "name": "USPS COLLECTION BOX - PO LOBBY", "address": {"city": "SILVER LAKE", "state": "NH", "street": "1381 VILLAGE RD", "postcode": "03875"}}},
{"geometry": {"type": "Point", "coordinates": [-70.8751877977, 43.2518743337]}, "type": "Feature", "properties": {"collection_times": [{"days": "Mon-Sat", "time": "9:25am"}, {"days": "Sun", "time": "Closed"}], "id": "0387800001", "name": "USPS COLLECTION BOX - BLUE BOX", "address": {"city": "SOMERSWORTH", "state": "NH", "street": "165 BLACKWATER RD", "postcode": "03878"}}},
{"geometry": {"type": "Point", "coordinates": [-70.8745300942, 43.2359606472]}, "type": "Feature", "properties": {"collection_times": [{"days": "Mon-Fri", "time": "3:30pm"}, {"days": "Sat", "time": "9:00am"}, {"days": "Sun", "time": "Closed"}], "id": "0387800002", "name": "USPS COLLECTION BOX - BLUE BOX", "address": {"city": "SOMERSWORTH", "state": "NH", "street": "53 CINNAMON RIDGE RD", "postcode": "03878"}}},
{"geometry": {"type": "Point", "coordinates": [-70.9040385877, 43.2488756354]}, "type": "Feature", "properties": {"collection_times": [{"days": "Mon-Fri", "time": "9:20am"}, {"days": "Sat", "time": "9:30am"}, {"days": "Sun", "time": "Closed"}], "id": "0387800003", "name": "USPS COLLECTION BOX - BLUE BOX", "address": {"city": "SOMERSWORTH", "state": "NH", "street": "1 COLONIAL VLG", "postcode": "03878"}}},
{"geometry": {"type": "Point", "coordinates": [-70.8643749988, 43.2626225965]}, "type": "Feature", "properties": {"collection_times": [{"days": "Mon-Fri", "time": "5:00pm"}, {"days": "Sat", "time": "2:30pm"}, {"days": "Sun", "time": "Closed"}], "id": "0387800007", "name": "USPS COLLECTION BOX - BLUE BOX", "address": {"city": "SOMERSWORTH", "state": "NH", "street": "2 GOVERNMENT WAY", "postcode": "03878"}}},
{"geometry": {"type": "Point", "coordinates": [-70.8618843896, 43.2588949727]}, "type": "Feature", "properties": {"collection_times": [{"days": "Mon-Fri", "time": "3:15pm"}, {"days": "Sat-Sun", "time": "Closed"}], "id": "0387800020", "name": "USPS COLLECTION BOX - BLUE BOX", "address": {"city": "SOMERSWORTH", "state": "NH", "street": "100 MAIN ST", "postcode": "03878"}}},
{"geometry": {"type": "Point", "coordinates": [-70.9041225515, 43.2599995134]}, "type": "Feature", "properties": {"collection_times": [{"days": "Mon-Fri", "time": "3:15pm"}, {"days": "Sat", "time": "9:30am"}, {"days": "Sun", "time": "Closed"}], "id": "0387800024", "name": "USPS COLLECTION BOX - BLUE BOX", "address": {"city": "SOMERSWORTH", "state": "NH", "street": "350 ROUTE 108", "postcode": "03878"}}},
{"geometry": {"type": "Point", "coordinates": [-70.8908649839, 43.2459474076]}, "type": "Feature", "properties": {"collection_times": [{"days": "Mon-Fri", "time": "9:30am"}, {"days": "Sat", "time": "9:00am"}, {"days": "Sun", "time": "Closed"}], "id": "0387800025", "name": "USPS COLLECTION BOX - BLUE BOX", "address": {"city": "SOMERSWORTH", "state": "NH", "street": "100 BLACKWATER RD", "postcode": "03878"}}},
{"geometry": {"type": "Point", "coordinates": [-70.8783641015, 43.2278661778]}, "type": "Feature", "properties": {"collection_times": [{"days": "Mon-Fri", "time": "3:30pm"}, {"days": "Sat", "time": "10:00am"}, {"days": "Sun", "time": "Closed"}], "id": "0387800028", "name": "USPS COLLECTION BOX - BLUE BOX", "address": {"city": "SOMERSWORTH", "state": "NH", "street": "130 TRI CITY PLZ", "postcode": "03878"}}},
{"geometry": {"type": "Point", "coordinates": [-70.8643749988, 43.2626225965]}, "type": "Feature", "properties": {"collection_times": [{"days": "Mon-Fri", "time": "5:00pm"}, {"days": "Sat", "time": "2:30pm"}, {"days": "Sun", "time": "Closed"}], "id": "0387800030", "name": "USPS COLLECTION BOX - PO LOBBY", "address": {"city": "SOMERSWORTH", "state": "NH", "street": "2 GOVERNMENT WAY", "postcode": "03878"}}},
{"geometry": {"type": "Point", "coordinates": [-70.8751877977, 43.2518743337]}, "type": "Feature", "properties": {"collection_times": [{"days": "Mon-Fri", "time": "3:30pm"}, {"days": "Sat", "time": "12:00pm"}, {"days": "Sun", "time": "Closed"}], "id": "0387800033", "name": "USPS COLLECTION BOX - BLUE BOX", "address": {"city": "SOMERSWORTH", "state": "NH", "street": "59 WALTONS WAY", "postcode": "03878"}}},
{"geometry": {"type": "Point", "coordinates": [-70.8642468668, 43.2603000604]}, "type": "Feature", "properties": {"collection_times": [{"days": "Mon-Fri", "time": "3:30pm"}, {"days": "Sat", "time": "1:00pm"}, {"days": "Sun", "time": "Closed"}], "id": "0387800034", "name": "USPS COLLECTION BOX - BLUE BOX", "address": {"city": "SOMERSWORTH", "state": "NH", "street": "35 WASHINGTON ST", "postcode": "03878"}}},
{"geometry": {"type": "Point", "coordinates": [-70.8751877977, 43.2518743337]}, "type": "Feature", "properties": {"collection_times": [{"days": "Mon-Fri", "time": "3:30pm"}, {"days": "Sat", "time": "11:00am"}, {"days": "Sun", "time": "Closed"}], "id": "0387800035", "name": "USPS COLLECTION BOX - BLUE BOX", "address": {"city": "SOMERSWORTH", "state": "NH", "street": "267 ROUTE 108", "postcode": "03878"}}},
{"geometry": {"type": "Point", "coordinates": [-70.8740831357, 43.2475854033]}, "type": "Feature", "properties": {"collection_times": [{"days": "Mon-Fri", "time": "3:30pm"}, {"days": "Sat", "time": "9:30am"}, {"days": "Sun", "time": "Closed"}], "id": "0387800036", "name": "USPS COLLECTION BOX - BLUE BOX", "address": {"city": "SOMERSWORTH", "state": "NH", "street": "341 HIGH ST", "postcode": "03878"}}},
{"geometry": {"type": "Point", "coordinates": [-71.0353413032, 43.7436127001]}, "type": "Feature", "properties": {"collection_times": [{"days": "Mon-Sat", "time": "10:30am"}, {"days": "Sun", "time": "Closed"}], "id": "0388200003", "name": "USPS COLLECTION BOX - BLUE BOX", "address": {"city": "EFFINGHAM", "state": "NH", "street": "41 NH ROUTE 25", "postcode": "03882"}}},
{"geometry": {"type": "Point", "coordinates": [-71.3041635733, 43.8250530804]}, "type": "Feature", "properties": {"collection_times": [{"days": "Mon-Fri", "time": "4:30pm"}, {"days": "Sat", "time": "11:30am"}, {"days": "Sun", "time": "Closed"}], "id": "0388300001", "name": "USPS COLLECTION BOX - BLUE BOX", "address": {"city": "SOUTH TAMWORTH", "state": "NH", "street": "882 BEARCAMP HWY", "postcode": "03883"}}},
{"geometry": {"type": "Point", "coordinates": [-71.3041635733, 43.8250530804]}, "type": "Feature", "properties": {"collection_times": [{"days": "Mon-Fri", "time": "4:45pm"}, {"days": "Sat", "time": "11:45am"}, {"days": "Sun", "time": "Closed"}], "id": "0388300002", "name": "USPS COLLECTION BOX - PO LOBBY", "address": {"city": "SOUTH TAMWORTH", "state": "NH", "street": "882 BEARCAMP HWY", "postcode": "03883"}}},
{"geometry": {"type": "Point", "coordinates": [-71.130497373, 43.2733117162]}, "type": "Feature", "properties": {"collection_times": [{"days": "Mon-Fri", "time": "4:30pm"}, {"days": "Sat", "time": "12:00pm"}, {"days": "Sun", "time": "Closed"}], "id": "0388400001", "name": "USPS COLLECTION BOX - BLUE BOX", "address": {"city": "STRAFFORD", "state": "NH", "street": "1079 PARKER MOUNTAIN RD", "postcode": "03884"}}},
{"geometry": {"type": "Point", "coordinates": [-71.130497373, 43.2733117162]}, "type": "Feature", "properties": {"collection_times": [{"days": "Mon-Fri", "time": "4:30pm"}, {"days": "Sat", "time": "12:00pm"}, {"days": "Sun", "time": "Closed"}], "id": "0388400002", "name": "USPS COLLECTION BOX - PO LOBBY", "address": {"city": "STRAFFORD", "state": "NH", "street": "1079 PARKER MOUNTAIN RD", "postcode": "03884"}}},
{"geometry": {"type": "Point", "coordinates": [-71.1479759325, 43.2622719319]}, "type": "Feature", "properties": {"collection_times": [{"days": "Mon-Sat", "time": "12:00pm"}, {"days": "Sun", "time": "Closed"}], "id": "0388400003", "name": "USPS COLLECTION BOX - BLUE BOX", "address": {"city": "STRAFFORD", "state": "NH", "street": "564 PROVINCE RD", "postcode": "03884"}}},
{"geometry": {"type": "Point", "coordinates": [-70.9179839942, 43.0249793419]}, "type": "Feature", "properties": {"collection_times": [{"days": "Mon-Fri", "time": "5:00pm"}, {"days": "Sat", "time": "12:00pm"}, {"days": "Sun", "time": "Closed"}], "id": "0388500001", "name": "USPS COLLECTION BOX - BLUE BOX", "address": {"city": "STRATHAM", "state": "NH", "street": "2 COLLEGE RD", "postcode": "03885"}}},
{"geometry": {"type": "Point", "coordinates": [-70.9241742445, 42.9965703738]}, "type": "Feature", "properties": {"collection_times": [{"days": "Mon-Fri", "time": "11:00am"}, {"days": "Sat", "time": "10:00am"}, {"days": "Sun", "time": "Closed"}], "id": "0388500002", "name": "USPS COLLECTION BOX - BLUE BOX", "address": {"city": "STRATHAM", "state": "NH", "street": "20 PORTSMOUTH AVE", "postcode": "03885"}}},
{"geometry": {"type": "Point", "coordinates": [-70.9231115777, 42.9987203171]}, "type": "Feature", "properties": {"collection_times": [{"days": "Mon-Fri", "time": "9:45am"}, {"days": "Sat", "time": "9:15am"}, {"days": "Sun", "time": "Closed"}], "id": "0388500003", "name": "USPS COLLECTION BOX - BLUE BOX", "address": {"city": "STRATHAM", "state": "NH", "street": "27 PORTSMOUTH AVE", "postcode": "03885"}}},
{"geometry": {"type": "Point", "coordinates": [-70.9179839942, 43.0249793419]}, "type": "Feature", "properties": {"collection_times": [{"days": "Mon-Fri", "time": "5:30pm"}, {"days": "Sat", "time": "1:30pm"}, {"days": "Sun", "time": "Closed"}], "id": "0388500006", "name": "USPS COLLECTION BOX - PO LOBBY", "address": {"city": "STRATHAM", "state": "NH", "street": "2 COLLEGE RD", "postcode": "03885"}}},
{"geometry": {"type": "Point", "coordinates": [-70.9223430426, 42.9992455599]}, "type": "Feature", "properties": {"collection_times": [{"days": "Mon-Fri", "time": "10:15am"}, {"days": "Sat", "time": "9:45am"}, {"days": "Sun", "time": "Closed"}], "id": "0388500007", "name": "USPS COLLECTION BOX - BLUE BOX", "address": {"city": "STRATHAM", "state": "NH", "street": "28 PORTSMOUTH AVE", "postcode": "03885"}}},
{"geometry": {"type": "Point", "coordinates": [-70.9002445395, 43.0157019146]}, "type": "Feature", "properties": {"collection_times": [{"days": "Mon-Fri", "time": "9:45am"}, {"days": "Sat", "time": "9:15am"}, {"days": "Sun", "time": "Closed"}], "id": "0388500008", "name": "USPS COLLECTION BOX - BLUE BOX", "address": {"city": "STRATHAM", "state": "NH", "street": "100 SHAWS LN", "postcode": "03885"}}},
{"geometry": {"type": "Point", "coordinates": [-70.9179839942, 43.0249793419]}, "type": "Feature", "properties": {"collection_times": [{"days": "Mon-Fri", "time": "5:00pm"}, {"days": "Sat", "time": "12:00pm"}, {"days": "Sun", "time": "Closed"}], "id": "0388500009", "name": "USPS COLLECTION BOX - BLUE BOX", "address": {"city": "STRATHAM", "state": "NH", "street": "2 COLLEGE RD", "postcode": "03885"}}},
{"geometry": {"type": "Point", "coordinates": [-71.2624680918, 43.8546197524]}, "type": "Feature", "properties": {"collection_times": [{"days": "Mon-Fri", "time": "4:30pm"}, {"days": "Sat", "time": "12:00pm"}, {"days": "Sun", "time": "Closed"}], "id": "0388600001", "name": "USPS COLLECTION BOX - BLUE BOX", "address": {"city": "TAMWORTH", "state": "NH", "street": "182 TAMWORTH RD", "postcode": "03886"}}},
{"geometry": {"type": "Point", "coordinates": [-71.2624680918, 43.8546197524]}, "type": "Feature", "properties": {"collection_times": [{"days": "Mon-Fri", "time": "4:30pm"}, {"days": "Sat", "time": "12:00pm"}, {"days": "Sun", "time": "Closed"}], "id": "0388600003", "name": "USPS COLLECTION BOX - PO LOBBY", "address": {"city": "TAMWORTH", "state": "NH", "street": "182 TAMWORTH RD", "postcode": "03886"}}},
{"geometry": {"type": "Point", "coordinates": [-71.0199244145, 43.4893998753]}, "type": "Feature", "properties": {"collection_times": [{"days": "Mon-Fri", "time": "4:15pm"}, {"days": "Sat", "time": "10:45am"}, {"days": "Sun", "time": "Closed"}], "id": "0388700002", "name": "USPS COLLECTION BOX - BLUE BOX", "address": {"city": "UNION", "state": "NH", "street": "402 MAIN ST", "postcode": "03887"}}},
{"geometry": {"type": "Point", "coordinates": [-71.0199244145, 43.4893998753]}, "type": "Feature", "properties": {"collection_times": [{"days": "Mon-Fri", "time": "4:15pm"}, {"days": "Sat", "time": "11:00am"}, {"days": "Sun", "time": "Closed"}], "id": "0388700003", "name": "USPS COLLECTION BOX - PO LOBBY", "address": {"city": "UNION", "state": "NH", "street": "402 MAIN ST", "postcode": "03887"}}},
{"geometry": {"type": "Point", "coordinates": [-71.1975983116, 43.8176341223]}, "type": "Feature", "properties": {"collection_times": [{"days": "Mon-Fri", "time": "4:15pm"}, {"days": "Sat", "time": "12:00pm"}, {"days": "Sun", "time": "Closed"}], "id": "0389000001", "name": "USPS COLLECTION BOX - BLUE BOX", "address": {"city": "WEST OSSIPEE", "state": "NH", "street": "2326 ROUTE 16", "postcode": "03890"}}},
{"geometry": {"type": "Point", "coordinates": [-71.1975983116, 43.8176341223]}, "type": "Feature", "properties": {"collection_times": [{"days": "Mon-Fri", "time": "4:30pm"}, {"days": "Sat", "time": "12:00pm"}, {"days": "Sun", "time": "Closed"}], "id": "0389000002", "name": "USPS COLLECTION BOX - PO LOBBY", "address": {"city": "WEST OSSIPEE", "state": "NH", "street": "2326 ROUTE 16", "postcode": "03890"}}},
{"geometry": {"type": "Point", "coordinates": [-71.2117609929, 43.5859761588]}, "type": "Feature", "properties": {"collection_times": [{"days": "Mon-Fri", "time": "4:30pm"}, {"days": "Sat", "time": "12:00pm"}, {"days": "Sun", "time": "Closed"}], "id": "0389400002", "name": "USPS COLLECTION BOX - BLUE BOX", "address": {"city": "WOLFEBORO", "state": "NH", "street": "22 GLENDON ST", "postcode": "03894"}}},
{"geometry": {"type": "Point", "coordinates": [-71.2062806045, 43.5836453857]}, "type": "Feature", "properties": {"collection_times": [{"days": "Mon-Fri", "time": "4:30pm"}, {"days": "Sat", "time": "12:00pm"}, {"days": "Sun", "time": "Closed"}], "id": "0389400007", "name": "USPS COLLECTION BOX - BLUE BOX", "address": {"city": "WOLFEBORO", "state": "NH", "street": "34 S MAIN ST", "postcode": "03894"}}},
{"geometry": {"type": "Point", "coordinates": [-71.2062806045, 43.5836453857]}, "type": "Feature", "properties": {"collection_times": [{"days": "Mon-Fri", "time": "4:30pm"}, {"days": "Sat", "time": "12:00pm"}, {"days": "Sun", "time": "Closed"}], "id": "0389400009", "name": "USPS COLLECTION BOX - BLUE BOX", "address": {"city": "WOLFEBORO", "state": "NH", "street": "34 S MAIN ST", "postcode": "03894"}}},
{"geometry": {"type": "Point", "coordinates": [-71.2062806045, 43.5836453857]}, "type": "Feature", "properties": {"collection_times": [{"days": "Mon-Fri", "time": "4:30pm"}, {"days": "Sat", "time": "12:00pm"}, {"days": "Sun", "time": "Closed"}], "id": "0389400012", "name": "USPS COLLECTION BOX - PO LOBBY", "address": {"city": "WOLFEBORO", "state": "NH", "street": "34 S MAIN ST", "postcode": "03894"}}},
{"geometry": {"type": "Point", "coordinates": [-71.1985411945, 43.5987054159]}, "type": "Feature", "properties": {"collection_times": [{"days": "Mon-Fri", "time": "4:15pm"}, {"days": "Sat", "time": "12:00pm"}, {"days": "Sun", "time": "Closed"}], "id": "0389600001", "name": "USPS COLLECTION BOX - BLUE BOX", "address": {"city": "WOLFEBORO FALLS", "state": "NH", "street": "35 CENTER ST UNIT 13", "postcode": "03896"}}},
{"geometry": {"type": "Point", "coordinates": [-71.1985411945, 43.5987054159]}, "type": "Feature", "properties": {"collection_times": [{"days": "Mon-Fri", "time": "4:30pm"}, {"days": "Sat", "time": "12:00pm"}, {"days": "Sun", "time": "Closed"}], "id": "0389600002", "name": "USPS COLLECTION BOX - PO LOBBY", "address": {"city": "WOLFEBORO FALLS", "state": "NH", "street": "35 CENTER ST UNIT 13", "postcode": "03896"}}}
]}
