{"type": "FeatureCollection", "features": [
{"geometry": {"type": "Point", "coordinates": [-120.7955587315, 44.8891476113]}, "type": "Feature", "properties": {"collection_times": [{"days": "Mon-Fri", "time": "1:30pm"}, {"days": "Sat", "time": "11:00am"}, {"days": "Sun", "time": "Closed"}], "id": "9700100001", "name": "USPS COLLECTION BOX - PO LOBBY", "address": {"city": "ANTELOPE", "state": "OR", "street": "45438 MAIN ST", "postcode": "97001"}}},
{"geometry": {"type": "Point", "coordinates": [-120.722596167, 44.91013067]}, "type": "Feature", "properties": {"collection_times": [{"days": "Mon-Fri", "time": "1:30pm"}, {"days": "Sat", "time": "1:15pm"}, {"days": "Sun", "time": "Closed"}], "id": "9700100002", "name": "USPS COLLECTION BOX - BLUE BOX", "address": {"city": "ANTELOPE", "state": "OR", "street": "45438 MAIN ST", "postcode": "97001"}}},
{"geometry": {"type": "Point", "coordinates": [-122.7588747375, 45.223352094]}, "type": "Feature", "properties": {"collection_times": [{"days": "Mon-Fri", "time": "5:00pm"}, {"days": "Sat", "time": "9:30am"}, {"days": "Sun", "time": "Closed"}], "id": "9700200001", "name": "USPS COLLECTION BOX - BLUE BOX", "address": {"city": "AURORA", "state": "OR", "street": "14682 OTTAWAY RD NE", "postcode": "97002"}}},
{"geometry": {"type": "Point", "coordinates": [-122.7588747375, 45.223352094]}, "type": "Feature", "properties": {"collection_times": [{"days": "Mon-Fri", "time": "5:00pm"}, {"days": "Sat", "time": "9:30am"}, {"days": "Sun", "time": "Closed"}], "id": "9700200002", "name": "USPS COLLECTION BOX - PO LOBBY", "address": {"city": "AURORA", "state": "OR", "street": "14682 OTTAWAY RD NE", "postcode": "97002"}}},
{"geometry": {"type": "Point", "coordinates": [-122.7588747375, 45.223352094]}, "type": "Feature", "properties": {"collection_times": [{"days": "Mon-Fri", "time": "5:00pm"}, {"days": "Sat", "time": "9:30am"}, {"days": "Sun", "time": "Closed"}], "id": "9700200003", "name": "USPS COLLECTION BOX - BLUE BOX", "address": {"city": "AURORA", "state": "OR", "street": "14682 OTTAWAY RD NE", "postcode": "97002"}}},
{"geometry": {"type": "Point", "coordinates": [-122.8419918309, 45.2618554012]}, "type": "Feature", "properties": {"collection_times": [{"days": "Mon-Sat", "time": "9:30am"}, {"days": "Sun", "time": "Closed"}], "id": "9700200004", "name": "USPS COLLECTION BOX - BLUE BOX", "address": {"city": "AURORA", "state": "OR", "street": "10767 BUTTE ST NE", "postcode": "97002"}}},
{"geometry": {"type": "Point", "coordinates": [-122.5376001629, 45.2879056229]}, "type": "Feature", "properties": {"collection_times": [{"days": "Mon-Fri", "time": "4:30pm"}, {"days": "Sat", "time": "11:00am"}, {"days": "Sun", "time": "Closed"}], "id": "9700400001", "name": "USPS COLLECTION BOX - BLUE BOX", "address": {"city": "BEAVERCREEK", "state": "OR", "street": "16101 S LELAND RD", "postcode": "97004"}}},
{"geometry": {"type": "Point", "coordinates": [-122.5376001629, 45.2879056229]}, "type": "Feature", "properties": {"collection_times": [{"days": "Mon-Fri", "time": "4:30pm"}, {"days": "Sat", "time": "11:00am"}, {"days": "Sun", "time": "Closed"}], "id": "9700400002", "name": "USPS COLLECTION BOX - PO LOBBY", "address": {"city": "BEAVERCREEK", "state": "OR", "street": "16101 S LELAND RD", "postcode": "97004"}}},
{"geometry": {"type": "Point", "coordinates": [-122.8242442009, 45.4764303236]}, "type": "Feature", "properties": {"collection_times": [{"days": "Mon-Fri", "time": "3:00pm"}, {"days": "Sat", "time": "1:00pm"}, {"days": "Sun", "time": "Closed"}], "id": "9700500005", "name": "USPS COLLECTION BOX - BLUE BOX", "address": {"city": "BEAVERTON", "state": "OR", "street": "14292 SW ALLEN BLVD", "postcode": "97005"}}},
{"geometry": {"type": "Point", "coordinates": [-122.7786282202, 45.4752177632]}, "type": "Feature", "properties": {"collection_times": [{"days": "Mon-Fri", "time": "4:30pm"}, {"days": "Sat", "time": "1:00pm"}, {"days": "Sun", "time": "Closed"}], "id": "9700500007", "name": "USPS COLLECTION BOX - BLUE BOX", "address": {"city": "BEAVERTON", "state": "OR", "street": "6110 SW ARCTIC DR", "postcode": "97005"}}},
{"geometry": {"type": "Point", "coordinates": [-122.7722897579, 45.48643926]}, "type": "Feature", "properties": {"collection_times": [{"days": "Mon-Fri", "time": "4:30pm"}, {"days": "Sat", "time": "1:00pm"}, {"days": "Sun", "time": "Closed"}], "id": "9700500008", "name": "USPS COLLECTION BOX - BLUE BOX", "address": {"city": "BEAVERTON", "state": "OR", "street": "9300 SW BEAVERTON HILLSDALE HWY", "postcode": "97005"}}},
{"geometry": {"type": "Point", "coordinates": [-122.7722897579, 45.48643926]}, "type": "Feature", "properties": {"collection_times": [{"days": "Mon-Fri", "time": "4:30pm"}, {"days": "Sat", "time": "1:00pm"}, {"days": "Sun", "time": "Closed"}], "id": "9700500009", "name": "USPS COLLECTION BOX - BLUE BOX", "address": {"city": "BEAVERTON", "state": "OR", "street": "9300 SW BEAVERTON HILLSDALE HWY", "postcode": "97005"}}},
{"geometry": {"type": "Point", "coordinates": [-122.786644965, 45.4864960421]}, "type": "Feature", "properties": {"collection_times": [{"days": "Mon-Fri", "time": "4:45pm"}, {"days": "Sat", "time": "1:00pm"}, {"days": "Sun", "time": "Closed"}], "id": "9700500011", "name": "USPS COLLECTION BOX - BLUE BOX", "address": {"city": "BEAVERTON", "state": "OR", "street": "10700 SW BEAVERTON HILLSDALE HWY", "postcode": "97005"}}},
{"geometry": {"type": "Point", "coordinates": [-122.8107394732, 45.4918193574]}, "type": "Feature", "properties": {"collection_times": [{"days": "Mon-Fri", "time": "4:00pm"}, {"days": "Sat-Sun", "time": "Closed"}], "id": "9700500019", "name": "USPS COLLECTION BOX - BLUE BOX", "address": {"city": "BEAVERTON", "state": "OR", "street": "3800 SW CEDAR HILLS BLVD", "postcode": "97005"}}},
{"geometry": {"type": "Point", "coordinates": [-122.8085273399, 45.49696168]}, "type": "Feature", "properties": {"collection_times": [{"days": "Mon-Fri", "time": "4:00pm"}, {"days": "Sat", "time": "1:00pm"}, {"days": "Sun", "time": "Closed"}], "id": "9700500020", "name": "USPS COLLECTION BOX - BLUE BOX", "address": {"city": "BEAVERTON", "state": "OR", "street": "3055 SW CEDAR HILLS BLVD", "postcode": "97005"}}},
{"geometry": {"type": "Point", "coordinates": [-122.7952313925, 45.4854448189]}, "type": "Feature", "properties": {"collection_times": [{"days": "Mon-Fri", "time": "5:00pm"}, {"days": "Sat", "time": "1:00pm"}, {"days": "Sun", "time": "Closed"}], "id": "9700500029", "name": "USPS COLLECTION BOX - BLUE BOX", "address": {"city": "BEAVERTON", "state": "OR", "street": "4800 SW GRIFFITH DR", "postcode": "97005"}}},
{"geometry": {"type": "Point", "coordinates": [-122.7953089564, 45.4853781459]}, "type": "Feature", "properties": {"collection_times": [{"days": "Mon-Fri", "time": "5:00pm"}, {"days": "Sat", "time": "1:00pm"}, {"days": "Sun", "time": "Closed"}], "id": "9700500030", "name": "USPS COLLECTION BOX - BLUE BOX", "address": {"city": "BEAVERTON", "state": "OR", "street": "4800 SW GRIFFITH DR", "postcode": "97005"}}},
{"geometry": {"type": "Point", "coordinates": [-122.8048155787, 45.483590001]}, "type": "Feature", "properties": {"collection_times": [{"days": "Mon-Fri", "time": "4:45pm"}, {"days": "Sat", "time": "1:00pm"}, {"days": "Sun", "time": "Closed"}], "id": "9700500032", "name": "USPS COLLECTION BOX - BLUE BOX", "address": {"city": "BEAVERTON", "state": "OR", "street": "4975 SW HALL BLVD", "postcode": "97005"}}},
{"geometry": {"type": "Point", "coordinates": [-122.8020896772, 45.4863233301]}, "type": "Feature", "properties": {"collection_times": [{"days": "Mon-Fri", "time": "5:30pm"}, {"days": "Sat", "time": "4:30pm"}, {"days": "Sun", "time": "Closed"}], "id": "9700500085", "name": "USPS COLLECTION BOX - BLUE BOX", "address": {"city": "BEAVERTON", "state": "OR", "street": "4550 SW BETTS AVE", "postcode": "97005"}}},
{"geometry": {"type": "Point", "coordinates": [-122.8020896772, 45.4863233301]}, "type": "Feature", "properties": {"collection_times": [{"days": "Mon-Fri", "time": "5:30pm"}, {"days": "Sat", "time": "4:30pm"}, {"days": "Sun", "time": "Closed"}], "id": "9700500088", "name": "USPS COLLECTION BOX - BLUE BOX", "address": {"city": "BEAVERTON", "state": "OR", "street": "4550 SW BETTS AVE", "postcode": "97005"}}},
{"geometry": {"type": "Point", "coordinates": [-122.8020896772, 45.4863233301]}, "type": "Feature", "properties": {"collection_times": [{"days": "Mon-Fri", "time": "5:30pm"}, {"days": "Sat", "time": "4:30pm"}, {"days": "Sun", "time": "Closed"}], "id": "9700500089", "name": "USPS COLLECTION BOX - BLUE BOX", "address": {"city": "BEAVERTON", "state": "OR", "street": "4550 SW BETTS AVE", "postcode": "97005"}}},
{"geometry": {"type": "Point", "coordinates": [-122.8020896772, 45.4863233301]}, "type": "Feature", "properties": {"collection_times": [{"days": "Mon-Fri", "time": "5:30pm"}, {"days": "Sat", "time": "4:30pm"}, {"days": "Sun", "time": "Closed"}], "id": "9700500091", "name": "USPS COLLECTION BOX - BLUE BOX", "address": {"city": "BEAVERTON", "state": "OR", "street": "4550 SW BETTS AVE", "postcode": "97005"}}},
{"geometry": {"type": "Point", "coordinates": [-122.7949860086, 45.486526799]}, "type": "Feature", "properties": {"collection_times": [{"days": "Mon-Fri", "time": "3:45pm"}, {"days": "Sat", "time": "1:00pm"}, {"days": "Sun", "time": "Closed"}], "id": "9700500094", "name": "USPS COLLECTION BOX - BLUE BOX", "address": {"city": "BEAVERTON", "state": "OR", "street": "11425 SW BEAVERTON HILLSDALE HWY", "postcode": "97005"}}},
{"geometry": {"type": "Point", "coordinates": [-122.7786282202, 45.4752177632]}, "type": "Feature", "properties": {"collection_times": [{"days": "Mon-Fri", "time": "4:30pm"}, {"days": "Sat", "time": "1:00pm"}, {"days": "Sun", "time": "Closed"}], "id": "9700500102", "name": "USPS COLLECTION BOX - BLUE BOX", "address": {"city": "BEAVERTON", "state": "OR", "street": "6110 SW ARCTIC DR", "postcode": "97005"}}},
{"geometry": {"type": "Point", "coordinates": [-122.8020896772, 45.4863233301]}, "type": "Feature", "properties": {"collection_times": [{"days": "Mon-Fri", "time": "5:30pm"}, {"days": "Sat", "time": "4:30pm"}, {"days": "Sun", "time": "Closed"}], "id": "9700500109", "name": "USPS COLLECTION BOX - BLUE BOX", "address": {"city": "BEAVERTON", "state": "OR", "street": "4550 SW BETTS AVE", "postcode": "97005"}}},
{"geometry": {"type": "Point", "coordinates": [-122.8020896772, 45.4863233301]}, "type": "Feature", "properties": {"collection_times": [{"days": "Mon-Fri", "time": "5:30pm"}, {"days": "Sat", "time": "4:30pm"}, {"days": "Sun", "time": "Closed"}], "id": "9700500114", "name": "USPS COLLECTION BOX - PO LOBBY", "address": {"city": "BEAVERTON", "state": "OR", "street": "4550 SW BETTS AVE", "postcode": "97005"}}},
{"geometry": {"type": "Point", "coordinates": [-122.8020896772, 45.4863233301]}, "type": "Feature", "properties": {"collection_times": [{"days": "Mon-Fri", "time": "5:30pm"}, {"days": "Sat-Sun", "time": "Closed"}], "id": "9700500115", "name": "USPS COLLECTION BOX - APC", "address": {"city": "BEAVERTON", "state": "OR", "street": "4550 SW BETTS AVE", "postcode": "97005"}}},
{"geometry": {"type": "Point", "coordinates": [-122.8624004741, 45.5357923081]}, "type": "Feature", "properties": {"collection_times": [{"days": "Mon-Fri", "time": "2:00pm"}, {"days": "Sat", "time": "1:00pm"}, {"days": "Sun", "time": "Closed"}], "id": "9700600001", "name": "USPS COLLECTION BOX - BLUE BOX", "address": {"city": "BEAVERTON", "state": "OR", "street": "18000 NW EVERGREEN PKWY", "postcode": "97006"}}},
{"geometry": {"type": "Point", "coordinates": [-122.8676311743, 45.5145792405]}, "type": "Feature", "properties": {"collection_times": [{"days": "Mon-Fri", "time": "2:30pm"}, {"days": "Sat", "time": "1:00pm"}, {"days": "Sun", "time": "Closed"}], "id": "9700600002", "name": "USPS COLLECTION BOX - BLUE BOX", "address": {"city": "BEAVERTON", "state": "OR", "street": "775 SW 185TH AVE", "postcode": "97006"}}},
{"geometry": {"type": "Point", "coordinates": [-122.8487625903, 45.5334412776]}, "type": "Feature", "properties": {"collection_times": [{"days": "Mon-Fri", "time": "3:15pm"}, {"days": "Sat", "time": "1:00pm"}, {"days": "Sun", "time": "Closed"}], "id": "9700600004", "name": "USPS COLLECTION BOX - BLUE BOX", "address": {"city": "BEAVERTON", "state": "OR", "street": "1825 NW 167TH PL", "postcode": "97006"}}},
{"geometry": {"type": "Point", "coordinates": [-122.8514368104, 45.5334772574]}, "type": "Feature", "properties": {"collection_times": [{"days": "Mon-Fri", "time": "3:15pm"}, {"days": "Sat", "time": "1:00pm"}, {"days": "Sun", "time": "Closed"}], "id": "9700600006", "name": "USPS COLLECTION BOX - BLUE BOX", "address": {"city": "BEAVERTON", "state": "OR", "street": "1800 NW 169TH PL", "postcode": "97006"}}},
{"geometry": {"type": "Point", "coordinates": [-122.8321823642, 45.5264470388]}, "type": "Feature", "properties": {"collection_times": [{"days": "Mon-Fri", "time": "3:30pm"}, {"days": "Sat", "time": "1:00pm"}, {"days": "Sun", "time": "Closed"}], "id": "9700600008", "name": "USPS COLLECTION BOX - BLUE BOX", "address": {"city": "BEAVERTON", "state": "OR", "street": "15210 NW GREENBRIER PKWY", "postcode": "97006"}}},
{"geometry": {"type": "Point", "coordinates": [-122.8782178456, 45.5307238929]}, "type": "Feature", "properties": {"collection_times": [{"days": "Mon-Fri", "time": "3:00pm"}, {"days": "Sat", "time": "1:00pm"}, {"days": "Sun", "time": "Closed"}], "id": "9700600013", "name": "USPS COLLECTION BOX - BLUE BOX", "address": {"city": "BEAVERTON", "state": "OR", "street": "19545 NW VON NEUMANN DR", "postcode": "97006"}}},
{"geometry": {"type": "Point", "coordinates": [-122.8327215215, 45.5147758414]}, "type": "Feature", "properties": {"collection_times": [{"days": "Mon-Fri", "time": "3:15pm"}, {"days": "Sat", "time": "1:00pm"}, {"days": "Sun", "time": "Closed"}], "id": "9700600015", "name": "USPS COLLECTION BOX - BLUE BOX", "address": {"city": "BEAVERTON", "state": "OR", "street": "15115 SW WALKER RD", "postcode": "97006"}}},
{"geometry": {"type": "Point", "coordinates": [-122.8340666069, 45.5123617355]}, "type": "Feature", "properties": {"collection_times": [{"days": "Mon-Fri", "time": "3:15pm"}, {"days": "Sat", "time": "1:00pm"}, {"days": "Sun", "time": "Closed"}], "id": "9700600017", "name": "USPS COLLECTION BOX - BLUE BOX", "address": {"city": "BEAVERTON", "state": "OR", "street": "15200 SW KOLL PKWY", "postcode": "97006"}}},
{"geometry": {"type": "Point", "coordinates": [-122.8422168283, 45.5176185095]}, "type": "Feature", "properties": {"collection_times": [{"days": "Mon-Fri", "time": "3:30pm"}, {"days": "Sat", "time": "1:00pm"}, {"days": "Sun", "time": "Closed"}], "id": "9700600019", "name": "USPS COLLECTION BOX - BLUE BOX", "address": {"city": "BEAVERTON", "state": "OR", "street": "15995 SW WALKER RD", "postcode": "97006"}}},
{"geometry": {"type": "Point", "coordinates": [-122.8336956416, 45.4981340452]}, "type": "Feature", "properties": {"collection_times": [{"days": "Mon-Fri", "time": "4:15pm"}, {"days": "Sat-Sun", "time": "Closed"}], "id": "9700600020", "name": "USPS COLLECTION BOX - BLUE BOX", "address": {"city": "BEAVERTON", "state": "OR", "street": "3101 SW 153RD DR", "postcode": "97006"}}},
{"geometry": {"type": "Point", "coordinates": [-122.8514368104, 45.5334772574]}, "type": "Feature", "properties": {"collection_times": [{"days": "Mon-Fri", "time": "3:15pm"}, {"days": "Sat", "time": "1:00pm"}, {"days": "Sun", "time": "Closed"}], "id": "9700600021", "name": "USPS COLLECTION BOX - BLUE BOX", "address": {"city": "BEAVERTON", "state": "OR", "street": "1800 NW 169TH PL", "postcode": "97006"}}},
{"geometry": {"type": "Point", "coordinates": [-122.8629787348, 45.5171993899]}, "type": "Feature", "properties": {"collection_times": [{"days": "Mon-Fri", "time": "3:15pm"}, {"days": "Sat", "time": "1:00pm"}, {"days": "Sun", "time": "Closed"}], "id": "9700600022", "name": "USPS COLLECTION BOX - EXPRESS", "address": {"city": "BEAVERTON", "state": "OR", "street": "1800 NW 169TH PL", "postcode": "97006"}}},
{"geometry": {"type": "Point", "coordinates": [-122.8629787348, 45.5171993899]}, "type": "Feature", "properties": {"collection_times": [{"days": "Mon-Fri", "time": "3:30pm"}, {"days": "Sat", "time": "1:00pm"}, {"days": "Sun", "time": "Closed"}], "id": "9700600026", "name": "USPS COLLECTION BOX - EXPRESS", "address": {"city": "BEAVERTON", "state": "OR", "street": "15210 NW GREENBRIER PKWY", "postcode": "97006"}}},
{"geometry": {"type": "Point", "coordinates": [-122.8629787348, 45.5171993899]}, "type": "Feature", "properties": {"collection_times": [{"days": "Mon-Fri", "time": "3:00pm"}, {"days": "Sat", "time": "1:00pm"}, {"days": "Sun", "time": "Closed"}], "id": "9700600027", "name": "USPS COLLECTION BOX - EXPRESS", "address": {"city": "BEAVERTON", "state": "OR", "street": "19545 NW VON NEUMANN DR", "postcode": "97006"}}},
{"geometry": {"type": "Point", "coordinates": [-122.8675404308, 45.5289713667]}, "type": "Feature", "properties": {"collection_times": [{"days": "Mon-Fri", "time": "2:30pm"}, {"days": "Sat", "time": "1:00pm"}, {"days": "Sun", "time": "Closed"}], "id": "9700600028", "name": "USPS COLLECTION BOX - BLUE BOX", "address": {"city": "BEAVERTON", "state": "OR", "street": "1295 NW 185TH AVE", "postcode": "97006"}}},
{"geometry": {"type": "Point", "coordinates": [-122.8440906353, 45.5301980951]}, "type": "Feature", "properties": {"collection_times": [{"days": "Mon-Fri", "time": "2:00pm"}, {"days": "Sat", "time": "1:00pm"}, {"days": "Sun", "time": "Closed"}], "id": "9700600029", "name": "USPS COLLECTION BOX - BLUE BOX", "address": {"city": "BEAVERTON", "state": "OR", "street": "16155 NW CORNELL RD", "postcode": "97006"}}},
{"geometry": {"type": "Point", "coordinates": [-122.8340666069, 45.5123617355]}, "type": "Feature", "properties": {"collection_times": [{"days": "Mon-Fri", "time": "3:15pm"}, {"days": "Sat", "time": "1:00pm"}, {"days": "Sun", "time": "Closed"}], "id": "9700600030", "name": "USPS COLLECTION BOX - BLUE BOX", "address": {"city": "BEAVERTON", "state": "OR", "street": "15200 SW KOLL PKWY", "postcode": "97006"}}},
{"geometry": {"type": "Point", "coordinates": [-122.8591935515, 45.5173334968]}, "type": "Feature", "properties": {"collection_times": [{"days": "Mon-Fri", "time": "3:00pm"}, {"days": "Sat", "time": "1:00pm"}, {"days": "Sun", "time": "Closed"}], "id": "9700600034", "name": "USPS COLLECTION BOX - BLUE BOX", "address": {"city": "BEAVERTON", "state": "OR", "street": "19545 NW VON NEUWAN DR", "postcode": "97006"}}},
{"geometry": {"type": "Point", "coordinates": [-122.8487625903, 45.5334412776]}, "type": "Feature", "properties": {"collection_times": [{"days": "Mon-Fri", "time": "3:15pm"}, {"days": "Sat", "time": "1:00pm"}, {"days": "Sun", "time": "Closed"}], "id": "9700600035", "name": "USPS COLLECTION BOX - BLUE BOX", "address": {"city": "BEAVERTON", "state": "OR", "street": "1825 NW 167TH PL", "postcode": "97006"}}},
{"geometry": {"type": "Point", "coordinates": [-122.8691470973, 45.5283280977]}, "type": "Feature", "properties": {"collection_times": [{"days": "Mon-Fri", "time": "3:00pm"}, {"days": "Sat", "time": "1:00pm"}, {"days": "Sun", "time": "Closed"}], "id": "9700600036", "name": "USPS COLLECTION BOX - BLUE BOX", "address": {"city": "BEAVERTON", "state": "OR", "street": "18640 NW WALKER RD", "postcode": "97006"}}},
{"geometry": {"type": "Point", "coordinates": [-122.8591935515, 45.5173334968]}, "type": "Feature", "properties": {"collection_times": [{"days": "Mon-Fri", "time": "5:00pm"}, {"days": "Sat", "time": "3:00pm"}, {"days": "Sun", "time": "Closed"}], "id": "9700600037", "name": "USPS COLLECTION BOX - PO LOBBY", "address": {"city": "BEAVERTON", "state": "OR", "street": "3685 NW ALOCLEK PL", "postcode": "97006"}}},
{"geometry": {"type": "Point", "coordinates": [-122.8591935515, 45.5173334968]}, "type": "Feature", "properties": {"collection_times": [{"days": "Mon-Fri", "time": "5:00pm"}, {"days": "Sat", "time": "3:00pm"}, {"days": "Sun", "time": "Closed"}], "id": "9700600038", "name": "USPS COLLECTION BOX - APC", "address": {"city": "BEAVERTON", "state": "OR", "street": "3685 NW ALOCLEK PL", "postcode": "97006"}}},
{"geometry": {"type": "Point", "coordinates": [-122.8591935515, 45.5173334968]}, "type": "Feature", "properties": {"collection_times": [{"days": "Mon-Fri", "time": "5:00pm"}, {"days": "Sat", "time": "3:00pm"}, {"days": "Sun", "time": "Closed"}], "id": "9700600039", "name": "USPS COLLECTION BOX - PO LOBBY", "address": {"city": "BEAVERTON", "state": "OR", "street": "3685 NW ALOCLEK PL", "postcode": "97006"}}},
{"geometry": {"type": "Point", "coordinates": [-122.8888893956, 45.4961602071]}, "type": "Feature", "properties": {"collection_times": [{"days": "Mon-Sat", "time": "11:00am"}, {"days": "Sun", "time": "Closed"}], "id": "9700600041", "name": "USPS COLLECTION BOX - BLUE BOX", "address": {"city": "BEAVERTON", "state": "OR", "street": "20535 SW TV HWY", "postcode": "97006"}}},
{"geometry": {"type": "Point", "coordinates": [-122.8675238694, 45.4754140825]}, "type": "Feature", "properties": {"collection_times": [{"days": "Mon-Sat", "time": "1:45pm"}, {"days": "Sun", "time": "Closed"}], "id": "9700700001", "name": "USPS COLLECTION BOX - BLUE BOX", "address": {"city": "BEAVERTON", "state": "OR", "street": "6055 SW 185TH AVE", "postcode": "97007"}}},
{"geometry": {"type": "Point", "coordinates": [-122.8578508139, 45.4796301482]}, "type": "Feature", "properties": {"collection_times": [{"days": "Mon-Fri", "time": "3:45pm"}, {"days": "Sat", "time": "2:30pm"}, {"days": "Sun", "time": "Closed"}], "id": "9700700002", "name": "USPS COLLECTION BOX - BLUE BOX", "address": {"city": "BEAVERTON", "state": "OR", "street": "17455 SW FARMINGTON RD", "postcode": "97007"}}},
{"geometry": {"type": "Point", "coordinates": [-122.8671133983, 45.4924235001]}, "type": "Feature", "properties": {"collection_times": [{"days": "Mon-Fri", "time": "5:00pm"}, {"days": "Sat", "time": "4:00pm"}, {"days": "Sun", "time": "Closed"}], "id": "9700700003", "name": "USPS COLLECTION BOX - BLUE BOX", "address": {"city": "BEAVERTON", "state": "OR", "street": "3800 SW 185TH AVE", "postcode": "97007"}}},
{"geometry": {"type": "Point", "coordinates": [-122.8671133983, 45.4924235001]}, "type": "Feature", "properties": {"collection_times": [{"days": "Mon-Fri", "time": "5:00pm"}, {"days": "Sat", "time": "4:00pm"}, {"days": "Sun", "time": "Closed"}], "id": "9700700004", "name": "USPS COLLECTION BOX - BLUE BOX", "address": {"city": "BEAVERTON", "state": "OR", "street": "3800 SW 185TH AVE", "postcode": "97007"}}},
{"geometry": {"type": "Point", "coordinates": [-122.8671133983, 45.4924235001]}, "type": "Feature", "properties": {"collection_times": [{"days": "Mon-Fri", "time": "5:00pm"}, {"days": "Sat", "time": "4:00pm"}, {"days": "Sun", "time": "Closed"}], "id": "9700700005", "name": "USPS COLLECTION BOX - BLUE BOX", "address": {"city": "BEAVERTON", "state": "OR", "street": "3800 SW 185TH AVE", "postcode": "97007"}}},
{"geometry": {"type": "Point", "coordinates": [-122.8452534839, 45.4656617688]}, "type": "Feature", "properties": {"collection_times": [{"days": "Mon-Sat", "time": "2:15pm"}, {"days": "Sun", "time": "Closed"}], "id": "9700700007", "name": "USPS COLLECTION BOX - BLUE BOX", "address": {"city": "BEAVERTON", "state": "OR", "street": "16300 SW HART RD", "postcode": "97007"}}},
{"geometry": {"type": "Point", "coordinates": [-122.8671133983, 45.4924235001]}, "type": "Feature", "properties": {"collection_times": [{"days": "Mon-Fri", "time": "5:00pm"}, {"days": "Sat", "time": "4:00pm"}, {"days": "Sun", "time": "Closed"}], "id": "9700700008", "name": "USPS COLLECTION BOX - PO LOBBY", "address": {"city": "BEAVERTON", "state": "OR", "street": "3800 SW 185TH AVE", "postcode": "97007"}}},
{"geometry": {"type": "Point", "coordinates": [-122.8671133983, 45.4924235001]}, "type": "Feature", "properties": {"collection_times": [{"days": "Mon-Fri", "time": "5:00pm"}, {"days": "Sat", "time": "4:00pm"}, {"days": "Sun", "time": "Closed"}], "id": "9700700012", "name": "USPS COLLECTION BOX - BLUE BOX", "address": {"city": "BEAVERTON", "state": "OR", "street": "3800 SW 185TH AVE", "postcode": "97007"}}},
{"geometry": {"type": "Point", "coordinates": [-122.8671133983, 45.4924235001]}, "type": "Feature", "properties": {"collection_times": [{"days": "Mon-Fri", "time": "5:00pm"}, {"days": "Sat", "time": "4:00pm"}, {"days": "Sun", "time": "Closed"}], "id": "9700700014", "name": "USPS COLLECTION BOX - APC", "address": {"city": "BEAVERTON", "state": "OR", "street": "3800 SW 185TH AVE", "postcode": "97007"}}},
{"geometry": {"type": "Point", "coordinates": [-122.8671133983, 45.4924235001]}, "type": "Feature", "properties": {"collection_times": [{"days": "Mon-Fri", "time": "5:00pm"}, {"days": "Sat", "time": "4:00pm"}, {"days": "Sun", "time": "Closed"}], "id": "9700700015", "name": "USPS COLLECTION BOX - APC", "address": {"city": "BEAVERTON", "state": "OR", "street": "3800 SW 185TH AVE", "postcode": "97007"}}},
{"geometry": {"type": "Point", "coordinates": [-122.7907242288, 45.4709619018]}, "type": "Feature", "properties": {"collection_times": [{"days": "Mon-Fri", "time": "4:15pm"}, {"days": "Sat", "time": "1:00pm"}, {"days": "Sun", "time": "Closed"}], "id": "9700800003", "name": "USPS COLLECTION BOX - BLUE BOX", "address": {"city": "BEAVERTON", "state": "OR", "street": "6785 SW 111TH AVE", "postcode": "97008"}}},
{"geometry": {"type": "Point", "coordinates": [-122.8053313442, 45.4544187832]}, "type": "Feature", "properties": {"collection_times": [{"days": "Mon-Fri", "time": "3:15pm"}, {"days": "Sat", "time": "1:00pm"}, {"days": "Sun", "time": "Closed"}], "id": "9700800005", "name": "USPS COLLECTION BOX - BLUE BOX", "address": {"city": "BEAVERTON", "state": "OR", "street": "9510 SW 125TH AVE", "postcode": "97008"}}},
{"geometry": {"type": "Point", "coordinates": [-122.7859020667, 45.457873167]}, "type": "Feature", "properties": {"collection_times": [{"days": "Mon-Fri", "time": "3:30pm"}, {"days": "Sat", "time": "1:00pm"}, {"days": "Sun", "time": "Closed"}], "id": "9700800006", "name": "USPS COLLECTION BOX - BLUE BOX", "address": {"city": "BEAVERTON", "state": "OR", "street": "8625 SW CASCADE AVE", "postcode": "97008"}}},
{"geometry": {"type": "Point", "coordinates": [-122.7859020667, 45.457873167]}, "type": "Feature", "properties": {"collection_times": [{"days": "Mon-Fri", "time": "3:30pm"}, {"days": "Sat", "time": "1:00pm"}, {"days": "Sun", "time": "Closed"}], "id": "9700800007", "name": "USPS COLLECTION BOX - BLUE BOX", "address": {"city": "BEAVERTON", "state": "OR", "street": "8625 SW CASCADE AVE", "postcode": "97008"}}},
{"geometry": {"type": "Point", "coordinates": [-122.790834788, 45.460824832]}, "type": "Feature", "properties": {"collection_times": [{"days": "Mon-Fri", "time": "3:45pm"}, {"days": "Sat", "time": "1:00pm"}, {"days": "Sun", "time": "Closed"}], "id": "9700800010", "name": "USPS COLLECTION BOX - BLUE BOX", "address": {"city": "BEAVERTON", "state": "OR", "street": "8243 SW CIRRUS DR", "postcode": "97008"}}},
{"geometry": {"type": "Point", "coordinates": [-122.7923478037, 45.4519903318]}, "type": "Feature", "properties": {"collection_times": [{"days": "Mon-Fri", "time": "3:30pm"}, {"days": "Sat", "time": "1:00pm"}, {"days": "Sun", "time": "Closed"}], "id": "9700800014", "name": "USPS COLLECTION BOX - BLUE BOX", "address": {"city": "BEAVERTON", "state": "OR", "street": "9450 SW GEMINI DR", "postcode": "97008"}}},
{"geometry": {"type": "Point", "coordinates": [-122.7891315447, 45.460091215]}, "type": "Feature", "properties": {"collection_times": [{"days": "Mon-Fri", "time": "3:45pm"}, {"days": "Sat", "time": "1:00pm"}, {"days": "Sun", "time": "Closed"}], "id": "9700800017", "name": "USPS COLLECTION BOX - BLUE BOX", "address": {"city": "BEAVERTON", "state": "OR", "street": "8285 SW NIMBUS AVE", "postcode": "97008"}}},
{"geometry": {"type": "Point", "coordinates": [-122.7948163533, 45.4608437027]}, "type": "Feature", "properties": {"collection_times": [{"days": "Mon-Fri", "time": "3:15pm"}, {"days": "Sat", "time": "1:00pm"}, {"days": "Sun", "time": "Closed"}], "id": "9700800019", "name": "USPS COLLECTION BOX - BLUE BOX", "address": {"city": "BEAVERTON", "state": "OR", "street": "8155 SW HALL BLVD", "postcode": "97008"}}},
{"geometry": {"type": "Point", "coordinates": [-122.7891315447, 45.460091215]}, "type": "Feature", "properties": {"collection_times": [{"days": "Mon-Fri", "time": "3:45pm"}, {"days": "Sat", "time": "1:00pm"}, {"days": "Sun", "time": "Closed"}], "id": "9700800022", "name": "USPS COLLECTION BOX - BLUE BOX", "address": {"city": "BEAVERTON", "state": "OR", "street": "8285 SW NIMBUS AVE", "postcode": "97008"}}},
{"geometry": {"type": "Point", "coordinates": [-122.7891315447, 45.460091215]}, "type": "Feature", "properties": {"collection_times": [{"days": "Mon-Fri", "time": "3:45pm"}, {"days": "Sat", "time": "1:00pm"}, {"days": "Sun", "time": "Closed"}], "id": "9700800023", "name": "USPS COLLECTION BOX - BLUE BOX", "address": {"city": "BEAVERTON", "state": "OR", "street": "8285 SW NIMBUS AVE", "postcode": "97008"}}},
{"geometry": {"type": "Point", "coordinates": [-122.7888192435, 45.4555249934]}, "type": "Feature", "properties": {"collection_times": [{"days": "Mon-Fri", "time": "3:30pm"}, {"days": "Sat", "time": "1:00pm"}, {"days": "Sun", "time": "Closed"}], "id": "9700800026", "name": "USPS COLLECTION BOX - BLUE BOX", "address": {"city": "BEAVERTON", "state": "OR", "street": "8905 SW NIMBUS AVE", "postcode": "97008"}}},
{"geometry": {"type": "Point", "coordinates": [-122.7888192435, 45.4555249934]}, "type": "Feature", "properties": {"collection_times": [{"days": "Mon-Fri", "time": "3:30pm"}, {"days": "Sat", "time": "1:00pm"}, {"days": "Sun", "time": "Closed"}], "id": "9700800027", "name": "USPS COLLECTION BOX - BLUE BOX", "address": {"city": "BEAVERTON", "state": "OR", "street": "8905 SW NIMBUS AVE", "postcode": "97008"}}},
{"geometry": {"type": "Point", "coordinates": [-122.3695158895, 45.4325401007]}, "type": "Feature", "properties": {"collection_times": [{"days": "Mon-Fri", "time": "4:30pm"}, {"days": "Sat", "time": "2:00pm"}, {"days": "Sun", "time": "Closed"}], "id": "9700900001", "name": "USPS COLLECTION BOX - BLUE BOX", "address": {"city": "BORING", "state": "OR", "street": "28515 SE HIGHWAY 212", "postcode": "97009"}}},
{"geometry": {"type": "Point", "coordinates": [-122.3228393433, 45.3732360253]}, "type": "Feature", "properties": {"collection_times": [{"days": "Mon-Sat", "time": "10:00am"}, {"days": "Sun", "time": "Closed"}], "id": "9700900002", "name": "USPS COLLECTION BOX - BLUE BOX", "address": {"city": "BORING", "state": "OR", "street": "32700 SE LEEWOOD LN", "postcode": "97009"}}},
{"geometry": {"type": "Point", "coordinates": [-122.344076453, 45.4252764535]}, "type": "Feature", "properties": {"collection_times": [{"days": "Mon-Sat", "time": "10:30am"}, {"days": "Sun", "time": "Closed"}], "id": "9700900003", "name": "USPS COLLECTION BOX - BLUE BOX", "address": {"city": "BORING", "state": "OR", "street": "20151 SE HIGHWAY 212", "postcode": "97009"}}},
{"geometry": {"type": "Point", "coordinates": [-122.3695158895, 45.4325401007]}, "type": "Feature", "properties": {"collection_times": [{"days": "Mon-Fri", "time": "4:30pm"}, {"days": "Sat", "time": "2:00pm"}, {"days": "Sun", "time": "Closed"}], "id": "9700900004", "name": "USPS COLLECTION BOX - BLUE BOX", "address": {"city": "BORING", "state": "OR", "street": "28515 SE HIGHWAY 212", "postcode": "97009"}}},
{"geometry": {"type": "Point", "coordinates": [-122.3695158895, 45.4325401007]}, "type": "Feature", "properties": {"collection_times": [{"days": "Mon-Fri", "time": "5:00pm"}, {"days": "Sat", "time": "2:00pm"}, {"days": "Sun", "time": "Closed"}], "id": "9700900005", "name": "USPS COLLECTION BOX - PO LOBBY", "address": {"city": "BORING", "state": "OR", "street": "28515 SE HIGHWAY 212", "postcode": "97009"}}},
{"geometry": {"type": "Point", "coordinates": [-122.1192956029, 45.5790026702]}, "type": "Feature", "properties": {"collection_times": [{"days": "Mon-Sat", "time": "3:15pm"}, {"days": "Sun", "time": "Closed"}], "id": "9701000001", "name": "USPS COLLECTION BOX - PO LOBBY", "address": {"city": "BRIDAL VEIL", "state": "OR", "street": "47100 W MILL RD", "postcode": "97010"}}},
{"geometry": {"type": "Point", "coordinates": [-122.0141739438, 45.375855073]}, "type": "Feature", "properties": {"collection_times": [{"days": "Mon-Fri", "time": "4:30pm"}, {"days": "Sat", "time": "3:30pm"}, {"days": "Sun", "time": "Closed"}], "id": "9701100001", "name": "USPS COLLECTION BOX - BLUE BOX", "address": {"city": "BRIGHTWOOD", "state": "OR", "street": "20275 E AMBROSE ST", "postcode": "97011"}}},
{"geometry": {"type": "Point", "coordinates": [-122.0141739438, 45.375855073]}, "type": "Feature", "properties": {"collection_times": [{"days": "Mon-Fri", "time": "5:00pm"}, {"days": "Sat", "time": "9:00am"}, {"days": "Sun", "time": "Closed"}], "id": "9701100002", "name": "USPS COLLECTION BOX - PO LOBBY", "address": {"city": "BRIGHTWOOD", "state": "OR", "street": "20275 E AMBROSE ST", "postcode": "97011"}}},
{"geometry": {"type": "Point", "coordinates": [-122.6942595678, 45.2630569523]}, "type": "Feature", "properties": {"collection_times": [{"days": "Mon-Sat", "time": "1:00pm"}, {"days": "Sun", "time": "Closed"}], "id": "9701300001", "name": "USPS COLLECTION BOX - BLUE BOX", "address": {"city": "CANBY", "state": "OR", "street": "182 N HOLLY ST", "postcode": "97013"}}},
{"geometry": {"type": "Point", "coordinates": [-122.7001162485, 45.2611116023]}, "type": "Feature", "properties": {"collection_times": [{"days": "Mon-Fri", "time": "5:00pm"}, {"days": "Sat", "time": "3:00pm"}, {"days": "Sun", "time": "Closed"}], "id": "9701300002", "name": "USPS COLLECTION BOX - BLUE BOX", "address": {"city": "CANBY", "state": "OR", "street": "615 NW 2ND AVE", "postcode": "97013"}}},
{"geometry": {"type": "Point", "coordinates": [-122.6908927174, 45.2644132408]}, "type": "Feature", "properties": {"collection_times": [{"days": "Mon-Sat", "time": "1:00pm"}, {"days": "Sun", "time": "Closed"}], "id": "9701300004", "name": "USPS COLLECTION BOX - BLUE BOX", "address": {"city": "CANBY", "state": "OR", "street": "225 NE 2ND AVE", "postcode": "97013"}}},
{"geometry": {"type": "Point", "coordinates": [-122.7001162485, 45.2611116023]}, "type": "Feature", "properties": {"collection_times": [{"days": "Mon-Fri", "time": "5:00pm"}, {"days": "Sat", "time": "3:00pm"}, {"days": "Sun", "time": "Closed"}], "id": "9701300005", "name": "USPS COLLECTION BOX - BLUE BOX", "address": {"city": "CANBY", "state": "OR", "street": "615 NW 2ND AVE", "postcode": "97013"}}},
{"geometry": {"type": "Point", "coordinates": [-122.7001162485, 45.2611116023]}, "type": "Feature", "properties": {"collection_times": [{"days": "Mon-Fri", "time": "5:00pm"}, {"days": "Sat", "time": "3:00pm"}, {"days": "Sun", "time": "Closed"}], "id": "9701300006", "name": "USPS COLLECTION BOX - BLUE BOX", "address": {"city": "CANBY", "state": "OR", "street": "615 NW 2ND AVE", "postcode": "97013"}}},
{"geometry": {"type": "Point", "coordinates": [-122.7001162485, 45.2611116023]}, "type": "Feature", "properties": {"collection_times": [{"days": "Mon-Fri", "time": "5:30pm"}, {"days": "Sat", "time": "3:00pm"}, {"days": "Sun", "time": "Closed"}], "id": "9701300007", "name": "USPS COLLECTION BOX - PO LOBBY", "address": {"city": "CANBY", "state": "OR", "street": "615 NW 2ND AVE", "postcode": "97013"}}},
{"geometry": {"type": "Point", "coordinates": [-122.7001162485, 45.2611116023]}, "type": "Feature", "properties": {"collection_times": [{"days": "Mon-Fri", "time": "5:30pm"}, {"days": "Sat", "time": "3:00pm"}, {"days": "Sun", "time": "Closed"}], "id": "9701300008", "name": "USPS COLLECTION BOX - PO LOBBY", "address": {"city": "CANBY", "state": "OR", "street": "615 NW 2ND AVE", "postcode": "97013"}}},
{"geometry": {"type": "Point", "coordinates": [-121.8953591507, 45.6660037252]}, "type": "Feature", "properties": {"collection_times": [{"days": "Mon-Fri", "time": "4:30pm"}, {"days": "Sat", "time": "9:30am"}, {"days": "Sun", "time": "Closed"}], "id": "9701400001", "name": "USPS COLLECTION BOX - BLUE BOX", "address": {"city": "CASCADE LOCKS", "state": "OR", "street": "461 NW WANAPA ST", "postcode": "97014"}}},
{"geometry": {"type": "Point", "coordinates": [-121.8953591507, 45.6660037252]}, "type": "Feature", "properties": {"collection_times": [{"days": "Mon-Fri", "time": "5:00pm"}, {"days": "Sat", "time": "9:30am"}, {"days": "Sun", "time": "Closed"}], "id": "9701400002", "name": "USPS COLLECTION BOX - PO LOBBY", "address": {"city": "CASCADE LOCKS", "state": "OR", "street": "461 NW WANAPA ST", "postcode": "97014"}}},
{"geometry": {"type": "Point", "coordinates": [-122.5586698451, 45.433453345]}, "type": "Feature", "properties": {"collection_times": [{"days": "Mon-Fri", "time": "3:00pm"}, {"days": "Sat-Sun", "time": "Closed"}], "id": "9701500001", "name": "USPS COLLECTION BOX - BLUE BOX", "address": {"city": "CLACKAMAS", "state": "OR", "street": "10180 SE SUNNYSIDE RD", "postcode": "97015"}}},
{"geometry": {"type": "Point", "coordinates": [-122.5394069205, 45.4294275935]}, "type": "Feature", "properties": {"collection_times": [{"days": "Mon-Fri", "time": "3:00pm"}, {"days": "Sat-Sun", "time": "Closed"}], "id": "9701500008", "name": "USPS COLLECTION BOX - BLUE BOX", "address": {"city": "CLACKAMAS", "state": "OR", "street": "12100 SE SUNNYSIDE RD", "postcode": "97015"}}},
{"geometry": {"type": "Point", "coordinates": [-122.5359303434, 45.4278796369]}, "type": "Feature", "properties": {"collection_times": [{"days": "Mon-Fri", "time": "3:00pm"}, {"days": "Sat-Sun", "time": "Closed"}], "id": "9701500032", "name": "USPS COLLECTION BOX - BLUE BOX", "address": {"city": "CLACKAMAS", "state": "OR", "street": "12400 SE SUNNYSIDE RD", "postcode": "97015"}}},
{"geometry": {"type": "Point", "coordinates": [-122.5122586575, 45.4247856721]}, "type": "Feature", "properties": {"collection_times": [{"days": "Mon-Fri", "time": "3:00pm"}, {"days": "Sat-Sun", "time": "Closed"}], "id": "9701500040", "name": "USPS COLLECTION BOX - BLUE BOX", "address": {"city": "CLACKAMAS", "state": "OR", "street": "14700 SE SUNNYSIDE RD", "postcode": "97015"}}},
{"geometry": {"type": "Point", "coordinates": [-122.5730889319, 45.4331599712]}, "type": "Feature", "properties": {"collection_times": [{"days": "Mon-Fri", "time": "3:00pm"}, {"days": "Sat-Sun", "time": "Closed"}], "id": "9701500041", "name": "USPS COLLECTION BOX - BLUE BOX", "address": {"city": "CLACKAMAS", "state": "OR", "street": "8800 SE SUNNYSIDE RD", "postcode": "97015"}}},
{"geometry": {"type": "Point", "coordinates": [-122.5394069205, 45.4294275935]}, "type": "Feature", "properties": {"collection_times": [{"days": "Mon-Fri", "time": "3:00pm"}, {"days": "Sat-Sun", "time": "Closed"}], "id": "9701500042", "name": "USPS COLLECTION BOX - BLUE BOX", "address": {"city": "CLACKAMAS", "state": "OR", "street": "12100 SE SUNNYSIDE RD", "postcode": "97015"}}},
{"geometry": {"type": "Point", "coordinates": [-122.5462354483, 45.4085356573]}, "type": "Feature", "properties": {"collection_times": [{"days": "Mon-Fri", "time": "3:00pm"}, {"days": "Sat-Sun", "time": "Closed"}], "id": "9701500044", "name": "USPS COLLECTION BOX - BLUE BOX", "address": {"city": "CLACKAMAS", "state": "OR", "street": "15800 SE 114TH AVE", "postcode": "97015"}}},
{"geometry": {"type": "Point", "coordinates": [-122.5380719853, 45.4145539089]}, "type": "Feature", "properties": {"collection_times": [{"days": "Mon-Fri", "time": "3:00pm"}, {"days": "Sat-Sun", "time": "Closed"}], "id": "9701500045", "name": "USPS COLLECTION BOX - BLUE BOX", "address": {"city": "CLACKAMAS", "state": "OR", "street": "17795 SE 82ND DR", "postcode": "97015"}}},
{"geometry": {"type": "Point", "coordinates": [-122.5687701112, 45.4059519756]}, "type": "Feature", "properties": {"collection_times": [{"days": "Mon-Fri", "time": "3:00pm"}, {"days": "Sat-Sun", "time": "Closed"}], "id": "9701500046", "name": "USPS COLLECTION BOX - BLUE BOX", "address": {"city": "CLACKAMAS", "state": "OR", "street": "16116 SE 82ND DR", "postcode": "97015"}}},
{"geometry": {"type": "Point", "coordinates": [-122.568846841, 45.4046175373]}, "type": "Feature", "properties": {"collection_times": [{"days": "Mon-Fri", "time": "3:00pm"}, {"days": "Sat-Sun", "time": "Closed"}], "id": "9701500047", "name": "USPS COLLECTION BOX - BLUE BOX", "address": {"city": "CLACKAMAS", "state": "OR", "street": "16301 SE 82ND DR", "postcode": "97015"}}},
{"geometry": {"type": "Point", "coordinates": [-122.5624288219, 45.4071323244]}, "type": "Feature", "properties": {"collection_times": [{"days": "Mon-Fri", "time": "3:00pm"}, {"days": "Sat-Sun", "time": "Closed"}], "id": "9701500048", "name": "USPS COLLECTION BOX - BLUE BOX", "address": {"city": "CLACKAMAS", "state": "OR", "street": "16081 SE 98TH AVE", "postcode": "97015"}}},
{"geometry": {"type": "Point", "coordinates": [-122.5698961256, 45.4088714577]}, "type": "Feature", "properties": {"collection_times": [{"days": "Mon-Fri", "time": "5:15pm"}, {"days": "Sat", "time": "2:15pm"}, {"days": "Sun", "time": "Closed"}], "id": "9701500051", "name": "USPS COLLECTION BOX - BLUE BOX", "address": {"city": "CLACKAMAS", "state": "OR", "street": "9009 SE ADAMS ST", "postcode": "97015"}}},
{"geometry": {"type": "Point", "coordinates": [-122.5698961256, 45.4088714577]}, "type": "Feature", "properties": {"collection_times": [{"days": "Mon-Fri", "time": "5:15pm"}, {"days": "Sat", "time": "2:15pm"}, {"days": "Sun", "time": "Closed"}], "id": "9701500052", "name": "USPS COLLECTION BOX - BLUE BOX", "address": {"city": "CLACKAMAS", "state": "OR", "street": "9009 SE ADAMS ST", "postcode": "97015"}}},
{"geometry": {"type": "Point", "coordinates": [-122.5698961256, 45.4088714577]}, "type": "Feature", "properties": {"collection_times": [{"days": "Mon-Fri", "time": "5:15pm"}, {"days": "Sat", "time": "2:15pm"}, {"days": "Sun", "time": "Closed"}], "id": "9701500053", "name": "USPS COLLECTION BOX - BLUE BOX", "address": {"city": "CLACKAMAS", "state": "OR", "street": "9009 SE ADAMS ST", "postcode": "97015"}}},
{"geometry": {"type": "Point", "coordinates": [-122.5698961256, 45.4088714577]}, "type": "Feature", "properties": {"collection_times": [{"days": "Mon-Fri", "time": "5:15pm"}, {"days": "Sat", "time": "2:15pm"}, {"days": "Sun", "time": "Closed"}], "id": "9701500054", "name": "USPS COLLECTION BOX - BLUE BOX", "address": {"city": "CLACKAMAS", "state": "OR", "street": "9009 SE ADAMS ST", "postcode": "97015"}}},
{"geometry": {"type": "Point", "coordinates": [-122.5699199335, 45.4088965516]}, "type": "Feature", "properties": {"collection_times": [{"days": "Mon-Fri", "time": "5:15pm"}, {"days": "Sat", "time": "2:15pm"}, {"days": "Sun", "time": "Closed"}], "id": "9701500055", "name": "USPS COLLECTION BOX - BLUE BOX", "address": {"city": "CLACKAMAS", "state": "OR", "street": "9009 SE ADAMS ST", "postcode": "97015"}}},
{"geometry": {"type": "Point", "coordinates": [-122.5698961256, 45.4088714577]}, "type": "Feature", "properties": {"collection_times": [{"days": "Mon-Fri", "time": "5:15pm"}, {"days": "Sat", "time": "2:15pm"}, {"days": "Sun", "time": "Closed"}], "id": "9701500056", "name": "USPS COLLECTION BOX - PO LOBBY", "address": {"city": "CLACKAMAS", "state": "OR", "street": "9009 SE ADAMS ST", "postcode": "97015"}}},
{"geometry": {"type": "Point", "coordinates": [-122.5698961256, 45.4088714577]}, "type": "Feature", "properties": {"collection_times": [{"days": "Mon-Fri", "time": "5:15pm"}, {"days": "Sat", "time": "2:15pm"}, {"days": "Sun", "time": "Closed"}], "id": "9701500058", "name": "USPS COLLECTION BOX - APC", "address": {"city": "CLACKAMAS", "state": "OR", "street": "9009 SE ADAMS ST", "postcode": "97015"}}},
{"geometry": {"type": "Point", "coordinates": [-123.2118319282, 46.1116297321]}, "type": "Feature", "properties": {"collection_times": [{"days": "Mon-Sat", "time": "12:00pm"}, {"days": "Sun", "time": "Closed"}], "id": "9701600001", "name": "USPS COLLECTION BOX - BLUE BOX", "address": {"city": "CLATSKANIE", "state": "OR", "street": "49332 HIGHWAY 30", "postcode": "97016"}}},
{"geometry": {"type": "Point", "coordinates": [-123.207355469, 46.1044431725]}, "type": "Feature", "properties": {"collection_times": [{"days": "Mon-Fri", "time": "4:45pm"}, {"days": "Sat", "time": "2:30pm"}, {"days": "Sun", "time": "Closed"}], "id": "9701600002", "name": "USPS COLLECTION BOX - PO LOBBY", "address": {"city": "CLATSKANIE", "state": "OR", "street": "90 SW BELAIR DR", "postcode": "97016"}}},
{"geometry": {"type": "Point", "coordinates": [-123.207355469, 46.1044431725]}, "type": "Feature", "properties": {"collection_times": [{"days": "Mon-Fri", "time": "4:45pm"}, {"days": "Sat", "time": "2:30pm"}, {"days": "Sun", "time": "Closed"}], "id": "9701600003", "name": "USPS COLLECTION BOX - PO LOBBY", "address": {"city": "CLATSKANIE", "state": "OR", "street": "90 SW BELAIR DR", "postcode": "97016"}}},
{"geometry": {"type": "Point", "coordinates": [-123.207355469, 46.1044431725]}, "type": "Feature", "properties": {"collection_times": [{"days": "Mon-Fri", "time": "4:45pm"}, {"days": "Sat", "time": "2:30pm"}, {"days": "Sun", "time": "Closed"}], "id": "9701600004", "name": "USPS COLLECTION BOX - BLUE BOX", "address": {"city": "CLATSKANIE", "state": "OR", "street": "90 SW BELAIR DR", "postcode": "97016"}}},
{"geometry": {"type": "Point", "coordinates": [-122.435431546, 45.1720596344]}, "type": "Feature", "properties": {"collection_times": [{"days": "Mon-Fri", "time": "4:30pm"}, {"days": "Sat", "time": "10:00am"}, {"days": "Sun", "time": "Closed"}], "id": "9701700001", "name": "USPS COLLECTION BOX - BLUE BOX", "address": {"city": "COLTON", "state": "OR", "street": "20980 S HIGHWAY 211", "postcode": "97017"}}},
{"geometry": {"type": "Point", "coordinates": [-122.435431546, 45.1720596344]}, "type": "Feature", "properties": {"collection_times": [{"days": "Mon-Fri", "time": "4:30pm"}, {"days": "Sat", "time": "10:00am"}, {"days": "Sun", "time": "Closed"}], "id": "9701700002", "name": "USPS COLLECTION BOX - PO LOBBY", "address": {"city": "COLTON", "state": "OR", "street": "20980 S HIGHWAY 211", "postcode": "97017"}}},
{"geometry": {"type": "Point", "coordinates": [-122.8139192777, 45.8931293119]}, "type": "Feature", "properties": {"collection_times": [{"days": "Mon-Fri", "time": "4:30pm"}, {"days": "Sat", "time": "10:00am"}, {"days": "Sun", "time": "Closed"}], "id": "9701800001", "name": "USPS COLLECTION BOX - BLUE BOX", "address": {"city": "COLUMBIA CITY", "state": "OR", "street": "1905 2ND ST", "postcode": "97018"}}},
{"geometry": {"type": "Point", "coordinates": [-122.808766982, 45.8898402508]}, "type": "Feature", "properties": {"collection_times": [{"days": "Mon-Fri", "time": "2:00pm"}, {"days": "Sat", "time": "10:00am"}, {"days": "Sun", "time": "Closed"}], "id": "9701800002", "name": "USPS COLLECTION BOX - PO LOBBY", "address": {"city": "COLUMBIA CITY", "state": "OR", "street": "1905 2ND ST", "postcode": "97018"}}},
{"geometry": {"type": "Point", "coordinates": [-122.2922473758, 45.5315537661]}, "type": "Feature", "properties": {"collection_times": [{"days": "Mon-Fri", "time": "4:30pm"}, {"days": "Sat", "time": "9:00am"}, {"days": "Sun", "time": "Closed"}], "id": "9701900001", "name": "USPS COLLECTION BOX - BLUE BOX", "address": {"city": "CORBETT", "state": "OR", "street": "36046 E HISTORIC COLUMBIA RIVER HWY", "postcode": "97019"}}},
{"geometry": {"type": "Point", "coordinates": [-122.2922473758, 45.5315537661]}, "type": "Feature", "properties": {"collection_times": [{"days": "Mon-Fri", "time": "4:30pm"}, {"days": "Sat", "time": "9:00am"}, {"days": "Sun", "time": "Closed"}], "id": "9701900002", "name": "USPS COLLECTION BOX - PO LOBBY", "address": {"city": "CORBETT", "state": "OR", "street": "36046 E HISTORIC COLUMBIA RIVER HWY", "postcode": "97019"}}},
{"geometry": {"type": "Point", "coordinates": [-122.8401826743, 45.2228315518]}, "type": "Feature", "properties": {"collection_times": [{"days": "Mon-Fri", "time": "4:30pm"}, {"days": "Sat", "time": "10:30am"}, {"days": "Sun", "time": "Closed"}], "id": "9702000001", "name": "USPS COLLECTION BOX - BLUE BOX", "address": {"city": "DONALD", "state": "OR", "street": "10751 MAIN ST NE", "postcode": "97020"}}},
{"geometry": {"type": "Point", "coordinates": [-122.8401826743, 45.2228315518]}, "type": "Feature", "properties": {"collection_times": [{"days": "Mon-Fri", "time": "4:30pm"}, {"days": "Sat", "time": "10:30am"}, {"days": "Sun", "time": "Closed"}], "id": "9702000002", "name": "USPS COLLECTION BOX - PO LOBBY", "address": {"city": "DONALD", "state": "OR", "street": "10751 MAIN ST NE", "postcode": "97020"}}},
{"geometry": {"type": "Point", "coordinates": [-121.1593123727, 45.3788779973]}, "type": "Feature", "properties": {"collection_times": [{"days": "Mon-Fri", "time": "4:45pm"}, {"days": "Sat", "time": "2:45pm"}, {"days": "Sun", "time": "Closed"}], "id": "9702100001", "name": "USPS COLLECTION BOX - BLUE BOX", "address": {"city": "DUFUR", "state": "OR", "street": "96 N MAIN ST", "postcode": "97021"}}},
{"geometry": {"type": "Point", "coordinates": [-121.1593123727, 45.3788779973]}, "type": "Feature", "properties": {"collection_times": [{"days": "Mon-Fri", "time": "4:45pm"}, {"days": "Sat", "time": "2:45pm"}, {"days": "Sun", "time": "Closed"}], "id": "9702100002", "name": "USPS COLLECTION BOX - PO LOBBY", "address": {"city": "DUFUR", "state": "OR", "street": "96 N MAIN ST", "postcode": "97021"}}},
{"geometry": {"type": "Point", "coordinates": [-122.3480440013, 45.3480354271]}, "type": "Feature", "properties": {"collection_times": [{"days": "Mon-Fri", "time": "4:30pm"}, {"days": "Sat", "time": "9:00am"}, {"days": "Sun", "time": "Closed"}], "id": "9702200002", "name": "USPS COLLECTION BOX - PO LOBBY", "address": {"city": "EAGLE CREEK", "state": "OR", "street": "24200 SE EAGLE CREEK RD", "postcode": "97022"}}},
{"geometry": {"type": "Point", "coordinates": [-122.3363114143, 45.2886958395]}, "type": "Feature", "properties": {"collection_times": [{"days": "Mon-Fri", "time": "4:45pm"}, {"days": "Sat", "time": "12:00pm"}, {"days": "Sun", "time": "Closed"}], "id": "9702300001", "name": "USPS COLLECTION BOX - BLUE BOX", "address": {"city": "ESTACADA", "state": "OR", "street": "205 SW 2ND AVE", "postcode": "97023"}}},
{"geometry": {"type": "Point", "coordinates": [-122.3363114143, 45.2886958395]}, "type": "Feature", "properties": {"collection_times": [{"days": "Mon-Fri", "time": "4:45pm"}, {"days": "Sat", "time": "12:00pm"}, {"days": "Sun", "time": "Closed"}], "id": "9702300002", "name": "USPS COLLECTION BOX - BLUE BOX", "address": {"city": "ESTACADA", "state": "OR", "street": "205 SW 2ND AVE", "postcode": "97023"}}},
{"geometry": {"type": "Point", "coordinates": [-122.3363114143, 45.2886958395]}, "type": "Feature", "properties": {"collection_times": [{"days": "Mon-Fri", "time": "4:45pm"}, {"days": "Sat", "time": "12:00pm"}, {"days": "Sun", "time": "Closed"}], "id": "9702300003", "name": "USPS COLLECTION BOX - PO LOBBY", "address": {"city": "ESTACADA", "state": "OR", "street": "205 SW 2ND AVE", "postcode": "97023"}}},
{"geometry": {"type": "Point", "coordinates": [-122.3363114143, 45.2886958395]}, "type": "Feature", "properties": {"collection_times": [{"days": "Mon-Fri", "time": "4:45pm"}, {"days": "Sat", "time": "12:00pm"}, {"days": "Sun", "time": "Closed"}], "id": "9702300004", "name": "USPS COLLECTION BOX - PO LOBBY", "address": {"city": "ESTACADA", "state": "OR", "street": "205 SW 2ND AVE", "postcode": "97023"}}},
{"geometry": {"type": "Point", "coordinates": [-122.4415353269, 45.5443113626]}, "type": "Feature", "properties": {"collection_times": [{"days": "Mon-Fri", "time": "5:00pm"}, {"days": "Sat", "time": "8:45am"}, {"days": "Sun", "time": "Closed"}], "id": "9702400001", "name": "USPS COLLECTION BOX - BLUE BOX", "address": {"city": "FAIRVIEW", "state": "OR", "street": "1700 NE MARKET DR", "postcode": "97024"}}},
{"geometry": {"type": "Point", "coordinates": [-122.4415353269, 45.5443113626]}, "type": "Feature", "properties": {"collection_times": [{"days": "Mon-Fri", "time": "5:00pm"}, {"days": "Sat", "time": "8:45am"}, {"days": "Sun", "time": "Closed"}], "id": "9702400002", "name": "USPS COLLECTION BOX - BLUE BOX", "address": {"city": "FAIRVIEW", "state": "OR", "street": "1700 NE MARKET DR", "postcode": "97024"}}},
{"geometry": {"type": "Point", "coordinates": [-122.4415353269, 45.5443113626]}, "type": "Feature", "properties": {"collection_times": [{"days": "Mon-Fri", "time": "5:00pm"}, {"days": "Sat", "time": "8:45am"}, {"days": "Sun", "time": "Closed"}], "id": "9702400003", "name": "USPS COLLECTION BOX - PO LOBBY", "address": {"city": "FAIRVIEW", "state": "OR", "street": "1700 NE MARKET DR", "postcode": "97024"}}},
{"geometry": {"type": "Point", "coordinates": [-122.8916432889, 45.103401726]}, "type": "Feature", "properties": {"collection_times": [{"days": "Mon-Fri", "time": "4:30pm"}, {"days": "Sat", "time": "10:00am"}, {"days": "Sun", "time": "Closed"}], "id": "9702600001", "name": "USPS COLLECTION BOX - BLUE BOX", "address": {"city": "GERVAIS", "state": "OR", "street": "380 DOUGLAS AVE", "postcode": "97026"}}},
{"geometry": {"type": "Point", "coordinates": [-122.8916432889, 45.103401726]}, "type": "Feature", "properties": {"collection_times": [{"days": "Mon-Fri", "time": "4:30pm"}, {"days": "Sat", "time": "10:00am"}, {"days": "Sun", "time": "Closed"}], "id": "9702600002", "name": "USPS COLLECTION BOX - PO LOBBY", "address": {"city": "GERVAIS", "state": "OR", "street": "380 DOUGLAS AVE", "postcode": "97026"}}},
{"geometry": {"type": "Point", "coordinates": [-122.5835020217, 45.3803772792]}, "type": "Feature", "properties": {"collection_times": [{"days": "Mon-Fri", "time": "2:00pm"}, {"days": "Sat-Sun", "time": "Closed"}], "id": "9702700009", "name": "USPS COLLECTION BOX - BLUE BOX", "address": {"city": "GLADSTONE", "state": "OR", "street": "45 82ND DR", "postcode": "97027"}}},
{"geometry": {"type": "Point", "coordinates": [-122.5951629462, 45.381102679]}, "type": "Feature", "properties": {"collection_times": [{"days": "Mon-Fri", "time": "5:00pm"}, {"days": "Sat", "time": "1:00pm"}, {"days": "Sun", "time": "Closed"}], "id": "9702700013", "name": "USPS COLLECTION BOX - BLUE BOX", "address": {"city": "GLADSTONE", "state": "OR", "street": "605 PORTLAND AVE", "postcode": "97027"}}},
{"geometry": {"type": "Point", "coordinates": [-122.5951629462, 45.381102679]}, "type": "Feature", "properties": {"collection_times": [{"days": "Mon-Fri", "time": "5:00pm"}, {"days": "Sat", "time": "1:00pm"}, {"days": "Sun", "time": "Closed"}], "id": "9702700014", "name": "USPS COLLECTION BOX - BLUE BOX", "address": {"city": "GLADSTONE", "state": "OR", "street": "605 PORTLAND AVE", "postcode": "97027"}}},
{"geometry": {"type": "Point", "coordinates": [-122.5951629462, 45.381102679]}, "type": "Feature", "properties": {"collection_times": [{"days": "Mon-Fri", "time": "5:00pm"}, {"days": "Sat", "time": "1:00pm"}, {"days": "Sun", "time": "Closed"}], "id": "9702700016", "name": "USPS COLLECTION BOX - PO LOBBY", "address": {"city": "GLADSTONE", "state": "OR", "street": "605 PORTLAND AVE", "postcode": "97027"}}},
{"geometry": {"type": "Point", "coordinates": [-121.756191776, 45.3040885942]}, "type": "Feature", "properties": {"collection_times": [{"days": "Mon-Fri", "time": "4:00pm"}, {"days": "Sat", "time": "3:00pm"}, {"days": "Sun", "time": "Closed"}], "id": "9702800001", "name": "USPS COLLECTION BOX - BLUE BOX", "address": {"city": "GOVERNMENT CAMP", "state": "OR", "street": "88331 E GOVERNMENT CAMP LOOP", "postcode": "97028"}}},
{"geometry": {"type": "Point", "coordinates": [-121.756191776, 45.3040885942]}, "type": "Feature", "properties": {"collection_times": [{"days": "Mon-Fri", "time": "4:00pm"}, {"days": "Sat", "time": "8:00am"}, {"days": "Sun", "time": "Closed"}], "id": "9702800002", "name": "USPS COLLECTION BOX - PO LOBBY", "address": {"city": "GOVERNMENT CAMP", "state": "OR", "street": "88331 E GOVERNMENT CAMP LOOP", "postcode": "97028"}}},
{"geometry": {"type": "Point", "coordinates": [-120.7942246143, 45.2818284354]}, "type": "Feature", "properties": {"collection_times": [{"days": "Mon-Fri", "time": "2:45pm"}, {"days": "Sat", "time": "9:45am"}, {"days": "Sun", "time": "Closed"}], "id": "9702900003", "name": "USPS COLLECTION BOX - BLUE BOX", "address": {"city": "GRASS VALLEY", "state": "OR", "street": "114 N MILL ST", "postcode": "97029"}}},
{"geometry": {"type": "Point", "coordinates": [-120.7942246143, 45.2818284354]}, "type": "Feature", "properties": {"collection_times": [{"days": "Mon-Fri", "time": "1:00pm"}, {"days": "Sat", "time": "9:45am"}, {"days": "Sun", "time": "Closed"}], "id": "9702900004", "name": "USPS COLLECTION BOX - PO LOBBY", "address": {"city": "GRASS VALLEY", "state": "OR", "street": "114 N MILL ST", "postcode": "97029"}}},
{"geometry": {"type": "Point", "coordinates": [-120.7942246143, 45.2818284354]}, "type": "Feature", "properties": {"collection_times": [{"days": "Mon-Fri", "time": "1:00pm"}, {"days": "Sat", "time": "9:45am"}, {"days": "Sun", "time": "Closed"}], "id": "9702900005", "name": "USPS COLLECTION BOX - PO LOBBY", "address": {"city": "GRASS VALLEY", "state": "OR", "street": "114 N MILL ST", "postcode": "97029"}}},
{"geometry": {"type": "Point", "coordinates": [-122.4295530644, 45.4989750612]}, "type": "Feature", "properties": {"collection_times": [{"days": "Mon-Fri", "time": "5:15pm"}, {"days": "Sat", "time": "3:15pm"}, {"days": "Sun", "time": "Closed"}], "id": "9703000001", "name": "USPS COLLECTION BOX - BLUE BOX", "address": {"city": "GRESHAM", "state": "OR", "street": "100 NE ROBERTS AVE", "postcode": "97030"}}},
{"geometry": {"type": "Point", "coordinates": [-122.4279410498, 45.5014723026]}, "type": "Feature", "properties": {"collection_times": [{"days": "Mon-Fri", "time": "5:15pm"}, {"days": "Sat", "time": "3:15pm"}, {"days": "Sun", "time": "Closed"}], "id": "9703000004", "name": "USPS COLLECTION BOX - BLUE BOX", "address": {"city": "GRESHAM", "state": "OR", "street": "501 NE HOOD AVE", "postcode": "97030"}}},
{"geometry": {"type": "Point", "coordinates": [-122.4328775376, 45.4975318663]}, "type": "Feature", "properties": {"collection_times": [{"days": "Mon-Fri", "time": "5:30pm"}, {"days": "Sat", "time": "4:00pm"}, {"days": "Sun", "time": "Closed"}], "id": "9703000005", "name": "USPS COLLECTION BOX - BLUE BOX", "address": {"city": "GRESHAM", "state": "OR", "street": "103 W POWELL BLVD", "postcode": "97030"}}},
{"geometry": {"type": "Point", "coordinates": [-122.4328775376, 45.4975318663]}, "type": "Feature", "properties": {"collection_times": [{"days": "Mon-Fri", "time": "5:30pm"}, {"days": "Sat", "time": "4:00pm"}, {"days": "Sun", "time": "Closed"}], "id": "9703000006", "name": "USPS COLLECTION BOX - BLUE BOX", "address": {"city": "GRESHAM", "state": "OR", "street": "103 W POWELL BLVD", "postcode": "97030"}}},
{"geometry": {"type": "Point", "coordinates": [-122.4328775376, 45.4975318663]}, "type": "Feature", "properties": {"collection_times": [{"days": "Mon-Fri", "time": "5:30pm"}, {"days": "Sat", "time": "4:00pm"}, {"days": "Sun", "time": "Closed"}], "id": "9703000007", "name": "USPS COLLECTION BOX - BLUE BOX", "address": {"city": "GRESHAM", "state": "OR", "street": "103 W POWELL BLVD", "postcode": "97030"}}},
{"geometry": {"type": "Point", "coordinates": [-122.4328775376, 45.4975318663]}, "type": "Feature", "properties": {"collection_times": [{"days": "Mon-Fri", "time": "5:30pm"}, {"days": "Sat", "time": "4:00pm"}, {"days": "Sun", "time": "Closed"}], "id": "9703000008", "name": "USPS COLLECTION BOX - BLUE BOX", "address": {"city": "GRESHAM", "state": "OR", "street": "103 W POWELL BLVD", "postcode": "97030"}}},
{"geometry": {"type": "Point", "coordinates": [-122.4328775376, 45.4975318663]}, "type": "Feature", "properties": {"collection_times": [{"days": "Mon-Fri", "time": "5:30pm"}, {"days": "Sat", "time": "4:00pm"}, {"days": "Sun", "time": "Closed"}], "id": "9703000009", "name": "USPS COLLECTION BOX - BLUE BOX", "address": {"city": "GRESHAM", "state": "OR", "street": "103 W POWELL BLVD", "postcode": "97030"}}},
{"geometry": {"type": "Point", "coordinates": [-122.4154666903, 45.5048768583]}, "type": "Feature", "properties": {"collection_times": [{"days": "Mon-Fri", "time": "5:15pm"}, {"days": "Sat", "time": "3:15pm"}, {"days": "Sun", "time": "Closed"}], "id": "9703000010", "name": "USPS COLLECTION BOX - BLUE BOX", "address": {"city": "GRESHAM", "state": "OR", "street": "1565 NE DIVISION ST", "postcode": "97030"}}},
{"geometry": {"type": "Point", "coordinates": [-122.4123812639, 45.5172940549]}, "type": "Feature", "properties": {"collection_times": [{"days": "Mon-Fri", "time": "5:00pm"}, {"days": "Sat", "time": "3:00pm"}, {"days": "Sun", "time": "Closed"}], "id": "9703000012", "name": "USPS COLLECTION BOX - BLUE BOX", "address": {"city": "GRESHAM", "state": "OR", "street": "2840 NE HOGAN DR", "postcode": "97030"}}},
{"geometry": {"type": "Point", "coordinates": [-122.4328775376, 45.4975318663]}, "type": "Feature", "properties": {"collection_times": [{"days": "Mon-Fri", "time": "5:30pm"}, {"days": "Sat", "time": "4:00pm"}, {"days": "Sun", "time": "Closed"}], "id": "9703000022", "name": "USPS COLLECTION BOX - BLUE BOX", "address": {"city": "GRESHAM", "state": "OR", "street": "103 W POWELL BLVD", "postcode": "97030"}}},
{"geometry": {"type": "Point", "coordinates": [-122.4024075573, 45.5048590751]}, "type": "Feature", "properties": {"collection_times": [{"days": "Mon-Fri", "time": "5:15pm"}, {"days": "Sat", "time": "3:15pm"}, {"days": "Sun", "time": "Closed"}], "id": "9703000024", "name": "USPS COLLECTION BOX - BLUE BOX", "address": {"city": "GRESHAM", "state": "OR", "street": "2985 NE DIVISION ST", "postcode": "97030"}}},
{"geometry": {"type": "Point", "coordinates": [-122.4343171987, 45.509763662]}, "type": "Feature", "properties": {"collection_times": [{"days": "Mon-Fri", "time": "5:00pm"}, {"days": "Sat", "time": "3:00pm"}, {"days": "Sun", "time": "Closed"}], "id": "9703000027", "name": "USPS COLLECTION BOX - BLUE BOX", "address": {"city": "GRESHAM", "state": "OR", "street": "390 NW BURNSIDE RD", "postcode": "97030"}}},
{"geometry": {"type": "Point", "coordinates": [-122.4322279246, 45.5072189122]}, "type": "Feature", "properties": {"collection_times": [{"days": "Mon-Fri", "time": "5:30pm"}, {"days": "Sat", "time": "4:00pm"}, {"days": "Sun", "time": "Closed"}], "id": "9703000029", "name": "USPS COLLECTION BOX - EXPRESS", "address": {"city": "GRESHAM", "state": "OR", "street": "103 W POWELL BLVD", "postcode": "97030"}}},
{"geometry": {"type": "Point", "coordinates": [-122.4068441597, 45.5190534387]}, "type": "Feature", "properties": {"collection_times": [{"days": "Mon-Fri", "time": "5:15pm"}, {"days": "Sat", "time": "3:15pm"}, {"days": "Sun", "time": "Closed"}], "id": "9703000030", "name": "USPS COLLECTION BOX - BLUE BOX", "address": {"city": "GRESHAM", "state": "OR", "street": "24900 SE STARK ST", "postcode": "97030"}}},
{"geometry": {"type": "Point", "coordinates": [-122.4328775376, 45.4975318663]}, "type": "Feature", "properties": {"collection_times": [{"days": "Mon-Fri", "time": "5:30pm"}, {"days": "Sat", "time": "4:00pm"}, {"days": "Sun", "time": "Closed"}], "id": "9703000031", "name": "USPS COLLECTION BOX - PO LOBBY", "address": {"city": "GRESHAM", "state": "OR", "street": "103 W POWELL BLVD", "postcode": "97030"}}},
{"geometry": {"type": "Point", "coordinates": [-122.4343171987, 45.509763662]}, "type": "Feature", "properties": {"collection_times": [{"days": "Mon-Fri", "time": "5:00pm"}, {"days": "Sat", "time": "3:00pm"}, {"days": "Sun", "time": "Closed"}], "id": "9703000032", "name": "USPS COLLECTION BOX - BLUE BOX", "address": {"city": "GRESHAM", "state": "OR", "street": "390 NW BURNSIDE RD", "postcode": "97030"}}},
{"geometry": {"type": "Point", "coordinates": [-122.4328775376, 45.4975318663]}, "type": "Feature", "properties": {"collection_times": [{"days": "Mon-Fri", "time": "5:30pm"}, {"days": "Sat", "time": "4:00pm"}, {"days": "Sun", "time": "Closed"}], "id": "9703000033", "name": "USPS COLLECTION BOX - APC", "address": {"city": "GRESHAM", "state": "OR", "street": "103 W POWELL BLVD", "postcode": "97030"}}},
{"geometry": {"type": "Point", "coordinates": [-122.4328775376, 45.4975318663]}, "type": "Feature", "properties": {"collection_times": [{"days": "Mon-Fri", "time": "5:00pm"}, {"days": "Sat", "time": "3:00pm"}, {"days": "Sun", "time": "Closed"}], "id": "9703000034", "name": "USPS COLLECTION BOX - BLUE BOX", "address": {"city": "GRESHAM", "state": "OR", "street": "150 W POWELL BLVD", "postcode": "97030"}}},
{"geometry": {"type": "Point", "coordinates": [-122.4328775376, 45.4975318663]}, "type": "Feature", "properties": {"collection_times": [{"days": "Mon-Fri", "time": "5:00pm"}, {"days": "Sat", "time": "3:00pm"}, {"days": "Sun", "time": "Closed"}], "id": "9703000035", "name": "USPS COLLECTION BOX - BLUE BOX", "address": {"city": "GRESHAM", "state": "OR", "street": "150 W POWELL BLVD", "postcode": "97030"}}},
{"geometry": {"type": "Point", "coordinates": [-122.4334830043, 45.4973517745]}, "type": "Feature", "properties": {"collection_times": [{"days": "Mon-Fri", "time": "5:00pm"}, {"days": "Sat", "time": "3:00pm"}, {"days": "Sun", "time": "Closed"}], "id": "9703000036", "name": "USPS COLLECTION BOX - BLUE BOX", "address": {"city": "GRESHAM", "state": "OR", "street": "150 W POWELL BLVD", "postcode": "97030"}}},
{"geometry": {"type": "Point", "coordinates": [-121.5237909425, 45.7021443777]}, "type": "Feature", "properties": {"collection_times": [{"days": "Mon-Fri", "time": "4:45pm"}, {"days": "Sat", "time": "4:30pm"}, {"days": "Sun", "time": "Closed"}], "id": "9703100001", "name": "USPS COLLECTION BOX - BLUE BOX", "address": {"city": "HOOD RIVER", "state": "OR", "street": "1108 12TH ST", "postcode": "97031"}}},
{"geometry": {"type": "Point", "coordinates": [-121.512330067, 45.7089637839]}, "type": "Feature", "properties": {"collection_times": [{"days": "Mon-Fri", "time": "4:45pm"}, {"days": "Sat", "time": "4:30pm"}, {"days": "Sun", "time": "Closed"}], "id": "9703100004", "name": "USPS COLLECTION BOX - BLUE BOX", "address": {"city": "HOOD RIVER", "state": "OR", "street": "202 OAK ST", "postcode": "97031"}}},
{"geometry": {"type": "Point", "coordinates": [-121.5237582064, 45.6939754851]}, "type": "Feature", "properties": {"collection_times": [{"days": "Mon-Sat", "time": "4:30pm"}, {"days": "Sun", "time": "Closed"}], "id": "9703100005", "name": "USPS COLLECTION BOX - BLUE BOX", "address": {"city": "HOOD RIVER", "state": "OR", "street": "2000 12TH ST", "postcode": "97031"}}},
{"geometry": {"type": "Point", "coordinates": [-121.5144203148, 45.7081229059]}, "type": "Feature", "properties": {"collection_times": [{"days": "Mon-Fri", "time": "4:45pm"}, {"days": "Sat-Sun", "time": "Closed"}], "id": "9703100006", "name": "USPS COLLECTION BOX - BLUE BOX", "address": {"city": "HOOD RIVER", "state": "OR", "street": "401 STATE ST", "postcode": "97031"}}},
{"geometry": {"type": "Point", "coordinates": [-121.5134385889, 45.7088505134]}, "type": "Feature", "properties": {"collection_times": [{"days": "Mon-Fri", "time": "4:45pm"}, {"days": "Sat", "time": "4:30pm"}, {"days": "Sun", "time": "Closed"}], "id": "9703100007", "name": "USPS COLLECTION BOX - BLUE BOX", "address": {"city": "HOOD RIVER", "state": "OR", "street": "305 OAK ST", "postcode": "97031"}}},
{"geometry": {"type": "Point", "coordinates": [-121.5143792745, 45.7096170492]}, "type": "Feature", "properties": {"collection_times": [{"days": "Mon-Sat", "time": "5:30pm"}, {"days": "Sun", "time": "Closed"}], "id": "9703100008", "name": "USPS COLLECTION BOX - BLUE BOX", "address": {"city": "HOOD RIVER", "state": "OR", "street": "408 CASCADE AVE", "postcode": "97031"}}},
{"geometry": {"type": "Point", "coordinates": [-121.4998507531, 45.7114306248]}, "type": "Feature", "properties": {"collection_times": [{"days": "Mon-Sat", "time": "4:15pm"}, {"days": "Sun", "time": "Closed"}], "id": "9703100010", "name": "USPS COLLECTION BOX - BLUE BOX", "address": {"city": "HOOD RIVER", "state": "OR", "street": "1040 E MARINA WAY", "postcode": "97031"}}},
{"geometry": {"type": "Point", "coordinates": [-121.5339683203, 45.709740672]}, "type": "Feature", "properties": {"collection_times": [{"days": "Mon-Sat", "time": "4:15pm"}, {"days": "Sun", "time": "Closed"}], "id": "9703100012", "name": "USPS COLLECTION BOX - BLUE BOX", "address": {"city": "HOOD RIVER", "state": "OR", "street": "2249 CASCADE AVE", "postcode": "97031"}}},
{"geometry": {"type": "Point", "coordinates": [-121.5236339662, 45.7008991414]}, "type": "Feature", "properties": {"collection_times": [{"days": "Mon-Fri", "time": "4:45pm"}, {"days": "Sat", "time": "4:30pm"}, {"days": "Sun", "time": "Closed"}], "id": "9703100014", "name": "USPS COLLECTION BOX - BLUE BOX", "address": {"city": "HOOD RIVER", "state": "OR", "street": "1309 12TH ST", "postcode": "97031"}}},
{"geometry": {"type": "Point", "coordinates": [-121.5237582064, 45.6939754851]}, "type": "Feature", "properties": {"collection_times": [{"days": "Mon-Sat", "time": "4:30pm"}, {"days": "Sun", "time": "Closed"}], "id": "9703100016", "name": "USPS COLLECTION BOX - BLUE BOX", "address": {"city": "HOOD RIVER", "state": "OR", "street": "2000 12TH ST", "postcode": "97031"}}},
{"geometry": {"type": "Point", "coordinates": [-121.5145050978, 45.7096819455]}, "type": "Feature", "properties": {"collection_times": [{"days": "Mon-Sat", "time": "5:30pm"}, {"days": "Sun", "time": "Closed"}], "id": "9703100017", "name": "USPS COLLECTION BOX - BLUE BOX", "address": {"city": "HOOD RIVER", "state": "OR", "street": "408 CASCADE AVE", "postcode": "97031"}}},
{"geometry": {"type": "Point", "coordinates": [-121.5145050978, 45.7096819455]}, "type": "Feature", "properties": {"collection_times": [{"days": "Mon-Sat", "time": "5:30pm"}, {"days": "Sun", "time": "Closed"}], "id": "9703100018", "name": "USPS COLLECTION BOX - PO LOBBY", "address": {"city": "HOOD RIVER", "state": "OR", "street": "408 CASCADE AVE", "postcode": "97031"}}},
{"geometry": {"type": "Point", "coordinates": [-121.5145050978, 45.7096819455]}, "type": "Feature", "properties": {"collection_times": [{"days": "Mon-Sat", "time": "5:30pm"}, {"days": "Sun", "time": "Closed"}], "id": "9703100019", "name": "USPS COLLECTION BOX - PO LOBBY", "address": {"city": "HOOD RIVER", "state": "OR", "street": "408 CASCADE AVE", "postcode": "97031"}}},
{"geometry": {"type": "Point", "coordinates": [-121.5237909425, 45.7021443777]}, "type": "Feature", "properties": {"collection_times": [{"days": "Mon-Fri", "time": "4:45pm"}, {"days": "Sat", "time": "4:30pm"}, {"days": "Sun", "time": "Closed"}], "id": "9703100022", "name": "USPS COLLECTION BOX - BLUE BOX", "address": {"city": "HOOD RIVER", "state": "OR", "street": "1108 12TH ST", "postcode": "97031"}}},
{"geometry": {"type": "Point", "coordinates": [-121.5165397319, 45.7081142523]}, "type": "Feature", "properties": {"collection_times": [{"days": "Mon-Fri", "time": "4:45pm"}, {"days": "Sat", "time": "4:30pm"}, {"days": "Sun", "time": "Closed"}], "id": "9703100023", "name": "USPS COLLECTION BOX - BLUE BOX", "address": {"city": "HOOD RIVER", "state": "OR", "street": "601 STATE ST", "postcode": "97031"}}},
{"geometry": {"type": "Point", "coordinates": [-122.8072483624, 45.1798305805]}, "type": "Feature", "properties": {"collection_times": [{"days": "Mon-Fri", "time": "4:30pm"}, {"days": "Sat", "time": "10:00am"}, {"days": "Sun", "time": "Closed"}], "id": "9703200001", "name": "USPS COLLECTION BOX - BLUE BOX", "address": {"city": "HUBBARD", "state": "OR", "street": "3016 G ST", "postcode": "97032"}}},
{"geometry": {"type": "Point", "coordinates": [-122.8072483624, 45.1798305805]}, "type": "Feature", "properties": {"collection_times": [{"days": "Mon-Fri", "time": "4:30pm"}, {"days": "Sat", "time": "10:00am"}, {"days": "Sun", "time": "Closed"}], "id": "9703200002", "name": "USPS COLLECTION BOX - PO LOBBY", "address": {"city": "HUBBARD", "state": "OR", "street": "3016 G ST", "postcode": "97032"}}},
{"geometry": {"type": "Point", "coordinates": [-120.6888596428, 45.1936659353]}, "type": "Feature", "properties": {"collection_times": [{"days": "Mon-Fri", "time": "2:30pm"}, {"days": "Sat", "time": "10:00am"}, {"days": "Sun", "time": "Closed"}], "id": "9703300001", "name": "USPS COLLECTION BOX - BLUE BOX", "address": {"city": "KENT", "state": "OR", "street": "95097 DOBIE POINT LN", "postcode": "97033"}}},
{"geometry": {"type": "Point", "coordinates": [-120.6888596428, 45.1936659353]}, "type": "Feature", "properties": {"collection_times": [{"days": "Mon-Fri", "time": "12:00pm"}, {"days": "Sat", "time": "10:00am"}, {"days": "Sun", "time": "Closed"}], "id": "9703300002", "name": "USPS COLLECTION BOX - PO LOBBY", "address": {"city": "KENT", "state": "OR", "street": "95097 DOBIE POINT LN", "postcode": "97033"}}},
{"geometry": {"type": "Point", "coordinates": [-122.6676168169, 45.4214309331]}, "type": "Feature", "properties": {"collection_times": [{"days": "Mon-Fri", "time": "5:30pm"}, {"days": "Sat", "time": "4:00pm"}, {"days": "Sun", "time": "Closed"}], "id": "9703400014", "name": "USPS COLLECTION BOX - BLUE BOX", "address": {"city": "LAKE OSWEGO", "state": "OR", "street": "501 4TH ST", "postcode": "97034"}}},
{"geometry": {"type": "Point", "coordinates": [-122.6676168169, 45.4214309331]}, "type": "Feature", "properties": {"collection_times": [{"days": "Mon-Fri", "time": "5:30pm"}, {"days": "Sat", "time": "4:00pm"}, {"days": "Sun", "time": "Closed"}], "id": "9703400015", "name": "USPS COLLECTION BOX - BLUE BOX", "address": {"city": "LAKE OSWEGO", "state": "OR", "street": "501 4TH ST", "postcode": "97034"}}},
{"geometry": {"type": "Point", "coordinates": [-122.6676168169, 45.4214309331]}, "type": "Feature", "properties": {"collection_times": [{"days": "Mon-Fri", "time": "5:30pm"}, {"days": "Sat", "time": "4:00pm"}, {"days": "Sun", "time": "Closed"}], "id": "9703400016", "name": "USPS COLLECTION BOX - BLUE BOX", "address": {"city": "LAKE OSWEGO", "state": "OR", "street": "501 4TH ST", "postcode": "97034"}}},
{"geometry": {"type": "Point", "coordinates": [-122.6676168169, 45.4214309331]}, "type": "Feature", "properties": {"collection_times": [{"days": "Mon-Fri", "time": "5:30pm"}, {"days": "Sat", "time": "4:00pm"}, {"days": "Sun", "time": "Closed"}], "id": "9703400017", "name": "USPS COLLECTION BOX - BLUE BOX", "address": {"city": "LAKE OSWEGO", "state": "OR", "street": "501 4TH ST", "postcode": "97034"}}},
{"geometry": {"type": "Point", "coordinates": [-122.6676168169, 45.4214309331]}, "type": "Feature", "properties": {"collection_times": [{"days": "Mon-Fri", "time": "5:30pm"}, {"days": "Sat", "time": "4:00pm"}, {"days": "Sun", "time": "Closed"}], "id": "9703400018", "name": "USPS COLLECTION BOX - BLUE BOX", "address": {"city": "LAKE OSWEGO", "state": "OR", "street": "501 4TH ST", "postcode": "97034"}}},
{"geometry": {"type": "Point", "coordinates": [-122.6676168169, 45.4214309331]}, "type": "Feature", "properties": {"collection_times": [{"days": "Mon-Fri", "time": "5:30pm"}, {"days": "Sat", "time": "4:00pm"}, {"days": "Sun", "time": "Closed"}], "id": "9703400019", "name": "USPS COLLECTION BOX - BLUE BOX", "address": {"city": "LAKE OSWEGO", "state": "OR", "street": "501 4TH ST", "postcode": "97034"}}},
{"geometry": {"type": "Point", "coordinates": [-122.6808578293, 45.4093476633]}, "type": "Feature", "properties": {"collection_times": [{"days": "Mon-Fri", "time": "5:00pm"}, {"days": "Sat", "time": "1:00pm"}, {"days": "Sun", "time": "Closed"}], "id": "9703400025", "name": "USPS COLLECTION BOX - BLUE BOX", "address": {"city": "LAKE OSWEGO", "state": "OR", "street": "5 NORTHSHORE RD", "postcode": "97034"}}},
{"geometry": {"type": "Point", "coordinates": [-122.6772307244, 45.4066782518]}, "type": "Feature", "properties": {"collection_times": [{"days": "Mon-Fri", "time": "5:00pm"}, {"days": "Sat", "time": "3:00pm"}, {"days": "Sun", "time": "Closed"}], "id": "9703400026", "name": "USPS COLLECTION BOX - BLUE BOX", "address": {"city": "LAKE OSWEGO", "state": "OR", "street": "1377 MCVEY AVE", "postcode": "97034"}}},
{"geometry": {"type": "Point", "coordinates": [-122.7333313758, 45.3972675092]}, "type": "Feature", "properties": {"collection_times": [{"days": "Mon-Fri", "time": "2:00pm"}, {"days": "Sat", "time": "1:00pm"}, {"days": "Sun", "time": "Closed"}], "id": "9703400049", "name": "USPS COLLECTION BOX - BLUE BOX", "address": {"city": "LAKE OSWEGO", "state": "OR", "street": "17780 PILKINGTON RD", "postcode": "97034"}}},
{"geometry": {"type": "Point", "coordinates": [-122.6676168169, 45.4214309331]}, "type": "Feature", "properties": {"collection_times": [{"days": "Mon-Fri", "time": "5:30pm"}, {"days": "Sat", "time": "4:00pm"}, {"days": "Sun", "time": "Closed"}], "id": "9703400059", "name": "USPS COLLECTION BOX - PO LOBBY", "address": {"city": "LAKE OSWEGO", "state": "OR", "street": "501 4TH ST", "postcode": "97034"}}},
{"geometry": {"type": "Point", "coordinates": [-122.7439572688, 45.4006581341]}, "type": "Feature", "properties": {"collection_times": [{"days": "Mon-Fri", "time": "3:00pm"}, {"days": "Sat", "time": "1:00pm"}, {"days": "Sun", "time": "Closed"}], "id": "9703400071", "name": "USPS COLLECTION BOX - BLUE BOX", "address": {"city": "LAKE OSWEGO", "state": "OR", "street": "16829 65TH AVE", "postcode": "97034"}}},
{"geometry": {"type": "Point", "coordinates": [-122.6772307244, 45.4066782518]}, "type": "Feature", "properties": {"collection_times": [{"days": "Mon-Fri", "time": "5:00pm"}, {"days": "Sat", "time": "3:00pm"}, {"days": "Sun", "time": "Closed"}], "id": "9703400075", "name": "USPS COLLECTION BOX - BLUE BOX", "address": {"city": "LAKE OSWEGO", "state": "OR", "street": "1377 MCVEY AVE", "postcode": "97034"}}},
{"geometry": {"type": "Point", "coordinates": [-122.6676168169, 45.4214309331]}, "type": "Feature", "properties": {"collection_times": [{"days": "Mon-Fri", "time": "5:30pm"}, {"days": "Sat", "time": "4:00pm"}, {"days": "Sun", "time": "Closed"}], "id": "9703400076", "name": "USPS COLLECTION BOX - APC", "address": {"city": "LAKE OSWEGO", "state": "OR", "street": "501 4TH ST", "postcode": "97034"}}},
{"geometry": {"type": "Point", "coordinates": [-122.7475067533, 45.4057793893]}, "type": "Feature", "properties": {"collection_times": [{"days": "Mon-Fri", "time": "5:00pm"}, {"days": "Sat-Sun", "time": "Closed"}], "id": "9703500000", "name": "USPS COLLECTION BOX - BLUE BOX", "address": {"city": "LAKE OSWEGO", "state": "OR", "street": "15800 UPPER BOONES FERRY RD", "postcode": "97035"}}},
{"geometry": {"type": "Point", "coordinates": [-122.7397619353, 45.4225677566]}, "type": "Feature", "properties": {"collection_times": [{"days": "Mon-Fri", "time": "5:30pm"}, {"days": "Sat-Sun", "time": "Closed"}], "id": "9703500004", "name": "USPS COLLECTION BOX - BLUE BOX", "address": {"city": "LAKE OSWEGO", "state": "OR", "street": "5 CENTERPOINTE DR", "postcode": "97035"}}},
{"geometry": {"type": "Point", "coordinates": [-122.7397619353, 45.4225677566]}, "type": "Feature", "properties": {"collection_times": [{"days": "Mon-Fri", "time": "5:30pm"}, {"days": "Sat-Sun", "time": "Closed"}], "id": "9703500005", "name": "USPS COLLECTION BOX - BLUE BOX", "address": {"city": "LAKE OSWEGO", "state": "OR", "street": "5 CENTERPOINTE DR", "postcode": "97035"}}},
{"geometry": {"type": "Point", "coordinates": [-122.7177103972, 45.417628903]}, "type": "Feature", "properties": {"collection_times": [{"days": "Mon-Fri", "time": "4:30pm"}, {"days": "Sat-Sun", "time": "Closed"}], "id": "9703500006", "name": "USPS COLLECTION BOX - BLUE BOX", "address": {"city": "LAKE OSWEGO", "state": "OR", "street": "4000 KRUSE WAY PL", "postcode": "97035"}}},
{"geometry": {"type": "Point", "coordinates": [-122.7177588985, 45.4147413001]}, "type": "Feature", "properties": {"collection_times": [{"days": "Mon-Fri", "time": "4:30pm"}, {"days": "Sat", "time": "1:00pm"}, {"days": "Sun", "time": "Closed"}], "id": "9703500007", "name": "USPS COLLECTION BOX - BLUE BOX", "address": {"city": "LAKE OSWEGO", "state": "OR", "street": "3975 MERCANTILE DR", "postcode": "97035"}}},
{"geometry": {"type": "Point", "coordinates": [-122.7037467494, 45.4323863165]}, "type": "Feature", "properties": {"collection_times": [{"days": "Mon-Fri", "time": "4:45pm"}, {"days": "Sat", "time": "1:00pm"}, {"days": "Sun", "time": "Closed"}], "id": "9703500008", "name": "USPS COLLECTION BOX - BLUE BOX", "address": {"city": "LAKE OSWEGO", "state": "OR", "street": "3 MONROE PKWY", "postcode": "97035"}}},
{"geometry": {"type": "Point", "coordinates": [-122.7238120995, 45.4082622339]}, "type": "Feature", "properties": {"collection_times": [{"days": "Mon-Fri", "time": "5:00pm"}, {"days": "Sat", "time": "1:00pm"}, {"days": "Sun", "time": "Closed"}], "id": "9703500009", "name": "USPS COLLECTION BOX - BLUE BOX", "address": {"city": "LAKE OSWEGO", "state": "OR", "street": "16325 BOONES FERRY RD", "postcode": "97035"}}},
{"geometry": {"type": "Point", "coordinates": [-122.7333053452, 45.4176596599]}, "type": "Feature", "properties": {"collection_times": [{"days": "Mon-Fri", "time": "5:30pm"}, {"days": "Sat-Sun", "time": "Closed"}], "id": "9703500010", "name": "USPS COLLECTION BOX - BLUE BOX", "address": {"city": "LAKE OSWEGO", "state": "OR", "street": "5335 MEADOWS RD", "postcode": "97035"}}},
{"geometry": {"type": "Point", "coordinates": [-122.7269061976, 45.4136188038]}, "type": "Feature", "properties": {"collection_times": [{"days": "Mon-Fri", "time": "5:30pm"}, {"days": "Sat-Sun", "time": "Closed"}], "id": "9703500011", "name": "USPS COLLECTION BOX - EXPRESS", "address": {"city": "LAKE OSWEGO", "state": "OR", "street": "5335 MEADOWS RD", "postcode": "97035"}}},
{"geometry": {"type": "Point", "coordinates": [-122.7333053452, 45.4176596599]}, "type": "Feature", "properties": {"collection_times": [{"days": "Mon-Fri", "time": "5:30pm"}, {"days": "Sat-Sun", "time": "Closed"}], "id": "9703500012", "name": "USPS COLLECTION BOX - BLUE BOX", "address": {"city": "LAKE OSWEGO", "state": "OR", "street": "5335 MEADOWS RD", "postcode": "97035"}}},
{"geometry": {"type": "Point", "coordinates": [-122.7232158882, 45.418089074]}, "type": "Feature", "properties": {"collection_times": [{"days": "Mon-Fri", "time": "5:00pm"}, {"days": "Sat-Sun", "time": "Closed"}], "id": "9703500014", "name": "USPS COLLECTION BOX - BLUE BOX", "address": {"city": "LAKE OSWEGO", "state": "OR", "street": "4500 KRUSE WAY", "postcode": "97035"}}},
{"geometry": {"type": "Point", "coordinates": [-122.7232158882, 45.418089074]}, "type": "Feature", "properties": {"collection_times": [{"days": "Mon-Fri", "time": "5:00pm"}, {"days": "Sat-Sun", "time": "Closed"}], "id": "9703500015", "name": "USPS COLLECTION BOX - BLUE BOX", "address": {"city": "LAKE OSWEGO", "state": "OR", "street": "4500 KRUSE WAY", "postcode": "97035"}}},
{"geometry": {"type": "Point", "coordinates": [-122.7188779777, 45.4108671095]}, "type": "Feature", "properties": {"collection_times": [{"days": "Mon-Fri", "time": "5:30pm"}, {"days": "Sat", "time": "4:00pm"}, {"days": "Sun", "time": "Closed"}], "id": "9703500016", "name": "USPS COLLECTION BOX - BLUE BOX", "address": {"city": "LAKE OSWEGO", "state": "OR", "street": "15875 BOONES FERRY RD", "postcode": "97035"}}},
{"geometry": {"type": "Point", "coordinates": [-122.7188779777, 45.4108671095]}, "type": "Feature", "properties": {"collection_times": [{"days": "Mon-Fri", "time": "5:30pm"}, {"days": "Sat", "time": "4:00pm"}, {"days": "Sun", "time": "Closed"}], "id": "9703500017", "name": "USPS COLLECTION BOX - BLUE BOX", "address": {"city": "LAKE OSWEGO", "state": "OR", "street": "15875 BOONES FERRY RD", "postcode": "97035"}}},
{"geometry": {"type": "Point", "coordinates": [-122.7188779777, 45.4108671095]}, "type": "Feature", "properties": {"collection_times": [{"days": "Mon-Fri", "time": "5:30pm"}, {"days": "Sat", "time": "4:00pm"}, {"days": "Sun", "time": "Closed"}], "id": "9703500018", "name": "USPS COLLECTION BOX - BLUE BOX", "address": {"city": "LAKE OSWEGO", "state": "OR", "street": "15875 BOONES FERRY RD", "postcode": "97035"}}},
{"geometry": {"type": "Point", "coordinates": [-122.7188779777, 45.4108671095]}, "type": "Feature", "properties": {"collection_times": [{"days": "Mon-Fri", "time": "5:30pm"}, {"days": "Sat", "time": "4:00pm"}, {"days": "Sun", "time": "Closed"}], "id": "9703500019", "name": "USPS COLLECTION BOX - BLUE BOX", "address": {"city": "LAKE OSWEGO", "state": "OR", "street": "15875 BOONES FERRY RD", "postcode": "97035"}}},
{"geometry": {"type": "Point", "coordinates": [-122.7188779777, 45.4108671095]}, "type": "Feature", "properties": {"collection_times": [{"days": "Mon-Fri", "time": "5:30pm"}, {"days": "Sat", "time": "4:00pm"}, {"days": "Sun", "time": "Closed"}], "id": "9703500020", "name": "USPS COLLECTION BOX - BLUE BOX", "address": {"city": "LAKE OSWEGO", "state": "OR", "street": "15875 BOONES FERRY RD", "postcode": "97035"}}},
{"geometry": {"type": "Point", "coordinates": [-122.7188779777, 45.4108671095]}, "type": "Feature", "properties": {"collection_times": [{"days": "Mon-Fri", "time": "5:30pm"}, {"days": "Sat", "time": "4:00pm"}, {"days": "Sun", "time": "Closed"}], "id": "9703500021", "name": "USPS COLLECTION BOX - BLUE BOX", "address": {"city": "LAKE OSWEGO", "state": "OR", "street": "15875 BOONES FERRY RD", "postcode": "97035"}}},
{"geometry": {"type": "Point", "coordinates": [-122.7333053452, 45.4176596599]}, "type": "Feature", "properties": {"collection_times": [{"days": "Mon-Fri", "time": "5:30pm"}, {"days": "Sat-Sun", "time": "Closed"}], "id": "9703500022", "name": "USPS COLLECTION BOX - BLUE BOX", "address": {"city": "LAKE OSWEGO", "state": "OR", "street": "5335 MEADOWS RD", "postcode": "97035"}}},
{"geometry": {"type": "Point", "coordinates": [-122.7269061976, 45.4136188038]}, "type": "Feature", "properties": {"collection_times": [{"days": "Mon-Fri", "time": "5:30pm"}, {"days": "Sat", "time": "4:00pm"}, {"days": "Sun", "time": "Closed"}], "id": "9703500023", "name": "USPS COLLECTION BOX - EXPRESS", "address": {"city": "LAKE OSWEGO", "state": "OR", "street": "15875 BOONES FERRY RD", "postcode": "97035"}}},
{"geometry": {"type": "Point", "coordinates": [-122.7188779777, 45.4108671095]}, "type": "Feature", "properties": {"collection_times": [{"days": "Mon-Fri", "time": "6:00pm"}, {"days": "Sat", "time": "4:00pm"}, {"days": "Sun", "time": "Closed"}], "id": "9703500024", "name": "USPS COLLECTION BOX - PO LOBBY", "address": {"city": "LAKE OSWEGO", "state": "OR", "street": "15875 BOONES FERRY RD", "postcode": "97035"}}},
{"geometry": {"type": "Point", "coordinates": [-122.7265139778, 45.4174940456]}, "type": "Feature", "properties": {"collection_times": [{"days": "Mon-Fri", "time": "5:30pm"}, {"days": "Sat-Sun", "time": "Closed"}], "id": "9703500025", "name": "USPS COLLECTION BOX - BLUE BOX", "address": {"city": "LAKE OSWEGO", "state": "OR", "street": "4900 MEADOWS RD", "postcode": "97035"}}},
{"geometry": {"type": "Point", "coordinates": [-122.7282612082, 45.4172964915]}, "type": "Feature", "properties": {"collection_times": [{"days": "Mon-Fri", "time": "5:30pm"}, {"days": "Sat-Sun", "time": "Closed"}], "id": "9703500026", "name": "USPS COLLECTION BOX - BLUE BOX", "address": {"city": "LAKE OSWEGO", "state": "OR", "street": "5000 MEADOWS RD", "postcode": "97035"}}},
{"geometry": {"type": "Point", "coordinates": [-122.7282612082, 45.4172964915]}, "type": "Feature", "properties": {"collection_times": [{"days": "Mon-Fri", "time": "5:30pm"}, {"days": "Sat-Sun", "time": "Closed"}], "id": "9703500027", "name": "USPS COLLECTION BOX - BLUE BOX", "address": {"city": "LAKE OSWEGO", "state": "OR", "street": "5000 MEADOWS RD", "postcode": "97035"}}},
{"geometry": {"type": "Point", "coordinates": [-122.7037467494, 45.4323863165]}, "type": "Feature", "properties": {"collection_times": [{"days": "Mon-Fri", "time": "4:45pm"}, {"days": "Sat", "time": "1:00pm"}, {"days": "Sun", "time": "Closed"}], "id": "9703500030", "name": "USPS COLLECTION BOX - BLUE BOX", "address": {"city": "LAKE OSWEGO", "state": "OR", "street": "3 MONROE PKWY", "postcode": "97035"}}},
{"geometry": {"type": "Point", "coordinates": [-122.7177103972, 45.417628903]}, "type": "Feature", "properties": {"collection_times": [{"days": "Mon-Fri", "time": "4:30pm"}, {"days": "Sat-Sun", "time": "Closed"}], "id": "9703500033", "name": "USPS COLLECTION BOX - BLUE BOX", "address": {"city": "LAKE OSWEGO", "state": "OR", "street": "4000 KRUSE WAY PL", "postcode": "97035"}}},
{"geometry": {"type": "Point", "coordinates": [-122.7397619353, 45.4225677566]}, "type": "Feature", "properties": {"collection_times": [{"days": "Mon-Fri", "time": "5:30pm"}, {"days": "Sat-Sun", "time": "Closed"}], "id": "9703500036", "name": "USPS COLLECTION BOX - BLUE BOX", "address": {"city": "LAKE OSWEGO", "state": "OR", "street": "5 CENTERPOINTE DR", "postcode": "97035"}}},
{"geometry": {"type": "Point", "coordinates": [-122.7397619353, 45.4225677566]}, "type": "Feature", "properties": {"collection_times": [{"days": "Mon-Fri", "time": "5:30pm"}, {"days": "Sat-Sun", "time": "Closed"}], "id": "9703500037", "name": "USPS COLLECTION BOX - BLUE BOX", "address": {"city": "LAKE OSWEGO", "state": "OR", "street": "5 CENTERPOINTE DR", "postcode": "97035"}}},
{"geometry": {"type": "Point", "coordinates": [-122.7177103972, 45.417628903]}, "type": "Feature", "properties": {"collection_times": [{"days": "Mon-Fri", "time": "4:30pm"}, {"days": "Sat-Sun", "time": "Closed"}], "id": "9703500038", "name": "USPS COLLECTION BOX - BLUE BOX", "address": {"city": "LAKE OSWEGO", "state": "OR", "street": "4000 KRUSE WAY PL", "postcode": "97035"}}},
{"geometry": {"type": "Point", "coordinates": [-122.7177103972, 45.417628903]}, "type": "Feature", "properties": {"collection_times": [{"days": "Mon-Fri", "time": "4:30pm"}, {"days": "Sat-Sun", "time": "Closed"}], "id": "9703500039", "name": "USPS COLLECTION BOX - BLUE BOX", "address": {"city": "LAKE OSWEGO", "state": "OR", "street": "4000 KRUSE WAY PL", "postcode": "97035"}}},
{"geometry": {"type": "Point", "coordinates": [-122.7393604074, 45.4177199076]}, "type": "Feature", "properties": {"collection_times": [{"days": "Mon-Fri", "time": "5:30pm"}, {"days": "Sat-Sun", "time": "Closed"}], "id": "9703500040", "name": "USPS COLLECTION BOX - BLUE BOX", "address": {"city": "LAKE OSWEGO", "state": "OR", "street": "6000 MEADOWS RD", "postcode": "97035"}}},
{"geometry": {"type": "Point", "coordinates": [-122.7308447906, 45.4176419155]}, "type": "Feature", "properties": {"collection_times": [{"days": "Mon-Fri", "time": "5:30pm"}, {"days": "Sat-Sun", "time": "Closed"}], "id": "9703500041", "name": "USPS COLLECTION BOX - BLUE BOX", "address": {"city": "LAKE OSWEGO", "state": "OR", "street": "5285 MEADOWS RD", "postcode": "97035"}}},
{"geometry": {"type": "Point", "coordinates": [-122.7308447906, 45.4176419155]}, "type": "Feature", "properties": {"collection_times": [{"days": "Mon-Fri", "time": "5:30pm"}, {"days": "Sat-Sun", "time": "Closed"}], "id": "9703500042", "name": "USPS COLLECTION BOX - BLUE BOX", "address": {"city": "LAKE OSWEGO", "state": "OR", "street": "5285 MEADOWS RD", "postcode": "97035"}}},
{"geometry": {"type": "Point", "coordinates": [-122.7270302008, 45.4396461521]}, "type": "Feature", "properties": {"collection_times": [{"days": "Mon-Sat", "time": "10:00am"}, {"days": "Sun", "time": "Closed"}], "id": "9703500044", "name": "USPS COLLECTION BOX - BLUE BOX", "address": {"city": "LAKE OSWEGO", "state": "OR", "street": "11830 KERR PKWY", "postcode": "97035"}}},
{"geometry": {"type": "Point", "coordinates": [-122.7320770198, 45.4175979626]}, "type": "Feature", "properties": {"collection_times": [{"days": "Mon-Fri", "time": "5:30pm"}, {"days": "Sat-Sun", "time": "Closed"}], "id": "9703500045", "name": "USPS COLLECTION BOX - BLUE BOX", "address": {"city": "LAKE OSWEGO", "state": "OR", "street": "5300 MEADOWS RD", "postcode": "97035"}}},
{"geometry": {"type": "Point", "coordinates": [-122.7320770198, 45.4175979626]}, "type": "Feature", "properties": {"collection_times": [{"days": "Mon-Fri", "time": "5:30pm"}, {"days": "Sat-Sun", "time": "Closed"}], "id": "9703500046", "name": "USPS COLLECTION BOX - BLUE BOX", "address": {"city": "LAKE OSWEGO", "state": "OR", "street": "5300 MEADOWS RD", "postcode": "97035"}}},
{"geometry": {"type": "Point", "coordinates": [-122.7188779777, 45.4108671095]}, "type": "Feature", "properties": {"collection_times": [{"days": "Mon-Fri", "time": "6:00pm"}, {"days": "Sat", "time": "4:00pm"}, {"days": "Sun", "time": "Closed"}], "id": "9703500047", "name": "USPS COLLECTION BOX - APC", "address": {"city": "LAKE OSWEGO", "state": "OR", "street": "15875 BOONES FERRY RD", "postcode": "97035"}}},
{"geometry": {"type": "Point", "coordinates": [-122.6511309527, 45.3961007532]}, "type": "Feature", "properties": {"collection_times": [{"days": "Mon-Fri", "time": "4:00pm"}, {"days": "Sat", "time": "9:30am"}, {"days": "Sun", "time": "Closed"}], "id": "9703600001", "name": "USPS COLLECTION BOX - PO LOBBY", "address": {"city": "MARYLHURST", "state": "OR", "street": "17600 PACIFIC HWY", "postcode": "97036"}}},
{"geometry": {"type": "Point", "coordinates": [-122.6511309527, 45.3961007532]}, "type": "Feature", "properties": {"collection_times": [{"days": "Mon-Fri", "time": "5:00pm"}, {"days": "Sat", "time": "9:30am"}, {"days": "Sun", "time": "Closed"}], "id": "9703600002", "name": "USPS COLLECTION BOX - BLUE BOX", "address": {"city": "MARYLHURST", "state": "OR", "street": "17600 PACIFIC HWY", "postcode": "97036"}}},
{"geometry": {"type": "Point", "coordinates": [-121.0795822293, 45.1757232466]}, "type": "Feature", "properties": {"collection_times": [{"days": "Mon-Fri", "time": "4:30pm"}, {"days": "Sat", "time": "2:30pm"}, {"days": "Sun", "time": "Closed"}], "id": "9703700001", "name": "USPS COLLECTION BOX - BLUE BOX", "address": {"city": "MAUPIN", "state": "OR", "street": "402 DESCHUTES AVE", "postcode": "97037"}}},
{"geometry": {"type": "Point", "coordinates": [-121.0795822293, 45.1757232466]}, "type": "Feature", "properties": {"collection_times": [{"days": "Mon-Fri", "time": "4:30pm"}, {"days": "Sat", "time": "2:30pm"}, {"days": "Sun", "time": "Closed"}], "id": "9703700002", "name": "USPS COLLECTION BOX - PO LOBBY", "address": {"city": "MAUPIN", "state": "OR", "street": "402 DESCHUTES AVE", "postcode": "97037"}}},
{"geometry": {"type": "Point", "coordinates": [-122.5732486313, 45.149614171]}, "type": "Feature", "properties": {"collection_times": [{"days": "Mon-Fri", "time": "4:45pm"}, {"days": "Sat", "time": "3:45pm"}, {"days": "Sun", "time": "Closed"}], "id": "9703800002", "name": "USPS COLLECTION BOX - BLUE BOX", "address": {"city": "MOLALLA", "state": "OR", "street": "215 ROBBINS ST", "postcode": "97038"}}},
{"geometry": {"type": "Point", "coordinates": [-122.5732486313, 45.149614171]}, "type": "Feature", "properties": {"collection_times": [{"days": "Mon-Fri", "time": "4:45pm"}, {"days": "Sat", "time": "3:45pm"}, {"days": "Sun", "time": "Closed"}], "id": "9703800003", "name": "USPS COLLECTION BOX - BLUE BOX", "address": {"city": "MOLALLA", "state": "OR", "street": "215 ROBBINS ST", "postcode": "97038"}}},
{"geometry": {"type": "Point", "coordinates": [-122.5732486313, 45.149614171]}, "type": "Feature", "properties": {"collection_times": [{"days": "Mon-Fri", "time": "5:00pm"}, {"days": "Sat", "time": "3:45pm"}, {"days": "Sun", "time": "Closed"}], "id": "9703800004", "name": "USPS COLLECTION BOX - PO LOBBY", "address": {"city": "MOLALLA", "state": "OR", "street": "215 ROBBINS ST", "postcode": "97038"}}},
{"geometry": {"type": "Point", "coordinates": [-122.5769938794, 45.1480408356]}, "type": "Feature", "properties": {"collection_times": [{"days": "Mon-Fri", "time": "1:00pm"}, {"days": "Sat-Sun", "time": "Closed"}], "id": "9703800005", "name": "USPS COLLECTION BOX - BLUE BOX", "address": {"city": "MOLALLA", "state": "OR", "street": "117 N MOLALLA AVE", "postcode": "97038"}}},
{"geometry": {"type": "Point", "coordinates": [-120.7305214248, 45.4841205961]}, "type": "Feature", "properties": {"collection_times": [{"days": "Mon-Fri", "time": "3:00pm"}, {"days": "Sat", "time": "10:00am"}, {"days": "Sun", "time": "Closed"}], "id": "9703900001", "name": "USPS COLLECTION BOX - BLUE BOX", "address": {"city": "MORO", "state": "OR", "street": "109 1ST ST", "postcode": "97039"}}},
{"geometry": {"type": "Point", "coordinates": [-121.397236207, 45.6825782728]}, "type": "Feature", "properties": {"collection_times": [{"days": "Mon-Fri", "time": "4:45pm"}, {"days": "Sat", "time": "9:30am"}, {"days": "Sun", "time": "Closed"}], "id": "9704000001", "name": "USPS COLLECTION BOX - BLUE BOX", "address": {"city": "MOSIER", "state": "OR", "street": "1001 3RD AVE", "postcode": "97040"}}},
{"geometry": {"type": "Point", "coordinates": [-121.397236207, 45.6825782728]}, "type": "Feature", "properties": {"collection_times": [{"days": "Mon-Fri", "time": "4:30pm"}, {"days": "Sat", "time": "9:30am"}, {"days": "Sun", "time": "Closed"}], "id": "9704000002", "name": "USPS COLLECTION BOX - PO LOBBY", "address": {"city": "MOSIER", "state": "OR", "street": "1001 3RD AVE", "postcode": "97040"}}},
{"geometry": {"type": "Point", "coordinates": [-121.5993628564, 45.519686244]}, "type": "Feature", "properties": {"collection_times": [{"days": "Mon-Fri", "time": "4:45pm"}, {"days": "Sat", "time": "10:00am"}, {"days": "Sun", "time": "Closed"}], "id": "9704100001", "name": "USPS COLLECTION BOX - PO LOBBY", "address": {"city": "MT HOOD PRKDL", "state": "OR", "street": "5000 BASELINE DR", "postcode": "97041"}}},
{"geometry": {"type": "Point", "coordinates": [-121.5993628564, 45.519686244]}, "type": "Feature", "properties": {"collection_times": [{"days": "Mon-Fri", "time": "4:15pm"}, {"days": "Sat", "time": "10:00am"}, {"days": "Sun", "time": "Closed"}], "id": "9704100002", "name": "USPS COLLECTION BOX - BLUE BOX", "address": {"city": "MT HOOD PRKDL", "state": "OR", "street": "5000 BASELINE DR", "postcode": "97041"}}},
{"geometry": {"type": "Point", "coordinates": [-122.5837402944, 45.2212494341]}, "type": "Feature", "properties": {"collection_times": [{"days": "Mon-Fri", "time": "5:00pm"}, {"days": "Sat", "time": "10:00am"}, {"days": "Sun", "time": "Closed"}], "id": "9704200001", "name": "USPS COLLECTION BOX - BLUE BOX", "address": {"city": "MULINO", "state": "OR", "street": "13789 S MULINO RD", "postcode": "97042"}}},
{"geometry": {"type": "Point", "coordinates": [-122.5837402944, 45.2212494341]}, "type": "Feature", "properties": {"collection_times": [{"days": "Mon-Fri", "time": "5:00pm"}, {"days": "Sat", "time": "10:00am"}, {"days": "Sun", "time": "Closed"}], "id": "9704200002", "name": "USPS COLLECTION BOX - PO LOBBY", "address": {"city": "MULINO", "state": "OR", "street": "13789 S MULINO RD", "postcode": "97042"}}},
{"geometry": {"type": "Point", "coordinates": [-121.4733072813, 45.5565102227]}, "type": "Feature", "properties": {"collection_times": [{"days": "Mon-Fri", "time": "4:45pm"}, {"days": "Sat", "time": "3:45pm"}, {"days": "Sun", "time": "Closed"}], "id": "9704400001", "name": "USPS COLLECTION BOX - BLUE BOX", "address": {"city": "ODELL", "state": "OR", "street": "3666 ATKINSON DR", "postcode": "97044"}}},
{"geometry": {"type": "Point", "coordinates": [-121.4733072813, 45.5565102227]}, "type": "Feature", "properties": {"collection_times": [{"days": "Mon-Fri", "time": "5:00pm"}, {"days": "Sat", "time": "8:45am"}, {"days": "Sun", "time": "Closed"}], "id": "9704400002", "name": "USPS COLLECTION BOX - PO LOBBY", "address": {"city": "ODELL", "state": "OR", "street": "3666 ATKINSON DR", "postcode": "97044"}}},
{"geometry": {"type": "Point", "coordinates": [-122.4932758735, 45.3437673111]}, "type": "Feature", "properties": {"collection_times": [{"days": "Mon-Sat", "time": "11:30am"}, {"days": "Sun", "time": "Closed"}], "id": "9704500006", "name": "USPS COLLECTION BOX - BLUE BOX", "address": {"city": "OREGON CITY", "state": "OR", "street": "18151 S REDLAND RD", "postcode": "97045"}}},
{"geometry": {"type": "Point", "coordinates": [-122.5887406619, 45.3295812672]}, "type": "Feature", "properties": {"collection_times": [{"days": "Mon-Sat", "time": "9:30am"}, {"days": "Sun", "time": "Closed"}], "id": "9704500009", "name": "USPS COLLECTION BOX - BLUE BOX", "address": {"city": "OREGON CITY", "state": "OR", "street": "13531 CLAIRMONT WAY", "postcode": "97045"}}},
{"geometry": {"type": "Point", "coordinates": [-122.5943242283, 45.3414191376]}, "type": "Feature", "properties": {"collection_times": [{"days": "Mon-Fri", "time": "3:30pm"}, {"days": "Sat", "time": "10:00am"}, {"days": "Sun", "time": "Closed"}], "id": "9704500010", "name": "USPS COLLECTION BOX - BLUE BOX", "address": {"city": "OREGON CITY", "state": "OR", "street": "1001 MOLALLA AVE", "postcode": "97045"}}},
{"geometry": {"type": "Point", "coordinates": [-122.5984698104, 45.3361042724]}, "type": "Feature", "properties": {"collection_times": [{"days": "Mon-Sat", "time": "9:00am"}, {"days": "Sun", "time": "Closed"}], "id": "9704500014", "name": "USPS COLLECTION BOX - BLUE BOX", "address": {"city": "OREGON CITY", "state": "OR", "street": "1425 KAEN RD", "postcode": "97045"}}},
{"geometry": {"type": "Point", "coordinates": [-122.5987496777, 45.3619257312]}, "type": "Feature", "properties": {"collection_times": [{"days": "Mon-Fri", "time": "3:30pm"}, {"days": "Sat", "time": "9:00am"}, {"days": "Sun", "time": "Closed"}], "id": "9704500019", "name": "USPS COLLECTION BOX - BLUE BOX", "address": {"city": "OREGON CITY", "state": "OR", "street": "606 15TH ST", "postcode": "97045"}}},
{"geometry": {"type": "Point", "coordinates": [-122.6229033339, 45.3375461299]}, "type": "Feature", "properties": {"collection_times": [{"days": "Mon-Sat", "time": "10:00am"}, {"days": "Sun", "time": "Closed"}], "id": "9704500024", "name": "USPS COLLECTION BOX - BLUE BOX", "address": {"city": "OREGON CITY", "state": "OR", "street": "1033 S END RD", "postcode": "97045"}}},
{"geometry": {"type": "Point", "coordinates": [-122.6061088655, 45.358963602]}, "type": "Feature", "properties": {"collection_times": [{"days": "Mon-Fri", "time": "3:30pm"}, {"days": "Sat", "time": "10:00am"}, {"days": "Sun", "time": "Closed"}], "id": "9704500025", "name": "USPS COLLECTION BOX - BLUE BOX", "address": {"city": "OREGON CITY", "state": "OR", "street": "901 MAIN ST", "postcode": "97045"}}},
{"geometry": {"type": "Point", "coordinates": [-122.5720244148, 45.3309379088]}, "type": "Feature", "properties": {"collection_times": [{"days": "Mon-Fri", "time": "3:30pm"}, {"days": "Sat", "time": "10:00am"}, {"days": "Sun", "time": "Closed"}], "id": "9704500031", "name": "USPS COLLECTION BOX - BLUE BOX", "address": {"city": "OREGON CITY", "state": "OR", "street": "19017 BEAVERCREEK RD", "postcode": "97045"}}},
{"geometry": {"type": "Point", "coordinates": [-122.6073229499, 45.3583014472]}, "type": "Feature", "properties": {"collection_times": [{"days": "Mon-Fri", "time": "3:30pm"}, {"days": "Sat", "time": "10:00am"}, {"days": "Sun", "time": "Closed"}], "id": "9704500034", "name": "USPS COLLECTION BOX - BLUE BOX", "address": {"city": "OREGON CITY", "state": "OR", "street": "800 MAIN ST", "postcode": "97045"}}},
{"geometry": {"type": "Point", "coordinates": [-122.5906391621, 45.3364498409]}, "type": "Feature", "properties": {"collection_times": [{"days": "Mon-Fri", "time": "3:30pm"}, {"days": "Sat", "time": "9:00am"}, {"days": "Sun", "time": "Closed"}], "id": "9704500035", "name": "USPS COLLECTION BOX - BLUE BOX", "address": {"city": "OREGON CITY", "state": "OR", "street": "1312 MOLALLA AVE", "postcode": "97045"}}},
{"geometry": {"type": "Point", "coordinates": [-122.5809390476, 45.365652052]}, "type": "Feature", "properties": {"collection_times": [{"days": "Mon-Sat", "time": "10:30am"}, {"days": "Sun", "time": "Closed"}], "id": "9704500036", "name": "USPS COLLECTION BOX - BLUE BOX", "address": {"city": "OREGON CITY", "state": "OR", "street": "13927 HOLCOMB BLVD", "postcode": "97045"}}},
{"geometry": {"type": "Point", "coordinates": [-122.5862658163, 45.3312890763]}, "type": "Feature", "properties": {"collection_times": [{"days": "Mon-Fri", "time": "3:30pm"}, {"days": "Sat", "time": "9:00am"}, {"days": "Sun", "time": "Closed"}], "id": "9704500037", "name": "USPS COLLECTION BOX - BLUE BOX", "address": {"city": "OREGON CITY", "state": "OR", "street": "1839 S MOLALLA AVE", "postcode": "97045"}}},
{"geometry": {"type": "Point", "coordinates": [-122.5795933536, 45.3237703032]}, "type": "Feature", "properties": {"collection_times": [{"days": "Mon-Sat", "time": "10:30am"}, {"days": "Sun", "time": "Closed"}], "id": "9704500038", "name": "USPS COLLECTION BOX - BLUE BOX", "address": {"city": "OREGON CITY", "state": "OR", "street": "19600 S MOLALLA AVE", "postcode": "97045"}}},
{"geometry": {"type": "Point", "coordinates": [-122.5931528037, 45.3336518388]}, "type": "Feature", "properties": {"collection_times": [{"days": "Mon-Fri", "time": "3:30pm"}, {"days": "Sat", "time": "10:00am"}, {"days": "Sun", "time": "Closed"}], "id": "9704500045", "name": "USPS COLLECTION BOX - BLUE BOX", "address": {"city": "OREGON CITY", "state": "OR", "street": "408 BEAVERCREEK RD", "postcode": "97045"}}},
{"geometry": {"type": "Point", "coordinates": [-122.60948, 45.35721]}, "type": "Feature", "properties": {"collection_times": [{"days": "Mon-Fri", "time": "3:30pm"}, {"days": "Sat", "time": "10:00am"}, {"days": "Sun", "time": "Closed"}], "id": "9704500050", "name": "USPS COLLECTION BOX - BLUE BOX", "address": {"city": "OREGON CITY", "state": "OR", "street": "524 MAIN ST", "postcode": "97045"}}},
{"geometry": {"type": "Point", "coordinates": [-122.5961601806, 45.3365027601]}, "type": "Feature", "properties": {"collection_times": [{"days": "Mon-Fri", "time": "3:30pm"}, {"days": "Sat", "time": "9:00am"}, {"days": "Sun", "time": "Closed"}], "id": "9704500052", "name": "USPS COLLECTION BOX - BLUE BOX", "address": {"city": "OREGON CITY", "state": "OR", "street": "270 WARNER MILNE RD", "postcode": "97045"}}},
{"geometry": {"type": "Point", "coordinates": [-122.594475647, 45.3365181386]}, "type": "Feature", "properties": {"collection_times": [{"days": "Mon-Fri", "time": "3:30pm"}, {"days": "Sat-Sun", "time": "Closed"}], "id": "9704500055", "name": "USPS COLLECTION BOX - BLUE BOX", "address": {"city": "OREGON CITY", "state": "OR", "street": "320 WARNER MILNE RD", "postcode": "97045"}}},
{"geometry": {"type": "Point", "coordinates": [-122.5866550036, 45.3337366834]}, "type": "Feature", "properties": {"collection_times": [{"days": "Mon-Fri", "time": "3:30pm"}, {"days": "Sat", "time": "10:00am"}, {"days": "Sun", "time": "Closed"}], "id": "9704500056", "name": "USPS COLLECTION BOX - BLUE BOX", "address": {"city": "OREGON CITY", "state": "OR", "street": "1634 BEAVERCREEK RD", "postcode": "97045"}}},
{"geometry": {"type": "Point", "coordinates": [-122.5827028394, 45.3268297046]}, "type": "Feature", "properties": {"collection_times": [{"days": "Mon-Fri", "time": "5:00pm"}, {"days": "Sat", "time": "3:45pm"}, {"days": "Sun", "time": "Closed"}], "id": "9704500061", "name": "USPS COLLECTION BOX - PO LOBBY", "address": {"city": "OREGON CITY", "state": "OR", "street": "19300 MOLALLA AVE", "postcode": "97045"}}},
{"geometry": {"type": "Point", "coordinates": [-122.5827028394, 45.3268297046]}, "type": "Feature", "properties": {"collection_times": [{"days": "Mon-Fri", "time": "5:00pm"}, {"days": "Sat", "time": "3:45pm"}, {"days": "Sun", "time": "Closed"}], "id": "9704500062", "name": "USPS COLLECTION BOX - BLUE BOX", "address": {"city": "OREGON CITY", "state": "OR", "street": "19300 MOLALLA AVE", "postcode": "97045"}}},
{"geometry": {"type": "Point", "coordinates": [-122.5827028394, 45.3268297046]}, "type": "Feature", "properties": {"collection_times": [{"days": "Mon-Fri", "time": "5:00pm"}, {"days": "Sat", "time": "3:45pm"}, {"days": "Sun", "time": "Closed"}], "id": "9704500063", "name": "USPS COLLECTION BOX - BLUE BOX", "address": {"city": "OREGON CITY", "state": "OR", "street": "19300 MOLALLA AVE", "postcode": "97045"}}},
{"geometry": {"type": "Point", "coordinates": [-122.5827028394, 45.3268297046]}, "type": "Feature", "properties": {"collection_times": [{"days": "Mon-Fri", "time": "5:00pm"}, {"days": "Sat", "time": "3:45pm"}, {"days": "Sun", "time": "Closed"}], "id": "9704500064", "name": "USPS COLLECTION BOX - BLUE BOX", "address": {"city": "OREGON CITY", "state": "OR", "street": "19300 MOLALLA AVE", "postcode": "97045"}}},
{"geometry": {"type": "Point", "coordinates": [-122.5827028394, 45.3268297046]}, "type": "Feature", "properties": {"collection_times": [{"days": "Mon-Fri", "time": "5:00pm"}, {"days": "Sat", "time": "3:45pm"}, {"days": "Sun", "time": "Closed"}], "id": "9704500065", "name": "USPS COLLECTION BOX - BLUE BOX", "address": {"city": "OREGON CITY", "state": "OR", "street": "19300 MOLALLA AVE", "postcode": "97045"}}},
{"geometry": {"type": "Point", "coordinates": [-122.5746658949, 45.3432384047]}, "type": "Feature", "properties": {"collection_times": [{"days": "Mon-Fri", "time": "5:00pm"}, {"days": "Sat", "time": "3:45pm"}, {"days": "Sun", "time": "Closed"}], "id": "9704500066", "name": "USPS COLLECTION BOX - EXPRESS", "address": {"city": "OREGON CITY", "state": "OR", "street": "19300 MOLALLA AVE", "postcode": "97045"}}},
{"geometry": {"type": "Point", "coordinates": [-122.5784977964, 45.3218054819]}, "type": "Feature", "properties": {"collection_times": [{"days": "Mon-Fri", "time": "3:30pm"}, {"days": "Sat", "time": "10:00am"}, {"days": "Sun", "time": "Closed"}], "id": "9704500069", "name": "USPS COLLECTION BOX - BLUE BOX", "address": {"city": "OREGON CITY", "state": "OR", "street": "19701 S HIGHWAY 213", "postcode": "97045"}}},
{"geometry": {"type": "Point", "coordinates": [-122.6084511242, 45.3555436676]}, "type": "Feature", "properties": {"collection_times": [{"days": "Mon-Fri", "time": "3:30pm"}, {"days": "Sat", "time": "9:00am"}, {"days": "Sun", "time": "Closed"}], "id": "9704500072", "name": "USPS COLLECTION BOX - BLUE BOX", "address": {"city": "OREGON CITY", "state": "OR", "street": "421 HIGH ST", "postcode": "97045"}}},
{"geometry": {"type": "Point", "coordinates": [-122.6009700917, 45.3682474639]}, "type": "Feature", "properties": {"collection_times": [{"days": "Mon-Sat", "time": "10:00am"}, {"days": "Sun", "time": "Closed"}], "id": "9704500073", "name": "USPS COLLECTION BOX - BLUE BOX", "address": {"city": "OREGON CITY", "state": "OR", "street": "1900 MCLOUGHLIN BLVD", "postcode": "97045"}}},
{"geometry": {"type": "Point", "coordinates": [-122.5827028394, 45.3268297046]}, "type": "Feature", "properties": {"collection_times": [{"days": "Mon-Fri", "time": "5:00pm"}, {"days": "Sat", "time": "3:45pm"}, {"days": "Sun", "time": "Closed"}], "id": "9704500074", "name": "USPS COLLECTION BOX - APC", "address": {"city": "OREGON CITY", "state": "OR", "street": "19300 MOLALLA AVE", "postcode": "97045"}}},
{"geometry": {"type": "Point", "coordinates": [-122.9359487237, 46.0900094195]}, "type": "Feature", "properties": {"collection_times": [{"days": "Mon-Fri", "time": "5:00pm"}, {"days": "Sat", "time": "3:30pm"}, {"days": "Sun", "time": "Closed"}], "id": "9704800001", "name": "USPS COLLECTION BOX - BLUE BOX", "address": {"city": "RAINIER", "state": "OR", "street": "207 W A ST", "postcode": "97048"}}},
{"geometry": {"type": "Point", "coordinates": [-122.9359487237, 46.0900094195]}, "type": "Feature", "properties": {"collection_times": [{"days": "Mon-Fri", "time": "5:00pm"}, {"days": "Sat-Sun", "time": "Closed"}], "id": "9704800002", "name": "USPS COLLECTION BOX - BLUE BOX", "address": {"city": "RAINIER", "state": "OR", "street": "207 W A ST", "postcode": "97048"}}},
{"geometry": {"type": "Point", "coordinates": [-122.9359487237, 46.0900094195]}, "type": "Feature", "properties": {"collection_times": [{"days": "Mon-Fri", "time": "5:00pm"}, {"days": "Sat-Sun", "time": "Closed"}], "id": "9704800003", "name": "USPS COLLECTION BOX - PO LOBBY", "address": {"city": "RAINIER", "state": "OR", "street": "207 W A ST", "postcode": "97048"}}},
{"geometry": {"type": "Point", "coordinates": [-122.9359487237, 46.0900094195]}, "type": "Feature", "properties": {"collection_times": [{"days": "Mon-Fri", "time": "5:00pm"}, {"days": "Sat", "time": "3:30pm"}, {"days": "Sun", "time": "Closed"}], "id": "9704800004", "name": "USPS COLLECTION BOX - PO LOBBY", "address": {"city": "RAINIER", "state": "OR", "street": "207 W A ST", "postcode": "97048"}}},
{"geometry": {"type": "Point", "coordinates": [-121.9103630399, 45.328940129]}, "type": "Feature", "properties": {"collection_times": [{"days": "Mon-Fri", "time": "4:00pm"}, {"days": "Sat", "time": "3:15pm"}, {"days": "Sun", "time": "Closed"}], "id": "9704900001", "name": "USPS COLLECTION BOX - BLUE BOX", "address": {"city": "RHODODENDRON", "state": "OR", "street": "73287 E HIGHWAY 26", "postcode": "97049"}}},
{"geometry": {"type": "Point", "coordinates": [-121.9098055231, 45.3284067807]}, "type": "Feature", "properties": {"collection_times": [{"days": "Mon-Fri", "time": "3:15pm"}, {"days": "Sat", "time": "9:45am"}, {"days": "Sun", "time": "Closed"}], "id": "9704900002", "name": "USPS COLLECTION BOX - PO LOBBY", "address": {"city": "RHODODENDRON", "state": "OR", "street": "73287 E HIGHWAY 26", "postcode": "97049"}}},
{"geometry": {"type": "Point", "coordinates": [-120.7359468547, 45.6906394318]}, "type": "Feature", "properties": {"collection_times": [{"days": "Mon-Fri", "time": "3:30pm"}, {"days": "Sat", "time": "10:00am"}, {"days": "Sun", "time": "Closed"}], "id": "9705000001", "name": "USPS COLLECTION BOX - BLUE BOX", "address": {"city": "RUFUS", "state": "OR", "street": "308 FOWLER ST", "postcode": "97050"}}},
{"geometry": {"type": "Point", "coordinates": [-120.7359468547, 45.6906394318]}, "type": "Feature", "properties": {"collection_times": [{"days": "Mon-Fri", "time": "1:45pm"}, {"days": "Sat", "time": "9:30am"}, {"days": "Sun", "time": "Closed"}], "id": "9705000002", "name": "USPS COLLECTION BOX - PO LOBBY", "address": {"city": "RUFUS", "state": "OR", "street": "308 FOWLER ST", "postcode": "97050"}}},
{"geometry": {"type": "Point", "coordinates": [-122.8134496321, 45.8596367884]}, "type": "Feature", "properties": {"collection_times": [{"days": "Mon-Fri", "time": "5:00pm"}, {"days": "Sat", "time": "2:30pm"}, {"days": "Sun", "time": "Closed"}], "id": "9705100001", "name": "USPS COLLECTION BOX - BLUE BOX", "address": {"city": "DEER ISLAND", "state": "OR", "street": "1571 COLUMBIA BLVD", "postcode": "97051"}}},
{"geometry": {"type": "Point", "coordinates": [-122.8134496321, 45.8596367884]}, "type": "Feature", "properties": {"collection_times": [{"days": "Mon-Fri", "time": "5:00pm"}, {"days": "Sat", "time": "2:30pm"}, {"days": "Sun", "time": "Closed"}], "id": "9705100002", "name": "USPS COLLECTION BOX - BLUE BOX", "address": {"city": "DEER ISLAND", "state": "OR", "street": "1571 COLUMBIA BLVD", "postcode": "97051"}}},
{"geometry": {"type": "Point", "coordinates": [-122.7966913555, 45.8627567595]}, "type": "Feature", "properties": {"collection_times": [{"days": "Mon-Fri", "time": "4:30pm"}, {"days": "Sat", "time": "9:00am"}, {"days": "Sun", "time": "Closed"}], "id": "9705100005", "name": "USPS COLLECTION BOX - BLUE BOX", "address": {"city": "DEER ISLAND", "state": "OR", "street": "244 STRAND ST", "postcode": "97051"}}},
{"geometry": {"type": "Point", "coordinates": [-122.8180711373, 45.8638054745]}, "type": "Feature", "properties": {"collection_times": [{"days": "Mon-Fri", "time": "4:15pm"}, {"days": "Sat", "time": "12:00pm"}, {"days": "Sun", "time": "Closed"}], "id": "9705100012", "name": "USPS COLLECTION BOX - BLUE BOX", "address": {"city": "DEER ISLAND", "state": "OR", "street": "500 N COLUMBIA RIVER HWY", "postcode": "97051"}}},
{"geometry": {"type": "Point", "coordinates": [-122.8180711373, 45.8638054745]}, "type": "Feature", "properties": {"collection_times": [{"days": "Mon-Fri", "time": "4:15pm"}, {"days": "Sat", "time": "12:00pm"}, {"days": "Sun", "time": "Closed"}], "id": "9705100013", "name": "USPS COLLECTION BOX - BLUE BOX", "address": {"city": "DEER ISLAND", "state": "OR", "street": "500 N COLUMBIA RIVER HWY", "postcode": "97051"}}},
{"geometry": {"type": "Point", "coordinates": [-122.8134496321, 45.8596367884]}, "type": "Feature", "properties": {"collection_times": [{"days": "Mon-Fri", "time": "5:00pm"}, {"days": "Sat", "time": "2:30pm"}, {"days": "Sun", "time": "Closed"}], "id": "9705100014", "name": "USPS COLLECTION BOX - PO LOBBY", "address": {"city": "DEER ISLAND", "state": "OR", "street": "1571 COLUMBIA BLVD", "postcode": "97051"}}},
{"geometry": {"type": "Point", "coordinates": [-122.8134496321, 45.8596367884]}, "type": "Feature", "properties": {"collection_times": [{"days": "Mon-Fri", "time": "5:00pm"}, {"days": "Sat", "time": "2:30pm"}, {"days": "Sun", "time": "Closed"}], "id": "9705100015", "name": "USPS COLLECTION BOX - PO LOBBY", "address": {"city": "DEER ISLAND", "state": "OR", "street": "1571 COLUMBIA BLVD", "postcode": "97051"}}},
{"geometry": {"type": "Point", "coordinates": [-122.8293388974, 45.8477347904]}, "type": "Feature", "properties": {"collection_times": [{"days": "Mon-Fri", "time": "1:00pm"}, {"days": "Sat", "time": "12:00pm"}, {"days": "Sun", "time": "Closed"}], "id": "9705100016", "name": "USPS COLLECTION BOX - BLUE BOX", "address": {"city": "DEER ISLAND", "state": "OR", "street": "2295 GABLE RD", "postcode": "97051"}}},
{"geometry": {"type": "Point", "coordinates": [-122.8451209925, 45.9325697575]}, "type": "Feature", "properties": {"collection_times": [{"days": "Mon-Sat", "time": "12:00pm"}, {"days": "Sun", "time": "Closed"}], "id": "9705100017", "name": "USPS COLLECTION BOX - BLUE BOX", "address": {"city": "DEER ISLAND", "state": "OR", "street": "64561 COLUMBIA RIVER HWY", "postcode": "97051"}}},
{"geometry": {"type": "Point", "coordinates": [-122.2620538707, 45.3963525505]}, "type": "Feature", "properties": {"collection_times": [{"days": "Mon-Fri", "time": "5:15pm"}, {"days": "Sat", "time": "2:15pm"}, {"days": "Sun", "time": "Closed"}], "id": "9705500001", "name": "USPS COLLECTION BOX - BLUE BOX", "address": {"city": "SANDY", "state": "OR", "street": "17455 SCALES AVE", "postcode": "97055"}}},
{"geometry": {"type": "Point", "coordinates": [-122.287103679, 45.4035501879]}, "type": "Feature", "properties": {"collection_times": [{"days": "Mon-Fri", "time": "5:15pm"}, {"days": "Sat", "time": "10:00am"}, {"days": "Sun", "time": "Closed"}], "id": "9705500003", "name": "USPS COLLECTION BOX - BLUE BOX", "address": {"city": "SANDY", "state": "OR", "street": "36735 HIGHWAY 26", "postcode": "97055"}}},
{"geometry": {"type": "Point", "coordinates": [-122.2557045904, 45.3963368246]}, "type": "Feature", "properties": {"collection_times": [{"days": "Mon-Fri", "time": "5:00pm"}, {"days": "Sat", "time": "2:15pm"}, {"days": "Sun", "time": "Closed"}], "id": "9705500004", "name": "USPS COLLECTION BOX - BLUE BOX", "address": {"city": "SANDY", "state": "OR", "street": "17570 WOLF DR", "postcode": "97055"}}},
{"geometry": {"type": "Point", "coordinates": [-122.2557045904, 45.3963368246]}, "type": "Feature", "properties": {"collection_times": [{"days": "Mon-Fri", "time": "5:00pm"}, {"days": "Sat", "time": "2:15pm"}, {"days": "Sun", "time": "Closed"}], "id": "9705500006", "name": "USPS COLLECTION BOX - BLUE BOX", "address": {"city": "SANDY", "state": "OR", "street": "17570 WOLF DR", "postcode": "97055"}}},
{"geometry": {"type": "Point", "coordinates": [-122.2589565446, 45.3972808258]}, "type": "Feature", "properties": {"collection_times": [{"days": "Mon-Fri", "time": "5:15pm"}, {"days": "Sat", "time": "2:15pm"}, {"days": "Sun", "time": "Closed"}], "id": "9705500007", "name": "USPS COLLECTION BOX - BLUE BOX", "address": {"city": "SANDY", "state": "OR", "street": "39261 PROCTOR BLVD", "postcode": "97055"}}},
{"geometry": {"type": "Point", "coordinates": [-122.2620538707, 45.3963525505]}, "type": "Feature", "properties": {"collection_times": [{"days": "Mon-Fri", "time": "5:15pm"}, {"days": "Sat", "time": "2:15pm"}, {"days": "Sun", "time": "Closed"}], "id": "9705500008", "name": "USPS COLLECTION BOX - BLUE BOX", "address": {"city": "SANDY", "state": "OR", "street": "17455 SCALES AVE", "postcode": "97055"}}},
{"geometry": {"type": "Point", "coordinates": [-122.2557045904, 45.3963368246]}, "type": "Feature", "properties": {"collection_times": [{"days": "Mon-Fri", "time": "5:00pm"}, {"days": "Sat", "time": "2:15pm"}, {"days": "Sun", "time": "Closed"}], "id": "9705500009", "name": "USPS COLLECTION BOX - PO LOBBY", "address": {"city": "SANDY", "state": "OR", "street": "17570 WOLF DR", "postcode": "97055"}}},
{"geometry": {"type": "Point", "coordinates": [-122.2589565446, 45.3972808258]}, "type": "Feature", "properties": {"collection_times": [{"days": "Mon-Fri", "time": "5:15pm"}, {"days": "Sat", "time": "2:15pm"}, {"days": "Sun", "time": "Closed"}], "id": "9705500010", "name": "USPS COLLECTION BOX - BLUE BOX", "address": {"city": "SANDY", "state": "OR", "street": "39261 PROCTOR BLVD", "postcode": "97055"}}},
{"geometry": {"type": "Point", "coordinates": [-122.8782961717, 45.759493331]}, "type": "Feature", "properties": {"collection_times": [{"days": "Mon-Fri", "time": "5:00pm"}, {"days": "Sat", "time": "3:00pm"}, {"days": "Sun", "time": "Closed"}], "id": "9705600001", "name": "USPS COLLECTION BOX - BLUE BOX", "address": {"city": "SCAPPOOSE", "state": "OR", "street": "52643 COLUMBIA RIVER HWY", "postcode": "97056"}}},
{"geometry": {"type": "Point", "coordinates": [-122.8782961717, 45.759493331]}, "type": "Feature", "properties": {"collection_times": [{"days": "Mon-Fri", "time": "5:00pm"}, {"days": "Sat", "time": "3:00pm"}, {"days": "Sun", "time": "Closed"}], "id": "9705600002", "name": "USPS COLLECTION BOX - BLUE BOX", "address": {"city": "SCAPPOOSE", "state": "OR", "street": "52643 COLUMBIA RIVER HWY", "postcode": "97056"}}},
{"geometry": {"type": "Point", "coordinates": [-122.8782961717, 45.759493331]}, "type": "Feature", "properties": {"collection_times": [{"days": "Mon-Fri", "time": "5:00pm"}, {"days": "Sat", "time": "3:00pm"}, {"days": "Sun", "time": "Closed"}], "id": "9705600003", "name": "USPS COLLECTION BOX - PO LOBBY", "address": {"city": "SCAPPOOSE", "state": "OR", "street": "52643 COLUMBIA RIVER HWY", "postcode": "97056"}}},
{"geometry": {"type": "Point", "coordinates": [-122.8782961717, 45.759493331]}, "type": "Feature", "properties": {"collection_times": [{"days": "Mon-Fri", "time": "5:00pm"}, {"days": "Sat", "time": "3:00pm"}, {"days": "Sun", "time": "Closed"}], "id": "9705600004", "name": "USPS COLLECTION BOX - PO LOBBY", "address": {"city": "SCAPPOOSE", "state": "OR", "street": "52643 COLUMBIA RIVER HWY", "postcode": "97056"}}},
{"geometry": {"type": "Point", "coordinates": [-122.87655276, 45.741472964]}, "type": "Feature", "properties": {"collection_times": [{"days": "Mon-Sat", "time": "10:00am"}, {"days": "Sun", "time": "Closed"}], "id": "9705600005", "name": "USPS COLLECTION BOX - BLUE BOX", "address": {"city": "SCAPPOOSE", "state": "OR", "street": "51500 COLUMBIA RIVER HWY", "postcode": "97056"}}},
{"geometry": {"type": "Point", "coordinates": [-120.9045741447, 45.0830449835]}, "type": "Feature", "properties": {"collection_times": [{"days": "Mon-Fri", "time": "2:00pm"}, {"days": "Sat", "time": "11:15am"}, {"days": "Sun", "time": "Closed"}], "id": "9705700002", "name": "USPS COLLECTION BOX - PO LOBBY", "address": {"city": "SHANIKO", "state": "OR", "street": "93482 4TH ST", "postcode": "97057"}}},
{"geometry": {"type": "Point", "coordinates": [-121.2008805256, 45.6046746289]}, "type": "Feature", "properties": {"collection_times": [{"days": "Mon-Sat", "time": "5:00pm"}, {"days": "Sun", "time": "Closed"}], "id": "9705800001", "name": "USPS COLLECTION BOX - BLUE BOX", "address": {"city": "THE DALLES", "state": "OR", "street": "910 CHERRY HEIGHTS RD", "postcode": "97058"}}},
{"geometry": {"type": "Point", "coordinates": [-121.1866706084, 45.5997159031]}, "type": "Feature", "properties": {"collection_times": [{"days": "Mon-Sat", "time": "5:15pm"}, {"days": "Sun", "time": "Closed"}], "id": "9705800003", "name": "USPS COLLECTION BOX - BLUE BOX", "address": {"city": "THE DALLES", "state": "OR", "street": "700 UNION ST", "postcode": "97058"}}},
{"geometry": {"type": "Point", "coordinates": [-121.1930452258, 45.60018285]}, "type": "Feature", "properties": {"collection_times": [{"days": "Mon-Sat", "time": "4:30pm"}, {"days": "Sun", "time": "Closed"}], "id": "9705800005", "name": "USPS COLLECTION BOX - BLUE BOX", "address": {"city": "THE DALLES", "state": "OR", "street": "501 W 9TH ST", "postcode": "97058"}}},
{"geometry": {"type": "Point", "coordinates": [-121.1841851446, 45.6024523634]}, "type": "Feature", "properties": {"collection_times": [{"days": "Mon-Sat", "time": "5:45pm"}, {"days": "Sun", "time": "Closed"}], "id": "9705800012", "name": "USPS COLLECTION BOX - BLUE BOX", "address": {"city": "THE DALLES", "state": "OR", "street": "101 W 2ND ST", "postcode": "97058"}}},
{"geometry": {"type": "Point", "coordinates": [-121.1841851446, 45.6024523634]}, "type": "Feature", "properties": {"collection_times": [{"days": "Mon-Sat", "time": "5:45pm"}, {"days": "Sun", "time": "Closed"}], "id": "9705800013", "name": "USPS COLLECTION BOX - BLUE BOX", "address": {"city": "THE DALLES", "state": "OR", "street": "101 W 2ND ST", "postcode": "97058"}}},
{"geometry": {"type": "Point", "coordinates": [-121.1951376648, 45.6047087178]}, "type": "Feature", "properties": {"collection_times": [{"days": "Mon-Sat", "time": "4:30pm"}, {"days": "Sun", "time": "Closed"}], "id": "9705800016", "name": "USPS COLLECTION BOX - BLUE BOX", "address": {"city": "THE DALLES", "state": "OR", "street": "520 MOUNT HOOD ST", "postcode": "97058"}}},
{"geometry": {"type": "Point", "coordinates": [-121.1810978664, 45.5946061318]}, "type": "Feature", "properties": {"collection_times": [{"days": "Mon-Sat", "time": "4:30pm"}, {"days": "Sun", "time": "Closed"}], "id": "9705800017", "name": "USPS COLLECTION BOX - BLUE BOX", "address": {"city": "THE DALLES", "state": "OR", "street": "1113 KELLY AVE", "postcode": "97058"}}},
{"geometry": {"type": "Point", "coordinates": [-121.1667066429, 45.5937415002]}, "type": "Feature", "properties": {"collection_times": [{"days": "Mon-Sat", "time": "4:30pm"}, {"days": "Sun", "time": "Closed"}], "id": "9705800018", "name": "USPS COLLECTION BOX - BLUE BOX", "address": {"city": "THE DALLES", "state": "OR", "street": "1210 DRY HOLLOW RD", "postcode": "97058"}}},
{"geometry": {"type": "Point", "coordinates": [-121.1807181981, 45.6006780183]}, "type": "Feature", "properties": {"collection_times": [{"days": "Mon-Sat", "time": "5:30pm"}, {"days": "Sun", "time": "Closed"}], "id": "9705800021", "name": "USPS COLLECTION BOX - BLUE BOX", "address": {"city": "THE DALLES", "state": "OR", "street": "400 E 2ND ST", "postcode": "97058"}}},
{"geometry": {"type": "Point", "coordinates": [-121.1770374261, 45.5989357478]}, "type": "Feature", "properties": {"collection_times": [{"days": "Mon-Sat", "time": "5:15pm"}, {"days": "Sun", "time": "Closed"}], "id": "9705800022", "name": "USPS COLLECTION BOX - BLUE BOX", "address": {"city": "THE DALLES", "state": "OR", "street": "306 MADISON ST", "postcode": "97058"}}},
{"geometry": {"type": "Point", "coordinates": [-121.1828983731, 45.6017169366]}, "type": "Feature", "properties": {"collection_times": [{"days": "Mon-Sat", "time": "5:30pm"}, {"days": "Sun", "time": "Closed"}], "id": "9705800023", "name": "USPS COLLECTION BOX - BLUE BOX", "address": {"city": "THE DALLES", "state": "OR", "street": "220 E 2ND ST", "postcode": "97058"}}},
{"geometry": {"type": "Point", "coordinates": [-121.1813122537, 45.6000450081]}, "type": "Feature", "properties": {"collection_times": [{"days": "Mon-Sat", "time": "5:15pm"}, {"days": "Sun", "time": "Closed"}], "id": "9705800024", "name": "USPS COLLECTION BOX - BLUE BOX", "address": {"city": "THE DALLES", "state": "OR", "street": "400 E 3RD ST", "postcode": "97058"}}},
{"geometry": {"type": "Point", "coordinates": [-121.1826091668, 45.6006825684]}, "type": "Feature", "properties": {"collection_times": [{"days": "Mon-Sat", "time": "5:15pm"}, {"days": "Sun", "time": "Closed"}], "id": "9705800025", "name": "USPS COLLECTION BOX - BLUE BOX", "address": {"city": "THE DALLES", "state": "OR", "street": "401 WASHINGTON ST", "postcode": "97058"}}},
{"geometry": {"type": "Point", "coordinates": [-121.1851936539, 45.6010918447]}, "type": "Feature", "properties": {"collection_times": [{"days": "Mon-Sat", "time": "5:15pm"}, {"days": "Sun", "time": "Closed"}], "id": "9705800026", "name": "USPS COLLECTION BOX - BLUE BOX", "address": {"city": "THE DALLES", "state": "OR", "street": "115 E 4TH ST", "postcode": "97058"}}},
{"geometry": {"type": "Point", "coordinates": [-121.1846138988, 45.5999058462]}, "type": "Feature", "properties": {"collection_times": [{"days": "Mon-Sat", "time": "5:15pm"}, {"days": "Sun", "time": "Closed"}], "id": "9705800027", "name": "USPS COLLECTION BOX - BLUE BOX", "address": {"city": "THE DALLES", "state": "OR", "street": "219 E 5TH ST", "postcode": "97058"}}},
{"geometry": {"type": "Point", "coordinates": [-121.2010368708, 45.6066141751]}, "type": "Feature", "properties": {"collection_times": [{"days": "Mon-Sat", "time": "5:00pm"}, {"days": "Sun", "time": "Closed"}], "id": "9705800033", "name": "USPS COLLECTION BOX - BLUE BOX", "address": {"city": "THE DALLES", "state": "OR", "street": "1320 W 6TH ST", "postcode": "97058"}}},
{"geometry": {"type": "Point", "coordinates": [-121.211082182, 45.6181895699]}, "type": "Feature", "properties": {"collection_times": [{"days": "Mon-Sat", "time": "4:45pm"}, {"days": "Sun", "time": "Closed"}], "id": "9705800034", "name": "USPS COLLECTION BOX - BLUE BOX", "address": {"city": "THE DALLES", "state": "OR", "street": "2640 W 6TH ST", "postcode": "97058"}}},
{"geometry": {"type": "Point", "coordinates": [-121.1841851446, 45.6024523634]}, "type": "Feature", "properties": {"collection_times": [{"days": "Mon-Sat", "time": "5:45pm"}, {"days": "Sun", "time": "Closed"}], "id": "9705800035", "name": "USPS COLLECTION BOX - BLUE BOX", "address": {"city": "THE DALLES", "state": "OR", "street": "101 W 2ND ST", "postcode": "97058"}}},
{"geometry": {"type": "Point", "coordinates": [-121.1902296767, 45.5918747391]}, "type": "Feature", "properties": {"collection_times": [{"days": "Mon-Fri", "time": "9:00am"}, {"days": "Sat-Sun", "time": "Closed"}], "id": "9705800036", "name": "USPS COLLECTION BOX - BLUE BOX", "address": {"city": "THE DALLES", "state": "OR", "street": "400 E SCENIC DR", "postcode": "97058"}}},
{"geometry": {"type": "Point", "coordinates": [-121.1841851446, 45.6024523634]}, "type": "Feature", "properties": {"collection_times": [{"days": "Mon-Sat", "time": "5:45pm"}, {"days": "Sun", "time": "Closed"}], "id": "9705800037", "name": "USPS COLLECTION BOX - PO LOBBY", "address": {"city": "THE DALLES", "state": "OR", "street": "101 W 2ND ST", "postcode": "97058"}}},
{"geometry": {"type": "Point", "coordinates": [-121.1841851446, 45.6024523634]}, "type": "Feature", "properties": {"collection_times": [{"days": "Mon-Sat", "time": "5:45pm"}, {"days": "Sun", "time": "Closed"}], "id": "9705800038", "name": "USPS COLLECTION BOX - PO LOBBY", "address": {"city": "THE DALLES", "state": "OR", "street": "101 W 2ND ST", "postcode": "97058"}}},
{"geometry": {"type": "Point", "coordinates": [-121.1866706084, 45.5997159031]}, "type": "Feature", "properties": {"collection_times": [{"days": "Mon-Sat", "time": "5:15pm"}, {"days": "Sun", "time": "Closed"}], "id": "9705800039", "name": "USPS COLLECTION BOX - BLUE BOX", "address": {"city": "THE DALLES", "state": "OR", "street": "700 UNION ST", "postcode": "97058"}}},
{"geometry": {"type": "Point", "coordinates": [-121.1813122537, 45.6000450081]}, "type": "Feature", "properties": {"collection_times": [{"days": "Mon-Sat", "time": "5:15pm"}, {"days": "Sun", "time": "Closed"}], "id": "9705800040", "name": "USPS COLLECTION BOX - BLUE BOX", "address": {"city": "THE DALLES", "state": "OR", "street": "400 E 3RD ST", "postcode": "97058"}}},
{"geometry": {"type": "Point", "coordinates": [-121.1848165639, 45.6017012242]}, "type": "Feature", "properties": {"collection_times": [{"days": "Mon-Sat", "time": "5:15pm"}, {"days": "Sun", "time": "Closed"}], "id": "9705800041", "name": "USPS COLLECTION BOX - BLUE BOX", "address": {"city": "THE DALLES", "state": "OR", "street": "100 E 3RD ST", "postcode": "97058"}}},
{"geometry": {"type": "Point", "coordinates": [-121.1848165639, 45.6017012242]}, "type": "Feature", "properties": {"collection_times": [{"days": "Mon-Sat", "time": "5:15pm"}, {"days": "Sun", "time": "Closed"}], "id": "9705800042", "name": "USPS COLLECTION BOX - BLUE BOX", "address": {"city": "THE DALLES", "state": "OR", "street": "100 E 3RD ST", "postcode": "97058"}}},
{"geometry": {"type": "Point", "coordinates": [-121.2004240643, 45.6121916802]}, "type": "Feature", "properties": {"collection_times": [{"days": "Mon-Sat", "time": "4:30pm"}, {"days": "Sun", "time": "Closed"}], "id": "9705800043", "name": "USPS COLLECTION BOX - BLUE BOX", "address": {"city": "THE DALLES", "state": "OR", "street": "211 WEBBER ST", "postcode": "97058"}}},
{"geometry": {"type": "Point", "coordinates": [-122.3937795608, 45.5335849066]}, "type": "Feature", "properties": {"collection_times": [{"days": "Mon-Fri", "time": "5:00pm"}, {"days": "Sat", "time": "2:45pm"}, {"days": "Sun", "time": "Closed"}], "id": "9706000001", "name": "USPS COLLECTION BOX - BLUE BOX", "address": {"city": "TROUTDALE", "state": "OR", "street": "647 SW CHERRY PARK RD", "postcode": "97060"}}},
{"geometry": {"type": "Point", "coordinates": [-122.3959207166, 45.5444941542]}, "type": "Feature", "properties": {"collection_times": [{"days": "Mon-Sat", "time": "10:30am"}, {"days": "Sun", "time": "Closed"}], "id": "9706000004", "name": "USPS COLLECTION BOX - BLUE BOX", "address": {"city": "TROUTDALE", "state": "OR", "street": "790 NW FRONTAGE RD", "postcode": "97060"}}},
{"geometry": {"type": "Point", "coordinates": [-122.3851770832, 45.5189658997]}, "type": "Feature", "properties": {"collection_times": [{"days": "Mon-Sat", "time": "1:00pm"}, {"days": "Sun", "time": "Closed"}], "id": "9706000006", "name": "USPS COLLECTION BOX - BLUE BOX", "address": {"city": "TROUTDALE", "state": "OR", "street": "26942 SE STARK ST", "postcode": "97060"}}},
{"geometry": {"type": "Point", "coordinates": [-122.3937795608, 45.5335849066]}, "type": "Feature", "properties": {"collection_times": [{"days": "Mon-Fri", "time": "5:00pm"}, {"days": "Sat", "time": "2:45pm"}, {"days": "Sun", "time": "Closed"}], "id": "9706000007", "name": "USPS COLLECTION BOX - BLUE BOX", "address": {"city": "TROUTDALE", "state": "OR", "street": "647 SW CHERRY PARK RD", "postcode": "97060"}}},
{"geometry": {"type": "Point", "coordinates": [-122.3937795608, 45.5335849066]}, "type": "Feature", "properties": {"collection_times": [{"days": "Mon-Fri", "time": "5:00pm"}, {"days": "Sat", "time": "2:45pm"}, {"days": "Sun", "time": "Closed"}], "id": "9706000008", "name": "USPS COLLECTION BOX - PO LOBBY", "address": {"city": "TROUTDALE", "state": "OR", "street": "647 SW CHERRY PARK RD", "postcode": "97060"}}},
{"geometry": {"type": "Point", "coordinates": [-122.3937795608, 45.5335849066]}, "type": "Feature", "properties": {"collection_times": [{"days": "Mon-Fri", "time": "5:00pm"}, {"days": "Sat", "time": "2:45pm"}, {"days": "Sun", "time": "Closed"}], "id": "9706000009", "name": "USPS COLLECTION BOX - PO LOBBY", "address": {"city": "TROUTDALE", "state": "OR", "street": "647 SW CHERRY PARK RD", "postcode": "97060"}}},
{"geometry": {"type": "Point", "coordinates": [-122.386509095, 45.5407548209]}, "type": "Feature", "properties": {"collection_times": [{"days": "Mon-Sat", "time": "10:30am"}, {"days": "Sun", "time": "Closed"}], "id": "9706000010", "name": "USPS COLLECTION BOX - BLUE BOX", "address": {"city": "TROUTDALE", "state": "OR", "street": "289 E HISTORIC COLUMBIA RIVER HWY", "postcode": "97060"}}},
{"geometry": {"type": "Point", "coordinates": [-122.7591254911, 45.3808498468]}, "type": "Feature", "properties": {"collection_times": [{"days": "Mon-Fri", "time": "3:05pm"}, {"days": "Sat", "time": "10:00am"}, {"days": "Sun", "time": "Closed"}], "id": "9706200002", "name": "USPS COLLECTION BOX - BLUE BOX", "address": {"city": "TUALATIN", "state": "OR", "street": "19231 SW MARTINAZZI AVE", "postcode": "97062"}}},
{"geometry": {"type": "Point", "coordinates": [-122.7674364085, 45.373627419]}, "type": "Feature", "properties": {"collection_times": [{"days": "Mon-Fri", "time": "3:10pm"}, {"days": "Sat", "time": "10:00am"}, {"days": "Sun", "time": "Closed"}], "id": "9706200003", "name": "USPS COLLECTION BOX - BLUE BOX", "address": {"city": "TUALATIN", "state": "OR", "street": "19200 SW MARTINAZZI AVE", "postcode": "97062"}}},
{"geometry": {"type": "Point", "coordinates": [-122.75858349, 45.3763153594]}, "type": "Feature", "properties": {"collection_times": [{"days": "Mon-Fri", "time": "3:15pm"}, {"days": "Sat", "time": "10:00am"}, {"days": "Sun", "time": "Closed"}], "id": "9706200004", "name": "USPS COLLECTION BOX - BLUE BOX", "address": {"city": "TUALATIN", "state": "OR", "street": "7900 SW MOHAWK ST", "postcode": "97062"}}},
{"geometry": {"type": "Point", "coordinates": [-122.75858349, 45.3763153594]}, "type": "Feature", "properties": {"collection_times": [{"days": "Mon-Fri", "time": "3:15pm"}, {"days": "Sat", "time": "10:00am"}, {"days": "Sun", "time": "Closed"}], "id": "9706200005", "name": "USPS COLLECTION BOX - BLUE BOX", "address": {"city": "TUALATIN", "state": "OR", "street": "7900 SW MOHAWK ST", "postcode": "97062"}}},
{"geometry": {"type": "Point", "coordinates": [-122.7432670164, 45.3767819401]}, "type": "Feature", "properties": {"collection_times": [{"days": "Mon-Fri", "time": "3:25pm"}, {"days": "Sat-Sun", "time": "Closed"}], "id": "9706200006", "name": "USPS COLLECTION BOX - BLUE BOX", "address": {"city": "TUALATIN", "state": "OR", "street": "6475 SW BORLAND RD", "postcode": "97062"}}},
{"geometry": {"type": "Point", "coordinates": [-122.7431854185, 45.3767269138]}, "type": "Feature", "properties": {"collection_times": [{"days": "Mon-Fri", "time": "3:20pm"}, {"days": "Sat-Sun", "time": "Closed"}], "id": "9706200007", "name": "USPS COLLECTION BOX - BLUE BOX", "address": {"city": "TUALATIN", "state": "OR", "street": "6464 SW BORLAND RD", "postcode": "97062"}}},
{"geometry": {"type": "Point", "coordinates": [-122.743921219, 45.3805656156]}, "type": "Feature", "properties": {"collection_times": [{"days": "Mon-Fri", "time": "3:30pm"}, {"days": "Sat", "time": "10:00am"}, {"days": "Sun", "time": "Closed"}], "id": "9706200010", "name": "USPS COLLECTION BOX - BLUE BOX", "address": {"city": "TUALATIN", "state": "OR", "street": "19300 SW 65TH AVE", "postcode": "97062"}}},
{"geometry": {"type": "Point", "coordinates": [-122.7595788638, 45.3826795633]}, "type": "Feature", "properties": {"collection_times": [{"days": "Mon-Sat", "time": "10:00am"}, {"days": "Sun", "time": "Closed"}], "id": "9706200015", "name": "USPS COLLECTION BOX - BLUE BOX", "address": {"city": "TUALATIN", "state": "OR", "street": "8101 SW NYBERG ST", "postcode": "97062"}}},
{"geometry": {"type": "Point", "coordinates": [-122.7674364089, 45.3736273731]}, "type": "Feature", "properties": {"collection_times": [{"days": "Mon-Fri", "time": "3:35pm"}, {"days": "Sat", "time": "10:00am"}, {"days": "Sun", "time": "Closed"}], "id": "9706200019", "name": "USPS COLLECTION BOX - BLUE BOX", "address": {"city": "TUALATIN", "state": "OR", "street": "7006 SW NYBERG ST", "postcode": "97062"}}},
{"geometry": {"type": "Point", "coordinates": [-122.7595563876, 45.3826665508]}, "type": "Feature", "properties": {"collection_times": [{"days": "Mon-Fri", "time": "3:00pm"}, {"days": "Sat", "time": "10:00am"}, {"days": "Sun", "time": "Closed"}], "id": "9706200029", "name": "USPS COLLECTION BOX - BLUE BOX", "address": {"city": "TUALATIN", "state": "OR", "street": "8100 SW NYBERG ST", "postcode": "97062"}}},
{"geometry": {"type": "Point", "coordinates": [-122.7431854185, 45.3767269138]}, "type": "Feature", "properties": {"collection_times": [{"days": "Mon-Fri", "time": "3:20pm"}, {"days": "Sat-Sun", "time": "Closed"}], "id": "9706200030", "name": "USPS COLLECTION BOX - BLUE BOX", "address": {"city": "TUALATIN", "state": "OR", "street": "6464 SW BORLAND RD", "postcode": "97062"}}},
{"geometry": {"type": "Point", "coordinates": [-122.7707994284, 45.3806206829]}, "type": "Feature", "properties": {"collection_times": [{"days": "Mon-Fri", "time": "5:00pm"}, {"days": "Sat", "time": "3:30pm"}, {"days": "Sun", "time": "Closed"}], "id": "9706200031", "name": "USPS COLLECTION BOX - PO LOBBY", "address": {"city": "TUALATIN", "state": "OR", "street": "19190 SW 90TH AVE", "postcode": "97062"}}},
{"geometry": {"type": "Point", "coordinates": [-122.7674364089, 45.3736273731]}, "type": "Feature", "properties": {"collection_times": [{"days": "Mon-Fri", "time": "5:00pm"}, {"days": "Sat", "time": "3:30pm"}, {"days": "Sun", "time": "Closed"}], "id": "9706200032", "name": "USPS COLLECTION BOX - EXPRESS", "address": {"city": "TUALATIN", "state": "OR", "street": "19190 SW 90TH AVE", "postcode": "97062"}}},
{"geometry": {"type": "Point", "coordinates": [-122.7707994284, 45.3806206829]}, "type": "Feature", "properties": {"collection_times": [{"days": "Mon-Fri", "time": "5:00pm"}, {"days": "Sat", "time": "3:30pm"}, {"days": "Sun", "time": "Closed"}], "id": "9706200033", "name": "USPS COLLECTION BOX - BLUE BOX", "address": {"city": "TUALATIN", "state": "OR", "street": "19190 SW 90TH AVE", "postcode": "97062"}}},
{"geometry": {"type": "Point", "coordinates": [-122.7707994284, 45.3806206829]}, "type": "Feature", "properties": {"collection_times": [{"days": "Mon-Fri", "time": "5:00pm"}, {"days": "Sat", "time": "3:30pm"}, {"days": "Sun", "time": "Closed"}], "id": "9706200034", "name": "USPS COLLECTION BOX - BLUE BOX", "address": {"city": "TUALATIN", "state": "OR", "street": "19190 SW 90TH AVE", "postcode": "97062"}}},
{"geometry": {"type": "Point", "coordinates": [-122.7707994284, 45.3806206829]}, "type": "Feature", "properties": {"collection_times": [{"days": "Mon-Fri", "time": "5:00pm"}, {"days": "Sat", "time": "3:30pm"}, {"days": "Sun", "time": "Closed"}], "id": "9706200035", "name": "USPS COLLECTION BOX - BLUE BOX", "address": {"city": "TUALATIN", "state": "OR", "street": "19190 SW 90TH AVE", "postcode": "97062"}}},
{"geometry": {"type": "Point", "coordinates": [-121.2502778034, 45.2379893364]}, "type": "Feature", "properties": {"collection_times": [{"days": "Mon-Fri", "time": "2:45pm"}, {"days": "Sat", "time": "1:30pm"}, {"days": "Sun", "time": "Closed"}], "id": "9706300001", "name": "USPS COLLECTION BOX - PO LOBBY", "address": {"city": "TYGH VALLEY", "state": "OR", "street": "57686 TYGH VALLEY RD", "postcode": "97063"}}},
{"geometry": {"type": "Point", "coordinates": [-121.1761795184, 45.2456150754]}, "type": "Feature", "properties": {"collection_times": [{"days": "Mon-Sat", "time": "12:30pm"}, {"days": "Sun", "time": "Closed"}], "id": "9706300003", "name": "USPS COLLECTION BOX - BLUE BOX", "address": {"city": "TYGH VALLEY", "state": "OR", "street": "57016 WAMIC MARKET RD", "postcode": "97063"}}},
{"geometry": {"type": "Point", "coordinates": [-121.1718574806, 45.2468675854]}, "type": "Feature", "properties": {"collection_times": [{"days": "Mon-Fri", "time": "4:30pm"}, {"days": "Sat", "time": "1:30pm"}, {"days": "Sun", "time": "Closed"}], "id": "9706300004", "name": "USPS COLLECTION BOX - BLUE BOX", "address": {"city": "TYGH VALLEY", "state": "OR", "street": "57686 TYGH VALLEY RD", "postcode": "97063"}}},
{"geometry": {"type": "Point", "coordinates": [-123.1932128612, 45.8578508739]}, "type": "Feature", "properties": {"collection_times": [{"days": "Mon-Fri", "time": "5:00pm"}, {"days": "Sat", "time": "4:15pm"}, {"days": "Sun", "time": "Closed"}], "id": "9706400001", "name": "USPS COLLECTION BOX - BLUE BOX", "address": {"city": "VERNONIA", "state": "OR", "street": "750 MAPLE ST", "postcode": "97064"}}},
{"geometry": {"type": "Point", "coordinates": [-123.1939761818, 45.8579669559]}, "type": "Feature", "properties": {"collection_times": [{"days": "Mon-Fri", "time": "5:00pm"}, {"days": "Sat", "time": "4:15pm"}, {"days": "Sun", "time": "Closed"}], "id": "9706400003", "name": "USPS COLLECTION BOX - PO LOBBY", "address": {"city": "VERNONIA", "state": "OR", "street": "716 JEFFERSON AVE", "postcode": "97064"}}},
{"geometry": {"type": "Point", "coordinates": [-120.7165590529, 45.5916989003]}, "type": "Feature", "properties": {"collection_times": [{"days": "Mon-Fri", "time": "3:30pm"}, {"days": "Sat", "time": "9:45am"}, {"days": "Sun", "time": "Closed"}], "id": "9706500001", "name": "USPS COLLECTION BOX - BLUE BOX", "address": {"city": "WASCO", "state": "OR", "street": "1024 CLARK ST", "postcode": "97065"}}},
{"geometry": {"type": "Point", "coordinates": [-120.7165590529, 45.5916989003]}, "type": "Feature", "properties": {"collection_times": [{"days": "Mon-Fri", "time": "3:30pm"}, {"days": "Sat", "time": "9:45am"}, {"days": "Sun", "time": "Closed"}], "id": "9706500002", "name": "USPS COLLECTION BOX - PO LOBBY", "address": {"city": "WASCO", "state": "OR", "street": "1024 CLARK ST", "postcode": "97065"}}},
{"geometry": {"type": "Point", "coordinates": [-121.9633587585, 45.3467365381]}, "type": "Feature", "properties": {"collection_times": [{"days": "Mon-Fri", "time": "4:30pm"}, {"days": "Sat", "time": "10:45am"}, {"days": "Sun", "time": "Closed"}], "id": "9706700001", "name": "USPS COLLECTION BOX - BLUE BOX", "address": {"city": "WELCHES", "state": "OR", "street": "24407 E WELCHES RD", "postcode": "97067"}}},
{"geometry": {"type": "Point", "coordinates": [-121.9633587585, 45.3467365381]}, "type": "Feature", "properties": {"collection_times": [{"days": "Mon-Fri", "time": "4:30pm"}, {"days": "Sat", "time": "10:45am"}, {"days": "Sun", "time": "Closed"}], "id": "9706700002", "name": "USPS COLLECTION BOX - PO LOBBY", "address": {"city": "WELCHES", "state": "OR", "street": "24407 E WELCHES RD", "postcode": "97067"}}},
{"geometry": {"type": "Point", "coordinates": [-122.6128623782, 45.3670739686]}, "type": "Feature", "properties": {"collection_times": [{"days": "Mon-Fri", "time": "5:00pm"}, {"days": "Sat", "time": "3:30pm"}, {"days": "Sun", "time": "Closed"}], "id": "9706800001", "name": "USPS COLLECTION BOX - BLUE BOX", "address": {"city": "WEST LINN", "state": "OR", "street": "5665 HOOD ST", "postcode": "97068"}}},
{"geometry": {"type": "Point", "coordinates": [-122.6128623782, 45.3670739686]}, "type": "Feature", "properties": {"collection_times": [{"days": "Mon-Fri", "time": "5:00pm"}, {"days": "Sat", "time": "3:30pm"}, {"days": "Sun", "time": "Closed"}], "id": "9706800002", "name": "USPS COLLECTION BOX - BLUE BOX", "address": {"city": "WEST LINN", "state": "OR", "street": "5665 HOOD ST", "postcode": "97068"}}},
{"geometry": {"type": "Point", "coordinates": [-122.6128623782, 45.3670739686]}, "type": "Feature", "properties": {"collection_times": [{"days": "Mon-Fri", "time": "5:00pm"}, {"days": "Sat", "time": "3:30pm"}, {"days": "Sun", "time": "Closed"}], "id": "9706800003", "name": "USPS COLLECTION BOX - PO LOBBY", "address": {"city": "WEST LINN", "state": "OR", "street": "5665 HOOD ST", "postcode": "97068"}}},
{"geometry": {"type": "Point", "coordinates": [-122.6547178323, 45.3792974836]}, "type": "Feature", "properties": {"collection_times": [{"days": "Mon-Sat", "time": "10:00am"}, {"days": "Sun", "time": "Closed"}], "id": "9706800006", "name": "USPS COLLECTION BOX - BLUE BOX", "address": {"city": "WEST LINN", "state": "OR", "street": "19790 SUNCREST DR", "postcode": "97068"}}},
{"geometry": {"type": "Point", "coordinates": [-122.6479791727, 45.3653979327]}, "type": "Feature", "properties": {"collection_times": [{"days": "Mon-Sat", "time": "1:00pm"}, {"days": "Sun", "time": "Closed"}], "id": "9706800007", "name": "USPS COLLECTION BOX - BLUE BOX", "address": {"city": "WEST LINN", "state": "OR", "street": "19133 WILLAMETTE DR", "postcode": "97068"}}},
{"geometry": {"type": "Point", "coordinates": [-122.6539773, 45.3500227981]}, "type": "Feature", "properties": {"collection_times": [{"days": "Mon-Sat", "time": "1:00pm"}, {"days": "Sun", "time": "Closed"}], "id": "9706800008", "name": "USPS COLLECTION BOX - BLUE BOX", "address": {"city": "WEST LINN", "state": "OR", "street": "1855 BLANKENSHIP RD", "postcode": "97068"}}},
{"geometry": {"type": "Point", "coordinates": [-122.6537442571, 45.3445338685]}, "type": "Feature", "properties": {"collection_times": [{"days": "Mon-Fri", "time": "1:00pm"}, {"days": "Sat", "time": "10:00am"}, {"days": "Sun", "time": "Closed"}], "id": "9706800009", "name": "USPS COLLECTION BOX - BLUE BOX", "address": {"city": "WEST LINN", "state": "OR", "street": "1919 WILLAMETTE FALLS DR", "postcode": "97068"}}},
{"geometry": {"type": "Point", "coordinates": [-122.6552347854, 45.3506083628]}, "type": "Feature", "properties": {"collection_times": [{"days": "Mon-Fri", "time": "1:00pm"}, {"days": "Sat-Sun", "time": "Closed"}], "id": "9706800010", "name": "USPS COLLECTION BOX - BLUE BOX", "address": {"city": "WEST LINN", "state": "OR", "street": "1800 BLANKENSHIP RD", "postcode": "97068"}}},
{"geometry": {"type": "Point", "coordinates": [-122.645396665, 45.3600653132]}, "type": "Feature", "properties": {"collection_times": [{"days": "Mon-Sat", "time": "11:00am"}, {"days": "Sun", "time": "Closed"}], "id": "9706800011", "name": "USPS COLLECTION BOX - BLUE BOX", "address": {"city": "WEST LINN", "state": "OR", "street": "3480 CHAPARREL LOOP", "postcode": "97068"}}},
{"geometry": {"type": "Point", "coordinates": [-122.6442736142, 45.389703851]}, "type": "Feature", "properties": {"collection_times": [{"days": "Mon-Sat", "time": "1:00pm"}, {"days": "Sun", "time": "Closed"}], "id": "9706800012", "name": "USPS COLLECTION BOX - BLUE BOX", "address": {"city": "WEST LINN", "state": "OR", "street": "18825 WILLAMETTE DR", "postcode": "97068"}}},
{"geometry": {"type": "Point", "coordinates": [-122.6128623782, 45.3670739686]}, "type": "Feature", "properties": {"collection_times": [{"days": "Mon-Fri", "time": "5:00pm"}, {"days": "Sat", "time": "3:30pm"}, {"days": "Sun", "time": "Closed"}], "id": "9706800013", "name": "USPS COLLECTION BOX - BLUE BOX", "address": {"city": "WEST LINN", "state": "OR", "street": "5665 HOOD ST", "postcode": "97068"}}},
{"geometry": {"type": "Point", "coordinates": [-122.6486740949, 45.3621765185]}, "type": "Feature", "properties": {"collection_times": [{"days": "Mon-Sat", "time": "12:00pm"}, {"days": "Sun", "time": "Closed"}], "id": "9706800014", "name": "USPS COLLECTION BOX - BLUE BOX", "address": {"city": "WEST LINN", "state": "OR", "street": "22500 SALAMO RD", "postcode": "97068"}}},
{"geometry": {"type": "Point", "coordinates": [-122.6552347854, 45.3506083628]}, "type": "Feature", "properties": {"collection_times": [{"days": "Mon-Fri", "time": "1:00pm"}, {"days": "Sat-Sun", "time": "Closed"}], "id": "9706800015", "name": "USPS COLLECTION BOX - BLUE BOX", "address": {"city": "WEST LINN", "state": "OR", "street": "1800 BLANKENSHIP RD", "postcode": "97068"}}},
{"geometry": {"type": "Point", "coordinates": [-122.6128623782, 45.3670739686]}, "type": "Feature", "properties": {"collection_times": [{"days": "Mon-Fri", "time": "5:00pm"}, {"days": "Sat", "time": "3:30pm"}, {"days": "Sun", "time": "Closed"}], "id": "9706800016", "name": "USPS COLLECTION BOX - APC", "address": {"city": "WEST LINN", "state": "OR", "street": "5665 HOOD ST", "postcode": "97068"}}},
{"geometry": {"type": "Point", "coordinates": [-122.7713081143, 45.3217344918]}, "type": "Feature", "properties": {"collection_times": [{"days": "Mon-Fri", "time": "4:30pm"}, {"days": "Sat", "time": "9:30am"}, {"days": "Sun", "time": "Closed"}], "id": "9707000004", "name": "USPS COLLECTION BOX - BLUE BOX", "address": {"city": "WILSONVILLE", "state": "OR", "street": "9200 SW HILLMAN CT", "postcode": "97070"}}},
{"geometry": {"type": "Point", "coordinates": [-122.771999933, 45.3389917058]}, "type": "Feature", "properties": {"collection_times": [{"days": "Mon-Fri", "time": "4:30pm"}, {"days": "Sat", "time": "9:30am"}, {"days": "Sun", "time": "Closed"}], "id": "9707000005", "name": "USPS COLLECTION BOX - BLUE BOX", "address": {"city": "WILSONVILLE", "state": "OR", "street": "9255 SW PIONEER CT", "postcode": "97070"}}},
{"geometry": {"type": "Point", "coordinates": [-122.7654166962, 45.3355765959]}, "type": "Feature", "properties": {"collection_times": [{"days": "Mon-Fri", "time": "4:30pm"}, {"days": "Sat", "time": "9:30am"}, {"days": "Sun", "time": "Closed"}], "id": "9707000006", "name": "USPS COLLECTION BOX - BLUE BOX", "address": {"city": "WILSONVILLE", "state": "OR", "street": "8605 SW ELLIGSEN RD", "postcode": "97070"}}},
{"geometry": {"type": "Point", "coordinates": [-122.7654166962, 45.3355765959]}, "type": "Feature", "properties": {"collection_times": [{"days": "Mon-Fri", "time": "4:30pm"}, {"days": "Sat", "time": "9:30am"}, {"days": "Sun", "time": "Closed"}], "id": "9707000007", "name": "USPS COLLECTION BOX - BLUE BOX", "address": {"city": "WILSONVILLE", "state": "OR", "street": "8605 SW ELLIGSEN RD", "postcode": "97070"}}},
{"geometry": {"type": "Point", "coordinates": [-122.7740866726, 45.3376419496]}, "type": "Feature", "properties": {"collection_times": [{"days": "Mon-Fri", "time": "4:30pm"}, {"days": "Sat", "time": "9:00am"}, {"days": "Sun", "time": "Closed"}], "id": "9707000008", "name": "USPS COLLECTION BOX - BLUE BOX", "address": {"city": "WILSONVILLE", "state": "OR", "street": "9450 SW COMMERCE CIR", "postcode": "97070"}}},
{"geometry": {"type": "Point", "coordinates": [-122.7619471477, 45.3093467541]}, "type": "Feature", "properties": {"collection_times": [{"days": "Mon-Fri", "time": "5:00pm"}, {"days": "Sat", "time": "4:00pm"}, {"days": "Sun", "time": "Closed"}], "id": "9707000009", "name": "USPS COLLECTION BOX - BLUE BOX", "address": {"city": "WILSONVILLE", "state": "OR", "street": "29333 SW TOWN CENTER LOOP E", "postcode": "97070"}}},
{"geometry": {"type": "Point", "coordinates": [-122.7619471477, 45.3093467541]}, "type": "Feature", "properties": {"collection_times": [{"days": "Mon-Fri", "time": "5:00pm"}, {"days": "Sat", "time": "4:00pm"}, {"days": "Sun", "time": "Closed"}], "id": "9707000010", "name": "USPS COLLECTION BOX - BLUE BOX", "address": {"city": "WILSONVILLE", "state": "OR", "street": "29333 SW TOWN CENTER LOOP E", "postcode": "97070"}}},
{"geometry": {"type": "Point", "coordinates": [-122.7619471477, 45.3093467541]}, "type": "Feature", "properties": {"collection_times": [{"days": "Mon-Fri", "time": "5:00pm"}, {"days": "Sat", "time": "4:00pm"}, {"days": "Sun", "time": "Closed"}], "id": "9707000011", "name": "USPS COLLECTION BOX - BLUE BOX", "address": {"city": "WILSONVILLE", "state": "OR", "street": "29333 SW TOWN CENTER LOOP E", "postcode": "97070"}}},
{"geometry": {"type": "Point", "coordinates": [-122.7654166962, 45.3355765959]}, "type": "Feature", "properties": {"collection_times": [{"days": "Mon-Fri", "time": "4:30pm"}, {"days": "Sat", "time": "9:30am"}, {"days": "Sun", "time": "Closed"}], "id": "9707000021", "name": "USPS COLLECTION BOX - BLUE BOX", "address": {"city": "WILSONVILLE", "state": "OR", "street": "8605 SW ELLIGSEN RD", "postcode": "97070"}}},
{"geometry": {"type": "Point", "coordinates": [-122.765185696, 45.3093473618]}, "type": "Feature", "properties": {"collection_times": [{"days": "Mon-Fri", "time": "4:30pm"}, {"days": "Sat", "time": "9:30am"}, {"days": "Sun", "time": "Closed"}], "id": "9707000022", "name": "USPS COLLECTION BOX - EXPRESS", "address": {"city": "WILSONVILLE", "state": "OR", "street": "9200 SW HILLMAN CT", "postcode": "97070"}}},
{"geometry": {"type": "Point", "coordinates": [-122.7713081143, 45.3217344918]}, "type": "Feature", "properties": {"collection_times": [{"days": "Mon-Fri", "time": "4:30pm"}, {"days": "Sat", "time": "9:30am"}, {"days": "Sun", "time": "Closed"}], "id": "9707000023", "name": "USPS COLLECTION BOX - BLUE BOX", "address": {"city": "WILSONVILLE", "state": "OR", "street": "9200 SW HILLMAN CT", "postcode": "97070"}}},
{"geometry": {"type": "Point", "coordinates": [-122.7654166962, 45.3355765959]}, "type": "Feature", "properties": {"collection_times": [{"days": "Mon-Fri", "time": "4:30pm"}, {"days": "Sat", "time": "9:30am"}, {"days": "Sun", "time": "Closed"}], "id": "9707000027", "name": "USPS COLLECTION BOX - BLUE BOX", "address": {"city": "WILSONVILLE", "state": "OR", "street": "8605 SW ELLIGSEN RD", "postcode": "97070"}}},
{"geometry": {"type": "Point", "coordinates": [-122.7617206605, 45.3030594113]}, "type": "Feature", "properties": {"collection_times": [{"days": "Mon-Fri", "time": "5:15pm"}, {"days": "Sat", "time": "10:00am"}, {"days": "Sun", "time": "Closed"}], "id": "9707000029", "name": "USPS COLLECTION BOX - BLUE BOX", "address": {"city": "WILSONVILLE", "state": "OR", "street": "8235 SW WILSONVILLE RD", "postcode": "97070"}}},
{"geometry": {"type": "Point", "coordinates": [-122.7629589606, 45.3030491326]}, "type": "Feature", "properties": {"collection_times": [{"days": "Mon-Fri", "time": "5:15pm"}, {"days": "Sat", "time": "10:00am"}, {"days": "Sun", "time": "Closed"}], "id": "9707000030", "name": "USPS COLLECTION BOX - BLUE BOX", "address": {"city": "WILSONVILLE", "state": "OR", "street": "8269 SW WILSONVILLE RD", "postcode": "97070"}}},
{"geometry": {"type": "Point", "coordinates": [-122.7740866726, 45.3376419496]}, "type": "Feature", "properties": {"collection_times": [{"days": "Mon-Fri", "time": "4:30pm"}, {"days": "Sat", "time": "9:00am"}, {"days": "Sun", "time": "Closed"}], "id": "9707000031", "name": "USPS COLLECTION BOX - BLUE BOX", "address": {"city": "WILSONVILLE", "state": "OR", "street": "9450 SW COMMERCE CIR", "postcode": "97070"}}},
{"geometry": {"type": "Point", "coordinates": [-122.765185696, 45.3093473618]}, "type": "Feature", "properties": {"collection_times": [{"days": "Mon-Fri", "time": "4:30pm"}, {"days": "Sat", "time": "9:00am"}, {"days": "Sun", "time": "Closed"}], "id": "9707000032", "name": "USPS COLLECTION BOX - EXPRESS", "address": {"city": "WILSONVILLE", "state": "OR", "street": "9450 SW COMMERCE CIR", "postcode": "97070"}}},
{"geometry": {"type": "Point", "coordinates": [-122.7740866726, 45.3376419496]}, "type": "Feature", "properties": {"collection_times": [{"days": "Mon-Fri", "time": "4:30pm"}, {"days": "Sat", "time": "9:00am"}, {"days": "Sun", "time": "Closed"}], "id": "9707000033", "name": "USPS COLLECTION BOX - BLUE BOX", "address": {"city": "WILSONVILLE", "state": "OR", "street": "9450 SW COMMERCE CIR", "postcode": "97070"}}},
{"geometry": {"type": "Point", "coordinates": [-122.7713081143, 45.3217344918]}, "type": "Feature", "properties": {"collection_times": [{"days": "Mon-Fri", "time": "4:30pm"}, {"days": "Sat", "time": "9:30am"}, {"days": "Sun", "time": "Closed"}], "id": "9707000038", "name": "USPS COLLECTION BOX - BLUE BOX", "address": {"city": "WILSONVILLE", "state": "OR", "street": "9200 SW HILLMAN CT", "postcode": "97070"}}},
{"geometry": {"type": "Point", "coordinates": [-122.765059691, 45.3094473425]}, "type": "Feature", "properties": {"collection_times": [{"days": "Mon-Fri", "time": "5:00pm"}, {"days": "Sat", "time": "10:00am"}, {"days": "Sun", "time": "Closed"}], "id": "9707000039", "name": "USPS COLLECTION BOX - BLUE BOX", "address": {"city": "WILSONVILLE", "state": "OR", "street": "9450 SW WILSONVILLE RD", "postcode": "97070"}}},
{"geometry": {"type": "Point", "coordinates": [-122.765059691, 45.3094473425]}, "type": "Feature", "properties": {"collection_times": [{"days": "Mon-Fri", "time": "5:00pm"}, {"days": "Sat", "time": "10:00am"}, {"days": "Sun", "time": "Closed"}], "id": "9707000040", "name": "USPS COLLECTION BOX - BLUE BOX", "address": {"city": "WILSONVILLE", "state": "OR", "street": "9450 SW WILSONVILLE RD", "postcode": "97070"}}},
{"geometry": {"type": "Point", "coordinates": [-122.7619471477, 45.3093467541]}, "type": "Feature", "properties": {"collection_times": [{"days": "Mon-Fri", "time": "5:00pm"}, {"days": "Sat", "time": "4:00pm"}, {"days": "Sun", "time": "Closed"}], "id": "9707000044", "name": "USPS COLLECTION BOX - PO LOBBY", "address": {"city": "WILSONVILLE", "state": "OR", "street": "29333 SW TOWN CENTER LOOP E", "postcode": "97070"}}},
{"geometry": {"type": "Point", "coordinates": [-122.7713081143, 45.3217344918]}, "type": "Feature", "properties": {"collection_times": [{"days": "Mon-Fri", "time": "4:30pm"}, {"days": "Sat", "time": "9:30am"}, {"days": "Sun", "time": "Closed"}], "id": "9707000045", "name": "USPS COLLECTION BOX - BLUE BOX", "address": {"city": "WILSONVILLE", "state": "OR", "street": "9200 SW HILLMAN CT", "postcode": "97070"}}},
{"geometry": {"type": "Point", "coordinates": [-122.7619471477, 45.3093467541]}, "type": "Feature", "properties": {"collection_times": [{"days": "Mon-Fri", "time": "5:00pm"}, {"days": "Sat", "time": "4:00pm"}, {"days": "Sun", "time": "Closed"}], "id": "9707000046", "name": "USPS COLLECTION BOX - BLUE BOX", "address": {"city": "WILSONVILLE", "state": "OR", "street": "29333 SW TOWN CENTER LOOP E", "postcode": "97070"}}},
{"geometry": {"type": "Point", "coordinates": [-122.7619471477, 45.3093467541]}, "type": "Feature", "properties": {"collection_times": [{"days": "Mon-Fri", "time": "5:00pm"}, {"days": "Sat", "time": "4:00pm"}, {"days": "Sun", "time": "Closed"}], "id": "9707000047", "name": "USPS COLLECTION BOX - APC", "address": {"city": "WILSONVILLE", "state": "OR", "street": "29333 SW TOWN CENTER LOOP E", "postcode": "97070"}}},
{"geometry": {"type": "Point", "coordinates": [-122.7600106439, 45.2897356604]}, "type": "Feature", "properties": {"collection_times": [{"days": "Mon-Sat", "time": "9:00am"}, {"days": "Sun", "time": "Closed"}], "id": "9707000048", "name": "USPS COLLECTION BOX - BLUE BOX", "address": {"city": "WILSONVILLE", "state": "OR", "street": "31840 SW CHARBONNEAU DR", "postcode": "97070"}}},
{"geometry": {"type": "Point", "coordinates": [-122.8561482898, 45.1440364551]}, "type": "Feature", "properties": {"collection_times": [{"days": "Mon-Fri", "time": "5:00pm"}, {"days": "Sat", "time": "2:30pm"}, {"days": "Sun", "time": "Closed"}], "id": "9707100005", "name": "USPS COLLECTION BOX - BLUE BOX", "address": {"city": "WOODBURN", "state": "OR", "street": "525 N 1ST ST", "postcode": "97071"}}},
{"geometry": {"type": "Point", "coordinates": [-122.8693570292, 45.1556272126]}, "type": "Feature", "properties": {"collection_times": [{"days": "Mon-Sat", "time": "2:30pm"}, {"days": "Sun", "time": "Closed"}], "id": "9707100008", "name": "USPS COLLECTION BOX - BLUE BOX", "address": {"city": "WOODBURN", "state": "OR", "street": "1776 COUNTRY CLUB RD", "postcode": "97071"}}},
{"geometry": {"type": "Point", "coordinates": [-122.8561482898, 45.1440364551]}, "type": "Feature", "properties": {"collection_times": [{"days": "Mon-Fri", "time": "5:00pm"}, {"days": "Sat", "time": "2:30pm"}, {"days": "Sun", "time": "Closed"}], "id": "9707100011", "name": "USPS COLLECTION BOX - BLUE BOX", "address": {"city": "WOODBURN", "state": "OR", "street": "525 N 1ST ST", "postcode": "97071"}}},
{"geometry": {"type": "Point", "coordinates": [-122.8561482898, 45.1440364551]}, "type": "Feature", "properties": {"collection_times": [{"days": "Mon-Fri", "time": "5:00pm"}, {"days": "Sat", "time": "2:30pm"}, {"days": "Sun", "time": "Closed"}], "id": "9707100012", "name": "USPS COLLECTION BOX - PO LOBBY", "address": {"city": "WOODBURN", "state": "OR", "street": "525 N 1ST ST", "postcode": "97071"}}},
{"geometry": {"type": "Point", "coordinates": [-122.8739816755, 45.1526173375]}, "type": "Feature", "properties": {"collection_times": [{"days": "Mon-Sat", "time": "2:30pm"}, {"days": "Sun", "time": "Closed"}], "id": "9707100014", "name": "USPS COLLECTION BOX - BLUE BOX", "address": {"city": "WOODBURN", "state": "OR", "street": "2241 COUNTRY CLUB RD", "postcode": "97071"}}},
{"geometry": {"type": "Point", "coordinates": [-122.8561482898, 45.1440364551]}, "type": "Feature", "properties": {"collection_times": [{"days": "Mon-Fri", "time": "5:00pm"}, {"days": "Sat", "time": "2:30pm"}, {"days": "Sun", "time": "Closed"}], "id": "9707100015", "name": "USPS COLLECTION BOX - BLUE BOX", "address": {"city": "WOODBURN", "state": "OR", "street": "525 N 1ST ST", "postcode": "97071"}}},
{"geometry": {"type": "Point", "coordinates": [-122.8810191349, 45.1489252429]}, "type": "Feature", "properties": {"collection_times": [{"days": "Mon-Sat", "time": "2:00pm"}, {"days": "Sun", "time": "Closed"}], "id": "9707100017", "name": "USPS COLLECTION BOX - BLUE BOX", "address": {"city": "WOODBURN", "state": "OR", "street": "3002 STACEY ALLISON WAY", "postcode": "97071"}}},
{"geometry": {"type": "Point", "coordinates": [-122.8315340084, 45.1506869189]}, "type": "Feature", "properties": {"collection_times": [{"days": "Mon-Sat", "time": "2:00pm"}, {"days": "Sun", "time": "Closed"}], "id": "9707100018", "name": "USPS COLLECTION BOX - BLUE BOX", "address": {"city": "WOODBURN", "state": "OR", "street": "1550 N PACIFIC HWY", "postcode": "97071"}}},
{"geometry": {"type": "Point", "coordinates": [-122.4070281855, 45.4951897269]}, "type": "Feature", "properties": {"collection_times": [{"days": "Mon-Fri", "time": "5:00pm"}, {"days": "Sat", "time": "3:00pm"}, {"days": "Sun", "time": "Closed"}], "id": "9708000000", "name": "USPS COLLECTION BOX - BLUE BOX", "address": {"city": "GRESHAM", "state": "OR", "street": "2497 SE BURNSIDE RD", "postcode": "97080"}}},
{"geometry": {"type": "Point", "coordinates": [-122.3885258381, 45.4770940236]}, "type": "Feature", "properties": {"collection_times": [{"days": "Mon-Fri", "time": "5:00pm"}, {"days": "Sat", "time": "3:00pm"}, {"days": "Sun", "time": "Closed"}], "id": "9708000001", "name": "USPS COLLECTION BOX - BLUE BOX", "address": {"city": "GRESHAM", "state": "OR", "street": "2205 NE BURNSIDE RD", "postcode": "97080"}}},
{"geometry": {"type": "Point", "coordinates": [-122.4755456845, 45.4901099817]}, "type": "Feature", "properties": {"collection_times": [{"days": "Mon-Fri", "time": "5:00pm"}, {"days": "Sat", "time": "3:00pm"}, {"days": "Sun", "time": "Closed"}], "id": "9708000002", "name": "USPS COLLECTION BOX - BLUE BOX", "address": {"city": "GRESHAM", "state": "OR", "street": "900 SW HIGHLAND DR", "postcode": "97080"}}},
{"geometry": {"type": "Point", "coordinates": [-122.5301203134, 45.4469556387]}, "type": "Feature", "properties": {"collection_times": [{"days": "Mon-Sat", "time": "2:00pm"}, {"days": "Sun", "time": "Closed"}], "id": "9708600001", "name": "USPS COLLECTION BOX - BLUE BOX", "address": {"city": "CLACKAMAS", "state": "OR", "street": "12915 SE KING RD", "postcode": "97086"}}}
]}
