{"type": "FeatureCollection", "features": [
{"geometry": {"type": "Point", "coordinates": [-123.2061070069, 45.1159536946]}, "type": "Feature", "properties": {"collection_times": [{"days": "Mon-Fri", "time": "4:45pm"}, {"days": "Sat", "time": "10:00am"}, {"days": "Sun", "time": "Closed"}], "id": "9710100001", "name": "USPS COLLECTION BOX - BLUE BOX", "address": {"city": "AMITY", "state": "OR", "street": "105 WOODSON ST", "postcode": "97101"}}},
{"geometry": {"type": "Point", "coordinates": [-123.835195843, 46.1896994051]}, "type": "Feature", "properties": {"collection_times": [{"days": "Mon-Fri", "time": "5:00pm"}, {"days": "Sat", "time": "3:00pm"}, {"days": "Sun", "time": "Closed"}], "id": "9710300009", "name": "USPS COLLECTION BOX - BLUE BOX", "address": {"city": "ASTORIA", "state": "OR", "street": "749 BOND ST", "postcode": "97103"}}},
{"geometry": {"type": "Point", "coordinates": [-123.835195843, 46.1896994051]}, "type": "Feature", "properties": {"collection_times": [{"days": "Mon-Fri", "time": "5:00pm"}, {"days": "Sat", "time": "3:00pm"}, {"days": "Sun", "time": "Closed"}], "id": "9710300010", "name": "USPS COLLECTION BOX - BLUE BOX", "address": {"city": "ASTORIA", "state": "OR", "street": "749 BOND ST", "postcode": "97103"}}},
{"geometry": {"type": "Point", "coordinates": [-123.8301465827, 46.1883009439]}, "type": "Feature", "properties": {"collection_times": [{"days": "Mon-Fri", "time": "3:00pm"}, {"days": "Sat", "time": "12:00pm"}, {"days": "Sun", "time": "Closed"}], "id": "9710300015", "name": "USPS COLLECTION BOX - BLUE BOX", "address": {"city": "ASTORIA", "state": "OR", "street": "1201 DUANE ST", "postcode": "97103"}}},
{"geometry": {"type": "Point", "coordinates": [-123.8317713021, 46.1884065207]}, "type": "Feature", "properties": {"collection_times": [{"days": "Mon-Fri", "time": "3:00pm"}, {"days": "Sat", "time": "12:00pm"}, {"days": "Sun", "time": "Closed"}], "id": "9710300016", "name": "USPS COLLECTION BOX - BLUE BOX", "address": {"city": "ASTORIA", "state": "OR", "street": "1098 DUANE ST", "postcode": "97103"}}},
{"geometry": {"type": "Point", "coordinates": [-123.8286193013, 46.1885422635]}, "type": "Feature", "properties": {"collection_times": [{"days": "Mon-Fri", "time": "3:00pm"}, {"days": "Sat", "time": "12:00pm"}, {"days": "Sun", "time": "Closed"}], "id": "9710300017", "name": "USPS COLLECTION BOX - BLUE BOX", "address": {"city": "ASTORIA", "state": "OR", "street": "1390 DUANE ST", "postcode": "97103"}}},
{"geometry": {"type": "Point", "coordinates": [-123.831626578, 46.1889703984]}, "type": "Feature", "properties": {"collection_times": [{"days": "Mon-Fri", "time": "3:00pm"}, {"days": "Sat", "time": "12:00pm"}, {"days": "Sun", "time": "Closed"}], "id": "9710300021", "name": "USPS COLLECTION BOX - BLUE BOX", "address": {"city": "ASTORIA", "state": "OR", "street": "1105 COMMERCIAL ST", "postcode": "97103"}}},
{"geometry": {"type": "Point", "coordinates": [-123.8325493061, 46.1889847593]}, "type": "Feature", "properties": {"collection_times": [{"days": "Mon-Fri", "time": "3:00pm"}, {"days": "Sat", "time": "12:00pm"}, {"days": "Sun", "time": "Closed"}], "id": "9710300023", "name": "USPS COLLECTION BOX - BLUE BOX", "address": {"city": "ASTORIA", "state": "OR", "street": "1015 COMMERCIAL ST", "postcode": "97103"}}},
{"geometry": {"type": "Point", "coordinates": [-123.8273287742, 46.1891354455]}, "type": "Feature", "properties": {"collection_times": [{"days": "Mon-Fri", "time": "3:00pm"}, {"days": "Sat", "time": "12:00pm"}, {"days": "Sun", "time": "Closed"}], "id": "9710300025", "name": "USPS COLLECTION BOX - BLUE BOX", "address": {"city": "ASTORIA", "state": "OR", "street": "1490 COMMERCIAL ST", "postcode": "97103"}}},
{"geometry": {"type": "Point", "coordinates": [-123.8284617352, 46.1889768874]}, "type": "Feature", "properties": {"collection_times": [{"days": "Mon-Fri", "time": "3:00pm"}, {"days": "Sat", "time": "12:00pm"}, {"days": "Sun", "time": "Closed"}], "id": "9710300026", "name": "USPS COLLECTION BOX - BLUE BOX", "address": {"city": "ASTORIA", "state": "OR", "street": "1405 COMMERCIAL ST", "postcode": "97103"}}},
{"geometry": {"type": "Point", "coordinates": [-123.8351747744, 46.1891328001]}, "type": "Feature", "properties": {"collection_times": [{"days": "Mon-Fri", "time": "5:00pm"}, {"days": "Sat", "time": "3:00pm"}, {"days": "Sun", "time": "Closed"}], "id": "9710300028", "name": "USPS COLLECTION BOX - PO LOBBY", "address": {"city": "ASTORIA", "state": "OR", "street": "750 COMMERCIAL ST", "postcode": "97103"}}},
{"geometry": {"type": "Point", "coordinates": [-123.8351747744, 46.1891328001]}, "type": "Feature", "properties": {"collection_times": [{"days": "Mon-Fri", "time": "5:00pm"}, {"days": "Sat", "time": "3:00pm"}, {"days": "Sun", "time": "Closed"}], "id": "9710300029", "name": "USPS COLLECTION BOX - PO LOBBY", "address": {"city": "ASTORIA", "state": "OR", "street": "750 COMMERCIAL ST", "postcode": "97103"}}},
{"geometry": {"type": "Point", "coordinates": [-123.835195843, 46.1896994051]}, "type": "Feature", "properties": {"collection_times": [{"days": "Mon-Fri", "time": "5:00pm"}, {"days": "Sat", "time": "3:00pm"}, {"days": "Sun", "time": "Closed"}], "id": "9710300030", "name": "USPS COLLECTION BOX - BLUE BOX", "address": {"city": "ASTORIA", "state": "OR", "street": "749 BOND ST", "postcode": "97103"}}},
{"geometry": {"type": "Point", "coordinates": [-123.698058509, 46.1665773568]}, "type": "Feature", "properties": {"collection_times": [{"days": "Mon-Sat", "time": "10:30am"}, {"days": "Sun", "time": "Closed"}], "id": "9710300032", "name": "USPS COLLECTION BOX - BLUE BOX", "address": {"city": "ASTORIA", "state": "OR", "street": "42930 HIGHWAY 30", "postcode": "97103"}}},
{"geometry": {"type": "Point", "coordinates": [-123.8351808991, 46.1897456435]}, "type": "Feature", "properties": {"collection_times": [{"days": "Mon-Sat", "time": "9:45am"}, {"days": "Sun", "time": "Closed"}], "id": "9710300036", "name": "USPS COLLECTION BOX - BLUE BOX", "address": {"city": "ASTORIA", "state": "OR", "street": "749 BOND ST", "postcode": "97103"}}},
{"geometry": {"type": "Point", "coordinates": [-123.8079644671, 46.1917913125]}, "type": "Feature", "properties": {"collection_times": [{"days": "Mon-Sat", "time": "12:00pm"}, {"days": "Sun", "time": "Closed"}], "id": "9710300037", "name": "USPS COLLECTION BOX - BLUE BOX", "address": {"city": "ASTORIA", "state": "OR", "street": "3250 LEIF ERIKSON DR", "postcode": "97103"}}},
{"geometry": {"type": "Point", "coordinates": [-123.6877044406, 46.1295682288]}, "type": "Feature", "properties": {"collection_times": [{"days": "Mon-Sat", "time": "12:00pm"}, {"days": "Sun", "time": "Closed"}], "id": "9710300038", "name": "USPS COLLECTION BOX - BLUE BOX", "address": {"city": "ASTORIA", "state": "OR", "street": "34908 HWY 101 BUSINESS", "postcode": "97103"}}},
{"geometry": {"type": "Point", "coordinates": [-123.130948259, 45.6408495564]}, "type": "Feature", "properties": {"collection_times": [{"days": "Mon-Fri", "time": "4:00pm"}, {"days": "Sat", "time": "9:00am"}, {"days": "Sun", "time": "Closed"}], "id": "9710600002", "name": "USPS COLLECTION BOX - BLUE BOX", "address": {"city": "BANKS", "state": "OR", "street": "42355 NW OAK WAY", "postcode": "97106"}}},
{"geometry": {"type": "Point", "coordinates": [-123.130948259, 45.6408495564]}, "type": "Feature", "properties": {"collection_times": [{"days": "Mon-Fri", "time": "5:00pm"}, {"days": "Sat", "time": "9:00am"}, {"days": "Sun", "time": "Closed"}], "id": "9710600003", "name": "USPS COLLECTION BOX - PO LOBBY", "address": {"city": "BANKS", "state": "OR", "street": "42355 NW OAK WAY", "postcode": "97106"}}},
{"geometry": {"type": "Point", "coordinates": [-123.9609455518, 45.8976435458]}, "type": "Feature", "properties": {"collection_times": [{"days": "Mon-Fri", "time": "3:15pm"}, {"days": "Sat", "time": "2:30pm"}, {"days": "Sun", "time": "Closed"}], "id": "9711000001", "name": "USPS COLLECTION BOX - BLUE BOX", "address": {"city": "ARCH CAPE", "state": "OR", "street": "79816 E BEACH RD", "postcode": "97110"}}},
{"geometry": {"type": "Point", "coordinates": [-123.9607965145, 45.8972483309]}, "type": "Feature", "properties": {"collection_times": [{"days": "Mon-Fri", "time": "3:45pm"}, {"days": "Sat", "time": "1:45pm"}, {"days": "Sun", "time": "Closed"}], "id": "9711000003", "name": "USPS COLLECTION BOX - BLUE BOX", "address": {"city": "ARCH CAPE", "state": "OR", "street": "1315 S HEMLOCK ST", "postcode": "97110"}}},
{"geometry": {"type": "Point", "coordinates": [-123.9608779048, 45.8979287045]}, "type": "Feature", "properties": {"collection_times": [{"days": "Mon-Fri", "time": "3:30pm"}, {"days": "Sat", "time": "2:00pm"}, {"days": "Sun", "time": "Closed"}], "id": "9711000004", "name": "USPS COLLECTION BOX - BLUE BOX", "address": {"city": "ARCH CAPE", "state": "OR", "street": "163 N HEMLOCK", "postcode": "97110"}}},
{"geometry": {"type": "Point", "coordinates": [-123.9608779048, 45.8979287045]}, "type": "Feature", "properties": {"collection_times": [{"days": "Mon-Fri", "time": "3:30pm"}, {"days": "Sat", "time": "10:00am"}, {"days": "Sun", "time": "Closed"}], "id": "9711000005", "name": "USPS COLLECTION BOX - PO LOBBY", "address": {"city": "ARCH CAPE", "state": "OR", "street": "163 N HEMLOCK", "postcode": "97110"}}},
{"geometry": {"type": "Point", "coordinates": [-123.1818195834, 45.2937878971]}, "type": "Feature", "properties": {"collection_times": [{"days": "Mon-Fri", "time": "4:30pm"}, {"days": "Sat", "time": "10:00am"}, {"days": "Sun", "time": "Closed"}], "id": "9711100001", "name": "USPS COLLECTION BOX - BLUE BOX", "address": {"city": "CARLTON", "state": "OR", "street": "438 W MAIN ST", "postcode": "97111"}}},
{"geometry": {"type": "Point", "coordinates": [-123.1818195834, 45.2937878971]}, "type": "Feature", "properties": {"collection_times": [{"days": "Mon-Fri", "time": "4:30pm"}, {"days": "Sat", "time": "10:00am"}, {"days": "Sun", "time": "Closed"}], "id": "9711100002", "name": "USPS COLLECTION BOX - BLUE BOX", "address": {"city": "CARLTON", "state": "OR", "street": "438 W MAIN ST", "postcode": "97111"}}},
{"geometry": {"type": "Point", "coordinates": [-123.1818195834, 45.2937878971]}, "type": "Feature", "properties": {"collection_times": [{"days": "Mon-Fri", "time": "4:30pm"}, {"days": "Sat", "time": "10:00am"}, {"days": "Sun", "time": "Closed"}], "id": "9711100003", "name": "USPS COLLECTION BOX - PO LOBBY", "address": {"city": "CARLTON", "state": "OR", "street": "438 W MAIN ST", "postcode": "97111"}}},
{"geometry": {"type": "Point", "coordinates": [-123.1818195834, 45.2937878971]}, "type": "Feature", "properties": {"collection_times": [{"days": "Mon-Fri", "time": "4:30pm"}, {"days": "Sat", "time": "10:00am"}, {"days": "Sun", "time": "Closed"}], "id": "9711100004", "name": "USPS COLLECTION BOX - PO LOBBY", "address": {"city": "CARLTON", "state": "OR", "street": "438 W MAIN ST", "postcode": "97111"}}},
{"geometry": {"type": "Point", "coordinates": [-123.9001929261, 45.1920214009]}, "type": "Feature", "properties": {"collection_times": [{"days": "Mon-Fri", "time": "4:00pm"}, {"days": "Sat", "time": "9:30am"}, {"days": "Sun", "time": "Closed"}], "id": "9711200001", "name": "USPS COLLECTION BOX - BLUE BOX", "address": {"city": "CLOVERDALE", "state": "OR", "street": "34480 HIGHWAY 101 S", "postcode": "97112"}}},
{"geometry": {"type": "Point", "coordinates": [-123.9001929261, 45.1920214009]}, "type": "Feature", "properties": {"collection_times": [{"days": "Mon-Fri", "time": "4:00pm"}, {"days": "Sat-Sun", "time": "Closed"}], "id": "9711200004", "name": "USPS COLLECTION BOX - PO LOBBY", "address": {"city": "CLOVERDALE", "state": "OR", "street": "34480 HIGHWAY 101 S", "postcode": "97112"}}},
{"geometry": {"type": "Point", "coordinates": [-123.0524830524, 45.5200613197]}, "type": "Feature", "properties": {"collection_times": [{"days": "Mon-Fri", "time": "4:30pm"}, {"days": "Sat", "time": "12:30pm"}, {"days": "Sun", "time": "Closed"}], "id": "9711300001", "name": "USPS COLLECTION BOX - BLUE BOX", "address": {"city": "CORNELIUS", "state": "OR", "street": "1639 BASELINE ST", "postcode": "97113"}}},
{"geometry": {"type": "Point", "coordinates": [-123.0445193727, 45.5202009089]}, "type": "Feature", "properties": {"collection_times": [{"days": "Mon-Sat", "time": "12:30pm"}, {"days": "Sun", "time": "Closed"}], "id": "9711300003", "name": "USPS COLLECTION BOX - BLUE BOX", "address": {"city": "CORNELIUS", "state": "OR", "street": "2200 BASELINE ST", "postcode": "97113"}}},
{"geometry": {"type": "Point", "coordinates": [-123.0524830524, 45.5200613197]}, "type": "Feature", "properties": {"collection_times": [{"days": "Mon-Fri", "time": "5:00pm"}, {"days": "Sat", "time": "9:00am"}, {"days": "Sun", "time": "Closed"}], "id": "9711300004", "name": "USPS COLLECTION BOX - PO LOBBY", "address": {"city": "CORNELIUS", "state": "OR", "street": "1639 BASELINE ST", "postcode": "97113"}}},
{"geometry": {"type": "Point", "coordinates": [-123.0524830524, 45.5200613197]}, "type": "Feature", "properties": {"collection_times": [{"days": "Mon-Fri", "time": "4:30pm"}, {"days": "Sat", "time": "12:30pm"}, {"days": "Sun", "time": "Closed"}], "id": "9711300005", "name": "USPS COLLECTION BOX - BLUE BOX", "address": {"city": "CORNELIUS", "state": "OR", "street": "1639 BASELINE ST", "postcode": "97113"}}},
{"geometry": {"type": "Point", "coordinates": [-123.0524830524, 45.5200613197]}, "type": "Feature", "properties": {"collection_times": [{"days": "Mon-Fri", "time": "5:00pm"}, {"days": "Sat", "time": "9:00am"}, {"days": "Sun", "time": "Closed"}], "id": "9711300006", "name": "USPS COLLECTION BOX - PO LOBBY", "address": {"city": "CORNELIUS", "state": "OR", "street": "1639 BASELINE ST", "postcode": "97113"}}},
{"geometry": {"type": "Point", "coordinates": [-123.0793539655, 45.2186800472]}, "type": "Feature", "properties": {"collection_times": [{"days": "Mon-Fri", "time": "4:45pm"}, {"days": "Sat", "time": "9:30am"}, {"days": "Sun", "time": "Closed"}], "id": "9711400001", "name": "USPS COLLECTION BOX - BLUE BOX", "address": {"city": "DAYTON", "state": "OR", "street": "530 FERRY ST", "postcode": "97114"}}},
{"geometry": {"type": "Point", "coordinates": [-123.0793539655, 45.2186800472]}, "type": "Feature", "properties": {"collection_times": [{"days": "Mon-Fri", "time": "4:45pm"}, {"days": "Sat", "time": "9:30am"}, {"days": "Sun", "time": "Closed"}], "id": "9711400005", "name": "USPS COLLECTION BOX - PO LOBBY", "address": {"city": "DAYTON", "state": "OR", "street": "530 FERRY ST", "postcode": "97114"}}},
{"geometry": {"type": "Point", "coordinates": [-123.0110784152, 45.2802280377]}, "type": "Feature", "properties": {"collection_times": [{"days": "Mon-Fri", "time": "4:45pm"}, {"days": "Sat", "time": "9:30am"}, {"days": "Sun", "time": "Closed"}], "id": "9711500002", "name": "USPS COLLECTION BOX - BLUE BOX", "address": {"city": "DUNDEE", "state": "OR", "street": "279 SW 5TH ST", "postcode": "97115"}}},
{"geometry": {"type": "Point", "coordinates": [-123.0110784152, 45.2802280377]}, "type": "Feature", "properties": {"collection_times": [{"days": "Mon-Fri", "time": "5:00pm"}, {"days": "Sat", "time": "9:30am"}, {"days": "Sun", "time": "Closed"}], "id": "9711500004", "name": "USPS COLLECTION BOX - PO LOBBY", "address": {"city": "DUNDEE", "state": "OR", "street": "279 SW 5TH ST", "postcode": "97115"}}},
{"geometry": {"type": "Point", "coordinates": [-123.0110784152, 45.2802280377]}, "type": "Feature", "properties": {"collection_times": [{"days": "Mon-Fri", "time": "5:00pm"}, {"days": "Sat", "time": "9:30am"}, {"days": "Sun", "time": "Closed"}], "id": "9711500005", "name": "USPS COLLECTION BOX - PO LOBBY", "address": {"city": "DUNDEE", "state": "OR", "street": "279 SW 5TH ST", "postcode": "97115"}}},
{"geometry": {"type": "Point", "coordinates": [-123.114659736, 45.520922093]}, "type": "Feature", "properties": {"collection_times": [{"days": "Mon-Fri", "time": "5:30pm"}, {"days": "Sat", "time": "3:00pm"}, {"days": "Sun", "time": "Closed"}], "id": "9711600002", "name": "USPS COLLECTION BOX - BLUE BOX", "address": {"city": "FOREST GROVE", "state": "OR", "street": "1822 21ST AVE", "postcode": "97116"}}},
{"geometry": {"type": "Point", "coordinates": [-123.1146806689, 45.5209544538]}, "type": "Feature", "properties": {"collection_times": [{"days": "Mon-Fri", "time": "5:30pm"}, {"days": "Sat", "time": "3:00pm"}, {"days": "Sun", "time": "Closed"}], "id": "9711600003", "name": "USPS COLLECTION BOX - BLUE BOX", "address": {"city": "FOREST GROVE", "state": "OR", "street": "1822 21ST AVE", "postcode": "97116"}}},
{"geometry": {"type": "Point", "coordinates": [-123.1146600091, 45.5209225421]}, "type": "Feature", "properties": {"collection_times": [{"days": "Mon-Fri", "time": "5:30pm"}, {"days": "Sat", "time": "3:00pm"}, {"days": "Sun", "time": "Closed"}], "id": "9711600004", "name": "USPS COLLECTION BOX - BLUE BOX", "address": {"city": "FOREST GROVE", "state": "OR", "street": "1822 21ST AVE", "postcode": "97116"}}},
{"geometry": {"type": "Point", "coordinates": [-123.0740038006, 45.5109636924]}, "type": "Feature", "properties": {"collection_times": [{"days": "Mon-Sat", "time": "10:00am"}, {"days": "Sun", "time": "Closed"}], "id": "9711600009", "name": "USPS COLLECTION BOX - BLUE BOX", "address": {"city": "FOREST GROVE", "state": "OR", "street": "4300 SETTLERS LOOP", "postcode": "97116"}}},
{"geometry": {"type": "Point", "coordinates": [-123.1130926924, 45.5197173396]}, "type": "Feature", "properties": {"collection_times": [{"days": "Mon-Fri", "time": "5:00pm"}, {"days": "Sat", "time": "2:00pm"}, {"days": "Sun", "time": "Closed"}], "id": "9711600013", "name": "USPS COLLECTION BOX - BLUE BOX", "address": {"city": "FOREST GROVE", "state": "OR", "street": "1945 PACIFIC AVE", "postcode": "97116"}}},
{"geometry": {"type": "Point", "coordinates": [-123.1178784825, 45.5312989327]}, "type": "Feature", "properties": {"collection_times": [{"days": "Mon-Fri", "time": "5:00pm"}, {"days": "Sat", "time": "2:00pm"}, {"days": "Sun", "time": "Closed"}], "id": "9711600014", "name": "USPS COLLECTION BOX - BLUE BOX", "address": {"city": "FOREST GROVE", "state": "OR", "street": "2003 19TH AVE", "postcode": "97116"}}},
{"geometry": {"type": "Point", "coordinates": [-123.1046685087, 45.519690144]}, "type": "Feature", "properties": {"collection_times": [{"days": "Mon-Fri", "time": "5:00pm"}, {"days": "Sat", "time": "2:00pm"}, {"days": "Sun", "time": "Closed"}], "id": "9711600015", "name": "USPS COLLECTION BOX - BLUE BOX", "address": {"city": "FOREST GROVE", "state": "OR", "street": "2403 PACIFIC AVE", "postcode": "97116"}}},
{"geometry": {"type": "Point", "coordinates": [-123.0936409218, 45.5201383463]}, "type": "Feature", "properties": {"collection_times": [{"days": "Mon-Sat", "time": "9:00am"}, {"days": "Sun", "time": "Closed"}], "id": "9711600025", "name": "USPS COLLECTION BOX - BLUE BOX", "address": {"city": "FOREST GROVE", "state": "OR", "street": "3010 PACIFIC AVE", "postcode": "97116"}}},
{"geometry": {"type": "Point", "coordinates": [-123.1178784825, 45.5312989327]}, "type": "Feature", "properties": {"collection_times": [{"days": "Mon-Fri", "time": "5:30pm"}, {"days": "Sat", "time": "3:00pm"}, {"days": "Sun", "time": "Closed"}], "id": "9711600028", "name": "USPS COLLECTION BOX - PO LOBBY", "address": {"city": "FOREST GROVE", "state": "OR", "street": "1822 21ST AVE", "postcode": "97116"}}},
{"geometry": {"type": "Point", "coordinates": [-123.1178784825, 45.5312989327]}, "type": "Feature", "properties": {"collection_times": [{"days": "Mon-Fri", "time": "5:00pm"}, {"days": "Sat", "time": "2:00pm"}, {"days": "Sun", "time": "Closed"}], "id": "9711600034", "name": "USPS COLLECTION BOX - BLUE BOX", "address": {"city": "FOREST GROVE", "state": "OR", "street": "2003 19TH AVE", "postcode": "97116"}}},
{"geometry": {"type": "Point", "coordinates": [-123.913675, 45.56153]}, "type": "Feature", "properties": {"collection_times": [{"days": "Mon-Fri", "time": "2:00pm"}, {"days": "Sat", "time": "4:45pm"}, {"days": "Sun", "time": "Closed"}], "id": "9711800001", "name": "USPS COLLECTION BOX - BLUE BOX", "address": {"city": "GARIBALDI", "state": "OR", "street": "511 ACACIA ST", "postcode": "97118"}}},
{"geometry": {"type": "Point", "coordinates": [-123.1394813119, 45.4326358613]}, "type": "Feature", "properties": {"collection_times": [{"days": "Mon-Fri", "time": "4:30pm"}, {"days": "Sat", "time": "9:30am"}, {"days": "Sun", "time": "Closed"}], "id": "9711900001", "name": "USPS COLLECTION BOX - BLUE BOX", "address": {"city": "GASTON", "state": "OR", "street": "29895 NW OLSON RD", "postcode": "97119"}}},
{"geometry": {"type": "Point", "coordinates": [-123.1603378762, 45.4448159432]}, "type": "Feature", "properties": {"collection_times": [{"days": "Mon-Fri", "time": "4:30pm"}, {"days": "Sat", "time": "9:30am"}, {"days": "Sun", "time": "Closed"}], "id": "9711900002", "name": "USPS COLLECTION BOX - PO LOBBY", "address": {"city": "GASTON", "state": "OR", "street": "29895 NW OLSON RD", "postcode": "97119"}}},
{"geometry": {"type": "Point", "coordinates": [-123.949569485, 46.1992221714]}, "type": "Feature", "properties": {"collection_times": [{"days": "Mon-Fri", "time": "4:30pm"}, {"days": "Sat", "time": "10:30am"}, {"days": "Sun", "time": "Closed"}], "id": "9712100001", "name": "USPS COLLECTION BOX - BLUE BOX", "address": {"city": "HAMMOND", "state": "OR", "street": "906 PACIFIC DR", "postcode": "97121"}}},
{"geometry": {"type": "Point", "coordinates": [-123.949569485, 46.1992221714]}, "type": "Feature", "properties": {"collection_times": [{"days": "Mon-Fri", "time": "2:00pm"}, {"days": "Sat", "time": "10:30am"}, {"days": "Sun", "time": "Closed"}], "id": "9712100002", "name": "USPS COLLECTION BOX - PO LOBBY", "address": {"city": "HAMMOND", "state": "OR", "street": "906 PACIFIC DR", "postcode": "97121"}}},
{"geometry": {"type": "Point", "coordinates": [-123.8150280895, 45.1751772085]}, "type": "Feature", "properties": {"collection_times": [{"days": "Mon-Fri", "time": "3:45pm"}, {"days": "Sat", "time": "9:30am"}, {"days": "Sun", "time": "Closed"}], "id": "9712200001", "name": "USPS COLLECTION BOX - BLUE BOX", "address": {"city": "HEBO", "state": "OR", "street": "31155 HIGHWAY 101 S", "postcode": "97122"}}},
{"geometry": {"type": "Point", "coordinates": [-123.8298988788, 45.1913891524]}, "type": "Feature", "properties": {"collection_times": [{"days": "Mon-Fri", "time": "1:00pm"}, {"days": "Sat", "time": "9:30am"}, {"days": "Sun", "time": "Closed"}], "id": "9712200002", "name": "USPS COLLECTION BOX - PO LOBBY", "address": {"city": "HEBO", "state": "OR", "street": "31155 HIGHWAY 101 S", "postcode": "97122"}}},
{"geometry": {"type": "Point", "coordinates": [-122.9755783186, 45.5186670613]}, "type": "Feature", "properties": {"collection_times": [{"days": "Mon-Fri", "time": "3:30pm"}, {"days": "Sat", "time": "2:00pm"}, {"days": "Sun", "time": "Closed"}], "id": "9712300003", "name": "USPS COLLECTION BOX - BLUE BOX", "address": {"city": "HILLSBORO", "state": "OR", "street": "900 SE OAK ST", "postcode": "97123"}}},
{"geometry": {"type": "Point", "coordinates": [-122.9840500177, 45.5225714572]}, "type": "Feature", "properties": {"collection_times": [{"days": "Mon-Sat", "time": "3:45pm"}, {"days": "Sun", "time": "Closed"}], "id": "9712300005", "name": "USPS COLLECTION BOX - BLUE BOX", "address": {"city": "HILLSBORO", "state": "OR", "street": "400 E MAIN ST", "postcode": "97123"}}},
{"geometry": {"type": "Point", "coordinates": [-122.9551189215, 45.4997759178]}, "type": "Feature", "properties": {"collection_times": [{"days": "Mon-Fri", "time": "3:45pm"}, {"days": "Sat", "time": "2:15pm"}, {"days": "Sun", "time": "Closed"}], "id": "9712300007", "name": "USPS COLLECTION BOX - BLUE BOX", "address": {"city": "HILLSBORO", "state": "OR", "street": "300 E MAIN ST", "postcode": "97123"}}},
{"geometry": {"type": "Point", "coordinates": [-122.9878954828, 45.5225908076]}, "type": "Feature", "properties": {"collection_times": [{"days": "Mon-Sat", "time": "3:45pm"}, {"days": "Sun", "time": "Closed"}], "id": "9712300013", "name": "USPS COLLECTION BOX - BLUE BOX", "address": {"city": "HILLSBORO", "state": "OR", "street": "200 E MAIN ST", "postcode": "97123"}}},
{"geometry": {"type": "Point", "coordinates": [-122.9614203793, 45.5069476888]}, "type": "Feature", "properties": {"collection_times": [{"days": "Mon-Sat", "time": "3:15pm"}, {"days": "Sun", "time": "Closed"}], "id": "9712300017", "name": "USPS COLLECTION BOX - BLUE BOX", "address": {"city": "HILLSBORO", "state": "OR", "street": "2075 SE TUALATIN VALLEY HWY", "postcode": "97123"}}},
{"geometry": {"type": "Point", "coordinates": [-122.9730125552, 45.5118696651]}, "type": "Feature", "properties": {"collection_times": [{"days": "Mon-Fri", "time": "3:15pm"}, {"days": "Sat", "time": "2:00pm"}, {"days": "Sun", "time": "Closed"}], "id": "9712300018", "name": "USPS COLLECTION BOX - BLUE BOX", "address": {"city": "HILLSBORO", "state": "OR", "street": "1001 SE TV HWY", "postcode": "97123"}}},
{"geometry": {"type": "Point", "coordinates": [-122.9571610871, 45.5052285765]}, "type": "Feature", "properties": {"collection_times": [{"days": "Mon-Sat", "time": "3:15pm"}, {"days": "Sun", "time": "Closed"}], "id": "9712300026", "name": "USPS COLLECTION BOX - BLUE BOX", "address": {"city": "HILLSBORO", "state": "OR", "street": "2459 SE TUALATIN VALLEY HWY", "postcode": "97123"}}},
{"geometry": {"type": "Point", "coordinates": [-122.9898287113, 45.5222603412]}, "type": "Feature", "properties": {"collection_times": [{"days": "Mon-Fri", "time": "5:00pm"}, {"days": "Sat", "time": "1:30pm"}, {"days": "Sun", "time": "Closed"}], "id": "9712300031", "name": "USPS COLLECTION BOX - BLUE BOX", "address": {"city": "HILLSBORO", "state": "OR", "street": "125 S 1ST AVE", "postcode": "97123"}}},
{"geometry": {"type": "Point", "coordinates": [-122.9898287113, 45.5222603412]}, "type": "Feature", "properties": {"collection_times": [{"days": "Mon-Fri", "time": "5:00pm"}, {"days": "Sat", "time": "1:30pm"}, {"days": "Sun", "time": "Closed"}], "id": "9712300032", "name": "USPS COLLECTION BOX - BLUE BOX", "address": {"city": "HILLSBORO", "state": "OR", "street": "125 S 1ST AVE", "postcode": "97123"}}},
{"geometry": {"type": "Point", "coordinates": [-122.9898287113, 45.5222603412]}, "type": "Feature", "properties": {"collection_times": [{"days": "Mon-Fri", "time": "5:00pm"}, {"days": "Sat", "time": "1:30pm"}, {"days": "Sun", "time": "Closed"}], "id": "9712300034", "name": "USPS COLLECTION BOX - BLUE BOX", "address": {"city": "HILLSBORO", "state": "OR", "street": "125 S 1ST AVE", "postcode": "97123"}}},
{"geometry": {"type": "Point", "coordinates": [-122.9898287113, 45.5222603412]}, "type": "Feature", "properties": {"collection_times": [{"days": "Mon-Fri", "time": "5:00pm"}, {"days": "Sat", "time": "1:30pm"}, {"days": "Sun", "time": "Closed"}], "id": "9712300035", "name": "USPS COLLECTION BOX - BLUE BOX", "address": {"city": "HILLSBORO", "state": "OR", "street": "125 S 1ST AVE", "postcode": "97123"}}},
{"geometry": {"type": "Point", "coordinates": [-122.9898287113, 45.5222603412]}, "type": "Feature", "properties": {"collection_times": [{"days": "Mon-Fri", "time": "5:00pm"}, {"days": "Sat", "time": "1:30pm"}, {"days": "Sun", "time": "Closed"}], "id": "9712300036", "name": "USPS COLLECTION BOX - BLUE BOX", "address": {"city": "HILLSBORO", "state": "OR", "street": "125 S 1ST AVE", "postcode": "97123"}}},
{"geometry": {"type": "Point", "coordinates": [-122.9898287113, 45.5222603412]}, "type": "Feature", "properties": {"collection_times": [{"days": "Mon-Fri", "time": "5:00pm"}, {"days": "Sat", "time": "1:30pm"}, {"days": "Sun", "time": "Closed"}], "id": "9712300047", "name": "USPS COLLECTION BOX - BLUE BOX", "address": {"city": "HILLSBORO", "state": "OR", "street": "125 S 1ST AVE", "postcode": "97123"}}},
{"geometry": {"type": "Point", "coordinates": [-122.9840500177, 45.5225714572]}, "type": "Feature", "properties": {"collection_times": [{"days": "Mon-Sat", "time": "3:45pm"}, {"days": "Sun", "time": "Closed"}], "id": "9712300050", "name": "USPS COLLECTION BOX - BLUE BOX", "address": {"city": "HILLSBORO", "state": "OR", "street": "400 E MAIN ST", "postcode": "97123"}}},
{"geometry": {"type": "Point", "coordinates": [-122.9898287113, 45.5222603412]}, "type": "Feature", "properties": {"collection_times": [{"days": "Mon-Fri", "time": "5:00pm"}, {"days": "Sat", "time": "1:30pm"}, {"days": "Sun", "time": "Closed"}], "id": "9712300051", "name": "USPS COLLECTION BOX - PO LOBBY", "address": {"city": "HILLSBORO", "state": "OR", "street": "125 S 1ST AVE", "postcode": "97123"}}},
{"geometry": {"type": "Point", "coordinates": [-122.9021538101, 45.4990472367]}, "type": "Feature", "properties": {"collection_times": [{"days": "Mon-Fri", "time": "12:00pm"}, {"days": "Sat-Sun", "time": "Closed"}], "id": "9712300054", "name": "USPS COLLECTION BOX - BLUE BOX", "address": {"city": "HILLSBORO", "state": "OR", "street": "2900 SW CORNELIUS PASS RD", "postcode": "97123"}}},
{"geometry": {"type": "Point", "coordinates": [-122.9127554884, 45.4986402988]}, "type": "Feature", "properties": {"collection_times": [{"days": "Mon-Sat", "time": "3:00pm"}, {"days": "Sun", "time": "Closed"}], "id": "9712300056", "name": "USPS COLLECTION BOX - BLUE BOX", "address": {"city": "HILLSBORO", "state": "OR", "street": "23023 SW TUALATIN VALLEY HWY", "postcode": "97123"}}},
{"geometry": {"type": "Point", "coordinates": [-122.9898287113, 45.5222603412]}, "type": "Feature", "properties": {"collection_times": [{"days": "Mon-Fri", "time": "5:00pm"}, {"days": "Sat", "time": "1:30pm"}, {"days": "Sun", "time": "Closed"}], "id": "9712300057", "name": "USPS COLLECTION BOX - PO LOBBY", "address": {"city": "HILLSBORO", "state": "OR", "street": "125 S 1ST AVE", "postcode": "97123"}}},
{"geometry": {"type": "Point", "coordinates": [-122.968981528, 45.5174138576]}, "type": "Feature", "properties": {"collection_times": [{"days": "Mon-Fri", "time": "5:00pm"}, {"days": "Sat", "time": "1:00pm"}, {"days": "Sun", "time": "Closed"}], "id": "9712300059", "name": "USPS COLLECTION BOX - BLUE BOX", "address": {"city": "HILLSBORO", "state": "OR", "street": "1330 SW WALNUT ST", "postcode": "97123"}}},
{"geometry": {"type": "Point", "coordinates": [-123.00600908, 45.5197598336]}, "type": "Feature", "properties": {"collection_times": [{"days": "Mon-Fri", "time": "11:00am"}, {"days": "Sat", "time": "3:00pm"}, {"days": "Sun", "time": "Closed"}], "id": "9712300060", "name": "USPS COLLECTION BOX - BLUE BOX", "address": {"city": "HILLSBORO", "state": "OR", "street": "1500 SW OAK ST", "postcode": "97123"}}},
{"geometry": {"type": "Point", "coordinates": [-122.9234837432, 45.5312036102]}, "type": "Feature", "properties": {"collection_times": [{"days": "Mon-Fri", "time": "2:45pm"}, {"days": "Sat-Sun", "time": "Closed"}], "id": "9712300061", "name": "USPS COLLECTION BOX - BLUE BOX", "address": {"city": "HILLSBORO", "state": "OR", "street": "5625 NE ELAM YOUNG PKWY", "postcode": "97123"}}},
{"geometry": {"type": "Point", "coordinates": [-122.9898287113, 45.5222603412]}, "type": "Feature", "properties": {"collection_times": [{"days": "Mon-Fri", "time": "5:00pm"}, {"days": "Sat", "time": "1:30pm"}, {"days": "Sun", "time": "Closed"}], "id": "9712300062", "name": "USPS COLLECTION BOX - APC", "address": {"city": "HILLSBORO", "state": "OR", "street": "125 S 1ST AVE", "postcode": "97123"}}},
{"geometry": {"type": "Point", "coordinates": [-122.9551189215, 45.4997759178]}, "type": "Feature", "properties": {"collection_times": [{"days": "Mon-Fri", "time": "5:00pm"}, {"days": "Sat", "time": "1:00pm"}, {"days": "Sun", "time": "Closed"}], "id": "9712300063", "name": "USPS COLLECTION BOX - PO LOBBY", "address": {"city": "HILLSBORO", "state": "OR", "street": "1330 SW WALNUT ST", "postcode": "97123"}}},
{"geometry": {"type": "Point", "coordinates": [-122.8676921032, 45.5355579457]}, "type": "Feature", "properties": {"collection_times": [{"days": "Mon-Fri", "time": "2:15pm"}, {"days": "Sat", "time": "1:00pm"}, {"days": "Sun", "time": "Closed"}], "id": "9712400000", "name": "USPS COLLECTION BOX - BLUE BOX", "address": {"city": "HILLSBORO", "state": "OR", "street": "2121 NW 185TH AVE", "postcode": "97124"}}},
{"geometry": {"type": "Point", "coordinates": [-122.867701562, 45.5365737669]}, "type": "Feature", "properties": {"collection_times": [{"days": "Mon-Fri", "time": "2:15pm"}, {"days": "Sat", "time": "1:00pm"}, {"days": "Sun", "time": "Closed"}], "id": "9712400001", "name": "USPS COLLECTION BOX - BLUE BOX", "address": {"city": "HILLSBORO", "state": "OR", "street": "2285 NW 185TH AVE", "postcode": "97124"}}},
{"geometry": {"type": "Point", "coordinates": [-122.867701562, 45.5365737669]}, "type": "Feature", "properties": {"collection_times": [{"days": "Mon-Fri", "time": "2:15pm"}, {"days": "Sat", "time": "1:00pm"}, {"days": "Sun", "time": "Closed"}], "id": "9712400002", "name": "USPS COLLECTION BOX - BLUE BOX", "address": {"city": "HILLSBORO", "state": "OR", "street": "2285 NW 185TH AVE", "postcode": "97124"}}},
{"geometry": {"type": "Point", "coordinates": [-122.9580395602, 45.5306973481]}, "type": "Feature", "properties": {"collection_times": [{"days": "Mon-Fri", "time": "2:30pm"}, {"days": "Sat-Sun", "time": "Closed"}], "id": "9712400003", "name": "USPS COLLECTION BOX - BLUE BOX", "address": {"city": "HILLSBORO", "state": "OR", "street": "2401 NE CORNELL RD", "postcode": "97124"}}},
{"geometry": {"type": "Point", "coordinates": [-122.9873396301, 45.5238551171]}, "type": "Feature", "properties": {"collection_times": [{"days": "Mon-Sat", "time": "3:45pm"}, {"days": "Sun", "time": "Closed"}], "id": "9712400007", "name": "USPS COLLECTION BOX - BLUE BOX", "address": {"city": "HILLSBORO", "state": "OR", "street": "232 NE LINCOLN ST", "postcode": "97124"}}},
{"geometry": {"type": "Point", "coordinates": [-122.9408281984, 45.5395457532]}, "type": "Feature", "properties": {"collection_times": [{"days": "Mon-Fri", "time": "2:30pm"}, {"days": "Sat", "time": "1:00pm"}, {"days": "Sun", "time": "Closed"}], "id": "9712400008", "name": "USPS COLLECTION BOX - BLUE BOX", "address": {"city": "HILLSBORO", "state": "OR", "street": "3355 NE CORNELL RD", "postcode": "97124"}}},
{"geometry": {"type": "Point", "coordinates": [-122.9579646311, 45.5306760105]}, "type": "Feature", "properties": {"collection_times": [{"days": "Mon-Sat", "time": "2:30pm"}, {"days": "Sun", "time": "Closed"}], "id": "9712400010", "name": "USPS COLLECTION BOX - BLUE BOX", "address": {"city": "HILLSBORO", "state": "OR", "street": "2401 NE CORNELL RD", "postcode": "97124"}}},
{"geometry": {"type": "Point", "coordinates": [-122.9181497813, 45.5349393946]}, "type": "Feature", "properties": {"collection_times": [{"days": "Mon-Sat", "time": "12:00pm"}, {"days": "Sun", "time": "Closed"}], "id": "9712400011", "name": "USPS COLLECTION BOX - BLUE BOX", "address": {"city": "HILLSBORO", "state": "OR", "street": "1443 NE 61ST AVE", "postcode": "97124"}}},
{"geometry": {"type": "Point", "coordinates": [-122.9468630907, 45.5713744755]}, "type": "Feature", "properties": {"collection_times": [{"days": "Mon-Sat", "time": "2:45pm"}, {"days": "Sun", "time": "Closed"}], "id": "9712400012", "name": "USPS COLLECTION BOX - BLUE BOX", "address": {"city": "HILLSBORO", "state": "OR", "street": "1050 NW 229TH AVE", "postcode": "97124"}}},
{"geometry": {"type": "Point", "coordinates": [-122.9468630907, 45.5713744755]}, "type": "Feature", "properties": {"collection_times": [{"days": "Mon-Sat", "time": "2:45pm"}, {"days": "Sun", "time": "Closed"}], "id": "9712400013", "name": "USPS COLLECTION BOX - BLUE BOX", "address": {"city": "HILLSBORO", "state": "OR", "street": "1050 NW 229TH AVE", "postcode": "97124"}}},
{"geometry": {"type": "Point", "coordinates": [-122.9339020628, 45.5447520393]}, "type": "Feature", "properties": {"collection_times": [{"days": "Mon-Fri", "time": "2:30pm"}, {"days": "Sat-Sun", "time": "Closed"}], "id": "9712400018", "name": "USPS COLLECTION BOX - BLUE BOX", "address": {"city": "HILLSBORO", "state": "OR", "street": "3083 NE 49TH PL", "postcode": "97124"}}},
{"geometry": {"type": "Point", "coordinates": [-122.867701562, 45.5365737669]}, "type": "Feature", "properties": {"collection_times": [{"days": "Mon-Fri", "time": "2:15pm"}, {"days": "Sat", "time": "1:00pm"}, {"days": "Sun", "time": "Closed"}], "id": "9712400019", "name": "USPS COLLECTION BOX - BLUE BOX", "address": {"city": "HILLSBORO", "state": "OR", "street": "2285 NW 185TH AVE", "postcode": "97124"}}},
{"geometry": {"type": "Point", "coordinates": [-122.8926345393, 45.539224072]}, "type": "Feature", "properties": {"collection_times": [{"days": "Mon-Fri", "time": "2:30pm"}, {"days": "Sat", "time": "1:00pm"}, {"days": "Sun", "time": "Closed"}], "id": "9712400020", "name": "USPS COLLECTION BOX - BLUE BOX", "address": {"city": "HILLSBORO", "state": "OR", "street": "20827 NW CORNELL RD", "postcode": "97124"}}},
{"geometry": {"type": "Point", "coordinates": [-122.9408281984, 45.5395457532]}, "type": "Feature", "properties": {"collection_times": [{"days": "Mon-Fri", "time": "2:45pm"}, {"days": "Sat", "time": "1:00pm"}, {"days": "Sun", "time": "Closed"}], "id": "9712400022", "name": "USPS COLLECTION BOX - BLUE BOX", "address": {"city": "HILLSBORO", "state": "OR", "street": "2111 NE SHUTE RD", "postcode": "97124"}}},
{"geometry": {"type": "Point", "coordinates": [-122.9033590495, 45.5502069582]}, "type": "Feature", "properties": {"collection_times": [{"days": "Mon-Sat", "time": "2:45pm"}, {"days": "Sun", "time": "Closed"}], "id": "9712400023", "name": "USPS COLLECTION BOX - BLUE BOX", "address": {"city": "HILLSBORO", "state": "OR", "street": "22075 NW IMBRIE DR", "postcode": "97124"}}},
{"geometry": {"type": "Point", "coordinates": [-123.1102573428, 45.2477786338]}, "type": "Feature", "properties": {"collection_times": [{"days": "Mon-Fri", "time": "4:30pm"}, {"days": "Sat", "time": "9:30am"}, {"days": "Sun", "time": "Closed"}], "id": "9712700001", "name": "USPS COLLECTION BOX - BLUE BOX", "address": {"city": "LAFAYETTE", "state": "OR", "street": "491 3RD ST", "postcode": "97127"}}},
{"geometry": {"type": "Point", "coordinates": [-123.1102573428, 45.2477786338]}, "type": "Feature", "properties": {"collection_times": [{"days": "Mon-Fri", "time": "4:30pm"}, {"days": "Sat", "time": "9:30am"}, {"days": "Sun", "time": "Closed"}], "id": "9712700003", "name": "USPS COLLECTION BOX - PO LOBBY", "address": {"city": "LAFAYETTE", "state": "OR", "street": "491 3RD ST", "postcode": "97127"}}},
{"geometry": {"type": "Point", "coordinates": [-123.2062690629, 45.1982773498]}, "type": "Feature", "properties": {"collection_times": [{"days": "Mon-Fri", "time": "5:00pm"}, {"days": "Sat-Sun", "time": "Closed"}], "id": "9712800005", "name": "USPS COLLECTION BOX - BLUE BOX", "address": {"city": "MCMINNVILLE", "state": "OR", "street": "1371 NE HIGHWAY 99W", "postcode": "97128"}}},
{"geometry": {"type": "Point", "coordinates": [-123.186776103, 45.2254702317]}, "type": "Feature", "properties": {"collection_times": [{"days": "Mon-Fri", "time": "5:00pm"}, {"days": "Sat-Sun", "time": "Closed"}], "id": "9712800006", "name": "USPS COLLECTION BOX - BLUE BOX", "address": {"city": "MCMINNVILLE", "state": "OR", "street": "1150 NE HIGHWAY 99W", "postcode": "97128"}}},
{"geometry": {"type": "Point", "coordinates": [-123.1931721788, 45.2114846217]}, "type": "Feature", "properties": {"collection_times": [{"days": "Mon-Fri", "time": "4:30pm"}, {"days": "Sat-Sun", "time": "Closed"}], "id": "9712800007", "name": "USPS COLLECTION BOX - BLUE BOX", "address": {"city": "MCMINNVILLE", "state": "OR", "street": "535 E 5TH ST", "postcode": "97128"}}},
{"geometry": {"type": "Point", "coordinates": [-123.1976510844, 45.2192209106]}, "type": "Feature", "properties": {"collection_times": [{"days": "Mon-Fri", "time": "4:45pm"}, {"days": "Sat-Sun", "time": "Closed"}], "id": "9712800008", "name": "USPS COLLECTION BOX - BLUE BOX", "address": {"city": "MCMINNVILLE", "state": "OR", "street": "1470 NE BAKER ST", "postcode": "97128"}}},
{"geometry": {"type": "Point", "coordinates": [-123.1922804111, 45.2092909019]}, "type": "Feature", "properties": {"collection_times": [{"days": "Mon-Fri", "time": "5:30pm"}, {"days": "Sat", "time": "4:15pm"}, {"days": "Sun", "time": "Closed"}], "id": "9712800012", "name": "USPS COLLECTION BOX - BLUE BOX", "address": {"city": "MCMINNVILLE", "state": "OR", "street": "650 NE 2ND ST", "postcode": "97128"}}},
{"geometry": {"type": "Point", "coordinates": [-123.1959799937, 45.2100369077]}, "type": "Feature", "properties": {"collection_times": [{"days": "Mon-Fri", "time": "4:30pm"}, {"days": "Sat-Sun", "time": "Closed"}], "id": "9712800013", "name": "USPS COLLECTION BOX - BLUE BOX", "address": {"city": "MCMINNVILLE", "state": "OR", "street": "335 NE 3RD ST", "postcode": "97128"}}},
{"geometry": {"type": "Point", "coordinates": [-123.173879551, 45.2284586093]}, "type": "Feature", "properties": {"collection_times": [{"days": "Mon-Fri", "time": "5:00pm"}, {"days": "Sat-Sun", "time": "Closed"}], "id": "9712800017", "name": "USPS COLLECTION BOX - BLUE BOX", "address": {"city": "MCMINNVILLE", "state": "OR", "street": "2410 NE HIGHWAY 99W", "postcode": "97128"}}},
{"geometry": {"type": "Point", "coordinates": [-123.2080504154, 45.1964252861]}, "type": "Feature", "properties": {"collection_times": [{"days": "Mon-Fri", "time": "4:45pm"}, {"days": "Sat-Sun", "time": "Closed"}], "id": "9712800020", "name": "USPS COLLECTION BOX - BLUE BOX", "address": {"city": "MCMINNVILLE", "state": "OR", "street": "1595 SW BAKER ST", "postcode": "97128"}}},
{"geometry": {"type": "Point", "coordinates": [-123.1798030877, 45.2026738742]}, "type": "Feature", "properties": {"collection_times": [{"days": "Mon-Fri", "time": "4:30pm"}, {"days": "Sat-Sun", "time": "Closed"}], "id": "9712800021", "name": "USPS COLLECTION BOX - BLUE BOX", "address": {"city": "MCMINNVILLE", "state": "OR", "street": "2700 SE THREE MILE LN", "postcode": "97128"}}},
{"geometry": {"type": "Point", "coordinates": [-123.1922804111, 45.2092909019]}, "type": "Feature", "properties": {"collection_times": [{"days": "Mon-Fri", "time": "5:30pm"}, {"days": "Sat", "time": "4:15pm"}, {"days": "Sun", "time": "Closed"}], "id": "9712800024", "name": "USPS COLLECTION BOX - APC", "address": {"city": "MCMINNVILLE", "state": "OR", "street": "650 NE 2ND ST", "postcode": "97128"}}},
{"geometry": {"type": "Point", "coordinates": [-123.9353406826, 45.7185603793]}, "type": "Feature", "properties": {"collection_times": [{"days": "Mon-Fri", "time": "3:00pm"}, {"days": "Sat", "time": "3:15pm"}, {"days": "Sun", "time": "Closed"}], "id": "9713000001", "name": "USPS COLLECTION BOX - BLUE BOX", "address": {"city": "MANZANITA", "state": "OR", "street": "370 LANEDA AVE", "postcode": "97130"}}},
{"geometry": {"type": "Point", "coordinates": [-123.9365470388, 45.7185469447]}, "type": "Feature", "properties": {"collection_times": [{"days": "Mon-Fri", "time": "3:00pm"}, {"days": "Sat", "time": "10:15am"}, {"days": "Sun", "time": "Closed"}], "id": "9713000002", "name": "USPS COLLECTION BOX - PO LOBBY", "address": {"city": "MANZANITA", "state": "OR", "street": "370 LANEDA AVE", "postcode": "97130"}}},
{"geometry": {"type": "Point", "coordinates": [-123.8855366742, 45.7145495397]}, "type": "Feature", "properties": {"collection_times": [{"days": "Mon-Sat", "time": "3:30pm"}, {"days": "Sun", "time": "Closed"}], "id": "9713100002", "name": "USPS COLLECTION BOX - BLUE BOX", "address": {"city": "NEHALEM", "state": "OR", "street": "12810 H ST", "postcode": "97131"}}},
{"geometry": {"type": "Point", "coordinates": [-123.8971738853, 45.7174886668]}, "type": "Feature", "properties": {"collection_times": [{"days": "Mon-Fri", "time": "3:30pm"}, {"days": "Sat-Sun", "time": "Closed"}], "id": "9713100003", "name": "USPS COLLECTION BOX - BLUE BOX", "address": {"city": "NEHALEM", "state": "OR", "street": "12810 H ST", "postcode": "97131"}}},
{"geometry": {"type": "Point", "coordinates": [-122.9486653907, 45.2937293298]}, "type": "Feature", "properties": {"collection_times": [{"days": "Mon-Fri", "time": "2:00pm"}, {"days": "Sat", "time": "12:45pm"}, {"days": "Sun", "time": "Closed"}], "id": "9713200006", "name": "USPS COLLECTION BOX - BLUE BOX", "address": {"city": "NEWBERG", "state": "OR", "street": "1000 N SPRINGBROOK RD", "postcode": "97132"}}},
{"geometry": {"type": "Point", "coordinates": [-122.9486653907, 45.2937293298]}, "type": "Feature", "properties": {"collection_times": [{"days": "Mon-Fri", "time": "2:00pm"}, {"days": "Sat", "time": "12:45pm"}, {"days": "Sun", "time": "Closed"}], "id": "9713200007", "name": "USPS COLLECTION BOX - BLUE BOX", "address": {"city": "NEWBERG", "state": "OR", "street": "1000 N SPRINGBROOK RD", "postcode": "97132"}}},
{"geometry": {"type": "Point", "coordinates": [-122.9606524042, 45.3008057805]}, "type": "Feature", "properties": {"collection_times": [{"days": "Mon-Fri", "time": "2:00pm"}, {"days": "Sat", "time": "3:00pm"}, {"days": "Sun", "time": "Closed"}], "id": "9713200008", "name": "USPS COLLECTION BOX - BLUE BOX", "address": {"city": "NEWBERG", "state": "OR", "street": "124 N EVEREST RD", "postcode": "97132"}}},
{"geometry": {"type": "Point", "coordinates": [-122.9724369511, 45.2986480732]}, "type": "Feature", "properties": {"collection_times": [{"days": "Mon-Fri", "time": "2:00pm"}, {"days": "Sat", "time": "12:00pm"}, {"days": "Sun", "time": "Closed"}], "id": "9713200011", "name": "USPS COLLECTION BOX - BLUE BOX", "address": {"city": "NEWBERG", "state": "OR", "street": "701 E 3RD ST", "postcode": "97132"}}},
{"geometry": {"type": "Point", "coordinates": [-122.9686465609, 45.2986102031]}, "type": "Feature", "properties": {"collection_times": [{"days": "Mon-Fri", "time": "2:00pm"}, {"days": "Sat", "time": "12:00pm"}, {"days": "Sun", "time": "Closed"}], "id": "9713200012", "name": "USPS COLLECTION BOX - BLUE BOX", "address": {"city": "NEWBERG", "state": "OR", "street": "301 S RIVER ST", "postcode": "97132"}}},
{"geometry": {"type": "Point", "coordinates": [-122.9787728793, 45.3003160454]}, "type": "Feature", "properties": {"collection_times": [{"days": "Mon-Fri", "time": "2:00pm"}, {"days": "Sat", "time": "12:00pm"}, {"days": "Sun", "time": "Closed"}], "id": "9713200014", "name": "USPS COLLECTION BOX - BLUE BOX", "address": {"city": "NEWBERG", "state": "OR", "street": "112 E 1ST ST", "postcode": "97132"}}},
{"geometry": {"type": "Point", "coordinates": [-122.9486653907, 45.2937293298]}, "type": "Feature", "properties": {"collection_times": [{"days": "Mon-Fri", "time": "2:00pm"}, {"days": "Sat", "time": "12:45pm"}, {"days": "Sun", "time": "Closed"}], "id": "9713200020", "name": "USPS COLLECTION BOX - BLUE BOX", "address": {"city": "NEWBERG", "state": "OR", "street": "1000 N SPRINGBROOK RD", "postcode": "97132"}}},
{"geometry": {"type": "Point", "coordinates": [-122.9449059471, 45.306985568]}, "type": "Feature", "properties": {"collection_times": [{"days": "Mon-Fri", "time": "2:00pm"}, {"days": "Sat", "time": "12:45pm"}, {"days": "Sun", "time": "Closed"}], "id": "9713200021", "name": "USPS COLLECTION BOX - BLUE BOX", "address": {"city": "NEWBERG", "state": "OR", "street": "3300 PORTLAND RD", "postcode": "97132"}}},
{"geometry": {"type": "Point", "coordinates": [-122.9757350407, 45.3003053985]}, "type": "Feature", "properties": {"collection_times": [{"days": "Mon-Fri", "time": "5:00pm"}, {"days": "Sat", "time": "3:00pm"}, {"days": "Sun", "time": "Closed"}], "id": "9713200022", "name": "USPS COLLECTION BOX - BLUE BOX", "address": {"city": "NEWBERG", "state": "OR", "street": "401 E 1ST ST", "postcode": "97132"}}},
{"geometry": {"type": "Point", "coordinates": [-122.9757350407, 45.3003053985]}, "type": "Feature", "properties": {"collection_times": [{"days": "Mon-Fri", "time": "5:00pm"}, {"days": "Sat", "time": "3:00pm"}, {"days": "Sun", "time": "Closed"}], "id": "9713200023", "name": "USPS COLLECTION BOX - BLUE BOX", "address": {"city": "NEWBERG", "state": "OR", "street": "401 E 1ST ST", "postcode": "97132"}}},
{"geometry": {"type": "Point", "coordinates": [-122.9757350407, 45.3003053985]}, "type": "Feature", "properties": {"collection_times": [{"days": "Mon-Fri", "time": "5:00pm"}, {"days": "Sat", "time": "3:00pm"}, {"days": "Sun", "time": "Closed"}], "id": "9713200024", "name": "USPS COLLECTION BOX - BLUE BOX", "address": {"city": "NEWBERG", "state": "OR", "street": "401 E 1ST ST", "postcode": "97132"}}},
{"geometry": {"type": "Point", "coordinates": [-122.9757350407, 45.3003053985]}, "type": "Feature", "properties": {"collection_times": [{"days": "Mon-Fri", "time": "5:00pm"}, {"days": "Sat", "time": "2:00pm"}, {"days": "Sun", "time": "Closed"}], "id": "9713200025", "name": "USPS COLLECTION BOX - PO LOBBY", "address": {"city": "NEWBERG", "state": "OR", "street": "401 E 1ST ST", "postcode": "97132"}}},
{"geometry": {"type": "Point", "coordinates": [-123.0039675394, 45.5980739146]}, "type": "Feature", "properties": {"collection_times": [{"days": "Mon-Fri", "time": "5:00pm"}, {"days": "Sat", "time": "9:30am"}, {"days": "Sun", "time": "Closed"}], "id": "9713300001", "name": "USPS COLLECTION BOX - BLUE BOX", "address": {"city": "NORTH PLAINS", "state": "OR", "street": "31700 NW COMMERCIAL ST", "postcode": "97133"}}},
{"geometry": {"type": "Point", "coordinates": [-123.0037523129, 45.598022432]}, "type": "Feature", "properties": {"collection_times": [{"days": "Mon-Fri", "time": "5:00pm"}, {"days": "Sat", "time": "9:30am"}, {"days": "Sun", "time": "Closed"}], "id": "9713300002", "name": "USPS COLLECTION BOX - PO LOBBY", "address": {"city": "NORTH PLAINS", "state": "OR", "street": "31700 NW COMMERCIAL ST", "postcode": "97133"}}},
{"geometry": {"type": "Point", "coordinates": [-123.0039675394, 45.5980739146]}, "type": "Feature", "properties": {"collection_times": [{"days": "Mon-Fri", "time": "5:00pm"}, {"days": "Sat", "time": "9:30am"}, {"days": "Sun", "time": "Closed"}], "id": "9713300004", "name": "USPS COLLECTION BOX - BLUE BOX", "address": {"city": "NORTH PLAINS", "state": "OR", "street": "31700 NW COMMERCIAL ST", "postcode": "97133"}}},
{"geometry": {"type": "Point", "coordinates": [-123.9693189542, 45.460041732]}, "type": "Feature", "properties": {"collection_times": [{"days": "Mon-Fri", "time": "12:15pm"}, {"days": "Sat", "time": "9:00am"}, {"days": "Sun", "time": "Closed"}], "id": "9713400001", "name": "USPS COLLECTION BOX - PO LOBBY", "address": {"city": "OCEANSIDE", "state": "OR", "street": "1540 PACIFIC AVE", "postcode": "97134"}}},
{"geometry": {"type": "Point", "coordinates": [-123.9703449395, 45.4617539134]}, "type": "Feature", "properties": {"collection_times": [{"days": "Mon-Fri", "time": "4:15pm"}, {"days": "Sat", "time": "9:45am"}, {"days": "Sun", "time": "Closed"}], "id": "9713400002", "name": "USPS COLLECTION BOX - BLUE BOX", "address": {"city": "OCEANSIDE", "state": "OR", "street": "1540 PACIFIC AVE", "postcode": "97134"}}},
{"geometry": {"type": "Point", "coordinates": [-123.9617613446, 45.2042573278]}, "type": "Feature", "properties": {"collection_times": [{"days": "Mon-Fri", "time": "3:00pm"}, {"days": "Sat", "time": "10:00am"}, {"days": "Sun", "time": "Closed"}], "id": "9713500001", "name": "USPS COLLECTION BOX - BLUE BOX", "address": {"city": "PACIFIC CITY", "state": "OR", "street": "35230 BROOTEN RD", "postcode": "97135"}}},
{"geometry": {"type": "Point", "coordinates": [-123.9434752257, 45.6148944711]}, "type": "Feature", "properties": {"collection_times": [{"days": "Mon-Fri", "time": "4:00pm"}, {"days": "Sat", "time": "10:15am"}, {"days": "Sun", "time": "Closed"}], "id": "9713600001", "name": "USPS COLLECTION BOX - BLUE BOX", "address": {"city": "ROCKAWAY", "state": "OR", "street": "105 N 3RD AVE", "postcode": "97136"}}},
{"geometry": {"type": "Point", "coordinates": [-122.9720470629, 45.2143872666]}, "type": "Feature", "properties": {"collection_times": [{"days": "Mon-Fri", "time": "4:30pm"}, {"days": "Sat", "time": "12:00pm"}, {"days": "Sun", "time": "Closed"}], "id": "9713700001", "name": "USPS COLLECTION BOX - BLUE BOX", "address": {"city": "SAINT PAUL", "state": "OR", "street": "20180 MAIN ST NE", "postcode": "97137"}}},
{"geometry": {"type": "Point", "coordinates": [-122.9720470629, 45.2143872666]}, "type": "Feature", "properties": {"collection_times": [{"days": "Mon-Fri", "time": "4:30pm"}, {"days": "Sat", "time": "12:00pm"}, {"days": "Sun", "time": "Closed"}], "id": "9713700002", "name": "USPS COLLECTION BOX - PO LOBBY", "address": {"city": "SAINT PAUL", "state": "OR", "street": "20180 MAIN ST NE", "postcode": "97137"}}},
{"geometry": {"type": "Point", "coordinates": [-123.9230735906, 45.9923271047]}, "type": "Feature", "properties": {"collection_times": [{"days": "Mon-Sat", "time": "1:00pm"}, {"days": "Sun", "time": "Closed"}], "id": "9713800005", "name": "USPS COLLECTION BOX - BLUE BOX", "address": {"city": "SEASIDE", "state": "OR", "street": "201 S HOLLADAY DR", "postcode": "97138"}}},
{"geometry": {"type": "Point", "coordinates": [-123.9313821811, 45.9799929197]}, "type": "Feature", "properties": {"collection_times": [{"days": "Mon-Sat", "time": "11:30am"}, {"days": "Sun", "time": "Closed"}], "id": "9713800007", "name": "USPS COLLECTION BOX - BLUE BOX", "address": {"city": "SEASIDE", "state": "OR", "street": "2300 S DOWNING ST", "postcode": "97138"}}},
{"geometry": {"type": "Point", "coordinates": [-123.920994906, 46.024211614]}, "type": "Feature", "properties": {"collection_times": [{"days": "Mon-Fri", "time": "4:30pm"}, {"days": "Sat", "time": "12:30pm"}, {"days": "Sun", "time": "Closed"}], "id": "9713800012", "name": "USPS COLLECTION BOX - BLUE BOX", "address": {"city": "SEASIDE", "state": "OR", "street": "546 PACIFIC WAY", "postcode": "97138"}}},
{"geometry": {"type": "Point", "coordinates": [-123.9276790228, 45.9926772424]}, "type": "Feature", "properties": {"collection_times": [{"days": "Mon-Fri", "time": "5:00pm"}, {"days": "Sat", "time": "3:45pm"}, {"days": "Sun", "time": "Closed"}], "id": "9713800015", "name": "USPS COLLECTION BOX - BLUE BOX", "address": {"city": "SEASIDE", "state": "OR", "street": "219 S COLUMBIA ST", "postcode": "97138"}}},
{"geometry": {"type": "Point", "coordinates": [-123.9216884083, 45.9902473253]}, "type": "Feature", "properties": {"collection_times": [{"days": "Mon-Sat", "time": "11:45am"}, {"days": "Sun", "time": "Closed"}], "id": "9713800016", "name": "USPS COLLECTION BOX - BLUE BOX", "address": {"city": "SEASIDE", "state": "OR", "street": "505 S ROOSEVELT DR", "postcode": "97138"}}},
{"geometry": {"type": "Point", "coordinates": [-123.9276980358, 45.9929861783]}, "type": "Feature", "properties": {"collection_times": [{"days": "Mon-Fri", "time": "5:00pm"}, {"days": "Sat", "time": "3:45pm"}, {"days": "Sun", "time": "Closed"}], "id": "9713800017", "name": "USPS COLLECTION BOX - BLUE BOX", "address": {"city": "SEASIDE", "state": "OR", "street": "219 S COLUMBIA ST", "postcode": "97138"}}},
{"geometry": {"type": "Point", "coordinates": [-122.8412278844, 45.3568771622]}, "type": "Feature", "properties": {"collection_times": [{"days": "Mon-Sat", "time": "10:15am"}, {"days": "Sun", "time": "Closed"}], "id": "9714000001", "name": "USPS COLLECTION BOX - BLUE BOX", "address": {"city": "SHERWOOD", "state": "OR", "street": "16017 SW 1ST ST", "postcode": "97140"}}},
{"geometry": {"type": "Point", "coordinates": [-122.8449648316, 45.367751068]}, "type": "Feature", "properties": {"collection_times": [{"days": "Mon-Fri", "time": "5:00pm"}, {"days": "Sat", "time": "12:30pm"}, {"days": "Sun", "time": "Closed"}], "id": "9714000003", "name": "USPS COLLECTION BOX - BLUE BOX", "address": {"city": "SHERWOOD", "state": "OR", "street": "16300 SW LANGER DR", "postcode": "97140"}}},
{"geometry": {"type": "Point", "coordinates": [-122.8449648316, 45.367751068]}, "type": "Feature", "properties": {"collection_times": [{"days": "Mon-Fri", "time": "5:00pm"}, {"days": "Sat", "time": "9:00am"}, {"days": "Sun", "time": "Closed"}], "id": "9714000004", "name": "USPS COLLECTION BOX - PO LOBBY", "address": {"city": "SHERWOOD", "state": "OR", "street": "16300 SW LANGER DR", "postcode": "97140"}}},
{"geometry": {"type": "Point", "coordinates": [-122.8449648316, 45.367751068]}, "type": "Feature", "properties": {"collection_times": [{"days": "Mon-Fri", "time": "5:00pm"}, {"days": "Sat", "time": "9:00am"}, {"days": "Sun", "time": "Closed"}], "id": "9714000005", "name": "USPS COLLECTION BOX - PO LOBBY", "address": {"city": "SHERWOOD", "state": "OR", "street": "16300 SW LANGER DR", "postcode": "97140"}}},
{"geometry": {"type": "Point", "coordinates": [-122.8412576893, 45.3685888871]}, "type": "Feature", "properties": {"collection_times": [{"days": "Mon-Sat", "time": "12:00pm"}, {"days": "Sun", "time": "Closed"}], "id": "9714000007", "name": "USPS COLLECTION BOX - BLUE BOX", "address": {"city": "SHERWOOD", "state": "OR", "street": "15900 SW TUALATIN SHERWOOD RD", "postcode": "97140"}}},
{"geometry": {"type": "Point", "coordinates": [-122.8449648316, 45.367751068]}, "type": "Feature", "properties": {"collection_times": [{"days": "Mon-Fri", "time": "5:00pm"}, {"days": "Sat", "time": "12:30pm"}, {"days": "Sun", "time": "Closed"}], "id": "9714000008", "name": "USPS COLLECTION BOX - BLUE BOX", "address": {"city": "SHERWOOD", "state": "OR", "street": "16300 SW LANGER DR", "postcode": "97140"}}},
{"geometry": {"type": "Point", "coordinates": [-122.8370497232, 45.3749949399]}, "type": "Feature", "properties": {"collection_times": [{"days": "Mon-Fri", "time": "12:00pm"}, {"days": "Sat", "time": "10:30am"}, {"days": "Sun", "time": "Closed"}], "id": "9714000009", "name": "USPS COLLECTION BOX - BLUE BOX", "address": {"city": "SHERWOOD", "state": "OR", "street": "20015 SW PACIFIC HWY", "postcode": "97140"}}},
{"geometry": {"type": "Point", "coordinates": [-122.8449648316, 45.367751068]}, "type": "Feature", "properties": {"collection_times": [{"days": "Mon-Fri", "time": "5:00pm"}, {"days": "Sat", "time": "9:00am"}, {"days": "Sun", "time": "Closed"}], "id": "9714000010", "name": "USPS COLLECTION BOX - PO LOBBY", "address": {"city": "SHERWOOD", "state": "OR", "street": "16300 SW LANGER DR", "postcode": "97140"}}},
{"geometry": {"type": "Point", "coordinates": [-123.8523819387, 45.4525956872]}, "type": "Feature", "properties": {"collection_times": [{"days": "Mon-Sat", "time": "9:00am"}, {"days": "Sun", "time": "Closed"}], "id": "9714100001", "name": "USPS COLLECTION BOX - BLUE BOX", "address": {"city": "TILLAMOOK", "state": "OR", "street": "804 CHESTNUT DR", "postcode": "97141"}}},
{"geometry": {"type": "Point", "coordinates": [-123.8439763667, 45.4500910025]}, "type": "Feature", "properties": {"collection_times": [{"days": "Mon-Sat", "time": "12:30pm"}, {"days": "Sun", "time": "Closed"}], "id": "9714100005", "name": "USPS COLLECTION BOX - BLUE BOX", "address": {"city": "TILLAMOOK", "state": "OR", "street": "1124 MAIN AVE", "postcode": "97141"}}},
{"geometry": {"type": "Point", "coordinates": [-123.8419952709, 45.4574467931]}, "type": "Feature", "properties": {"collection_times": [{"days": "Mon-Sat", "time": "5:00pm"}, {"days": "Sun", "time": "Closed"}], "id": "9714100011", "name": "USPS COLLECTION BOX - BLUE BOX", "address": {"city": "TILLAMOOK", "state": "OR", "street": "2200 1ST ST", "postcode": "97141"}}},
{"geometry": {"type": "Point", "coordinates": [-123.8419952709, 45.4574467931]}, "type": "Feature", "properties": {"collection_times": [{"days": "Mon-Sat", "time": "5:00pm"}, {"days": "Sun", "time": "Closed"}], "id": "9714100012", "name": "USPS COLLECTION BOX - BLUE BOX", "address": {"city": "TILLAMOOK", "state": "OR", "street": "2200 1ST ST", "postcode": "97141"}}},
{"geometry": {"type": "Point", "coordinates": [-123.854522496, 45.4548019643]}, "type": "Feature", "properties": {"collection_times": [{"days": "Mon-Sat", "time": "9:00am"}, {"days": "Sun", "time": "Closed"}], "id": "9714100013", "name": "USPS COLLECTION BOX - BLUE BOX", "address": {"city": "TILLAMOOK", "state": "OR", "street": "1005 5TH ST", "postcode": "97141"}}},
{"geometry": {"type": "Point", "coordinates": [-123.8453923187, 45.4857594351]}, "type": "Feature", "properties": {"collection_times": [{"days": "Mon-Sat", "time": "10:00am"}, {"days": "Sun", "time": "Closed"}], "id": "9714100016", "name": "USPS COLLECTION BOX - BLUE BOX", "address": {"city": "TILLAMOOK", "state": "OR", "street": "4175 HIGHWAY 101 N", "postcode": "97141"}}},
{"geometry": {"type": "Point", "coordinates": [-123.8457415551, 45.4548311141]}, "type": "Feature", "properties": {"collection_times": [{"days": "Mon-Fri", "time": "4:45pm"}, {"days": "Sat", "time": "10:15am"}, {"days": "Sun", "time": "Closed"}], "id": "9714100018", "name": "USPS COLLECTION BOX - BLUE BOX", "address": {"city": "TILLAMOOK", "state": "OR", "street": "9220 5TH ST", "postcode": "97141"}}},
{"geometry": {"type": "Point", "coordinates": [-123.9468421461, 45.4365674158]}, "type": "Feature", "properties": {"collection_times": [{"days": "Mon-Sat", "time": "4:15pm"}, {"days": "Sun", "time": "Closed"}], "id": "9714100019", "name": "USPS COLLECTION BOX - BLUE BOX", "address": {"city": "TILLAMOOK", "state": "OR", "street": "4945 NETARTS HWY W", "postcode": "97141"}}},
{"geometry": {"type": "Point", "coordinates": [-123.8442687228, 45.4745097823]}, "type": "Feature", "properties": {"collection_times": [{"days": "Mon-Sat", "time": "10:00am"}, {"days": "Sun", "time": "Closed"}], "id": "9714100021", "name": "USPS COLLECTION BOX - BLUE BOX", "address": {"city": "TILLAMOOK", "state": "OR", "street": "2500 MAIN AVE N", "postcode": "97141"}}},
{"geometry": {"type": "Point", "coordinates": [-123.296197508, 45.7282189726]}, "type": "Feature", "properties": {"collection_times": [{"days": "Mon-Sat", "time": "12:00pm"}, {"days": "Sun", "time": "Closed"}], "id": "9714400001", "name": "USPS COLLECTION BOX - BLUE BOX", "address": {"city": "TIMBER", "state": "OR", "street": "27650 NW TIMBER RD", "postcode": "97144"}}},
{"geometry": {"type": "Point", "coordinates": [-123.2964009103, 45.7197234998]}, "type": "Feature", "properties": {"collection_times": [{"days": "Mon-Sat", "time": "12:00pm"}, {"days": "Sun", "time": "Closed"}], "id": "9714400002", "name": "USPS COLLECTION BOX - PO LOBBY", "address": {"city": "TIMBER", "state": "OR", "street": "27650 NW TIMBER RD", "postcode": "97144"}}},
{"geometry": {"type": "Point", "coordinates": [-123.8962342887, 46.1628088643]}, "type": "Feature", "properties": {"collection_times": [{"days": "Mon-Sat", "time": "11:00am"}, {"days": "Sun", "time": "Closed"}], "id": "9714600001", "name": "USPS COLLECTION BOX - BLUE BOX", "address": {"city": "WARRENTON", "state": "OR", "street": "145 S HIGHWAY 101", "postcode": "97146"}}},
{"geometry": {"type": "Point", "coordinates": [-123.9257938209, 46.1679998353]}, "type": "Feature", "properties": {"collection_times": [{"days": "Mon-Fri", "time": "5:00pm"}, {"days": "Sat", "time": "11:00am"}, {"days": "Sun", "time": "Closed"}], "id": "9714600002", "name": "USPS COLLECTION BOX - BLUE BOX", "address": {"city": "WARRENTON", "state": "OR", "street": "99 N MAIN ST", "postcode": "97146"}}},
{"geometry": {"type": "Point", "coordinates": [-123.93285437, 46.1228263175]}, "type": "Feature", "properties": {"collection_times": [{"days": "Mon-Sat", "time": "11:00am"}, {"days": "Sun", "time": "Closed"}], "id": "9714600004", "name": "USPS COLLECTION BOX - BLUE BOX", "address": {"city": "WARRENTON", "state": "OR", "street": "33273 PATRIOT WAY", "postcode": "97146"}}},
{"geometry": {"type": "Point", "coordinates": [-123.9206660437, 46.1418373805]}, "type": "Feature", "properties": {"collection_times": [{"days": "Mon-Fri", "time": "5:00pm"}, {"days": "Sat", "time": "11:00am"}, {"days": "Sun", "time": "Closed"}], "id": "9714600005", "name": "USPS COLLECTION BOX - PO LOBBY", "address": {"city": "WARRENTON", "state": "OR", "street": "99 N MAIN ST", "postcode": "97146"}}},
{"geometry": {"type": "Point", "coordinates": [-123.882386755, 45.689534818]}, "type": "Feature", "properties": {"collection_times": [{"days": "Mon-Sat", "time": "3:45pm"}, {"days": "Sun", "time": "Closed"}], "id": "9714700001", "name": "USPS COLLECTION BOX - BLUE BOX", "address": {"city": "WHEELER", "state": "OR", "street": "500 NEHALEM BLVD", "postcode": "97147"}}},
{"geometry": {"type": "Point", "coordinates": [-123.1889740408, 45.3407696931]}, "type": "Feature", "properties": {"collection_times": [{"days": "Mon-Fri", "time": "4:00pm"}, {"days": "Sat", "time": "9:30am"}, {"days": "Sun", "time": "Closed"}], "id": "9714800001", "name": "USPS COLLECTION BOX - BLUE BOX", "address": {"city": "YAMHILL", "state": "OR", "street": "180 W FIRST ST", "postcode": "97148"}}},
{"geometry": {"type": "Point", "coordinates": [-123.1889740408, 45.3407696931]}, "type": "Feature", "properties": {"collection_times": [{"days": "Mon-Fri", "time": "4:00pm"}, {"days": "Sat", "time": "9:30am"}, {"days": "Sun", "time": "Closed"}], "id": "9714800002", "name": "USPS COLLECTION BOX - BLUE BOX", "address": {"city": "YAMHILL", "state": "OR", "street": "180 W FIRST ST", "postcode": "97148"}}},
{"geometry": {"type": "Point", "coordinates": [-123.9695777706, 45.1048062279]}, "type": "Feature", "properties": {"collection_times": [{"days": "Mon-Sat", "time": "3:00pm"}, {"days": "Sun", "time": "Closed"}], "id": "9714900002", "name": "USPS COLLECTION BOX - BLUE BOX", "address": {"city": "CLOVERDALE", "state": "OR", "street": "49880 HIGHWAY 101 S", "postcode": "97149"}}}
]}
