{"type": "FeatureCollection", "features": [
{"geometry": {"type": "Point", "coordinates": [-123.0331415653, 44.9368498076]}, "type": "Feature", "properties": {"collection_times": [{"days": "Mon-Fri", "time": "3:00pm"}, {"days": "Sat-Sun", "time": "Closed"}], "id": "9730100004", "name": "USPS COLLECTION BOX - BLUE BOX", "address": {"city": "SALEM", "state": "OR", "street": "245 WINTER ST SE", "postcode": "97301"}}},
{"geometry": {"type": "Point", "coordinates": [-123.031175091, 44.9444591571]}, "type": "Feature", "properties": {"collection_times": [{"days": "Mon-Fri", "time": "3:00pm"}, {"days": "Sat-Sun", "time": "Closed"}], "id": "9730100006", "name": "USPS COLLECTION BOX - BLUE BOX", "address": {"city": "SALEM", "state": "OR", "street": "605 COTTAGE ST NE", "postcode": "97301"}}},
{"geometry": {"type": "Point", "coordinates": [-123.036285526, 44.9416211578]}, "type": "Feature", "properties": {"collection_times": [{"days": "Mon-Fri", "time": "3:00pm"}, {"days": "Sat-Sun", "time": "Closed"}], "id": "9730100007", "name": "USPS COLLECTION BOX - BLUE BOX", "address": {"city": "SALEM", "state": "OR", "street": "333 HIGH ST NE", "postcode": "97301"}}},
{"geometry": {"type": "Point", "coordinates": [-123.037293121, 44.9395763538]}, "type": "Feature", "properties": {"collection_times": [{"days": "Mon-Fri", "time": "3:00pm"}, {"days": "Sat-Sun", "time": "Closed"}], "id": "9730100008", "name": "USPS COLLECTION BOX - BLUE BOX", "address": {"city": "SALEM", "state": "OR", "street": "101 HIGH ST SE", "postcode": "97301"}}},
{"geometry": {"type": "Point", "coordinates": [-123.0043992006, 44.9487182853]}, "type": "Feature", "properties": {"collection_times": [{"days": "Mon-Fri", "time": "3:00pm"}, {"days": "Sat-Sun", "time": "Closed"}], "id": "9730100011", "name": "USPS COLLECTION BOX - BLUE BOX", "address": {"city": "SALEM", "state": "OR", "street": "875 OAK ST SE", "postcode": "97301"}}},
{"geometry": {"type": "Point", "coordinates": [-123.0322464321, 44.9432720796]}, "type": "Feature", "properties": {"collection_times": [{"days": "Mon-Fri", "time": "3:00pm"}, {"days": "Sat-Sun", "time": "Closed"}], "id": "9730100012", "name": "USPS COLLECTION BOX - BLUE BOX", "address": {"city": "SALEM", "state": "OR", "street": "670 MARION ST NE", "postcode": "97301"}}},
{"geometry": {"type": "Point", "coordinates": [-123.0377766261, 44.9386032366]}, "type": "Feature", "properties": {"collection_times": [{"days": "Mon-Fri", "time": "3:00pm"}, {"days": "Sat-Sun", "time": "Closed"}], "id": "9730100016", "name": "USPS COLLECTION BOX - BLUE BOX", "address": {"city": "SALEM", "state": "OR", "street": "201 HIGH ST SE", "postcode": "97301"}}},
{"geometry": {"type": "Point", "coordinates": [-122.983112228, 44.9416588782]}, "type": "Feature", "properties": {"collection_times": [{"days": "Mon-Fri", "time": "3:00pm"}, {"days": "Sat-Sun", "time": "Closed"}], "id": "9730100020", "name": "USPS COLLECTION BOX - BLUE BOX", "address": {"city": "SALEM", "state": "OR", "street": "852 LANCASTER DR SE", "postcode": "97301"}}},
{"geometry": {"type": "Point", "coordinates": [-123.0350570364, 44.9427380691]}, "type": "Feature", "properties": {"collection_times": [{"days": "Mon-Fri", "time": "3:00pm"}, {"days": "Sat-Sun", "time": "Closed"}], "id": "9730100023", "name": "USPS COLLECTION BOX - BLUE BOX", "address": {"city": "SALEM", "state": "OR", "street": "530 CENTER ST NE", "postcode": "97301"}}},
{"geometry": {"type": "Point", "coordinates": [-123.0350570364, 44.9427380691]}, "type": "Feature", "properties": {"collection_times": [{"days": "Mon-Fri", "time": "3:00pm"}, {"days": "Sat-Sun", "time": "Closed"}], "id": "9730100024", "name": "USPS COLLECTION BOX - BLUE BOX", "address": {"city": "SALEM", "state": "OR", "street": "530 CENTER ST NE", "postcode": "97301"}}},
{"geometry": {"type": "Point", "coordinates": [-123.0350570364, 44.9427380691]}, "type": "Feature", "properties": {"collection_times": [{"days": "Mon-Fri", "time": "3:00pm"}, {"days": "Sat-Sun", "time": "Closed"}], "id": "9730100025", "name": "USPS COLLECTION BOX - BLUE BOX", "address": {"city": "SALEM", "state": "OR", "street": "530 CENTER ST NE", "postcode": "97301"}}},
{"geometry": {"type": "Point", "coordinates": [-123.0082366137, 44.947686484]}, "type": "Feature", "properties": {"collection_times": [{"days": "Mon-Fri", "time": "11:30am"}, {"days": "Sat-Sun", "time": "Closed"}], "id": "9730100026", "name": "USPS COLLECTION BOX - BLUE BOX", "address": {"city": "SALEM", "state": "OR", "street": "555 13TH ST NE", "postcode": "97301"}}},
{"geometry": {"type": "Point", "coordinates": [-122.9935824061, 44.927863355]}, "type": "Feature", "properties": {"collection_times": [{"days": "Mon-Fri", "time": "3:00pm"}, {"days": "Sat-Sun", "time": "Closed"}], "id": "9730100034", "name": "USPS COLLECTION BOX - BLUE BOX", "address": {"city": "SALEM", "state": "OR", "street": "3400 STATE ST", "postcode": "97301"}}},
{"geometry": {"type": "Point", "coordinates": [-123.0384334696, 44.9480423095]}, "type": "Feature", "properties": {"collection_times": [{"days": "Mon-Fri", "time": "3:00pm"}, {"days": "Sat-Sun", "time": "Closed"}], "id": "9730100039", "name": "USPS COLLECTION BOX - BLUE BOX", "address": {"city": "SALEM", "state": "OR", "street": "750 FRONT ST NE", "postcode": "97301"}}},
{"geometry": {"type": "Point", "coordinates": [-123.0277019101, 44.9402842788]}, "type": "Feature", "properties": {"collection_times": [{"days": "Mon-Fri", "time": "3:00pm"}, {"days": "Sat-Sun", "time": "Closed"}], "id": "9730100042", "name": "USPS COLLECTION BOX - BLUE BOX", "address": {"city": "SALEM", "state": "OR", "street": "355 CAPITOL ST NE", "postcode": "97301"}}},
{"geometry": {"type": "Point", "coordinates": [-123.0342452471, 44.9416713144]}, "type": "Feature", "properties": {"collection_times": [{"days": "Mon-Fri", "time": "3:00pm"}, {"days": "Sat-Sun", "time": "Closed"}], "id": "9730100047", "name": "USPS COLLECTION BOX - BLUE BOX", "address": {"city": "SALEM", "state": "OR", "street": "324 CHURCH ST NE", "postcode": "97301"}}},
{"geometry": {"type": "Point", "coordinates": [-123.0371203699, 44.9358236042]}, "type": "Feature", "properties": {"collection_times": [{"days": "Mon-Fri", "time": "3:00pm"}, {"days": "Sat-Sun", "time": "Closed"}], "id": "9730100049", "name": "USPS COLLECTION BOX - BLUE BOX", "address": {"city": "SALEM", "state": "OR", "street": "440 CHURCH ST SE", "postcode": "97301"}}},
{"geometry": {"type": "Point", "coordinates": [-123.0082366137, 44.947686484]}, "type": "Feature", "properties": {"collection_times": [{"days": "Mon-Fri", "time": "3:00pm"}, {"days": "Sat-Sun", "time": "Closed"}], "id": "9730100053", "name": "USPS COLLECTION BOX - BLUE BOX", "address": {"city": "SALEM", "state": "OR", "street": "201 COMMERCIAL ST NE", "postcode": "97301"}}},
{"geometry": {"type": "Point", "coordinates": [-123.0424340016, 44.9363716166]}, "type": "Feature", "properties": {"collection_times": [{"days": "Mon-Fri", "time": "3:00pm"}, {"days": "Sat", "time": "12:30pm"}, {"days": "Sun", "time": "Closed"}], "id": "9730100054", "name": "USPS COLLECTION BOX - BLUE BOX", "address": {"city": "SALEM", "state": "OR", "street": "500 COMMERCIAL ST SE", "postcode": "97301"}}},
{"geometry": {"type": "Point", "coordinates": [-123.0262121461, 44.9357387648]}, "type": "Feature", "properties": {"collection_times": [{"days": "Mon-Sat", "time": "3:00pm"}, {"days": "Sun", "time": "Closed"}], "id": "9730100058", "name": "USPS COLLECTION BOX - BLUE BOX", "address": {"city": "SALEM", "state": "OR", "street": "1299 FERRY ST SE", "postcode": "97301"}}},
{"geometry": {"type": "Point", "coordinates": [-123.0081180932, 44.9408112267]}, "type": "Feature", "properties": {"collection_times": [{"days": "Mon-Fri", "time": "3:00pm"}, {"days": "Sat-Sun", "time": "Closed"}], "id": "9730100060", "name": "USPS COLLECTION BOX - BLUE BOX", "address": {"city": "SALEM", "state": "OR", "street": "2440 GREAR ST NE", "postcode": "97301"}}},
{"geometry": {"type": "Point", "coordinates": [-122.9926536085, 44.9496294319]}, "type": "Feature", "properties": {"collection_times": [{"days": "Mon-Fri", "time": "3:00pm"}, {"days": "Sat-Sun", "time": "Closed"}], "id": "9730100061", "name": "USPS COLLECTION BOX - BLUE BOX", "address": {"city": "SALEM", "state": "OR", "street": "1635 HAWTHORNE AVE NE", "postcode": "97301"}}},
{"geometry": {"type": "Point", "coordinates": [-123.0340063649, 44.9458142422]}, "type": "Feature", "properties": {"collection_times": [{"days": "Mon-Fri", "time": "3:00pm"}, {"days": "Sat-Sun", "time": "Closed"}], "id": "9730100062", "name": "USPS COLLECTION BOX - BLUE BOX", "address": {"city": "SALEM", "state": "OR", "street": "660 HIGH ST NE", "postcode": "97301"}}},
{"geometry": {"type": "Point", "coordinates": [-123.0384284519, 44.9409962512]}, "type": "Feature", "properties": {"collection_times": [{"days": "Mon-Fri", "time": "3:00pm"}, {"days": "Sat-Sun", "time": "Closed"}], "id": "9730100063", "name": "USPS COLLECTION BOX - BLUE BOX", "address": {"city": "SALEM", "state": "OR", "street": "189 LIBERTY ST NE", "postcode": "97301"}}},
{"geometry": {"type": "Point", "coordinates": [-123.0393452482, 44.9390985999]}, "type": "Feature", "properties": {"collection_times": [{"days": "Mon-Fri", "time": "3:00pm"}, {"days": "Sat-Sun", "time": "Closed"}], "id": "9730100064", "name": "USPS COLLECTION BOX - BLUE BOX", "address": {"city": "SALEM", "state": "OR", "street": "195 LIBERTY ST SE", "postcode": "97301"}}},
{"geometry": {"type": "Point", "coordinates": [-122.983076115, 44.9390737132]}, "type": "Feature", "properties": {"collection_times": [{"days": "Mon-Fri", "time": "3:00pm"}, {"days": "Sat", "time": "2:15pm"}, {"days": "Sun", "time": "Closed"}], "id": "9730100066", "name": "USPS COLLECTION BOX - BLUE BOX", "address": {"city": "SALEM", "state": "OR", "street": "581 LANCASTER DR SE", "postcode": "97301"}}},
{"geometry": {"type": "Point", "coordinates": [-122.9829207836, 44.9398283358]}, "type": "Feature", "properties": {"collection_times": [{"days": "Mon-Fri", "time": "3:00pm"}, {"days": "Sat", "time": "11:30am"}, {"days": "Sun", "time": "Closed"}], "id": "9730100067", "name": "USPS COLLECTION BOX - BLUE BOX", "address": {"city": "SALEM", "state": "OR", "street": "616 LANCASTER DR NE", "postcode": "97301"}}},
{"geometry": {"type": "Point", "coordinates": [-123.0082366137, 44.947686484]}, "type": "Feature", "properties": {"collection_times": [{"days": "Mon-Fri", "time": "3:00pm"}, {"days": "Sat-Sun", "time": "Closed"}], "id": "9730100073", "name": "USPS COLLECTION BOX - BLUE BOX", "address": {"city": "SALEM", "state": "OR", "street": "1489 STATE ST", "postcode": "97301"}}},
{"geometry": {"type": "Point", "coordinates": [-123.039641866, 44.9381838503]}, "type": "Feature", "properties": {"collection_times": [{"days": "Mon-Fri", "time": "3:00pm"}, {"days": "Sat-Sun", "time": "Closed"}], "id": "9730100075", "name": "USPS COLLECTION BOX - BLUE BOX", "address": {"city": "SALEM", "state": "OR", "street": "280 LIBERTY ST SE", "postcode": "97301"}}},
{"geometry": {"type": "Point", "coordinates": [-123.0284046049, 44.9411628901]}, "type": "Feature", "properties": {"collection_times": [{"days": "Mon-Fri", "time": "3:00pm"}, {"days": "Sat-Sun", "time": "Closed"}], "id": "9730100077", "name": "USPS COLLECTION BOX - BLUE BOX", "address": {"city": "SALEM", "state": "OR", "street": "955 CENTER ST NE", "postcode": "97301"}}},
{"geometry": {"type": "Point", "coordinates": [-123.0413314842, 44.9351757619]}, "type": "Feature", "properties": {"collection_times": [{"days": "Mon-Fri", "time": "3:00pm"}, {"days": "Sat", "time": "12:30pm"}, {"days": "Sun", "time": "Closed"}], "id": "9730100083", "name": "USPS COLLECTION BOX - BLUE BOX", "address": {"city": "SALEM", "state": "OR", "street": "585 LIBERTY ST SE", "postcode": "97301"}}},
{"geometry": {"type": "Point", "coordinates": [-122.9871950317, 44.9500884543]}, "type": "Feature", "properties": {"collection_times": [{"days": "Mon-Fri", "time": "3:00pm"}, {"days": "Sat", "time": "12:15pm"}, {"days": "Sun", "time": "Closed"}], "id": "9730100084", "name": "USPS COLLECTION BOX - BLUE BOX", "address": {"city": "SALEM", "state": "OR", "street": "3760 MARKET ST NE", "postcode": "97301"}}},
{"geometry": {"type": "Point", "coordinates": [-123.0424340016, 44.9363716166]}, "type": "Feature", "properties": {"collection_times": [{"days": "Mon-Fri", "time": "3:00pm"}, {"days": "Sat", "time": "12:30pm"}, {"days": "Sun", "time": "Closed"}], "id": "9730100085", "name": "USPS COLLECTION BOX - BLUE BOX", "address": {"city": "SALEM", "state": "OR", "street": "500 COMMERCIAL ST SE", "postcode": "97301"}}},
{"geometry": {"type": "Point", "coordinates": [-123.0413314842, 44.9351757619]}, "type": "Feature", "properties": {"collection_times": [{"days": "Mon-Fri", "time": "3:00pm"}, {"days": "Sat", "time": "12:30pm"}, {"days": "Sun", "time": "Closed"}], "id": "9730100098", "name": "USPS COLLECTION BOX - BLUE BOX", "address": {"city": "SALEM", "state": "OR", "street": "585 LIBERTY ST SE", "postcode": "97301"}}},
{"geometry": {"type": "Point", "coordinates": [-123.0405219904, 44.9404867115]}, "type": "Feature", "properties": {"collection_times": [{"days": "Mon-Fri", "time": "3:00pm"}, {"days": "Sat-Sun", "time": "Closed"}], "id": "9730100108", "name": "USPS COLLECTION BOX - BLUE BOX", "address": {"city": "SALEM", "state": "OR", "street": "295 STATE ST", "postcode": "97301"}}},
{"geometry": {"type": "Point", "coordinates": [-123.0258501934, 44.9439358591]}, "type": "Feature", "properties": {"collection_times": [{"days": "Mon-Fri", "time": "3:30pm"}, {"days": "Sat-Sun", "time": "Closed"}], "id": "9730100112", "name": "USPS COLLECTION BOX - BLUE BOX", "address": {"city": "SALEM", "state": "OR", "street": "635 CAPITOL ST NE", "postcode": "97301"}}},
{"geometry": {"type": "Point", "coordinates": [-123.0082366137, 44.947686484]}, "type": "Feature", "properties": {"collection_times": [{"days": "Mon-Fri", "time": "3:00pm"}, {"days": "Sat-Sun", "time": "Closed"}], "id": "9730100137", "name": "USPS COLLECTION BOX - BLUE BOX", "address": {"city": "SALEM", "state": "OR", "street": "390 STATE ST", "postcode": "97301"}}},
{"geometry": {"type": "Point", "coordinates": [-122.9835011672, 44.9451334505]}, "type": "Feature", "properties": {"collection_times": [{"days": "Mon-Fri", "time": "3:00pm"}, {"days": "Sat", "time": "11:15am"}, {"days": "Sun", "time": "Closed"}], "id": "9730100145", "name": "USPS COLLECTION BOX - BLUE BOX", "address": {"city": "SALEM", "state": "OR", "street": "1256 LANCASTER DR SE", "postcode": "97301"}}},
{"geometry": {"type": "Point", "coordinates": [-123.035851599, 44.9384690162]}, "type": "Feature", "properties": {"collection_times": [{"days": "Mon-Fri", "time": "3:00pm"}, {"days": "Sat-Sun", "time": "Closed"}], "id": "9730100146", "name": "USPS COLLECTION BOX - BLUE BOX", "address": {"city": "SALEM", "state": "OR", "street": "242 CHURCH ST SE", "postcode": "97301"}}},
{"geometry": {"type": "Point", "coordinates": [-123.0405219904, 44.9404867115]}, "type": "Feature", "properties": {"collection_times": [{"days": "Mon-Fri", "time": "3:00pm"}, {"days": "Sat-Sun", "time": "Closed"}], "id": "9730100151", "name": "USPS COLLECTION BOX - BLUE BOX", "address": {"city": "SALEM", "state": "OR", "street": "295 STATE ST", "postcode": "97301"}}},
{"geometry": {"type": "Point", "coordinates": [-123.0082366137, 44.947686484]}, "type": "Feature", "properties": {"collection_times": [{"days": "Mon-Fri", "time": "3:00pm"}, {"days": "Sat-Sun", "time": "Closed"}], "id": "9730100153", "name": "USPS COLLECTION BOX - EXPRESS", "address": {"city": "SALEM", "state": "OR", "street": "201 COMMERCIAL ST NE", "postcode": "97301"}}},
{"geometry": {"type": "Point", "coordinates": [-122.9829207836, 44.9398283358]}, "type": "Feature", "properties": {"collection_times": [{"days": "Mon-Fri", "time": "3:00pm"}, {"days": "Sat", "time": "11:30am"}, {"days": "Sun", "time": "Closed"}], "id": "9730100154", "name": "USPS COLLECTION BOX - BLUE BOX", "address": {"city": "SALEM", "state": "OR", "street": "616 LANCASTER DR NE", "postcode": "97301"}}},
{"geometry": {"type": "Point", "coordinates": [-123.0243332298, 44.9399908616]}, "type": "Feature", "properties": {"collection_times": [{"days": "Mon-Sat", "time": "3:00pm"}, {"days": "Sun", "time": "Closed"}], "id": "9730100155", "name": "USPS COLLECTION BOX - BLUE BOX", "address": {"city": "SALEM", "state": "OR", "street": "1280 CENTER ST NE", "postcode": "97301"}}},
{"geometry": {"type": "Point", "coordinates": [-123.0082366137, 44.947686484]}, "type": "Feature", "properties": {"collection_times": [{"days": "Mon-Fri", "time": "3:00pm"}, {"days": "Sat-Sun", "time": "Closed"}], "id": "9730100156", "name": "USPS COLLECTION BOX - EXPRESS", "address": {"city": "SALEM", "state": "OR", "street": "390 STATE ST", "postcode": "97301"}}},
{"geometry": {"type": "Point", "coordinates": [-123.0275768546, 44.9383345962]}, "type": "Feature", "properties": {"collection_times": [{"days": "Mon-Fri", "time": "3:00pm"}, {"days": "Sat-Sun", "time": "Closed"}], "id": "9730100159", "name": "USPS COLLECTION BOX - BLUE BOX", "address": {"city": "SALEM", "state": "OR", "street": "1162 COURT ST NE", "postcode": "97301"}}},
{"geometry": {"type": "Point", "coordinates": [-123.0308423237, 44.941101924]}, "type": "Feature", "properties": {"collection_times": [{"days": "Mon-Fri", "time": "3:00pm"}, {"days": "Sat-Sun", "time": "Closed"}], "id": "9730100160", "name": "USPS COLLECTION BOX - BLUE BOX", "address": {"city": "SALEM", "state": "OR", "street": "350 WINTER ST NE", "postcode": "97301"}}},
{"geometry": {"type": "Point", "coordinates": [-123.0106133919, 44.9250581851]}, "type": "Feature", "properties": {"collection_times": [{"days": "Mon-Sat", "time": "5:45pm"}, {"days": "Sun", "time": "Closed"}], "id": "9730100162", "name": "USPS COLLECTION BOX - BLUE BOX", "address": {"city": "SALEM", "state": "OR", "street": "1050 25TH ST SE", "postcode": "97301"}}},
{"geometry": {"type": "Point", "coordinates": [-123.0106133919, 44.9250581851]}, "type": "Feature", "properties": {"collection_times": [{"days": "Mon-Sat", "time": "5:45pm"}, {"days": "Sun", "time": "Closed"}], "id": "9730100163", "name": "USPS COLLECTION BOX - BLUE BOX", "address": {"city": "SALEM", "state": "OR", "street": "1050 25TH ST SE", "postcode": "97301"}}},
{"geometry": {"type": "Point", "coordinates": [-123.0106133919, 44.9250581851]}, "type": "Feature", "properties": {"collection_times": [{"days": "Mon-Sat", "time": "5:45pm"}, {"days": "Sun", "time": "Closed"}], "id": "9730100164", "name": "USPS COLLECTION BOX - BLUE BOX", "address": {"city": "SALEM", "state": "OR", "street": "1050 25TH ST SE", "postcode": "97301"}}},
{"geometry": {"type": "Point", "coordinates": [-123.0106133919, 44.9250581851]}, "type": "Feature", "properties": {"collection_times": [{"days": "Mon-Sat", "time": "5:45pm"}, {"days": "Sun", "time": "Closed"}], "id": "9730100165", "name": "USPS COLLECTION BOX - BLUE BOX", "address": {"city": "SALEM", "state": "OR", "street": "1050 25TH ST SE", "postcode": "97301"}}},
{"geometry": {"type": "Point", "coordinates": [-123.0106133919, 44.9250581851]}, "type": "Feature", "properties": {"collection_times": [{"days": "Mon-Sat", "time": "5:45pm"}, {"days": "Sun", "time": "Closed"}], "id": "9730100166", "name": "USPS COLLECTION BOX - BLUE BOX", "address": {"city": "SALEM", "state": "OR", "street": "1050 25TH ST SE", "postcode": "97301"}}},
{"geometry": {"type": "Point", "coordinates": [-123.0106133919, 44.9250581851]}, "type": "Feature", "properties": {"collection_times": [{"days": "Mon-Sat", "time": "5:45pm"}, {"days": "Sun", "time": "Closed"}], "id": "9730100167", "name": "USPS COLLECTION BOX - BLUE BOX", "address": {"city": "SALEM", "state": "OR", "street": "1050 25TH ST SE", "postcode": "97301"}}},
{"geometry": {"type": "Point", "coordinates": [-123.0082366137, 44.947686484]}, "type": "Feature", "properties": {"collection_times": [{"days": "Mon-Sat", "time": "5:45pm"}, {"days": "Sun", "time": "Closed"}], "id": "9730100168", "name": "USPS COLLECTION BOX - EXPRESS", "address": {"city": "SALEM", "state": "OR", "street": "1050 25TH ST SE", "postcode": "97301"}}},
{"geometry": {"type": "Point", "coordinates": [-123.0082366137, 44.947686484]}, "type": "Feature", "properties": {"collection_times": [{"days": "Mon-Sat", "time": "5:45pm"}, {"days": "Sun", "time": "Closed"}], "id": "9730100169", "name": "USPS COLLECTION BOX - PO LOBBY", "address": {"city": "SALEM", "state": "OR", "street": "1050 25TH ST SE", "postcode": "97301"}}},
{"geometry": {"type": "Point", "coordinates": [-123.0082366137, 44.947686484]}, "type": "Feature", "properties": {"collection_times": [{"days": "Mon-Sat", "time": "5:45pm"}, {"days": "Sun", "time": "Closed"}], "id": "9730100170", "name": "USPS COLLECTION BOX - EXPRESS", "address": {"city": "SALEM", "state": "OR", "street": "1050 25TH ST SE", "postcode": "97301"}}},
{"geometry": {"type": "Point", "coordinates": [-123.0106133919, 44.9250581851]}, "type": "Feature", "properties": {"collection_times": [{"days": "Mon-Sat", "time": "5:45pm"}, {"days": "Sun", "time": "Closed"}], "id": "9730100171", "name": "USPS COLLECTION BOX - APC", "address": {"city": "SALEM", "state": "OR", "street": "1050 25TH ST SE", "postcode": "97301"}}},
{"geometry": {"type": "Point", "coordinates": [-123.0082366137, 44.947686484]}, "type": "Feature", "properties": {"collection_times": [{"days": "Mon-Fri", "time": "3:00pm"}, {"days": "Sat-Sun", "time": "Closed"}], "id": "9730100172", "name": "USPS COLLECTION BOX - BLUE BOX", "address": {"city": "SALEM", "state": "OR", "street": "900 STATE ST", "postcode": "97301"}}},
{"geometry": {"type": "Point", "coordinates": [-122.9971071054, 44.9852980002]}, "type": "Feature", "properties": {"collection_times": [{"days": "Mon-Fri", "time": "3:00pm"}, {"days": "Sat-Sun", "time": "Closed"}], "id": "9730100173", "name": "USPS COLLECTION BOX - BLUE BOX", "address": {"city": "SALEM", "state": "OR", "street": "4600 25TH AVE NE", "postcode": "97301"}}},
{"geometry": {"type": "Point", "coordinates": [-123.0450677748, 44.9112311913]}, "type": "Feature", "properties": {"collection_times": [{"days": "Mon-Fri", "time": "3:00pm"}, {"days": "Sat", "time": "12:45pm"}, {"days": "Sun", "time": "Closed"}], "id": "9730200000", "name": "USPS COLLECTION BOX - BLUE BOX", "address": {"city": "SALEM", "state": "OR", "street": "3045 COMMERCIAL ST SE", "postcode": "97302"}}},
{"geometry": {"type": "Point", "coordinates": [-123.0402460474, 44.902863159]}, "type": "Feature", "properties": {"collection_times": [{"days": "Mon-Sat", "time": "4:15pm"}, {"days": "Sun", "time": "Closed"}], "id": "9730200002", "name": "USPS COLLECTION BOX - BLUE BOX", "address": {"city": "SALEM", "state": "OR", "street": "3624 COMMERCIAL ST SE", "postcode": "97302"}}},
{"geometry": {"type": "Point", "coordinates": [-123.0402460474, 44.902863159]}, "type": "Feature", "properties": {"collection_times": [{"days": "Mon-Sat", "time": "4:15pm"}, {"days": "Sun", "time": "Closed"}], "id": "9730200003", "name": "USPS COLLECTION BOX - BLUE BOX", "address": {"city": "SALEM", "state": "OR", "street": "3624 COMMERCIAL ST SE", "postcode": "97302"}}},
{"geometry": {"type": "Point", "coordinates": [-123.0402460474, 44.902863159]}, "type": "Feature", "properties": {"collection_times": [{"days": "Mon-Sat", "time": "4:15pm"}, {"days": "Sun", "time": "Closed"}], "id": "9730200004", "name": "USPS COLLECTION BOX - BLUE BOX", "address": {"city": "SALEM", "state": "OR", "street": "3624 COMMERCIAL ST SE", "postcode": "97302"}}},
{"geometry": {"type": "Point", "coordinates": [-123.0402460474, 44.902863159]}, "type": "Feature", "properties": {"collection_times": [{"days": "Mon-Sat", "time": "4:15pm"}, {"days": "Sun", "time": "Closed"}], "id": "9730200005", "name": "USPS COLLECTION BOX - BLUE BOX", "address": {"city": "SALEM", "state": "OR", "street": "3624 COMMERCIAL ST SE", "postcode": "97302"}}},
{"geometry": {"type": "Point", "coordinates": [-123.0452473705, 44.9060569863]}, "type": "Feature", "properties": {"collection_times": [{"days": "Mon-Sat", "time": "4:15pm"}, {"days": "Sun", "time": "Closed"}], "id": "9730200006", "name": "USPS COLLECTION BOX - EXPRESS", "address": {"city": "SALEM", "state": "OR", "street": "3624 COMMERCIAL ST SE", "postcode": "97302"}}},
{"geometry": {"type": "Point", "coordinates": [-123.0336667146, 44.8882915465]}, "type": "Feature", "properties": {"collection_times": [{"days": "Mon-Fri", "time": "3:00pm"}, {"days": "Sat", "time": "1:00pm"}, {"days": "Sun", "time": "Closed"}], "id": "9730200009", "name": "USPS COLLECTION BOX - BLUE BOX", "address": {"city": "SALEM", "state": "OR", "street": "4585 COMMERCIAL ST SE", "postcode": "97302"}}},
{"geometry": {"type": "Point", "coordinates": [-123.0591801522, 44.8918027107]}, "type": "Feature", "properties": {"collection_times": [{"days": "Mon-Fri", "time": "3:00pm"}, {"days": "Sat", "time": "1:30pm"}, {"days": "Sun", "time": "Closed"}], "id": "9730200013", "name": "USPS COLLECTION BOX - BLUE BOX", "address": {"city": "SALEM", "state": "OR", "street": "4555 LIBERTY RD S", "postcode": "97302"}}},
{"geometry": {"type": "Point", "coordinates": [-123.0402460474, 44.902863159]}, "type": "Feature", "properties": {"collection_times": [{"days": "Mon-Sat", "time": "4:15pm"}, {"days": "Sun", "time": "Closed"}], "id": "9730200014", "name": "USPS COLLECTION BOX - BLUE BOX", "address": {"city": "SALEM", "state": "OR", "street": "3624 COMMERCIAL ST SE", "postcode": "97302"}}},
{"geometry": {"type": "Point", "coordinates": [-123.0385391758, 44.8988355877]}, "type": "Feature", "properties": {"collection_times": [{"days": "Mon-Fri", "time": "3:00pm"}, {"days": "Sat", "time": "12:45pm"}, {"days": "Sun", "time": "Closed"}], "id": "9730200018", "name": "USPS COLLECTION BOX - BLUE BOX", "address": {"city": "SALEM", "state": "OR", "street": "3997 COMMERCIAL ST SE", "postcode": "97302"}}},
{"geometry": {"type": "Point", "coordinates": [-123.0450696717, 44.9164803928]}, "type": "Feature", "properties": {"collection_times": [{"days": "Mon-Fri", "time": "3:00pm"}, {"days": "Sat-Sun", "time": "Closed"}], "id": "9730200019", "name": "USPS COLLECTION BOX - BLUE BOX", "address": {"city": "SALEM", "state": "OR", "street": "2591 COMMERCIAL ST SE", "postcode": "97302"}}},
{"geometry": {"type": "Point", "coordinates": [-123.0336667146, 44.8882915465]}, "type": "Feature", "properties": {"collection_times": [{"days": "Mon-Fri", "time": "3:00pm"}, {"days": "Sat", "time": "1:00pm"}, {"days": "Sun", "time": "Closed"}], "id": "9730200036", "name": "USPS COLLECTION BOX - BLUE BOX", "address": {"city": "SALEM", "state": "OR", "street": "4585 COMMERCIAL ST SE", "postcode": "97302"}}},
{"geometry": {"type": "Point", "coordinates": [-123.0402460474, 44.902863159]}, "type": "Feature", "properties": {"collection_times": [{"days": "Mon-Sat", "time": "4:15pm"}, {"days": "Sun", "time": "Closed"}], "id": "9730200043", "name": "USPS COLLECTION BOX - BLUE BOX", "address": {"city": "SALEM", "state": "OR", "street": "3624 COMMERCIAL ST SE", "postcode": "97302"}}},
{"geometry": {"type": "Point", "coordinates": [-123.0307189976, 44.9276705434]}, "type": "Feature", "properties": {"collection_times": [{"days": "Mon-Fri", "time": "3:00pm"}, {"days": "Sat", "time": "11:15am"}, {"days": "Sun", "time": "Closed"}], "id": "9730200045", "name": "USPS COLLECTION BOX - BLUE BOX", "address": {"city": "SALEM", "state": "OR", "street": "1005 12TH ST SE", "postcode": "97302"}}},
{"geometry": {"type": "Point", "coordinates": [-123.0452473705, 44.9060569863]}, "type": "Feature", "properties": {"collection_times": [{"days": "Mon-Fri", "time": "4:15pm"}, {"days": "Sat", "time": "3:45pm"}, {"days": "Sun", "time": "Closed"}], "id": "9730200046", "name": "USPS COLLECTION BOX - PO LOBBY", "address": {"city": "SALEM", "state": "OR", "street": "3624 COMMERCIAL ST SE", "postcode": "97302"}}},
{"geometry": {"type": "Point", "coordinates": [-123.0402460474, 44.902863159]}, "type": "Feature", "properties": {"collection_times": [{"days": "Mon-Fri", "time": "4:15pm"}, {"days": "Sat", "time": "3:45pm"}, {"days": "Sun", "time": "Closed"}], "id": "9730200047", "name": "USPS COLLECTION BOX - APC", "address": {"city": "SALEM", "state": "OR", "street": "3624 COMMERCIAL ST SE", "postcode": "97302"}}},
{"geometry": {"type": "Point", "coordinates": [-123.0591801522, 44.8918027107]}, "type": "Feature", "properties": {"collection_times": [{"days": "Mon-Fri", "time": "3:00pm"}, {"days": "Sat", "time": "1:15pm"}, {"days": "Sun", "time": "Closed"}], "id": "9730200048", "name": "USPS COLLECTION BOX - BLUE BOX", "address": {"city": "SALEM", "state": "OR", "street": "4555 LIBERTY RD S", "postcode": "97302"}}},
{"geometry": {"type": "Point", "coordinates": [-123.0402460474, 44.902863159]}, "type": "Feature", "properties": {"collection_times": [{"days": "Mon-Fri", "time": "4:15pm"}, {"days": "Sat", "time": "3:45pm"}, {"days": "Sun", "time": "Closed"}], "id": "9730200049", "name": "USPS COLLECTION BOX - APC", "address": {"city": "SALEM", "state": "OR", "street": "3624 COMMERCIAL ST SE", "postcode": "97302"}}},
{"geometry": {"type": "Point", "coordinates": [-123.0452473705, 44.9060569863]}, "type": "Feature", "properties": {"collection_times": [{"days": "Mon-Fri", "time": "3:00pm"}, {"days": "Sat", "time": "12:45pm"}, {"days": "Sun", "time": "Closed"}], "id": "9730200050", "name": "USPS COLLECTION BOX - BLUE BOX", "address": {"city": "SALEM", "state": "OR", "street": "3045 COMMERCIAL ST SE", "postcode": "97302"}}},
{"geometry": {"type": "Point", "coordinates": [-123.0604728044, 44.8897901365]}, "type": "Feature", "properties": {"collection_times": [{"days": "Mon-Fri", "time": "3:00pm"}, {"days": "Sat-Sun", "time": "Closed"}], "id": "9730200051", "name": "USPS COLLECTION BOX - BLUE BOX", "address": {"city": "SALEM", "state": "OR", "street": "4742 LIBERTY RD S", "postcode": "97302"}}},
{"geometry": {"type": "Point", "coordinates": [-123.0145165911, 44.9729065033]}, "type": "Feature", "properties": {"collection_times": [{"days": "Mon-Fri", "time": "3:00pm"}, {"days": "Sat-Sun", "time": "Closed"}], "id": "9730300011", "name": "USPS COLLECTION BOX - BLUE BOX", "address": {"city": "SALEM", "state": "OR", "street": "1360 TANDEM AVE NE", "postcode": "97303"}}},
{"geometry": {"type": "Point", "coordinates": [-123.026575508, 44.9967224508]}, "type": "Feature", "properties": {"collection_times": [{"days": "Mon-Sat", "time": "2:30pm"}, {"days": "Sun", "time": "Closed"}], "id": "9730300015", "name": "USPS COLLECTION BOX - BLUE BOX", "address": {"city": "SALEM", "state": "OR", "street": "4992 RIVER RD N", "postcode": "97303"}}},
{"geometry": {"type": "Point", "coordinates": [-123.026575508, 44.9967224508]}, "type": "Feature", "properties": {"collection_times": [{"days": "Mon-Sat", "time": "2:30pm"}, {"days": "Sun", "time": "Closed"}], "id": "9730300016", "name": "USPS COLLECTION BOX - BLUE BOX", "address": {"city": "SALEM", "state": "OR", "street": "4992 RIVER RD N", "postcode": "97303"}}},
{"geometry": {"type": "Point", "coordinates": [-123.0267034401, 44.9937118697]}, "type": "Feature", "properties": {"collection_times": [{"days": "Mon-Fri", "time": "3:00pm"}, {"days": "Sat-Sun", "time": "Closed"}], "id": "9730300021", "name": "USPS COLLECTION BOX - BLUE BOX", "address": {"city": "SALEM", "state": "OR", "street": "4823 RIVER RD N", "postcode": "97303"}}},
{"geometry": {"type": "Point", "coordinates": [-123.0265287053, 44.9825419718]}, "type": "Feature", "properties": {"collection_times": [{"days": "Mon-Sat", "time": "2:15pm"}, {"days": "Sun", "time": "Closed"}], "id": "9730300022", "name": "USPS COLLECTION BOX - BLUE BOX", "address": {"city": "SALEM", "state": "OR", "street": "3862 RIVER RD N", "postcode": "97303"}}},
{"geometry": {"type": "Point", "coordinates": [-123.0266739053, 44.9818528353]}, "type": "Feature", "properties": {"collection_times": [{"days": "Mon-Fri", "time": "3:00pm"}, {"days": "Sat-Sun", "time": "Closed"}], "id": "9730300023", "name": "USPS COLLECTION BOX - BLUE BOX", "address": {"city": "SALEM", "state": "OR", "street": "3853 RIVER RD N", "postcode": "97303"}}},
{"geometry": {"type": "Point", "coordinates": [-123.0218896673, 44.9517642677]}, "type": "Feature", "properties": {"collection_times": [{"days": "Mon-Sat", "time": "2:00pm"}, {"days": "Sun", "time": "Closed"}], "id": "9730300043", "name": "USPS COLLECTION BOX - BLUE BOX", "address": {"city": "SALEM", "state": "OR", "street": "1516 CAPITOL ST NE", "postcode": "97303"}}},
{"geometry": {"type": "Point", "coordinates": [-123.0265551705, 44.9895388037]}, "type": "Feature", "properties": {"collection_times": [{"days": "Mon-Sat", "time": "2:30pm"}, {"days": "Sun", "time": "Closed"}], "id": "9730300047", "name": "USPS COLLECTION BOX - BLUE BOX", "address": {"city": "SALEM", "state": "OR", "street": "4492 RIVER RD N", "postcode": "97303"}}},
{"geometry": {"type": "Point", "coordinates": [-123.0201344559, 44.9968393681]}, "type": "Feature", "properties": {"collection_times": [{"days": "Mon-Fri", "time": "2:30pm"}, {"days": "Sat-Sun", "time": "Closed"}], "id": "9730300048", "name": "USPS COLLECTION BOX - BLUE BOX", "address": {"city": "SALEM", "state": "OR", "street": "930 CHEMAWA RD NE", "postcode": "97303"}}},
{"geometry": {"type": "Point", "coordinates": [-123.0066039708, 44.9657489676]}, "type": "Feature", "properties": {"collection_times": [{"days": "Mon-Fri", "time": "3:00pm"}, {"days": "Sat-Sun", "time": "Closed"}], "id": "9730300052", "name": "USPS COLLECTION BOX - BLUE BOX", "address": {"city": "SALEM", "state": "OR", "street": "1905 LANA AVE NE", "postcode": "97303"}}},
{"geometry": {"type": "Point", "coordinates": [-123.0266719673, 44.9805362228]}, "type": "Feature", "properties": {"collection_times": [{"days": "Mon-Fri", "time": "2:45pm"}, {"days": "Sat-Sun", "time": "Closed"}], "id": "9730300054", "name": "USPS COLLECTION BOX - BLUE BOX", "address": {"city": "SALEM", "state": "OR", "street": "3791 RIVER RD N", "postcode": "97303"}}},
{"geometry": {"type": "Point", "coordinates": [-123.0286017388, 44.9683332564]}, "type": "Feature", "properties": {"collection_times": [{"days": "Mon-Sat", "time": "3:00pm"}, {"days": "Sun", "time": "Closed"}], "id": "9730300055", "name": "USPS COLLECTION BOX - BLUE BOX", "address": {"city": "SALEM", "state": "OR", "street": "2855 BROADWAY ST NE", "postcode": "97303"}}},
{"geometry": {"type": "Point", "coordinates": [-123.0286017388, 44.9683332564]}, "type": "Feature", "properties": {"collection_times": [{"days": "Mon-Sat", "time": "3:00pm"}, {"days": "Sun", "time": "Closed"}], "id": "9730300056", "name": "USPS COLLECTION BOX - BLUE BOX", "address": {"city": "SALEM", "state": "OR", "street": "2855 BROADWAY ST NE", "postcode": "97303"}}},
{"geometry": {"type": "Point", "coordinates": [-123.0286017388, 44.9683332564]}, "type": "Feature", "properties": {"collection_times": [{"days": "Mon-Sat", "time": "3:00pm"}, {"days": "Sun", "time": "Closed"}], "id": "9730300057", "name": "USPS COLLECTION BOX - BLUE BOX", "address": {"city": "SALEM", "state": "OR", "street": "2855 BROADWAY ST NE", "postcode": "97303"}}},
{"geometry": {"type": "Point", "coordinates": [-123.0286017388, 44.9683332564]}, "type": "Feature", "properties": {"collection_times": [{"days": "Mon-Sat", "time": "3:00pm"}, {"days": "Sun", "time": "Closed"}], "id": "9730300058", "name": "USPS COLLECTION BOX - BLUE BOX", "address": {"city": "SALEM", "state": "OR", "street": "2855 BROADWAY ST NE", "postcode": "97303"}}},
{"geometry": {"type": "Point", "coordinates": [-123.0224578167, 45.0015080671]}, "type": "Feature", "properties": {"collection_times": [{"days": "Mon-Sat", "time": "3:00pm"}, {"days": "Sun", "time": "Closed"}], "id": "9730300059", "name": "USPS COLLECTION BOX - EXPRESS", "address": {"city": "SALEM", "state": "OR", "street": "2855 BROADWAY ST NE", "postcode": "97303"}}},
{"geometry": {"type": "Point", "coordinates": [-123.0023489893, 44.9853264847]}, "type": "Feature", "properties": {"collection_times": [{"days": "Mon-Fri", "time": "4:00pm"}, {"days": "Sat", "time": "12:00pm"}, {"days": "Sun", "time": "Closed"}], "id": "9730300060", "name": "USPS COLLECTION BOX - PO LOBBY", "address": {"city": "SALEM", "state": "OR", "street": "2222 CLAXTER RD NE", "postcode": "97303"}}},
{"geometry": {"type": "Point", "coordinates": [-123.0224578167, 45.0015080671]}, "type": "Feature", "properties": {"collection_times": [{"days": "Mon-Fri", "time": "4:15pm"}, {"days": "Sat", "time": "3:00pm"}, {"days": "Sun", "time": "Closed"}], "id": "9730300062", "name": "USPS COLLECTION BOX - EXPRESS", "address": {"city": "SALEM", "state": "OR", "street": "1050 SUNNYVIEW RD NE", "postcode": "97303"}}},
{"geometry": {"type": "Point", "coordinates": [-123.0182418129, 44.9568094554]}, "type": "Feature", "properties": {"collection_times": [{"days": "Mon-Fri", "time": "4:15pm"}, {"days": "Sat", "time": "3:00pm"}, {"days": "Sun", "time": "Closed"}], "id": "9730300063", "name": "USPS COLLECTION BOX - BLUE BOX", "address": {"city": "SALEM", "state": "OR", "street": "1050 SUNNYVIEW RD NE", "postcode": "97303"}}},
{"geometry": {"type": "Point", "coordinates": [-123.0182418129, 44.9568094554]}, "type": "Feature", "properties": {"collection_times": [{"days": "Mon-Fri", "time": "4:15pm"}, {"days": "Sat", "time": "3:00pm"}, {"days": "Sun", "time": "Closed"}], "id": "9730300064", "name": "USPS COLLECTION BOX - BLUE BOX", "address": {"city": "SALEM", "state": "OR", "street": "1050 SUNNYVIEW RD NE", "postcode": "97303"}}},
{"geometry": {"type": "Point", "coordinates": [-123.0182418129, 44.9568094554]}, "type": "Feature", "properties": {"collection_times": [{"days": "Mon-Fri", "time": "4:15pm"}, {"days": "Sat", "time": "3:00pm"}, {"days": "Sun", "time": "Closed"}], "id": "9730300065", "name": "USPS COLLECTION BOX - BLUE BOX", "address": {"city": "SALEM", "state": "OR", "street": "1050 SUNNYVIEW RD NE", "postcode": "97303"}}},
{"geometry": {"type": "Point", "coordinates": [-123.0182418129, 44.9568094554]}, "type": "Feature", "properties": {"collection_times": [{"days": "Mon-Fri", "time": "4:15pm"}, {"days": "Sat", "time": "3:00pm"}, {"days": "Sun", "time": "Closed"}], "id": "9730300066", "name": "USPS COLLECTION BOX - BLUE BOX", "address": {"city": "SALEM", "state": "OR", "street": "1050 SUNNYVIEW RD NE", "postcode": "97303"}}},
{"geometry": {"type": "Point", "coordinates": [-123.0182418129, 44.9568094554]}, "type": "Feature", "properties": {"collection_times": [{"days": "Mon-Fri", "time": "4:15pm"}, {"days": "Sat-Sun", "time": "Closed"}], "id": "9730300068", "name": "USPS COLLECTION BOX - PO LOBBY", "address": {"city": "SALEM", "state": "OR", "street": "1050 SUNNYVIEW RD NE", "postcode": "97303"}}},
{"geometry": {"type": "Point", "coordinates": [-123.0486388393, 44.950125312]}, "type": "Feature", "properties": {"collection_times": [{"days": "Mon-Sat", "time": "4:00pm"}, {"days": "Sun", "time": "Closed"}], "id": "9730400000", "name": "USPS COLLECTION BOX - BLUE BOX", "address": {"city": "SALEM", "state": "OR", "street": "400 GLEN CREEK RD NW", "postcode": "97304"}}},
{"geometry": {"type": "Point", "coordinates": [-123.0486388393, 44.950125312]}, "type": "Feature", "properties": {"collection_times": [{"days": "Mon-Sat", "time": "4:00pm"}, {"days": "Sun", "time": "Closed"}], "id": "9730400001", "name": "USPS COLLECTION BOX - BLUE BOX", "address": {"city": "SALEM", "state": "OR", "street": "400 GLEN CREEK RD NW", "postcode": "97304"}}},
{"geometry": {"type": "Point", "coordinates": [-123.0486388393, 44.950125312]}, "type": "Feature", "properties": {"collection_times": [{"days": "Mon-Sat", "time": "4:00pm"}, {"days": "Sun", "time": "Closed"}], "id": "9730400002", "name": "USPS COLLECTION BOX - BLUE BOX", "address": {"city": "SALEM", "state": "OR", "street": "400 GLEN CREEK RD NW", "postcode": "97304"}}},
{"geometry": {"type": "Point", "coordinates": [-123.0486388393, 44.950125312]}, "type": "Feature", "properties": {"collection_times": [{"days": "Mon-Sat", "time": "4:00pm"}, {"days": "Sun", "time": "Closed"}], "id": "9730400003", "name": "USPS COLLECTION BOX - BLUE BOX", "address": {"city": "SALEM", "state": "OR", "street": "400 GLEN CREEK RD NW", "postcode": "97304"}}},
{"geometry": {"type": "Point", "coordinates": [-123.0486388393, 44.950125312]}, "type": "Feature", "properties": {"collection_times": [{"days": "Mon-Sat", "time": "4:00pm"}, {"days": "Sun", "time": "Closed"}], "id": "9730400004", "name": "USPS COLLECTION BOX - BLUE BOX", "address": {"city": "SALEM", "state": "OR", "street": "400 GLEN CREEK RD NW", "postcode": "97304"}}},
{"geometry": {"type": "Point", "coordinates": [-123.0770571558, 44.9583969225]}, "type": "Feature", "properties": {"collection_times": [{"days": "Mon-Sat", "time": "4:00pm"}, {"days": "Sun", "time": "Closed"}], "id": "9730400005", "name": "USPS COLLECTION BOX - EXPRESS", "address": {"city": "SALEM", "state": "OR", "street": "400 GLEN CREEK RD NW", "postcode": "97304"}}},
{"geometry": {"type": "Point", "coordinates": [-123.0770571558, 44.9583969225]}, "type": "Feature", "properties": {"collection_times": [{"days": "Mon-Sat", "time": "3:00pm"}, {"days": "Sun", "time": "Closed"}], "id": "9730400006", "name": "USPS COLLECTION BOX - BLUE BOX", "address": {"city": "SALEM", "state": "OR", "street": "1495 EDGEWATER ST NW", "postcode": "97304"}}},
{"geometry": {"type": "Point", "coordinates": [-123.0770571558, 44.9583969225]}, "type": "Feature", "properties": {"collection_times": [{"days": "Mon-Sat", "time": "3:00pm"}, {"days": "Sun", "time": "Closed"}], "id": "9730400007", "name": "USPS COLLECTION BOX - BLUE BOX", "address": {"city": "SALEM", "state": "OR", "street": "1495 EDGEWATER ST NW", "postcode": "97304"}}},
{"geometry": {"type": "Point", "coordinates": [-123.0690929206, 44.9764798684]}, "type": "Feature", "properties": {"collection_times": [{"days": "Mon-Sat", "time": "1:45pm"}, {"days": "Sun", "time": "Closed"}], "id": "9730400011", "name": "USPS COLLECTION BOX - BLUE BOX", "address": {"city": "SALEM", "state": "OR", "street": "2900 OAKCREST DR NW", "postcode": "97304"}}},
{"geometry": {"type": "Point", "coordinates": [-123.0488202117, 44.9519944413]}, "type": "Feature", "properties": {"collection_times": [{"days": "Mon-Sat", "time": "3:00pm"}, {"days": "Sun", "time": "Closed"}], "id": "9730400012", "name": "USPS COLLECTION BOX - BLUE BOX", "address": {"city": "SALEM", "state": "OR", "street": "375 TAYBIN RD NW", "postcode": "97304"}}},
{"geometry": {"type": "Point", "coordinates": [-123.0770571558, 44.9583969225]}, "type": "Feature", "properties": {"collection_times": [{"days": "Mon-Fri", "time": "4:00pm"}, {"days": "Sat", "time": "3:00pm"}, {"days": "Sun", "time": "Closed"}], "id": "9730400014", "name": "USPS COLLECTION BOX - PO LOBBY", "address": {"city": "SALEM", "state": "OR", "street": "400 GLEN CREEK RD NW", "postcode": "97304"}}},
{"geometry": {"type": "Point", "coordinates": [-123.0770571558, 44.9583969225]}, "type": "Feature", "properties": {"collection_times": [{"days": "Mon-Sat", "time": "4:00pm"}, {"days": "Sun", "time": "Closed"}], "id": "9730400015", "name": "USPS COLLECTION BOX - BLUE BOX", "address": {"city": "SALEM", "state": "OR", "street": "400 GLEN CREEK RD NW", "postcode": "97304"}}},
{"geometry": {"type": "Point", "coordinates": [-123.0486388393, 44.950125312]}, "type": "Feature", "properties": {"collection_times": [{"days": "Mon-Fri", "time": "4:00pm"}, {"days": "Sat", "time": "3:00pm"}, {"days": "Sun", "time": "Closed"}], "id": "9730400016", "name": "USPS COLLECTION BOX - APC", "address": {"city": "SALEM", "state": "OR", "street": "400 GLEN CREEK RD NW", "postcode": "97304"}}},
{"geometry": {"type": "Point", "coordinates": [-123.0512142983, 44.9486967162]}, "type": "Feature", "properties": {"collection_times": [{"days": "Mon-Fri", "time": "3:00pm"}, {"days": "Sat-Sun", "time": "Closed"}], "id": "9730400018", "name": "USPS COLLECTION BOX - BLUE BOX", "address": {"city": "SALEM", "state": "OR", "street": "699 WALLACE RD NW", "postcode": "97304"}}},
{"geometry": {"type": "Point", "coordinates": [-122.9570598396, 45.0473246443]}, "type": "Feature", "properties": {"collection_times": [{"days": "Mon-Sat", "time": "3:45pm"}, {"days": "Sun", "time": "Closed"}], "id": "9730500000", "name": "USPS COLLECTION BOX - BLUE BOX", "address": {"city": "SALEM", "state": "OR", "street": "5000 BROOKLAKE RD NE", "postcode": "97305"}}},
{"geometry": {"type": "Point", "coordinates": [-122.9834100829, 44.9676666862]}, "type": "Feature", "properties": {"collection_times": [{"days": "Mon-Sat", "time": "2:00pm"}, {"days": "Sun", "time": "Closed"}], "id": "9730500004", "name": "USPS COLLECTION BOX - BLUE BOX", "address": {"city": "SALEM", "state": "OR", "street": "3284 LANCASTER DR NE", "postcode": "97305"}}},
{"geometry": {"type": "Point", "coordinates": [-122.9834100829, 44.9676666862]}, "type": "Feature", "properties": {"collection_times": [{"days": "Mon-Sat", "time": "2:00pm"}, {"days": "Sun", "time": "Closed"}], "id": "9730500005", "name": "USPS COLLECTION BOX - BLUE BOX", "address": {"city": "SALEM", "state": "OR", "street": "3284 LANCASTER DR NE", "postcode": "97305"}}},
{"geometry": {"type": "Point", "coordinates": [-122.9837838605, 44.9542744551]}, "type": "Feature", "properties": {"collection_times": [{"days": "Mon-Fri", "time": "3:00pm"}, {"days": "Sat", "time": "11:30am"}, {"days": "Sun", "time": "Closed"}], "id": "9730500006", "name": "USPS COLLECTION BOX - BLUE BOX", "address": {"city": "SALEM", "state": "OR", "street": "2025 LANCASTER DR NE", "postcode": "97305"}}},
{"geometry": {"type": "Point", "coordinates": [-122.9837838605, 44.9542744551]}, "type": "Feature", "properties": {"collection_times": [{"days": "Mon-Fri", "time": "3:00pm"}, {"days": "Sat", "time": "11:30am"}, {"days": "Sun", "time": "Closed"}], "id": "9730500007", "name": "USPS COLLECTION BOX - BLUE BOX", "address": {"city": "SALEM", "state": "OR", "street": "2025 LANCASTER DR NE", "postcode": "97305"}}},
{"geometry": {"type": "Point", "coordinates": [-122.9837838605, 44.9542744551]}, "type": "Feature", "properties": {"collection_times": [{"days": "Mon-Fri", "time": "3:00pm"}, {"days": "Sat", "time": "11:30am"}, {"days": "Sun", "time": "Closed"}], "id": "9730500008", "name": "USPS COLLECTION BOX - BLUE BOX", "address": {"city": "SALEM", "state": "OR", "street": "2025 LANCASTER DR NE", "postcode": "97305"}}},
{"geometry": {"type": "Point", "coordinates": [-122.9863365792, 44.9911822688]}, "type": "Feature", "properties": {"collection_times": [{"days": "Mon-Fri", "time": "3:00pm"}, {"days": "Sat", "time": "11:45am"}, {"days": "Sun", "time": "Closed"}], "id": "9730500016", "name": "USPS COLLECTION BOX - BLUE BOX", "address": {"city": "SALEM", "state": "OR", "street": "4746 PORTLAND RD NE", "postcode": "97305"}}},
{"geometry": {"type": "Point", "coordinates": [-122.9863365792, 44.9911822688]}, "type": "Feature", "properties": {"collection_times": [{"days": "Mon-Fri", "time": "3:00pm"}, {"days": "Sat", "time": "11:45am"}, {"days": "Sun", "time": "Closed"}], "id": "9730500017", "name": "USPS COLLECTION BOX - BLUE BOX", "address": {"city": "SALEM", "state": "OR", "street": "4746 PORTLAND RD NE", "postcode": "97305"}}},
{"geometry": {"type": "Point", "coordinates": [-122.957298167, 45.047452749]}, "type": "Feature", "properties": {"collection_times": [{"days": "Mon-Fri", "time": "3:45pm"}, {"days": "Sat-Sun", "time": "Closed"}], "id": "9730500019", "name": "USPS COLLECTION BOX - PO LOBBY", "address": {"city": "SALEM", "state": "OR", "street": "5000 BROOKLAKE RD NE", "postcode": "97305"}}},
{"geometry": {"type": "Point", "coordinates": [-123.028542655, 44.8794296228]}, "type": "Feature", "properties": {"collection_times": [{"days": "Mon-Fri", "time": "3:00pm"}, {"days": "Sat", "time": "1:00pm"}, {"days": "Sun", "time": "Closed"}], "id": "9730600000", "name": "USPS COLLECTION BOX - BLUE BOX", "address": {"city": "SALEM", "state": "OR", "street": "5250 COMMERCIAL ST SE", "postcode": "97306"}}},
{"geometry": {"type": "Point", "coordinates": [-123.0262047943, 45.0036078007]}, "type": "Feature", "properties": {"collection_times": [{"days": "Mon-Sat", "time": "4:00pm"}, {"days": "Sun", "time": "Closed"}], "id": "9730700001", "name": "USPS COLLECTION BOX - BLUE BOX", "address": {"city": "KEIZER", "state": "OR", "street": "5454 RIVER RD N", "postcode": "97307"}}},
{"geometry": {"type": "Point", "coordinates": [-123.0262047943, 45.0036078007]}, "type": "Feature", "properties": {"collection_times": [{"days": "Mon-Sat", "time": "4:00pm"}, {"days": "Sun", "time": "Closed"}], "id": "9730700002", "name": "USPS COLLECTION BOX - BLUE BOX", "address": {"city": "KEIZER", "state": "OR", "street": "5454 RIVER RD N", "postcode": "97307"}}},
{"geometry": {"type": "Point", "coordinates": [-123.0262047943, 45.0036078007]}, "type": "Feature", "properties": {"collection_times": [{"days": "Mon-Sat", "time": "4:00pm"}, {"days": "Sun", "time": "Closed"}], "id": "9730700003", "name": "USPS COLLECTION BOX - BLUE BOX", "address": {"city": "KEIZER", "state": "OR", "street": "5454 RIVER RD N", "postcode": "97307"}}},
{"geometry": {"type": "Point", "coordinates": [-123.0262047943, 45.0036078007]}, "type": "Feature", "properties": {"collection_times": [{"days": "Mon-Sat", "time": "4:00pm"}, {"days": "Sun", "time": "Closed"}], "id": "9730700004", "name": "USPS COLLECTION BOX - BLUE BOX", "address": {"city": "KEIZER", "state": "OR", "street": "5454 RIVER RD N", "postcode": "97307"}}},
{"geometry": {"type": "Point", "coordinates": [-123.0262047943, 45.0036078007]}, "type": "Feature", "properties": {"collection_times": [{"days": "Mon-Sat", "time": "4:00pm"}, {"days": "Sun", "time": "Closed"}], "id": "9730700005", "name": "USPS COLLECTION BOX - BLUE BOX", "address": {"city": "KEIZER", "state": "OR", "street": "5454 RIVER RD N", "postcode": "97307"}}},
{"geometry": {"type": "Point", "coordinates": [-123.0262047943, 45.0036078007]}, "type": "Feature", "properties": {"collection_times": [{"days": "Mon-Sat", "time": "4:00pm"}, {"days": "Sun", "time": "Closed"}], "id": "9730700006", "name": "USPS COLLECTION BOX - APC", "address": {"city": "KEIZER", "state": "OR", "street": "5454 RIVER RD N", "postcode": "97307"}}},
{"geometry": {"type": "Point", "coordinates": [-123.040233374, 44.9370000211]}, "type": "Feature", "properties": {"collection_times": [{"days": "Mon-Sat", "time": "4:00pm"}, {"days": "Sun", "time": "Closed"}], "id": "9730800001", "name": "USPS COLLECTION BOX - BLUE BOX", "address": {"city": "SALEM", "state": "OR", "street": "410 MILL ST SE", "postcode": "97308"}}},
{"geometry": {"type": "Point", "coordinates": [-123.040233374, 44.9370000211]}, "type": "Feature", "properties": {"collection_times": [{"days": "Mon-Sat", "time": "4:00pm"}, {"days": "Sun", "time": "Closed"}], "id": "9730800002", "name": "USPS COLLECTION BOX - BLUE BOX", "address": {"city": "SALEM", "state": "OR", "street": "410 MILL ST SE", "postcode": "97308"}}},
{"geometry": {"type": "Point", "coordinates": [-122.9821883057, 44.9219162563]}, "type": "Feature", "properties": {"collection_times": [{"days": "Mon-Sat", "time": "4:00pm"}, {"days": "Sun", "time": "Closed"}], "id": "9730800003", "name": "USPS COLLECTION BOX - EXPRESS", "address": {"city": "SALEM", "state": "OR", "street": "410 MILL ST SE", "postcode": "97308"}}},
{"geometry": {"type": "Point", "coordinates": [-123.040233374, 44.9370000211]}, "type": "Feature", "properties": {"collection_times": [{"days": "Mon-Sat", "time": "4:00pm"}, {"days": "Sun", "time": "Closed"}], "id": "9730800004", "name": "USPS COLLECTION BOX - BLUE BOX", "address": {"city": "SALEM", "state": "OR", "street": "410 MILL ST SE", "postcode": "97308"}}},
{"geometry": {"type": "Point", "coordinates": [-123.040233374, 44.9370000211]}, "type": "Feature", "properties": {"collection_times": [{"days": "Mon-Sat", "time": "4:00pm"}, {"days": "Sun", "time": "Closed"}], "id": "9730800005", "name": "USPS COLLECTION BOX - BLUE BOX", "address": {"city": "SALEM", "state": "OR", "street": "410 MILL ST SE", "postcode": "97308"}}},
{"geometry": {"type": "Point", "coordinates": [-123.0601745291, 44.6818772822]}, "type": "Feature", "properties": {"collection_times": [{"days": "Mon-Fri", "time": "2:00pm"}, {"days": "Sat-Sun", "time": "Closed"}], "id": "9732100006", "name": "USPS COLLECTION BOX - BLUE BOX", "address": {"city": "ALBANY", "state": "OR", "street": "4222 OLD SALEM RD NE", "postcode": "97321"}}},
{"geometry": {"type": "Point", "coordinates": [-123.1044669046, 44.6366238528]}, "type": "Feature", "properties": {"collection_times": [{"days": "Mon-Fri", "time": "3:00pm"}, {"days": "Sat-Sun", "time": "Closed"}], "id": "9732100007", "name": "USPS COLLECTION BOX - BLUE BOX", "address": {"city": "ALBANY", "state": "OR", "street": "118 2ND AVE SE", "postcode": "97321"}}},
{"geometry": {"type": "Point", "coordinates": [-123.1051471323, 44.6329536468]}, "type": "Feature", "properties": {"collection_times": [{"days": "Mon-Sat", "time": "3:00pm"}, {"days": "Sun", "time": "Closed"}], "id": "9732100008", "name": "USPS COLLECTION BOX - BLUE BOX", "address": {"city": "ALBANY", "state": "OR", "street": "651 ELLSWORTH ST SW", "postcode": "97321"}}},
{"geometry": {"type": "Point", "coordinates": [-123.1038821697, 44.635160485]}, "type": "Feature", "properties": {"collection_times": [{"days": "Mon-Fri", "time": "3:00pm"}, {"days": "Sat-Sun", "time": "Closed"}], "id": "9732100009", "name": "USPS COLLECTION BOX - BLUE BOX", "address": {"city": "ALBANY", "state": "OR", "street": "139 4TH AVE SE", "postcode": "97321"}}},
{"geometry": {"type": "Point", "coordinates": [-123.0911836692, 44.6366954504]}, "type": "Feature", "properties": {"collection_times": [{"days": "Mon-Sat", "time": "2:45pm"}, {"days": "Sun", "time": "Closed"}], "id": "9732100010", "name": "USPS COLLECTION BOX - BLUE BOX", "address": {"city": "ALBANY", "state": "OR", "street": "1143 SANTIAM HWY SE", "postcode": "97321"}}},
{"geometry": {"type": "Point", "coordinates": [-123.0907071006, 44.6365485019]}, "type": "Feature", "properties": {"collection_times": [{"days": "Mon-Sat", "time": "4:00pm"}, {"days": "Sun", "time": "Closed"}], "id": "9732100011", "name": "USPS COLLECTION BOX - BLUE BOX", "address": {"city": "ALBANY", "state": "OR", "street": "1143 SANTIAM HWY SE", "postcode": "97321"}}},
{"geometry": {"type": "Point", "coordinates": [-123.0679457928, 44.6401925414]}, "type": "Feature", "properties": {"collection_times": [{"days": "Mon-Sat", "time": "3:00pm"}, {"days": "Sun", "time": "Closed"}], "id": "9732100013", "name": "USPS COLLECTION BOX - BLUE BOX", "address": {"city": "ALBANY", "state": "OR", "street": "3100 PACIFIC BLVD SE", "postcode": "97321"}}},
{"geometry": {"type": "Point", "coordinates": [-123.0679457928, 44.6401925414]}, "type": "Feature", "properties": {"collection_times": [{"days": "Mon-Sat", "time": "3:00pm"}, {"days": "Sun", "time": "Closed"}], "id": "9732100014", "name": "USPS COLLECTION BOX - BLUE BOX", "address": {"city": "ALBANY", "state": "OR", "street": "3100 PACIFIC BLVD SE", "postcode": "97321"}}},
{"geometry": {"type": "Point", "coordinates": [-123.0716825636, 44.6316240718]}, "type": "Feature", "properties": {"collection_times": [{"days": "Mon-Sat", "time": "2:45pm"}, {"days": "Sun", "time": "Closed"}], "id": "9732100015", "name": "USPS COLLECTION BOX - BLUE BOX", "address": {"city": "ALBANY", "state": "OR", "street": "2818 SANTIAM HWY SE", "postcode": "97321"}}},
{"geometry": {"type": "Point", "coordinates": [-123.0807263542, 44.6287064227]}, "type": "Feature", "properties": {"collection_times": [{"days": "Mon-Sat", "time": "3:00pm"}, {"days": "Sun", "time": "Closed"}], "id": "9732100019", "name": "USPS COLLECTION BOX - BLUE BOX", "address": {"city": "ALBANY", "state": "OR", "street": "1990 14TH AVE SE", "postcode": "97321"}}},
{"geometry": {"type": "Point", "coordinates": [-123.0807263542, 44.6287064227]}, "type": "Feature", "properties": {"collection_times": [{"days": "Mon-Sat", "time": "3:00pm"}, {"days": "Sun", "time": "Closed"}], "id": "9732100020", "name": "USPS COLLECTION BOX - BLUE BOX", "address": {"city": "ALBANY", "state": "OR", "street": "1990 14TH AVE SE", "postcode": "97321"}}},
{"geometry": {"type": "Point", "coordinates": [-123.0841007743, 44.6332841766]}, "type": "Feature", "properties": {"collection_times": [{"days": "Mon-Sat", "time": "3:00pm"}, {"days": "Sun", "time": "Closed"}], "id": "9732100021", "name": "USPS COLLECTION BOX - BLUE BOX", "address": {"city": "ALBANY", "state": "OR", "street": "1640 9TH AVE SE", "postcode": "97321"}}},
{"geometry": {"type": "Point", "coordinates": [-123.0841007743, 44.6332841766]}, "type": "Feature", "properties": {"collection_times": [{"days": "Mon-Sat", "time": "3:00pm"}, {"days": "Sun", "time": "Closed"}], "id": "9732100022", "name": "USPS COLLECTION BOX - BLUE BOX", "address": {"city": "ALBANY", "state": "OR", "street": "1640 9TH AVE SE", "postcode": "97321"}}},
{"geometry": {"type": "Point", "coordinates": [-123.089748343, 44.6102375655]}, "type": "Feature", "properties": {"collection_times": [{"days": "Mon-Sat", "time": "3:00pm"}, {"days": "Sun", "time": "Closed"}], "id": "9732100024", "name": "USPS COLLECTION BOX - BLUE BOX", "address": {"city": "ALBANY", "state": "OR", "street": "1012 34TH AVE SE", "postcode": "97321"}}},
{"geometry": {"type": "Point", "coordinates": [-123.0904383328, 44.6250199414]}, "type": "Feature", "properties": {"collection_times": [{"days": "Mon-Sat", "time": "3:00pm"}, {"days": "Sun", "time": "Closed"}], "id": "9732100025", "name": "USPS COLLECTION BOX - BLUE BOX", "address": {"city": "ALBANY", "state": "OR", "street": "1711 HILL ST SE", "postcode": "97321"}}},
{"geometry": {"type": "Point", "coordinates": [-123.1151458023, 44.6318347892]}, "type": "Feature", "properties": {"collection_times": [{"days": "Mon-Sat", "time": "3:00pm"}, {"days": "Sun", "time": "Closed"}], "id": "9732100027", "name": "USPS COLLECTION BOX - BLUE BOX", "address": {"city": "ALBANY", "state": "OR", "street": "650 ELM ST SW", "postcode": "97321"}}},
{"geometry": {"type": "Point", "coordinates": [-123.1162555212, 44.6321808271]}, "type": "Feature", "properties": {"collection_times": [{"days": "Mon-Sat", "time": "3:00pm"}, {"days": "Sun", "time": "Closed"}], "id": "9732100028", "name": "USPS COLLECTION BOX - BLUE BOX", "address": {"city": "ALBANY", "state": "OR", "street": "1046 6TH AVE SW", "postcode": "97321"}}},
{"geometry": {"type": "Point", "coordinates": [-123.1041205061, 44.6334621337]}, "type": "Feature", "properties": {"collection_times": [{"days": "Mon-Sat", "time": "3:00pm"}, {"days": "Sun", "time": "Closed"}], "id": "9732100029", "name": "USPS COLLECTION BOX - BLUE BOX", "address": {"city": "ALBANY", "state": "OR", "street": "600 LYON ST S", "postcode": "97321"}}},
{"geometry": {"type": "Point", "coordinates": [-123.1041205061, 44.6334621337]}, "type": "Feature", "properties": {"collection_times": [{"days": "Mon-Sat", "time": "3:00pm"}, {"days": "Sun", "time": "Closed"}], "id": "9732100030", "name": "USPS COLLECTION BOX - BLUE BOX", "address": {"city": "ALBANY", "state": "OR", "street": "600 LYON ST S", "postcode": "97321"}}},
{"geometry": {"type": "Point", "coordinates": [-123.107293923, 44.6364078491]}, "type": "Feature", "properties": {"collection_times": [{"days": "Mon-Sat", "time": "3:00pm"}, {"days": "Sun", "time": "Closed"}], "id": "9732100032", "name": "USPS COLLECTION BOX - BLUE BOX", "address": {"city": "ALBANY", "state": "OR", "street": "300 2ND AVE SW", "postcode": "97321"}}},
{"geometry": {"type": "Point", "coordinates": [-123.1100132418, 44.586295778]}, "type": "Feature", "properties": {"collection_times": [{"days": "Mon-Fri", "time": "2:00pm"}, {"days": "Sat-Sun", "time": "Closed"}], "id": "9732100035", "name": "USPS COLLECTION BOX - BLUE BOX", "address": {"city": "ALBANY", "state": "OR", "street": "6500 PACIFIC BLVD SW", "postcode": "97321"}}},
{"geometry": {"type": "Point", "coordinates": [-123.070243614, 44.614630312]}, "type": "Feature", "properties": {"collection_times": [{"days": "Mon-Sat", "time": "3:00pm"}, {"days": "Sun", "time": "Closed"}], "id": "9732100037", "name": "USPS COLLECTION BOX - BLUE BOX", "address": {"city": "ALBANY", "state": "OR", "street": "2825 29TH AVE SW", "postcode": "97321"}}},
{"geometry": {"type": "Point", "coordinates": [-123.109618627, 44.6376182015]}, "type": "Feature", "properties": {"collection_times": [{"days": "Mon-Fri", "time": "3:45pm"}, {"days": "Sat", "time": "2:00pm"}, {"days": "Sun", "time": "Closed"}], "id": "9732100038", "name": "USPS COLLECTION BOX - EXPRESS", "address": {"city": "ALBANY", "state": "OR", "street": "525 2ND AVE SW", "postcode": "97321"}}},
{"geometry": {"type": "Point", "coordinates": [-123.1100923641, 44.6360668997]}, "type": "Feature", "properties": {"collection_times": [{"days": "Mon-Fri", "time": "5:00pm"}, {"days": "Sat", "time": "3:45pm"}, {"days": "Sun", "time": "Closed"}], "id": "9732100039", "name": "USPS COLLECTION BOX - BLUE BOX", "address": {"city": "ALBANY", "state": "OR", "street": "525 2ND AVE SW", "postcode": "97321"}}},
{"geometry": {"type": "Point", "coordinates": [-123.1100923641, 44.6360668997]}, "type": "Feature", "properties": {"collection_times": [{"days": "Mon-Fri", "time": "5:00pm"}, {"days": "Sat", "time": "3:45pm"}, {"days": "Sun", "time": "Closed"}], "id": "9732100040", "name": "USPS COLLECTION BOX - BLUE BOX", "address": {"city": "ALBANY", "state": "OR", "street": "525 2ND AVE SW", "postcode": "97321"}}},
{"geometry": {"type": "Point", "coordinates": [-123.1146969344, 44.6297217233]}, "type": "Feature", "properties": {"collection_times": [{"days": "Mon-Sat", "time": "3:00pm"}, {"days": "Sun", "time": "Closed"}], "id": "9732100045", "name": "USPS COLLECTION BOX - BLUE BOX", "address": {"city": "ALBANY", "state": "OR", "street": "920 ELM ST SW", "postcode": "97321"}}},
{"geometry": {"type": "Point", "coordinates": [-123.1247682239, 44.6253390973]}, "type": "Feature", "properties": {"collection_times": [{"days": "Mon-Sat", "time": "3:00pm"}, {"days": "Sun", "time": "Closed"}], "id": "9732100046", "name": "USPS COLLECTION BOX - BLUE BOX", "address": {"city": "ALBANY", "state": "OR", "street": "1895 14TH AVE SE", "postcode": "97321"}}},
{"geometry": {"type": "Point", "coordinates": [-123.070243614, 44.614630312]}, "type": "Feature", "properties": {"collection_times": [{"days": "Mon-Sat", "time": "3:00pm"}, {"days": "Sun", "time": "Closed"}], "id": "9732100047", "name": "USPS COLLECTION BOX - BLUE BOX", "address": {"city": "ALBANY", "state": "OR", "street": "2825 29TH AVE SW", "postcode": "97321"}}},
{"geometry": {"type": "Point", "coordinates": [-123.0716825636, 44.6316240718]}, "type": "Feature", "properties": {"collection_times": [{"days": "Mon-Sat", "time": "2:45pm"}, {"days": "Sun", "time": "Closed"}], "id": "9732100048", "name": "USPS COLLECTION BOX - BLUE BOX", "address": {"city": "ALBANY", "state": "OR", "street": "2818 SANTIAM HWY SE", "postcode": "97321"}}},
{"geometry": {"type": "Point", "coordinates": [-123.1101123908, 44.6359716099]}, "type": "Feature", "properties": {"collection_times": [{"days": "Mon-Sat", "time": "3:45pm"}, {"days": "Sun", "time": "Closed"}], "id": "9732100050", "name": "USPS COLLECTION BOX - APC", "address": {"city": "ALBANY", "state": "OR", "street": "525 2ND AVE SW", "postcode": "97321"}}},
{"geometry": {"type": "Point", "coordinates": [-123.1133162896, 44.6441678528]}, "type": "Feature", "properties": {"collection_times": [{"days": "Mon-Sat", "time": "1:00pm"}, {"days": "Sun", "time": "Closed"}], "id": "9732100051", "name": "USPS COLLECTION BOX - BLUE BOX", "address": {"city": "ALBANY", "state": "OR", "street": "621 HICKORY ST NW", "postcode": "97321"}}},
{"geometry": {"type": "Point", "coordinates": [-123.1044669046, 44.6366238528]}, "type": "Feature", "properties": {"collection_times": [{"days": "Mon-Fri", "time": "3:00pm"}, {"days": "Sat-Sun", "time": "Closed"}], "id": "9732100053", "name": "USPS COLLECTION BOX - BLUE BOX", "address": {"city": "ALBANY", "state": "OR", "street": "118 2ND AVE SE", "postcode": "97321"}}},
{"geometry": {"type": "Point", "coordinates": [-123.597993119, 44.3818378994]}, "type": "Feature", "properties": {"collection_times": [{"days": "Mon-Fri", "time": "1:15pm"}, {"days": "Sat", "time": "10:00am"}, {"days": "Sun", "time": "Closed"}], "id": "9732400000", "name": "USPS COLLECTION BOX - BLUE BOX", "address": {"city": "ALSEA", "state": "OR", "street": "140 E MAIN ST", "postcode": "97324"}}},
{"geometry": {"type": "Point", "coordinates": [-123.597993119, 44.3818378994]}, "type": "Feature", "properties": {"collection_times": [{"days": "Mon-Fri", "time": "1:15pm"}, {"days": "Sat", "time": "10:00am"}, {"days": "Sun", "time": "Closed"}], "id": "9732400001", "name": "USPS COLLECTION BOX - PO LOBBY", "address": {"city": "ALSEA", "state": "OR", "street": "140 E MAIN ST", "postcode": "97324"}}},
{"geometry": {"type": "Point", "coordinates": [-122.8681985564, 44.8406839587]}, "type": "Feature", "properties": {"collection_times": [{"days": "Mon-Fri", "time": "4:15pm"}, {"days": "Sat", "time": "2:00pm"}, {"days": "Sun", "time": "Closed"}], "id": "9732500000", "name": "USPS COLLECTION BOX - BLUE BOX", "address": {"city": "AUMSVILLE", "state": "OR", "street": "320 MAIN ST", "postcode": "97325"}}},
{"geometry": {"type": "Point", "coordinates": [-122.8634566854, 44.8399564176]}, "type": "Feature", "properties": {"collection_times": [{"days": "Mon-Fri", "time": "4:15pm"}, {"days": "Sat", "time": "2:00pm"}, {"days": "Sun", "time": "Closed"}], "id": "9732500001", "name": "USPS COLLECTION BOX - PO LOBBY", "address": {"city": "AUMSVILLE", "state": "OR", "street": "320 MAIN ST", "postcode": "97325"}}},
{"geometry": {"type": "Point", "coordinates": [-122.8681985564, 44.8406839587]}, "type": "Feature", "properties": {"collection_times": [{"days": "Mon-Fri", "time": "4:15pm"}, {"days": "Sat", "time": "2:00pm"}, {"days": "Sun", "time": "Closed"}], "id": "9732500002", "name": "USPS COLLECTION BOX - BLUE BOX", "address": {"city": "AUMSVILLE", "state": "OR", "street": "320 MAIN ST", "postcode": "97325"}}},
{"geometry": {"type": "Point", "coordinates": [-123.5529960233, 44.6473466688]}, "type": "Feature", "properties": {"collection_times": [{"days": "Mon-Fri", "time": "2:45pm"}, {"days": "Sat", "time": "1:00pm"}, {"days": "Sun", "time": "Closed"}], "id": "9732600000", "name": "USPS COLLECTION BOX - PO LOBBY", "address": {"city": "BLODGETT", "state": "OR", "street": "21412 HIGHWAY 20", "postcode": "97326"}}},
{"geometry": {"type": "Point", "coordinates": [-123.5529960233, 44.6473466688]}, "type": "Feature", "properties": {"collection_times": [{"days": "Mon-Fri", "time": "2:45pm"}, {"days": "Sat-Sun", "time": "Closed"}], "id": "9732600001", "name": "USPS COLLECTION BOX - PO LOBBY", "address": {"city": "BLODGETT", "state": "OR", "street": "21412 HIGHWAY 20", "postcode": "97326"}}},
{"geometry": {"type": "Point", "coordinates": [-122.9843905889, 44.3944355385]}, "type": "Feature", "properties": {"collection_times": [{"days": "Mon-Fri", "time": "2:45pm"}, {"days": "Sat", "time": "1:00pm"}, {"days": "Sun", "time": "Closed"}], "id": "9732700000", "name": "USPS COLLECTION BOX - BLUE BOX", "address": {"city": "BROWNSVILLE", "state": "OR", "street": "430 N MAIN ST", "postcode": "97327"}}},
{"geometry": {"type": "Point", "coordinates": [-123.2529488621, 44.6040506596]}, "type": "Feature", "properties": {"collection_times": [{"days": "Mon-Sat", "time": "3:00pm"}, {"days": "Sun", "time": "Closed"}], "id": "9733000009", "name": "USPS COLLECTION BOX - BLUE BOX", "address": {"city": "CORVALLIS", "state": "OR", "street": "3615 NW SAMARITAN DR", "postcode": "97330"}}},
{"geometry": {"type": "Point", "coordinates": [-123.244197641, 44.6165481155]}, "type": "Feature", "properties": {"collection_times": [{"days": "Mon-Sat", "time": "2:00pm"}, {"days": "Sun", "time": "Closed"}], "id": "9733000010", "name": "USPS COLLECTION BOX - BLUE BOX", "address": {"city": "CORVALLIS", "state": "OR", "street": "5800 NW HIGHWAY 99", "postcode": "97330"}}},
{"geometry": {"type": "Point", "coordinates": [-123.2643419938, 44.5715650296]}, "type": "Feature", "properties": {"collection_times": [{"days": "Mon-Sat", "time": "3:00pm"}, {"days": "Sun", "time": "Closed"}], "id": "9733000011", "name": "USPS COLLECTION BOX - BLUE BOX", "address": {"city": "CORVALLIS", "state": "OR", "street": "815 NW 9TH ST", "postcode": "97330"}}},
{"geometry": {"type": "Point", "coordinates": [-123.275176188, 44.5863915762]}, "type": "Feature", "properties": {"collection_times": [{"days": "Mon-Sat", "time": "3:00pm"}, {"days": "Sun", "time": "Closed"}], "id": "9733000012", "name": "USPS COLLECTION BOX - BLUE BOX", "address": {"city": "CORVALLIS", "state": "OR", "street": "2005 NW CIRCLE BLVD", "postcode": "97330"}}},
{"geometry": {"type": "Point", "coordinates": [-123.2728474486, 44.589827486]}, "type": "Feature", "properties": {"collection_times": [{"days": "Mon-Sat", "time": "3:00pm"}, {"days": "Sun", "time": "Closed"}], "id": "9733000015", "name": "USPS COLLECTION BOX - EXPRESS", "address": {"city": "CORVALLIS", "state": "OR", "street": "950 NW CIRCLE BLVD", "postcode": "97330"}}},
{"geometry": {"type": "Point", "coordinates": [-123.277927636, 44.5685012771]}, "type": "Feature", "properties": {"collection_times": [{"days": "Mon-Sat", "time": "3:00pm"}, {"days": "Sun", "time": "Closed"}], "id": "9733000017", "name": "USPS COLLECTION BOX - BLUE BOX", "address": {"city": "CORVALLIS", "state": "OR", "street": "2300 NW MONROE AVE", "postcode": "97330"}}},
{"geometry": {"type": "Point", "coordinates": [-123.2641588108, 44.5652252154]}, "type": "Feature", "properties": {"collection_times": [{"days": "Mon-Sat", "time": "3:00pm"}, {"days": "Sun", "time": "Closed"}], "id": "9733000018", "name": "USPS COLLECTION BOX - BLUE BOX", "address": {"city": "CORVALLIS", "state": "OR", "street": "600 NW MONROE AVE", "postcode": "97330"}}},
{"geometry": {"type": "Point", "coordinates": [-123.275331933, 44.576045793]}, "type": "Feature", "properties": {"collection_times": [{"days": "Mon-Sat", "time": "3:00pm"}, {"days": "Sun", "time": "Closed"}], "id": "9733000021", "name": "USPS COLLECTION BOX - BLUE BOX", "address": {"city": "CORVALLIS", "state": "OR", "street": "900 NW KINGS BLVD", "postcode": "97330"}}},
{"geometry": {"type": "Point", "coordinates": [-123.2614878076, 44.5886321662]}, "type": "Feature", "properties": {"collection_times": [{"days": "Mon-Sat", "time": "3:00pm"}, {"days": "Sun", "time": "Closed"}], "id": "9733000025", "name": "USPS COLLECTION BOX - BLUE BOX", "address": {"city": "CORVALLIS", "state": "OR", "street": "950 NW CIRCLE BLVD", "postcode": "97330"}}},
{"geometry": {"type": "Point", "coordinates": [-123.2759489095, 44.5902226612]}, "type": "Feature", "properties": {"collection_times": [{"days": "Mon-Sat", "time": "3:00pm"}, {"days": "Sun", "time": "Closed"}], "id": "9733000027", "name": "USPS COLLECTION BOX - BLUE BOX", "address": {"city": "CORVALLIS", "state": "OR", "street": "2335 NW KINGS BLVD", "postcode": "97330"}}},
{"geometry": {"type": "Point", "coordinates": [-123.2620278069, 44.566788226]}, "type": "Feature", "properties": {"collection_times": [{"days": "Mon-Sat", "time": "3:00pm"}, {"days": "Sun", "time": "Closed"}], "id": "9733000028", "name": "USPS COLLECTION BOX - BLUE BOX", "address": {"city": "CORVALLIS", "state": "OR", "street": "500 NW VAN BUREN AVE", "postcode": "97330"}}},
{"geometry": {"type": "Point", "coordinates": [-123.2625548998, 44.5781590275]}, "type": "Feature", "properties": {"collection_times": [{"days": "Mon-Sat", "time": "3:00pm"}, {"days": "Sun", "time": "Closed"}], "id": "9733000029", "name": "USPS COLLECTION BOX - BLUE BOX", "address": {"city": "CORVALLIS", "state": "OR", "street": "1000 NW BECA AVE", "postcode": "97330"}}},
{"geometry": {"type": "Point", "coordinates": [-123.2771617079, 44.5901430875]}, "type": "Feature", "properties": {"collection_times": [{"days": "Mon-Sat", "time": "3:00pm"}, {"days": "Sun", "time": "Closed"}], "id": "9733000030", "name": "USPS COLLECTION BOX - BLUE BOX", "address": {"city": "CORVALLIS", "state": "OR", "street": "2350 NW PROFESSIONAL DR", "postcode": "97330"}}},
{"geometry": {"type": "Point", "coordinates": [-123.2820120673, 44.5628401799]}, "type": "Feature", "properties": {"collection_times": [{"days": "Mon-Sat", "time": "3:00pm"}, {"days": "Sun", "time": "Closed"}], "id": "9733100002", "name": "USPS COLLECTION BOX - BLUE BOX", "address": {"city": "CORVALLIS", "state": "OR", "street": "100 CROP SCIENCE BLDG", "postcode": "97331"}}},
{"geometry": {"type": "Point", "coordinates": [-123.2740916874, 44.5644866726]}, "type": "Feature", "properties": {"collection_times": [{"days": "Mon-Sat", "time": "3:00pm"}, {"days": "Sun", "time": "Closed"}], "id": "9733100004", "name": "USPS COLLECTION BOX - BLUE BOX", "address": {"city": "CORVALLIS", "state": "OR", "street": "301 SW 15TH ST", "postcode": "97331"}}},
{"geometry": {"type": "Point", "coordinates": [-123.2820120673, 44.5628401799]}, "type": "Feature", "properties": {"collection_times": [{"days": "Mon-Sat", "time": "3:00pm"}, {"days": "Sun", "time": "Closed"}], "id": "9733100010", "name": "USPS COLLECTION BOX - BLUE BOX", "address": {"city": "CORVALLIS", "state": "OR", "street": "100 MILAM HALL", "postcode": "97331"}}},
{"geometry": {"type": "Point", "coordinates": [-123.2635655761, 44.5638516011]}, "type": "Feature", "properties": {"collection_times": [{"days": "Mon-Sat", "time": "3:00pm"}, {"days": "Sun", "time": "Closed"}], "id": "9733300006", "name": "USPS COLLECTION BOX - BLUE BOX", "address": {"city": "CORVALLIS", "state": "OR", "street": "500 SW MADISON AVE", "postcode": "97333"}}},
{"geometry": {"type": "Point", "coordinates": [-123.2608308223, 44.5642429884]}, "type": "Feature", "properties": {"collection_times": [{"days": "Mon-Sat", "time": "3:00pm"}, {"days": "Sun", "time": "Closed"}], "id": "9733300009", "name": "USPS COLLECTION BOX - BLUE BOX", "address": {"city": "CORVALLIS", "state": "OR", "street": "105 NE 3RD ST", "postcode": "97333"}}},
{"geometry": {"type": "Point", "coordinates": [-123.2823977707, 44.5455475349]}, "type": "Feature", "properties": {"collection_times": [{"days": "Mon-Fri", "time": "5:00pm"}, {"days": "Sat", "time": "4:30pm"}, {"days": "Sun", "time": "Closed"}], "id": "9733300011", "name": "USPS COLLECTION BOX - EXPRESS", "address": {"city": "CORVALLIS", "state": "OR", "street": "311 SW 2ND ST", "postcode": "97333"}}},
{"geometry": {"type": "Point", "coordinates": [-123.2823977709, 44.5455388906]}, "type": "Feature", "properties": {"collection_times": [{"days": "Mon-Fri", "time": "5:00pm"}, {"days": "Sat", "time": "4:30pm"}, {"days": "Sun", "time": "Closed"}], "id": "9733300012", "name": "USPS COLLECTION BOX - BLUE BOX", "address": {"city": "CORVALLIS", "state": "OR", "street": "311 SW 2ND ST", "postcode": "97333"}}},
{"geometry": {"type": "Point", "coordinates": [-123.2823977709, 44.5455388906]}, "type": "Feature", "properties": {"collection_times": [{"days": "Mon-Fri", "time": "5:00pm"}, {"days": "Sat", "time": "4:30pm"}, {"days": "Sun", "time": "Closed"}], "id": "9733300013", "name": "USPS COLLECTION BOX - BLUE BOX", "address": {"city": "CORVALLIS", "state": "OR", "street": "311 SW 2ND ST", "postcode": "97333"}}},
{"geometry": {"type": "Point", "coordinates": [-123.3043752234, 44.4767036677]}, "type": "Feature", "properties": {"collection_times": [{"days": "Mon-Sat", "time": "3:00pm"}, {"days": "Sun", "time": "Closed"}], "id": "9733300020", "name": "USPS COLLECTION BOX - BLUE BOX", "address": {"city": "CORVALLIS", "state": "OR", "street": "5300 SW TECHNOLOGY LOOP", "postcode": "97333"}}},
{"geometry": {"type": "Point", "coordinates": [-123.2823977707, 44.5455475349]}, "type": "Feature", "properties": {"collection_times": [{"days": "Mon-Sat", "time": "4:30pm"}, {"days": "Sun", "time": "Closed"}], "id": "9733300023", "name": "USPS COLLECTION BOX - PO LOBBY", "address": {"city": "CORVALLIS", "state": "OR", "street": "311 SW 2ND ST", "postcode": "97333"}}},
{"geometry": {"type": "Point", "coordinates": [-123.2823977707, 44.5455475349]}, "type": "Feature", "properties": {"collection_times": [{"days": "Mon-Sat", "time": "4:30pm"}, {"days": "Sun", "time": "Closed"}], "id": "9733300024", "name": "USPS COLLECTION BOX - PO LOBBY", "address": {"city": "CORVALLIS", "state": "OR", "street": "311 SW 2ND ST", "postcode": "97333"}}},
{"geometry": {"type": "Point", "coordinates": [-123.2823977709, 44.5455388906]}, "type": "Feature", "properties": {"collection_times": [{"days": "Mon-Fri", "time": "5:00pm"}, {"days": "Sat", "time": "4:30pm"}, {"days": "Sun", "time": "Closed"}], "id": "9733300026", "name": "USPS COLLECTION BOX - BLUE BOX", "address": {"city": "CORVALLIS", "state": "OR", "street": "311 SW 2ND ST", "postcode": "97333"}}},
{"geometry": {"type": "Point", "coordinates": [-123.2823977707, 44.5455475349]}, "type": "Feature", "properties": {"collection_times": [{"days": "Mon-Fri", "time": "4:30pm"}, {"days": "Sat", "time": "4:00pm"}, {"days": "Sun", "time": "Closed"}], "id": "9733300027", "name": "USPS COLLECTION BOX - APC", "address": {"city": "CORVALLIS", "state": "OR", "street": "311 SW 2ND ST", "postcode": "97333"}}},
{"geometry": {"type": "Point", "coordinates": [-122.8908626531, 44.6341034809]}, "type": "Feature", "properties": {"collection_times": [{"days": "Mon-Fri", "time": "11:45am"}, {"days": "Sat", "time": "9:30am"}, {"days": "Sun", "time": "Closed"}], "id": "9733500000", "name": "USPS COLLECTION BOX - PO LOBBY", "address": {"city": "CRABTREE", "state": "OR", "street": "37640 CRABTREE DR", "postcode": "97335"}}},
{"geometry": {"type": "Point", "coordinates": [-122.8908626531, 44.6341034809]}, "type": "Feature", "properties": {"collection_times": [{"days": "Mon-Fri", "time": "11:45am"}, {"days": "Sat", "time": "9:30am"}, {"days": "Sun", "time": "Closed"}], "id": "9733500002", "name": "USPS COLLECTION BOX - PO LOBBY", "address": {"city": "CRABTREE", "state": "OR", "street": "37640 CRABTREE DR", "postcode": "97335"}}},
{"geometry": {"type": "Point", "coordinates": [-122.8554792553, 44.3572002365]}, "type": "Feature", "properties": {"collection_times": [{"days": "Mon-Fri", "time": "2:30pm"}, {"days": "Sat", "time": "9:15am"}, {"days": "Sun", "time": "Closed"}], "id": "9733600000", "name": "USPS COLLECTION BOX - BLUE BOX", "address": {"city": "CRAWFORDSVILLE", "state": "OR", "street": "26064 1ST ST", "postcode": "97336"}}},
{"geometry": {"type": "Point", "coordinates": [-122.8554792553, 44.3572002365]}, "type": "Feature", "properties": {"collection_times": [{"days": "Mon-Fri", "time": "2:30pm"}, {"days": "Sat", "time": "9:15am"}, {"days": "Sun", "time": "Closed"}], "id": "9733600001", "name": "USPS COLLECTION BOX - PO LOBBY", "address": {"city": "CRAWFORDSVILLE", "state": "OR", "street": "26064 1ST ST", "postcode": "97336"}}},
{"geometry": {"type": "Point", "coordinates": [-123.318550634, 44.9218567155]}, "type": "Feature", "properties": {"collection_times": [{"days": "Mon-Sat", "time": "4:15pm"}, {"days": "Sun", "time": "Closed"}], "id": "9733800000", "name": "USPS COLLECTION BOX - BLUE BOX", "address": {"city": "DALLAS", "state": "OR", "street": "768 SW CHURCH ST", "postcode": "97338"}}},
{"geometry": {"type": "Point", "coordinates": [-123.318550634, 44.9218567155]}, "type": "Feature", "properties": {"collection_times": [{"days": "Mon-Sat", "time": "4:15pm"}, {"days": "Sun", "time": "Closed"}], "id": "9733800001", "name": "USPS COLLECTION BOX - BLUE BOX", "address": {"city": "DALLAS", "state": "OR", "street": "768 SW CHURCH ST", "postcode": "97338"}}},
{"geometry": {"type": "Point", "coordinates": [-123.318550634, 44.9218567155]}, "type": "Feature", "properties": {"collection_times": [{"days": "Mon-Sat", "time": "4:15pm"}, {"days": "Sun", "time": "Closed"}], "id": "9733800002", "name": "USPS COLLECTION BOX - BLUE BOX", "address": {"city": "DALLAS", "state": "OR", "street": "768 SW CHURCH ST", "postcode": "97338"}}},
{"geometry": {"type": "Point", "coordinates": [-123.3091780501, 44.9297801747]}, "type": "Feature", "properties": {"collection_times": [{"days": "Mon-Sat", "time": "1:30pm"}, {"days": "Sun", "time": "Closed"}], "id": "9733800005", "name": "USPS COLLECTION BOX - BLUE BOX", "address": {"city": "DALLAS", "state": "OR", "street": "289 E ELLENDALE AVE", "postcode": "97338"}}},
{"geometry": {"type": "Point", "coordinates": [-123.3139418258, 44.9291555723]}, "type": "Feature", "properties": {"collection_times": [{"days": "Mon-Sat", "time": "1:30pm"}, {"days": "Sun", "time": "Closed"}], "id": "9733800006", "name": "USPS COLLECTION BOX - BLUE BOX", "address": {"city": "DALLAS", "state": "OR", "street": "178 W ELLENDALE AVE", "postcode": "97338"}}},
{"geometry": {"type": "Point", "coordinates": [-123.3186090466, 44.9233587982]}, "type": "Feature", "properties": {"collection_times": [{"days": "Mon-Sat", "time": "4:15pm"}, {"days": "Sun", "time": "Closed"}], "id": "9733800008", "name": "USPS COLLECTION BOX - PO LOBBY", "address": {"city": "DALLAS", "state": "OR", "street": "768 SW CHURCH ST", "postcode": "97338"}}},
{"geometry": {"type": "Point", "coordinates": [-123.3186090466, 44.9233587982]}, "type": "Feature", "properties": {"collection_times": [{"days": "Mon-Sat", "time": "4:15pm"}, {"days": "Sun", "time": "Closed"}], "id": "9733800009", "name": "USPS COLLECTION BOX - PO LOBBY", "address": {"city": "DALLAS", "state": "OR", "street": "768 SW CHURCH ST", "postcode": "97338"}}},
{"geometry": {"type": "Point", "coordinates": [-123.3186090466, 44.9233587982]}, "type": "Feature", "properties": {"collection_times": [{"days": "Mon-Sat", "time": "4:15pm"}, {"days": "Sun", "time": "Closed"}], "id": "9733800010", "name": "USPS COLLECTION BOX - PO LOBBY", "address": {"city": "DALLAS", "state": "OR", "street": "768 SW CHURCH ST", "postcode": "97338"}}},
{"geometry": {"type": "Point", "coordinates": [-124.0627741031, 44.8172461649]}, "type": "Feature", "properties": {"collection_times": [{"days": "Mon-Fri", "time": "2:45pm"}, {"days": "Sat", "time": "10:30am"}, {"days": "Sun", "time": "Closed"}], "id": "9734100000", "name": "USPS COLLECTION BOX - BLUE BOX", "address": {"city": "DEPOE BAY", "state": "OR", "street": "486 N HIGHWAY 101", "postcode": "97341"}}},
{"geometry": {"type": "Point", "coordinates": [-124.0580160125, 44.8282987678]}, "type": "Feature", "properties": {"collection_times": [{"days": "Mon-Fri", "time": "2:45pm"}, {"days": "Sat", "time": "10:30am"}, {"days": "Sun", "time": "Closed"}], "id": "9734100001", "name": "USPS COLLECTION BOX - PO LOBBY", "address": {"city": "DEPOE BAY", "state": "OR", "street": "486 N HIGHWAY 101", "postcode": "97341"}}},
{"geometry": {"type": "Point", "coordinates": [-122.1506973303, 44.7339261279]}, "type": "Feature", "properties": {"collection_times": [{"days": "Mon-Sat", "time": "2:15pm"}, {"days": "Sun", "time": "Closed"}], "id": "9734200000", "name": "USPS COLLECTION BOX - BLUE BOX", "address": {"city": "DETROIT", "state": "OR", "street": "170 DETROIT AVE", "postcode": "97342"}}},
{"geometry": {"type": "Point", "coordinates": [-122.1506973303, 44.7339261279]}, "type": "Feature", "properties": {"collection_times": [{"days": "Mon-Fri", "time": "11:45am"}, {"days": "Sat-Sun", "time": "Closed"}], "id": "9734200001", "name": "USPS COLLECTION BOX - PO LOBBY", "address": {"city": "DETROIT", "state": "OR", "street": "170 DETROIT AVE", "postcode": "97342"}}},
{"geometry": {"type": "Point", "coordinates": [-123.7804855317, 44.6401942819]}, "type": "Feature", "properties": {"collection_times": [{"days": "Mon-Fri", "time": "2:30pm"}, {"days": "Sat", "time": "9:30am"}, {"days": "Sun", "time": "Closed"}], "id": "9734300000", "name": "USPS COLLECTION BOX - BLUE BOX", "address": {"city": "EDDYVILLE", "state": "OR", "street": "20619 HIGHWAY 20", "postcode": "97343"}}},
{"geometry": {"type": "Point", "coordinates": [-123.7559990252, 44.6273987485]}, "type": "Feature", "properties": {"collection_times": [{"days": "Mon-Fri", "time": "12:00pm"}, {"days": "Sat", "time": "9:30am"}, {"days": "Sun", "time": "Closed"}], "id": "9734300001", "name": "USPS COLLECTION BOX - PO LOBBY", "address": {"city": "EDDYVILLE", "state": "OR", "street": "20619 HIGHWAY 20", "postcode": "97343"}}},
{"geometry": {"type": "Point", "coordinates": [-123.4374180039, 44.8656217136]}, "type": "Feature", "properties": {"collection_times": [{"days": "Mon-Fri", "time": "12:45pm"}, {"days": "Sat", "time": "11:30am"}, {"days": "Sun", "time": "Closed"}], "id": "9734400002", "name": "USPS COLLECTION BOX - BLUE BOX", "address": {"city": "FALLS CITY", "state": "OR", "street": "123 PARRY ST", "postcode": "97344"}}},
{"geometry": {"type": "Point", "coordinates": [-123.4374180039, 44.8656217136]}, "type": "Feature", "properties": {"collection_times": [{"days": "Mon-Fri", "time": "12:45pm"}, {"days": "Sat", "time": "11:30am"}, {"days": "Sun", "time": "Closed"}], "id": "9734400003", "name": "USPS COLLECTION BOX - PO LOBBY", "address": {"city": "FALLS CITY", "state": "OR", "street": "123 PARRY ST", "postcode": "97344"}}},
{"geometry": {"type": "Point", "coordinates": [-122.574787555, 44.4040176708]}, "type": "Feature", "properties": {"collection_times": [{"days": "Mon-Fri", "time": "2:30pm"}, {"days": "Sat", "time": "10:00am"}, {"days": "Sun", "time": "Closed"}], "id": "9734500000", "name": "USPS COLLECTION BOX - BLUE BOX", "address": {"city": "FOSTER", "state": "OR", "street": "5300 POPLAR ST", "postcode": "97345"}}},
{"geometry": {"type": "Point", "coordinates": [-122.574787555, 44.4040176708]}, "type": "Feature", "properties": {"collection_times": [{"days": "Mon-Fri", "time": "2:30pm"}, {"days": "Sat", "time": "10:00am"}, {"days": "Sun", "time": "Closed"}], "id": "9734500001", "name": "USPS COLLECTION BOX - PO LOBBY", "address": {"city": "FOSTER", "state": "OR", "street": "5300 POPLAR ST", "postcode": "97345"}}},
{"geometry": {"type": "Point", "coordinates": [-123.6091871685, 45.061038268]}, "type": "Feature", "properties": {"collection_times": [{"days": "Mon-Fri", "time": "3:30pm"}, {"days": "Sat", "time": "11:00am"}, {"days": "Sun", "time": "Closed"}], "id": "9734700000", "name": "USPS COLLECTION BOX - BLUE BOX", "address": {"city": "GRAND RONDE", "state": "OR", "street": "8650 GRAND RONDE RD", "postcode": "97347"}}},
{"geometry": {"type": "Point", "coordinates": [-123.6091871685, 45.061038268]}, "type": "Feature", "properties": {"collection_times": [{"days": "Mon-Fri", "time": "3:30pm"}, {"days": "Sat", "time": "11:00am"}, {"days": "Sun", "time": "Closed"}], "id": "9734700001", "name": "USPS COLLECTION BOX - PO LOBBY", "address": {"city": "GRAND RONDE", "state": "OR", "street": "8650 GRAND RONDE RD", "postcode": "97347"}}},
{"geometry": {"type": "Point", "coordinates": [-123.1097367507, 44.3882019733]}, "type": "Feature", "properties": {"collection_times": [{"days": "Mon-Fri", "time": "3:00pm"}, {"days": "Sat", "time": "2:00pm"}, {"days": "Sun", "time": "Closed"}], "id": "9734800000", "name": "USPS COLLECTION BOX - BLUE BOX", "address": {"city": "HALSEY", "state": "OR", "street": "124 NW 2ND ST", "postcode": "97348"}}},
{"geometry": {"type": "Point", "coordinates": [-123.1097367507, 44.3882019733]}, "type": "Feature", "properties": {"collection_times": [{"days": "Mon-Fri", "time": "3:00pm"}, {"days": "Sat", "time": "2:00pm"}, {"days": "Sun", "time": "Closed"}], "id": "9734800001", "name": "USPS COLLECTION BOX - BLUE BOX", "address": {"city": "HALSEY", "state": "OR", "street": "124 NW 2ND ST", "postcode": "97348"}}},
{"geometry": {"type": "Point", "coordinates": [-123.1140766027, 44.3839611254]}, "type": "Feature", "properties": {"collection_times": [{"days": "Mon-Fri", "time": "3:00pm"}, {"days": "Sat", "time": "2:00pm"}, {"days": "Sun", "time": "Closed"}], "id": "9734800002", "name": "USPS COLLECTION BOX - PO LOBBY", "address": {"city": "HALSEY", "state": "OR", "street": "124 NW 2ND ST", "postcode": "97348"}}},
{"geometry": {"type": "Point", "coordinates": [-121.9157297887, 44.6864157979]}, "type": "Feature", "properties": {"collection_times": [{"days": "Mon-Sat", "time": "2:00pm"}, {"days": "Sun", "time": "Closed"}], "id": "9735000000", "name": "USPS COLLECTION BOX - BLUE BOX", "address": {"city": "IDANHA", "state": "OR", "street": "103 HIGHWAY 22", "postcode": "97350"}}},
{"geometry": {"type": "Point", "coordinates": [-121.9255568332, 44.7369580622]}, "type": "Feature", "properties": {"collection_times": [{"days": "Mon-Fri", "time": "2:00pm"}, {"days": "Sat", "time": "11:15am"}, {"days": "Sun", "time": "Closed"}], "id": "9735000001", "name": "USPS COLLECTION BOX - PO LOBBY", "address": {"city": "IDANHA", "state": "OR", "street": "103 HIGHWAY 22", "postcode": "97350"}}},
{"geometry": {"type": "Point", "coordinates": [-123.1859977762, 44.8518996536]}, "type": "Feature", "properties": {"collection_times": [{"days": "Mon-Fri", "time": "5:00pm"}, {"days": "Sat", "time": "3:30pm"}, {"days": "Sun", "time": "Closed"}], "id": "9735100004", "name": "USPS COLLECTION BOX - BLUE BOX", "address": {"city": "INDEPENDENCE", "state": "OR", "street": "216 S 2ND ST", "postcode": "97351"}}},
{"geometry": {"type": "Point", "coordinates": [-123.1911178952, 44.8492677644]}, "type": "Feature", "properties": {"collection_times": [{"days": "Mon-Fri", "time": "4:45pm"}, {"days": "Sat", "time": "3:30pm"}, {"days": "Sun", "time": "Closed"}], "id": "9735100005", "name": "USPS COLLECTION BOX - PO LOBBY", "address": {"city": "INDEPENDENCE", "state": "OR", "street": "216 S 2ND ST", "postcode": "97351"}}},
{"geometry": {"type": "Point", "coordinates": [-123.0107423199, 44.7162474674]}, "type": "Feature", "properties": {"collection_times": [{"days": "Mon-Fri", "time": "4:30pm"}, {"days": "Sat", "time": "1:00pm"}, {"days": "Sun", "time": "Closed"}], "id": "9735200000", "name": "USPS COLLECTION BOX - BLUE BOX", "address": {"city": "JEFFERSON", "state": "OR", "street": "152 S 2ND ST", "postcode": "97352"}}},
{"geometry": {"type": "Point", "coordinates": [-123.0102092462, 44.7388568296]}, "type": "Feature", "properties": {"collection_times": [{"days": "Mon-Fri", "time": "4:30pm"}, {"days": "Sat", "time": "1:00pm"}, {"days": "Sun", "time": "Closed"}], "id": "9735200001", "name": "USPS COLLECTION BOX - PO LOBBY", "address": {"city": "JEFFERSON", "state": "OR", "street": "152 S 2ND ST", "postcode": "97352"}}},
{"geometry": {"type": "Point", "coordinates": [-122.9082887139, 44.5213473182]}, "type": "Feature", "properties": {"collection_times": [{"days": "Mon-Fri", "time": "5:00pm"}, {"days": "Sat", "time": "3:45pm"}, {"days": "Sun", "time": "Closed"}], "id": "9735500005", "name": "USPS COLLECTION BOX - BLUE BOX", "address": {"city": "LEBANON", "state": "OR", "street": "55 WALKER RD", "postcode": "97355"}}},
{"geometry": {"type": "Point", "coordinates": [-122.9071947378, 44.5486860332]}, "type": "Feature", "properties": {"collection_times": [{"days": "Mon-Sat", "time": "3:45pm"}, {"days": "Sun", "time": "Closed"}], "id": "9735500006", "name": "USPS COLLECTION BOX - BLUE BOX", "address": {"city": "LEBANON", "state": "OR", "street": "44 INDUSTRIAL WAY", "postcode": "97355"}}},
{"geometry": {"type": "Point", "coordinates": [-122.9082887139, 44.5213473182]}, "type": "Feature", "properties": {"collection_times": [{"days": "Mon-Fri", "time": "5:00pm"}, {"days": "Sat", "time": "3:45pm"}, {"days": "Sun", "time": "Closed"}], "id": "9735500010", "name": "USPS COLLECTION BOX - BLUE BOX", "address": {"city": "LEBANON", "state": "OR", "street": "55 WALKER RD", "postcode": "97355"}}},
{"geometry": {"type": "Point", "coordinates": [-122.9056445046, 44.5372106055]}, "type": "Feature", "properties": {"collection_times": [{"days": "Mon-Sat", "time": "3:45pm"}, {"days": "Sun", "time": "Closed"}], "id": "9735500011", "name": "USPS COLLECTION BOX - BLUE BOX", "address": {"city": "LEBANON", "state": "OR", "street": "910 S PARK ST", "postcode": "97355"}}},
{"geometry": {"type": "Point", "coordinates": [-122.9056445046, 44.5372106055]}, "type": "Feature", "properties": {"collection_times": [{"days": "Mon-Sat", "time": "3:45pm"}, {"days": "Sun", "time": "Closed"}], "id": "9735500012", "name": "USPS COLLECTION BOX - BLUE BOX", "address": {"city": "LEBANON", "state": "OR", "street": "910 S PARK ST", "postcode": "97355"}}},
{"geometry": {"type": "Point", "coordinates": [-122.9082892, 44.521347339]}, "type": "Feature", "properties": {"collection_times": [{"days": "Mon-Fri", "time": "5:00pm"}, {"days": "Sat", "time": "3:45pm"}, {"days": "Sun", "time": "Closed"}], "id": "9735500013", "name": "USPS COLLECTION BOX - PO LOBBY", "address": {"city": "LEBANON", "state": "OR", "street": "55 WALKER RD", "postcode": "97355"}}},
{"geometry": {"type": "Point", "coordinates": [-122.9066714924, 44.5267163277]}, "type": "Feature", "properties": {"collection_times": [{"days": "Mon-Sat", "time": "3:45pm"}, {"days": "Sun", "time": "Closed"}], "id": "9735500014", "name": "USPS COLLECTION BOX - BLUE BOX", "address": {"city": "LEBANON", "state": "OR", "street": "20 E AIRPORT RD", "postcode": "97355"}}},
{"geometry": {"type": "Point", "coordinates": [-122.9082887139, 44.5213473182]}, "type": "Feature", "properties": {"collection_times": [{"days": "Mon-Fri", "time": "5:00pm"}, {"days": "Sat", "time": "3:45pm"}, {"days": "Sun", "time": "Closed"}], "id": "9735500016", "name": "USPS COLLECTION BOX - BLUE BOX", "address": {"city": "LEBANON", "state": "OR", "street": "55 WALKER RD", "postcode": "97355"}}},
{"geometry": {"type": "Point", "coordinates": [-122.5805968274, 44.7517484609]}, "type": "Feature", "properties": {"collection_times": [{"days": "Mon-Fri", "time": "3:45pm"}, {"days": "Sat", "time": "1:00pm"}, {"days": "Sun", "time": "Closed"}], "id": "9735800000", "name": "USPS COLLECTION BOX - PO LOBBY", "address": {"city": "LYONS", "state": "OR", "street": "402 IRONWOOD ST", "postcode": "97358"}}},
{"geometry": {"type": "Point", "coordinates": [-122.6194825916, 44.7839238724]}, "type": "Feature", "properties": {"collection_times": [{"days": "Mon-Fri", "time": "3:45pm"}, {"days": "Sat", "time": "1:00pm"}, {"days": "Sun", "time": "Closed"}], "id": "9735800001", "name": "USPS COLLECTION BOX - BLUE BOX", "address": {"city": "LYONS", "state": "OR", "street": "402 IRONWOOD ST", "postcode": "97358"}}},
{"geometry": {"type": "Point", "coordinates": [-122.4773764426, 44.7479617348]}, "type": "Feature", "properties": {"collection_times": [{"days": "Mon-Sat", "time": "3:30pm"}, {"days": "Sun", "time": "Closed"}], "id": "9736000000", "name": "USPS COLLECTION BOX - PO LOBBY", "address": {"city": "GATES", "state": "OR", "street": "101 SE KINGWOOD ST", "postcode": "97360"}}},
{"geometry": {"type": "Point", "coordinates": [-122.4773764426, 44.7479617348]}, "type": "Feature", "properties": {"collection_times": [{"days": "Mon-Sat", "time": "3:30pm"}, {"days": "Sun", "time": "Closed"}], "id": "9736000001", "name": "USPS COLLECTION BOX - BLUE BOX", "address": {"city": "GATES", "state": "OR", "street": "101 SE KINGWOOD ST", "postcode": "97360"}}},
{"geometry": {"type": "Point", "coordinates": [-122.4166197256, 44.7554138772]}, "type": "Feature", "properties": {"collection_times": [{"days": "Mon-Sat", "time": "3:15pm"}, {"days": "Sun", "time": "Closed"}], "id": "9736000003", "name": "USPS COLLECTION BOX - BLUE BOX", "address": {"city": "GATES", "state": "OR", "street": "103 W CENTRAL ST", "postcode": "97360"}}},
{"geometry": {"type": "Point", "coordinates": [-123.2313109592, 44.8474202056]}, "type": "Feature", "properties": {"collection_times": [{"days": "Mon-Fri", "time": "4:30pm"}, {"days": "Sat", "time": "1:00pm"}, {"days": "Sun", "time": "Closed"}], "id": "9736100000", "name": "USPS COLLECTION BOX - BLUE BOX", "address": {"city": "MONMOUTH", "state": "OR", "street": "437 CLAY ST E", "postcode": "97361"}}},
{"geometry": {"type": "Point", "coordinates": [-123.2313109592, 44.8474202056]}, "type": "Feature", "properties": {"collection_times": [{"days": "Mon-Fri", "time": "4:30pm"}, {"days": "Sat", "time": "1:00pm"}, {"days": "Sun", "time": "Closed"}], "id": "9736100002", "name": "USPS COLLECTION BOX - PO LOBBY", "address": {"city": "MONMOUTH", "state": "OR", "street": "437 CLAY ST E", "postcode": "97361"}}},
{"geometry": {"type": "Point", "coordinates": [-123.2313109592, 44.8474202056]}, "type": "Feature", "properties": {"collection_times": [{"days": "Mon-Fri", "time": "4:30pm"}, {"days": "Sat", "time": "1:00pm"}, {"days": "Sun", "time": "Closed"}], "id": "9736100003", "name": "USPS COLLECTION BOX - BLUE BOX", "address": {"city": "MONMOUTH", "state": "OR", "street": "437 CLAY ST E", "postcode": "97361"}}},
{"geometry": {"type": "Point", "coordinates": [-122.7881490501, 45.0690989727]}, "type": "Feature", "properties": {"collection_times": [{"days": "Mon-Fri", "time": "4:00pm"}, {"days": "Sat", "time": "10:00am"}, {"days": "Sun", "time": "Closed"}], "id": "9736200000", "name": "USPS COLLECTION BOX - PO LOBBY", "address": {"city": "MOUNT ANGEL", "state": "OR", "street": "90 N GARFIELD ST", "postcode": "97362"}}},
{"geometry": {"type": "Point", "coordinates": [-122.7881490501, 45.0690989727]}, "type": "Feature", "properties": {"collection_times": [{"days": "Mon-Fri", "time": "4:00pm"}, {"days": "Sat", "time": "10:00am"}, {"days": "Sun", "time": "Closed"}], "id": "9736200001", "name": "USPS COLLECTION BOX - BLUE BOX", "address": {"city": "MOUNT ANGEL", "state": "OR", "street": "90 N GARFIELD ST", "postcode": "97362"}}},
{"geometry": {"type": "Point", "coordinates": [-123.9867666123, 44.9976062522]}, "type": "Feature", "properties": {"collection_times": [{"days": "Mon-Fri", "time": "2:45pm"}, {"days": "Sat", "time": "11:15am"}, {"days": "Sun", "time": "Closed"}], "id": "9736400000", "name": "USPS COLLECTION BOX - PO LOBBY", "address": {"city": "NEOTSU", "state": "OR", "street": "4994 N HIGHWAY 101", "postcode": "97364"}}},
{"geometry": {"type": "Point", "coordinates": [-123.9848684029, 45.0034013743]}, "type": "Feature", "properties": {"collection_times": [{"days": "Mon-Fri", "time": "2:45pm"}, {"days": "Sat", "time": "11:15am"}, {"days": "Sun", "time": "Closed"}], "id": "9736400001", "name": "USPS COLLECTION BOX - BLUE BOX", "address": {"city": "NEOTSU", "state": "OR", "street": "4994 N HIGHWAY 101", "postcode": "97364"}}},
{"geometry": {"type": "Point", "coordinates": [-124.0529584261, 44.6475682641]}, "type": "Feature", "properties": {"collection_times": [{"days": "Mon-Sat", "time": "3:00pm"}, {"days": "Sun", "time": "Closed"}], "id": "9736500000", "name": "USPS COLLECTION BOX - BLUE BOX", "address": {"city": "NEWPORT", "state": "OR", "street": "310 SW 2ND ST", "postcode": "97365"}}},
{"geometry": {"type": "Point", "coordinates": [-124.0529584261, 44.6475682641]}, "type": "Feature", "properties": {"collection_times": [{"days": "Mon-Sat", "time": "3:00pm"}, {"days": "Sun", "time": "Closed"}], "id": "9736500001", "name": "USPS COLLECTION BOX - BLUE BOX", "address": {"city": "NEWPORT", "state": "OR", "street": "310 SW 2ND ST", "postcode": "97365"}}},
{"geometry": {"type": "Point", "coordinates": [-124.0529584261, 44.6475682641]}, "type": "Feature", "properties": {"collection_times": [{"days": "Mon-Sat", "time": "3:00pm"}, {"days": "Sun", "time": "Closed"}], "id": "9736500002", "name": "USPS COLLECTION BOX - BLUE BOX", "address": {"city": "NEWPORT", "state": "OR", "street": "310 SW 2ND ST", "postcode": "97365"}}},
{"geometry": {"type": "Point", "coordinates": [-124.0529584261, 44.6475682641]}, "type": "Feature", "properties": {"collection_times": [{"days": "Mon-Sat", "time": "3:00pm"}, {"days": "Sun", "time": "Closed"}], "id": "9736500003", "name": "USPS COLLECTION BOX - PO LOBBY", "address": {"city": "NEWPORT", "state": "OR", "street": "310 SW 2ND ST", "postcode": "97365"}}},
{"geometry": {"type": "Point", "coordinates": [-124.0529584261, 44.6475682641]}, "type": "Feature", "properties": {"collection_times": [{"days": "Mon-Sat", "time": "3:00pm"}, {"days": "Sun", "time": "Closed"}], "id": "9736500004", "name": "USPS COLLECTION BOX - PO LOBBY", "address": {"city": "NEWPORT", "state": "OR", "street": "310 SW 2ND ST", "postcode": "97365"}}},
{"geometry": {"type": "Point", "coordinates": [-124.0529584261, 44.6475682641]}, "type": "Feature", "properties": {"collection_times": [{"days": "Mon-Sat", "time": "3:00pm"}, {"days": "Sun", "time": "Closed"}], "id": "9736500005", "name": "USPS COLLECTION BOX - PO LOBBY", "address": {"city": "NEWPORT", "state": "OR", "street": "310 SW 2ND ST", "postcode": "97365"}}},
{"geometry": {"type": "Point", "coordinates": [-124.0529566272, 44.6531169062]}, "type": "Feature", "properties": {"collection_times": [{"days": "Mon-Sat", "time": "10:30am"}, {"days": "Sun", "time": "Closed"}], "id": "9736500010", "name": "USPS COLLECTION BOX - BLUE BOX", "address": {"city": "NEWPORT", "state": "OR", "street": "2230 N COAST HWY", "postcode": "97365"}}},
{"geometry": {"type": "Point", "coordinates": [-124.0231885191, 44.9350490456]}, "type": "Feature", "properties": {"collection_times": [{"days": "Mon-Sat", "time": "11:30am"}, {"days": "Sun", "time": "Closed"}], "id": "9736700002", "name": "USPS COLLECTION BOX - BLUE BOX", "address": {"city": "LINCOLN CITY", "state": "OR", "street": "4079 NW HIGHWAY 101", "postcode": "97367"}}},
{"geometry": {"type": "Point", "coordinates": [-124.0124618671, 44.959417478]}, "type": "Feature", "properties": {"collection_times": [{"days": "Mon-Fri", "time": "4:00pm"}, {"days": "Sat", "time": "3:30pm"}, {"days": "Sun", "time": "Closed"}], "id": "9736700011", "name": "USPS COLLECTION BOX - BLUE BOX", "address": {"city": "LINCOLN CITY", "state": "OR", "street": "1501 SE EAST DEVILS LAKE RD", "postcode": "97367"}}},
{"geometry": {"type": "Point", "coordinates": [-123.9508681116, 45.019600397]}, "type": "Feature", "properties": {"collection_times": [{"days": "Mon-Fri", "time": "3:00pm"}, {"days": "Sat", "time": "1:30pm"}, {"days": "Sun", "time": "Closed"}], "id": "9736800000", "name": "USPS COLLECTION BOX - BLUE BOX", "address": {"city": "OTIS", "state": "OR", "street": "1261 SALMON RIVER HWY", "postcode": "97368"}}},
{"geometry": {"type": "Point", "coordinates": [-123.9218869902, 45.0095767423]}, "type": "Feature", "properties": {"collection_times": [{"days": "Mon-Fri", "time": "3:00pm"}, {"days": "Sat", "time": "1:30pm"}, {"days": "Sun", "time": "Closed"}], "id": "9736800001", "name": "USPS COLLECTION BOX - PO LOBBY", "address": {"city": "OTIS", "state": "OR", "street": "1261 SALMON RIVER HWY", "postcode": "97368"}}},
{"geometry": {"type": "Point", "coordinates": [-123.3831280332, 44.5474680274]}, "type": "Feature", "properties": {"collection_times": [{"days": "Mon-Fri", "time": "3:00pm"}, {"days": "Sat", "time": "10:00am"}, {"days": "Sun", "time": "Closed"}], "id": "9737000000", "name": "USPS COLLECTION BOX - PO LOBBY", "address": {"city": "PHILOMATH", "state": "OR", "street": "1140 APPLEGATE ST", "postcode": "97370"}}},
{"geometry": {"type": "Point", "coordinates": [-123.3831280332, 44.5474680274]}, "type": "Feature", "properties": {"collection_times": [{"days": "Mon-Fri", "time": "3:00pm"}, {"days": "Sat", "time": "10:00am"}, {"days": "Sun", "time": "Closed"}], "id": "9737000001", "name": "USPS COLLECTION BOX - BLUE BOX", "address": {"city": "PHILOMATH", "state": "OR", "street": "1140 APPLEGATE ST", "postcode": "97370"}}},
{"geometry": {"type": "Point", "coordinates": [-123.3831280332, 44.5474680274]}, "type": "Feature", "properties": {"collection_times": [{"days": "Mon-Fri", "time": "3:00pm"}, {"days": "Sat", "time": "10:00am"}, {"days": "Sun", "time": "Closed"}], "id": "9737000002", "name": "USPS COLLECTION BOX - BLUE BOX", "address": {"city": "PHILOMATH", "state": "OR", "street": "1140 APPLEGATE ST", "postcode": "97370"}}},
{"geometry": {"type": "Point", "coordinates": [-123.3831280332, 44.5474680274]}, "type": "Feature", "properties": {"collection_times": [{"days": "Mon-Fri", "time": "3:00pm"}, {"days": "Sat", "time": "10:00am"}, {"days": "Sun", "time": "Closed"}], "id": "9737000003", "name": "USPS COLLECTION BOX - BLUE BOX", "address": {"city": "PHILOMATH", "state": "OR", "street": "1140 APPLEGATE ST", "postcode": "97370"}}},
{"geometry": {"type": "Point", "coordinates": [-123.2296181447, 44.9316066637]}, "type": "Feature", "properties": {"collection_times": [{"days": "Mon-Fri", "time": "3:45pm"}, {"days": "Sat", "time": "1:45pm"}, {"days": "Sun", "time": "Closed"}], "id": "9737100000", "name": "USPS COLLECTION BOX - BLUE BOX", "address": {"city": "RICKREALL", "state": "OR", "street": "9750 CHURCH ST", "postcode": "97371"}}},
{"geometry": {"type": "Point", "coordinates": [-123.2296181447, 44.9316066637]}, "type": "Feature", "properties": {"collection_times": [{"days": "Mon-Fri", "time": "3:45pm"}, {"days": "Sat", "time": "1:45pm"}, {"days": "Sun", "time": "Closed"}], "id": "9737100001", "name": "USPS COLLECTION BOX - PO LOBBY", "address": {"city": "RICKREALL", "state": "OR", "street": "9750 CHURCH ST", "postcode": "97371"}}},
{"geometry": {"type": "Point", "coordinates": [-123.2296181447, 44.9316066637]}, "type": "Feature", "properties": {"collection_times": [{"days": "Mon-Fri", "time": "3:45pm"}, {"days": "Sat", "time": "9:30am"}, {"days": "Sun", "time": "Closed"}], "id": "9737100002", "name": "USPS COLLECTION BOX - PO LOBBY", "address": {"city": "RICKREALL", "state": "OR", "street": "9750 CHURCH ST", "postcode": "97371"}}},
{"geometry": {"type": "Point", "coordinates": [-122.7675797941, 45.0598180409]}, "type": "Feature", "properties": {"collection_times": [{"days": "Mon-Fri", "time": "2:00pm"}, {"days": "Sat", "time": "9:15am"}, {"days": "Sun", "time": "Closed"}], "id": "9737300001", "name": "USPS COLLECTION BOX - PO LOBBY", "address": {"city": "ST BENEDICT", "state": "OR", "street": "1 ABBEY DR", "postcode": "97373"}}},
{"geometry": {"type": "Point", "coordinates": [-122.8196199249, 44.6935297322]}, "type": "Feature", "properties": {"collection_times": [{"days": "Mon-Fri", "time": "4:00pm"}, {"days": "Sat", "time": "6:00am"}, {"days": "Sun", "time": "Closed"}], "id": "9737400000", "name": "USPS COLLECTION BOX - BLUE BOX", "address": {"city": "SCIO", "state": "OR", "street": "38750 N MAIN ST", "postcode": "97374"}}},
{"geometry": {"type": "Point", "coordinates": [-122.8196199249, 44.6935297322]}, "type": "Feature", "properties": {"collection_times": [{"days": "Mon-Fri", "time": "4:00pm"}, {"days": "Sat", "time": "12:00pm"}, {"days": "Sun", "time": "Closed"}], "id": "9737400001", "name": "USPS COLLECTION BOX - PO LOBBY", "address": {"city": "SCIO", "state": "OR", "street": "38750 N MAIN ST", "postcode": "97374"}}},
{"geometry": {"type": "Point", "coordinates": [-122.6422959055, 45.0096592974]}, "type": "Feature", "properties": {"collection_times": [{"days": "Mon-Fri", "time": "3:45pm"}, {"days": "Sat", "time": "12:00pm"}, {"days": "Sun", "time": "Closed"}], "id": "9737500000", "name": "USPS COLLECTION BOX - BLUE BOX", "address": {"city": "SCOTTS MILLS", "state": "OR", "street": "251 3RD ST", "postcode": "97375"}}},
{"geometry": {"type": "Point", "coordinates": [-122.6422959055, 45.0096592974]}, "type": "Feature", "properties": {"collection_times": [{"days": "Mon-Fri", "time": "3:45pm"}, {"days": "Sat", "time": "12:00pm"}, {"days": "Sun", "time": "Closed"}], "id": "9737500001", "name": "USPS COLLECTION BOX - PO LOBBY", "address": {"city": "SCOTTS MILLS", "state": "OR", "street": "251 3RD ST", "postcode": "97375"}}},
{"geometry": {"type": "Point", "coordinates": [-122.6422959055, 45.0096592974]}, "type": "Feature", "properties": {"collection_times": [{"days": "Mon-Fri", "time": "3:45pm"}, {"days": "Sat", "time": "12:00pm"}, {"days": "Sun", "time": "Closed"}], "id": "9737500002", "name": "USPS COLLECTION BOX - PO LOBBY", "address": {"city": "SCOTTS MILLS", "state": "OR", "street": "251 3RD ST", "postcode": "97375"}}},
{"geometry": {"type": "Point", "coordinates": [-123.118308638, 44.4616585137]}, "type": "Feature", "properties": {"collection_times": [{"days": "Mon-Fri", "time": "3:45pm"}, {"days": "Sat", "time": "11:00am"}, {"days": "Sun", "time": "Closed"}], "id": "9737700001", "name": "USPS COLLECTION BOX - PO LOBBY", "address": {"city": "SHEDD", "state": "OR", "street": "29996 1ST ST", "postcode": "97377"}}},
{"geometry": {"type": "Point", "coordinates": [-123.3949151417, 45.0973336972]}, "type": "Feature", "properties": {"collection_times": [{"days": "Mon-Fri", "time": "4:30pm"}, {"days": "Sat", "time": "2:30pm"}, {"days": "Sun", "time": "Closed"}], "id": "9737800000", "name": "USPS COLLECTION BOX - BLUE BOX", "address": {"city": "SHERIDAN", "state": "OR", "street": "137 SE SHERIDAN RD", "postcode": "97378"}}},
{"geometry": {"type": "Point", "coordinates": [-123.4050094809, 45.0941566194]}, "type": "Feature", "properties": {"collection_times": [{"days": "Mon-Fri", "time": "4:30pm"}, {"days": "Sat", "time": "2:30pm"}, {"days": "Sun", "time": "Closed"}], "id": "9737800001", "name": "USPS COLLECTION BOX - PO LOBBY", "address": {"city": "SHERIDAN", "state": "OR", "street": "137 SE SHERIDAN RD", "postcode": "97378"}}},
{"geometry": {"type": "Point", "coordinates": [-123.9179231498, 44.7203703115]}, "type": "Feature", "properties": {"collection_times": [{"days": "Mon-Fri", "time": "2:45pm"}, {"days": "Sat", "time": "11:30am"}, {"days": "Sun", "time": "Closed"}], "id": "9738000000", "name": "USPS COLLECTION BOX - BLUE BOX", "address": {"city": "SILETZ", "state": "OR", "street": "295 SE GAITHER ST", "postcode": "97380"}}},
{"geometry": {"type": "Point", "coordinates": [-123.9061667603, 44.7299061183]}, "type": "Feature", "properties": {"collection_times": [{"days": "Mon-Fri", "time": "2:45pm"}, {"days": "Sat", "time": "11:30am"}, {"days": "Sun", "time": "Closed"}], "id": "9738000001", "name": "USPS COLLECTION BOX - PO LOBBY", "address": {"city": "SILETZ", "state": "OR", "street": "295 SE GAITHER ST", "postcode": "97380"}}},
{"geometry": {"type": "Point", "coordinates": [-123.9061667603, 44.7299061183]}, "type": "Feature", "properties": {"collection_times": [{"days": "Mon-Fri", "time": "2:45pm"}, {"days": "Sat", "time": "11:30am"}, {"days": "Sun", "time": "Closed"}], "id": "9738000002", "name": "USPS COLLECTION BOX - PO LOBBY", "address": {"city": "SILETZ", "state": "OR", "street": "295 SE GAITHER ST", "postcode": "97380"}}},
{"geometry": {"type": "Point", "coordinates": [-123.8712560279, 44.7304247817]}, "type": "Feature", "properties": {"collection_times": [{"days": "Mon-Sat", "time": "1:00pm"}, {"days": "Sun", "time": "Closed"}], "id": "9738000003", "name": "USPS COLLECTION BOX - PO LOBBY", "address": {"city": "SILETZ", "state": "OR", "street": "7550 LOGSDEN RD", "postcode": "97380"}}},
{"geometry": {"type": "Point", "coordinates": [-123.8712560279, 44.7304247817]}, "type": "Feature", "properties": {"collection_times": [{"days": "Mon-Sat", "time": "1:00pm"}, {"days": "Sun", "time": "Closed"}], "id": "9738000004", "name": "USPS COLLECTION BOX - BLUE BOX", "address": {"city": "SILETZ", "state": "OR", "street": "7550 LOGSDEN RD", "postcode": "97380"}}},
{"geometry": {"type": "Point", "coordinates": [-122.7859853325, 45.0087044837]}, "type": "Feature", "properties": {"collection_times": [{"days": "Mon-Fri", "time": "5:00pm"}, {"days": "Sat", "time": "3:00pm"}, {"days": "Sun", "time": "Closed"}], "id": "9738100001", "name": "USPS COLLECTION BOX - BLUE BOX", "address": {"city": "SILVERTON", "state": "OR", "street": "551 N WATER ST", "postcode": "97381"}}},
{"geometry": {"type": "Point", "coordinates": [-122.7859853325, 45.0087044837]}, "type": "Feature", "properties": {"collection_times": [{"days": "Mon-Fri", "time": "5:00pm"}, {"days": "Sat", "time": "3:00pm"}, {"days": "Sun", "time": "Closed"}], "id": "9738100002", "name": "USPS COLLECTION BOX - BLUE BOX", "address": {"city": "SILVERTON", "state": "OR", "street": "551 N WATER ST", "postcode": "97381"}}},
{"geometry": {"type": "Point", "coordinates": [-122.7859853325, 45.0087044837]}, "type": "Feature", "properties": {"collection_times": [{"days": "Mon-Fri", "time": "5:00pm"}, {"days": "Sat", "time": "3:00pm"}, {"days": "Sun", "time": "Closed"}], "id": "9738100003", "name": "USPS COLLECTION BOX - BLUE BOX", "address": {"city": "SILVERTON", "state": "OR", "street": "551 N WATER ST", "postcode": "97381"}}},
{"geometry": {"type": "Point", "coordinates": [-122.7934133754, 44.7977410259]}, "type": "Feature", "properties": {"collection_times": [{"days": "Mon-Fri", "time": "4:30pm"}, {"days": "Sat", "time": "3:00pm"}, {"days": "Sun", "time": "Closed"}], "id": "9738300001", "name": "USPS COLLECTION BOX - BLUE BOX", "address": {"city": "STAYTON", "state": "OR", "street": "383 N 2ND AVE", "postcode": "97383"}}},
{"geometry": {"type": "Point", "coordinates": [-122.8133493102, 44.8096942227]}, "type": "Feature", "properties": {"collection_times": [{"days": "Mon-Sat", "time": "10:00am"}, {"days": "Sun", "time": "Closed"}], "id": "9738300006", "name": "USPS COLLECTION BOX - BLUE BOX", "address": {"city": "STAYTON", "state": "OR", "street": "1770 SHAFF RD", "postcode": "97383"}}},
{"geometry": {"type": "Point", "coordinates": [-122.7826091681, 44.8014292538]}, "type": "Feature", "properties": {"collection_times": [{"days": "Mon-Fri", "time": "4:30pm"}, {"days": "Sat", "time": "3:00pm"}, {"days": "Sun", "time": "Closed"}], "id": "9738300009", "name": "USPS COLLECTION BOX - BLUE BOX", "address": {"city": "STAYTON", "state": "OR", "street": "383 N 2ND AVE", "postcode": "97383"}}},
{"geometry": {"type": "Point", "coordinates": [-122.7957048002, 44.8313148638]}, "type": "Feature", "properties": {"collection_times": [{"days": "Mon-Fri", "time": "4:00pm"}, {"days": "Sat", "time": "12:00pm"}, {"days": "Sun", "time": "Closed"}], "id": "9738500000", "name": "USPS COLLECTION BOX - BLUE BOX", "address": {"city": "SUBLIMITY", "state": "OR", "street": "211 NW STARR ST", "postcode": "97385"}}},
{"geometry": {"type": "Point", "coordinates": [-122.7854899067, 44.8373581043]}, "type": "Feature", "properties": {"collection_times": [{"days": "Mon-Fri", "time": "4:00pm"}, {"days": "Sat", "time": "12:00pm"}, {"days": "Sun", "time": "Closed"}], "id": "9738500001", "name": "USPS COLLECTION BOX - PO LOBBY", "address": {"city": "SUBLIMITY", "state": "OR", "street": "211 NW STARR ST", "postcode": "97385"}}},
{"geometry": {"type": "Point", "coordinates": [-122.7207362898, 44.3968223417]}, "type": "Feature", "properties": {"collection_times": [{"days": "Mon-Sat", "time": "3:00pm"}, {"days": "Sun", "time": "Closed"}], "id": "9738600000", "name": "USPS COLLECTION BOX - PO LOBBY", "address": {"city": "SWEET HOME", "state": "OR", "street": "1303 LONG ST", "postcode": "97386"}}},
{"geometry": {"type": "Point", "coordinates": [-122.7291603864, 44.3970755744]}, "type": "Feature", "properties": {"collection_times": [{"days": "Mon-Sat", "time": "3:00pm"}, {"days": "Sun", "time": "Closed"}], "id": "9738600001", "name": "USPS COLLECTION BOX - BLUE BOX", "address": {"city": "SWEET HOME", "state": "OR", "street": "1303 LONG ST", "postcode": "97386"}}},
{"geometry": {"type": "Point", "coordinates": [-122.7291603864, 44.3970755744]}, "type": "Feature", "properties": {"collection_times": [{"days": "Mon-Sat", "time": "3:00pm"}, {"days": "Sun", "time": "Closed"}], "id": "9738600002", "name": "USPS COLLECTION BOX - BLUE BOX", "address": {"city": "SWEET HOME", "state": "OR", "street": "1303 LONG ST", "postcode": "97386"}}},
{"geometry": {"type": "Point", "coordinates": [-123.1100111661, 44.5347310781]}, "type": "Feature", "properties": {"collection_times": [{"days": "Mon-Fri", "time": "4:00pm"}, {"days": "Sat", "time": "1:00pm"}, {"days": "Sun", "time": "Closed"}], "id": "9738900000", "name": "USPS COLLECTION BOX - BLUE BOX", "address": {"city": "TANGENT", "state": "OR", "street": "32845 HIGHWAY 99E", "postcode": "97389"}}},
{"geometry": {"type": "Point", "coordinates": [-123.8938872934, 44.4062163636]}, "type": "Feature", "properties": {"collection_times": [{"days": "Mon-Fri", "time": "12:30pm"}, {"days": "Sat", "time": "9:45am"}, {"days": "Sun", "time": "Closed"}], "id": "9739000002", "name": "USPS COLLECTION BOX - BLUE BOX", "address": {"city": "TIDEWATER", "state": "OR", "street": "14 E BRILEMAR ST", "postcode": "97390"}}},
{"geometry": {"type": "Point", "coordinates": [-123.8938872934, 44.4062163636]}, "type": "Feature", "properties": {"collection_times": [{"days": "Mon-Fri", "time": "12:30pm"}, {"days": "Sat", "time": "9:45am"}, {"days": "Sun", "time": "Closed"}], "id": "9739000003", "name": "USPS COLLECTION BOX - PO LOBBY", "address": {"city": "TIDEWATER", "state": "OR", "street": "14 E BRILEMAR ST", "postcode": "97390"}}},
{"geometry": {"type": "Point", "coordinates": [-123.9377900258, 44.6211464562]}, "type": "Feature", "properties": {"collection_times": [{"days": "Mon-Sat", "time": "2:30pm"}, {"days": "Sun", "time": "Closed"}], "id": "9739100006", "name": "USPS COLLECTION BOX - BLUE BOX", "address": {"city": "TOLEDO", "state": "OR", "street": "147 NW 1ST ST", "postcode": "97391"}}},
{"geometry": {"type": "Point", "coordinates": [-123.932028233, 44.6229798779]}, "type": "Feature", "properties": {"collection_times": [{"days": "Mon-Sat", "time": "2:30pm"}, {"days": "Sun", "time": "Closed"}], "id": "9739100007", "name": "USPS COLLECTION BOX - PO LOBBY", "address": {"city": "TOLEDO", "state": "OR", "street": "147 NW 1ST ST", "postcode": "97391"}}},
{"geometry": {"type": "Point", "coordinates": [-122.9555884539, 44.8502207376]}, "type": "Feature", "properties": {"collection_times": [{"days": "Mon-Fri", "time": "4:45pm"}, {"days": "Sat", "time": "8:00am"}, {"days": "Sun", "time": "Closed"}], "id": "9739200000", "name": "USPS COLLECTION BOX - BLUE BOX", "address": {"city": "TURNER", "state": "OR", "street": "7230 3RD ST SE", "postcode": "97392"}}},
{"geometry": {"type": "Point", "coordinates": [-122.9567482985, 44.8046575929]}, "type": "Feature", "properties": {"collection_times": [{"days": "Mon-Fri", "time": "4:45pm"}, {"days": "Sat", "time": "12:00pm"}, {"days": "Sun", "time": "Closed"}], "id": "9739200001", "name": "USPS COLLECTION BOX - PO LOBBY", "address": {"city": "TURNER", "state": "OR", "street": "7230 3RD ST SE", "postcode": "97392"}}},
{"geometry": {"type": "Point", "coordinates": [-124.0640686052, 44.4217887433]}, "type": "Feature", "properties": {"collection_times": [{"days": "Mon-Sat", "time": "2:15pm"}, {"days": "Sun", "time": "Closed"}], "id": "9739400000", "name": "USPS COLLECTION BOX - BLUE BOX", "address": {"city": "SEAL ROCK", "state": "OR", "street": "165 NW JOHN ST", "postcode": "97394"}}},
{"geometry": {"type": "Point", "coordinates": [-124.0640686052, 44.4217887433]}, "type": "Feature", "properties": {"collection_times": [{"days": "Mon-Fri", "time": "2:15pm"}, {"days": "Sat", "time": "9:00am"}, {"days": "Sun", "time": "Closed"}], "id": "9739400001", "name": "USPS COLLECTION BOX - PO LOBBY", "address": {"city": "SEAL ROCK", "state": "OR", "street": "165 NW JOHN ST", "postcode": "97394"}}},
{"geometry": {"type": "Point", "coordinates": [-123.487637812, 45.0758288179]}, "type": "Feature", "properties": {"collection_times": [{"days": "Mon-Fri", "time": "3:45pm"}, {"days": "Sat", "time": "2:00pm"}, {"days": "Sun", "time": "Closed"}], "id": "9739600000", "name": "USPS COLLECTION BOX - BLUE BOX", "address": {"city": "WILLAMINA", "state": "OR", "street": "360 SW MAPLE ST", "postcode": "97396"}}},
{"geometry": {"type": "Point", "coordinates": [-123.4986269694, 45.0865094097]}, "type": "Feature", "properties": {"collection_times": [{"days": "Mon-Fri", "time": "3:45pm"}, {"days": "Sat-Sun", "time": "Closed"}], "id": "9739600001", "name": "USPS COLLECTION BOX - PO LOBBY", "address": {"city": "WILLAMINA", "state": "OR", "street": "360 SW MAPLE ST", "postcode": "97396"}}},
{"geometry": {"type": "Point", "coordinates": [-123.4986269694, 45.0865094097]}, "type": "Feature", "properties": {"collection_times": [{"days": "Mon-Fri", "time": "3:45pm"}, {"days": "Sat", "time": "2:00pm"}, {"days": "Sun", "time": "Closed"}], "id": "9739600002", "name": "USPS COLLECTION BOX - PO LOBBY", "address": {"city": "WILLAMINA", "state": "OR", "street": "360 SW MAPLE ST", "postcode": "97396"}}},
{"geometry": {"type": "Point", "coordinates": [-123.487637812, 45.0758288179]}, "type": "Feature", "properties": {"collection_times": [{"days": "Mon-Fri", "time": "3:45pm"}, {"days": "Sat", "time": "2:00pm"}, {"days": "Sun", "time": "Closed"}], "id": "9739600003", "name": "USPS COLLECTION BOX - BLUE BOX", "address": {"city": "WILLAMINA", "state": "OR", "street": "360 SW MAPLE ST", "postcode": "97396"}}},
{"geometry": {"type": "Point", "coordinates": [-123.4986269694, 45.0865094097]}, "type": "Feature", "properties": {"collection_times": [{"days": "Mon-Fri", "time": "3:45pm"}, {"days": "Sat-Sun", "time": "Closed"}], "id": "9739600004", "name": "USPS COLLECTION BOX - PO LOBBY", "address": {"city": "WILLAMINA", "state": "OR", "street": "360 SW MAPLE ST", "postcode": "97396"}}}
]}
