{"type": "FeatureCollection", "features": [
{"geometry": {"type": "Point", "coordinates": [-123.0802687549, 44.0455365846]}, "type": "Feature", "properties": {"collection_times": [{"days": "Mon-Fri", "time": "2:00pm"}, {"days": "Sat-Sun", "time": "Closed"}], "id": "9740100000", "name": "USPS COLLECTION BOX - BLUE BOX", "address": {"city": "EUGENE", "state": "OR", "street": "1300 ALDER ST", "postcode": "97401"}}},
{"geometry": {"type": "Point", "coordinates": [-123.0786960359, 44.0465338584]}, "type": "Feature", "properties": {"collection_times": [{"days": "Mon-Fri", "time": "2:00pm"}, {"days": "Sat-Sun", "time": "Closed"}], "id": "9740100002", "name": "USPS COLLECTION BOX - BLUE BOX", "address": {"city": "EUGENE", "state": "OR", "street": "1200 KINCAID ST", "postcode": "97401"}}},
{"geometry": {"type": "Point", "coordinates": [-123.08815518, 44.0464162142]}, "type": "Feature", "properties": {"collection_times": [{"days": "Mon-Fri", "time": "2:45pm"}, {"days": "Sat-Sun", "time": "Closed"}], "id": "9740100008", "name": "USPS COLLECTION BOX - BLUE BOX", "address": {"city": "EUGENE", "state": "OR", "street": "1200 HIGH ST", "postcode": "97401"}}},
{"geometry": {"type": "Point", "coordinates": [-123.0927095721, 44.0507068064]}, "type": "Feature", "properties": {"collection_times": [{"days": "Mon-Fri", "time": "3:00pm"}, {"days": "Sat-Sun", "time": "Closed"}], "id": "9740100010", "name": "USPS COLLECTION BOX - BLUE BOX", "address": {"city": "EUGENE", "state": "OR", "street": "800 WILLAMETTE ST", "postcode": "97401"}}},
{"geometry": {"type": "Point", "coordinates": [-123.0988821375, 44.0509004642]}, "type": "Feature", "properties": {"collection_times": [{"days": "Mon-Sat", "time": "3:00pm"}, {"days": "Sun", "time": "Closed"}], "id": "9740100015", "name": "USPS COLLECTION BOX - BLUE BOX", "address": {"city": "EUGENE", "state": "OR", "street": "800 LAWRENCE ST", "postcode": "97401"}}},
{"geometry": {"type": "Point", "coordinates": [-123.0984114343, 44.0477529578]}, "type": "Feature", "properties": {"collection_times": [{"days": "Mon-Sat", "time": "3:00pm"}, {"days": "Sun", "time": "Closed"}], "id": "9740100016", "name": "USPS COLLECTION BOX - BLUE BOX", "address": {"city": "EUGENE", "state": "OR", "street": "390 W 11TH AVE", "postcode": "97401"}}},
{"geometry": {"type": "Point", "coordinates": [-123.0913058386, 44.0422225597]}, "type": "Feature", "properties": {"collection_times": [{"days": "Mon-Sat", "time": "3:00pm"}, {"days": "Sun", "time": "Closed"}], "id": "9740100020", "name": "USPS COLLECTION BOX - BLUE BOX", "address": {"city": "EUGENE", "state": "OR", "street": "1600 OAK ST", "postcode": "97401"}}},
{"geometry": {"type": "Point", "coordinates": [-123.0912927293, 44.0444254441]}, "type": "Feature", "properties": {"collection_times": [{"days": "Mon-Fri", "time": "3:00pm"}, {"days": "Sat-Sun", "time": "Closed"}], "id": "9740100021", "name": "USPS COLLECTION BOX - BLUE BOX", "address": {"city": "EUGENE", "state": "OR", "street": "1400 OAK ST", "postcode": "97401"}}},
{"geometry": {"type": "Point", "coordinates": [-123.0911634447, 44.0491251902]}, "type": "Feature", "properties": {"collection_times": [{"days": "Mon-Sat", "time": "3:00pm"}, {"days": "Sun", "time": "Closed"}], "id": "9740100022", "name": "USPS COLLECTION BOX - BLUE BOX", "address": {"city": "EUGENE", "state": "OR", "street": "975 OAK", "postcode": "97401"}}},
{"geometry": {"type": "Point", "coordinates": [-123.0928217201, 44.0433274272]}, "type": "Feature", "properties": {"collection_times": [{"days": "Mon-Sat", "time": "3:00pm"}, {"days": "Sun", "time": "Closed"}], "id": "9740100025", "name": "USPS COLLECTION BOX - BLUE BOX", "address": {"city": "EUGENE", "state": "OR", "street": "1500 WILLAMETTE ST", "postcode": "97401"}}},
{"geometry": {"type": "Point", "coordinates": [-123.0907593817, 44.0498959828]}, "type": "Feature", "properties": {"collection_times": [{"days": "Mon-Sat", "time": "3:00pm"}, {"days": "Sun", "time": "Closed"}], "id": "9740100027", "name": "USPS COLLECTION BOX - BLUE BOX", "address": {"city": "EUGENE", "state": "OR", "street": "132 E BROADWAY", "postcode": "97401"}}},
{"geometry": {"type": "Point", "coordinates": [-123.0881125935, 44.0515786471]}, "type": "Feature", "properties": {"collection_times": [{"days": "Mon-Fri", "time": "3:00pm"}, {"days": "Sat-Sun", "time": "Closed"}], "id": "9740100029", "name": "USPS COLLECTION BOX - BLUE BOX", "address": {"city": "EUGENE", "state": "OR", "street": "777 HIGH ST", "postcode": "97401"}}},
{"geometry": {"type": "Point", "coordinates": [-123.0737394043, 44.0658972118]}, "type": "Feature", "properties": {"collection_times": [{"days": "Mon-Fri", "time": "1:45pm"}, {"days": "Sat", "time": "12:30pm"}, {"days": "Sun", "time": "Closed"}], "id": "9740100030", "name": "USPS COLLECTION BOX - BLUE BOX", "address": {"city": "EUGENE", "state": "OR", "street": "311 COBURG RD", "postcode": "97401"}}},
{"geometry": {"type": "Point", "coordinates": [-123.0743606955, 44.0668388178]}, "type": "Feature", "properties": {"collection_times": [{"days": "Mon-Fri", "time": "3:00pm"}, {"days": "Sat-Sun", "time": "Closed"}], "id": "9740100031", "name": "USPS COLLECTION BOX - BLUE BOX", "address": {"city": "EUGENE", "state": "OR", "street": "2300 OAKMONT WAY", "postcode": "97401"}}},
{"geometry": {"type": "Point", "coordinates": [-123.0743606955, 44.0668388178]}, "type": "Feature", "properties": {"collection_times": [{"days": "Mon-Fri", "time": "3:00pm"}, {"days": "Sat-Sun", "time": "Closed"}], "id": "9740100032", "name": "USPS COLLECTION BOX - BLUE BOX", "address": {"city": "EUGENE", "state": "OR", "street": "2300 OAKMONT WAY", "postcode": "97401"}}},
{"geometry": {"type": "Point", "coordinates": [-123.0743606955, 44.0668388178]}, "type": "Feature", "properties": {"collection_times": [{"days": "Mon-Fri", "time": "3:00pm"}, {"days": "Sat-Sun", "time": "Closed"}], "id": "9740100033", "name": "USPS COLLECTION BOX - BLUE BOX", "address": {"city": "EUGENE", "state": "OR", "street": "2300 OAKMONT WAY", "postcode": "97401"}}},
{"geometry": {"type": "Point", "coordinates": [-123.0785069667, 44.0611901887]}, "type": "Feature", "properties": {"collection_times": [{"days": "Mon-Fri", "time": "3:00pm"}, {"days": "Sat-Sun", "time": "Closed"}], "id": "9740100034", "name": "USPS COLLECTION BOX - BLUE BOX", "address": {"city": "EUGENE", "state": "OR", "street": "2149 CENTENNIAL LOOP PLZ", "postcode": "97401"}}},
{"geometry": {"type": "Point", "coordinates": [-123.0785069667, 44.0611901887]}, "type": "Feature", "properties": {"collection_times": [{"days": "Mon-Fri", "time": "3:00pm"}, {"days": "Sat-Sun", "time": "Closed"}], "id": "9740100035", "name": "USPS COLLECTION BOX - BLUE BOX", "address": {"city": "EUGENE", "state": "OR", "street": "2149 CENTENNIAL LOOP PLZ", "postcode": "97401"}}},
{"geometry": {"type": "Point", "coordinates": [-123.0682492835, 44.0796722341]}, "type": "Feature", "properties": {"collection_times": [{"days": "Mon-Fri", "time": "3:00pm"}, {"days": "Sat", "time": "12:15pm"}, {"days": "Sun", "time": "Closed"}], "id": "9740100037", "name": "USPS COLLECTION BOX - BLUE BOX", "address": {"city": "EUGENE", "state": "OR", "street": "1560 COBURG RD", "postcode": "97401"}}},
{"geometry": {"type": "Point", "coordinates": [-123.0895929854, 44.0472380156]}, "type": "Feature", "properties": {"collection_times": [{"days": "Mon-Fri", "time": "3:00pm"}, {"days": "Sat", "time": "2:00pm"}, {"days": "Sun", "time": "Closed"}], "id": "9740100040", "name": "USPS COLLECTION BOX - BLUE BOX", "address": {"city": "EUGENE", "state": "OR", "street": "1145 PEARL ST", "postcode": "97401"}}},
{"geometry": {"type": "Point", "coordinates": [-123.0943648981, 44.0466057034]}, "type": "Feature", "properties": {"collection_times": [{"days": "Mon-Fri", "time": "3:00pm"}, {"days": "Sat-Sun", "time": "Closed"}], "id": "9740100043", "name": "USPS COLLECTION BOX - BLUE BOX", "address": {"city": "EUGENE", "state": "OR", "street": "1190 OLIVE ST", "postcode": "97401"}}},
{"geometry": {"type": "Point", "coordinates": [-123.1100777756, 44.0711116655]}, "type": "Feature", "properties": {"collection_times": [{"days": "Mon-Fri", "time": "3:00pm"}, {"days": "Sat-Sun", "time": "Closed"}], "id": "9740100045", "name": "USPS COLLECTION BOX - BLUE BOX", "address": {"city": "EUGENE", "state": "OR", "street": "1650 VALLEY RIVER DR", "postcode": "97401"}}},
{"geometry": {"type": "Point", "coordinates": [-123.1111223312, 44.0684711498]}, "type": "Feature", "properties": {"collection_times": [{"days": "Mon-Fri", "time": "3:00pm"}, {"days": "Sat", "time": "2:45pm"}, {"days": "Sun", "time": "Closed"}], "id": "9740100046", "name": "USPS COLLECTION BOX - BLUE BOX", "address": {"city": "EUGENE", "state": "OR", "street": "1200 EXECUTIVE PKWY", "postcode": "97401"}}},
{"geometry": {"type": "Point", "coordinates": [-123.1111223312, 44.0684711498]}, "type": "Feature", "properties": {"collection_times": [{"days": "Mon-Fri", "time": "3:00pm"}, {"days": "Sat", "time": "2:45pm"}, {"days": "Sun", "time": "Closed"}], "id": "9740100047", "name": "USPS COLLECTION BOX - BLUE BOX", "address": {"city": "EUGENE", "state": "OR", "street": "1200 EXECUTIVE PKWY", "postcode": "97401"}}},
{"geometry": {"type": "Point", "coordinates": [-123.1111223312, 44.0684711498]}, "type": "Feature", "properties": {"collection_times": [{"days": "Mon-Fri", "time": "3:00pm"}, {"days": "Sat", "time": "2:45pm"}, {"days": "Sun", "time": "Closed"}], "id": "9740100048", "name": "USPS COLLECTION BOX - BLUE BOX", "address": {"city": "EUGENE", "state": "OR", "street": "1200 EXECUTIVE PKWY", "postcode": "97401"}}},
{"geometry": {"type": "Point", "coordinates": [-123.1111223312, 44.0684711498]}, "type": "Feature", "properties": {"collection_times": [{"days": "Mon-Fri", "time": "3:00pm"}, {"days": "Sat", "time": "2:45pm"}, {"days": "Sun", "time": "Closed"}], "id": "9740100049", "name": "USPS COLLECTION BOX - BLUE BOX", "address": {"city": "EUGENE", "state": "OR", "street": "1200 EXECUTIVE PKWY", "postcode": "97401"}}},
{"geometry": {"type": "Point", "coordinates": [-123.1005754737, 44.0719551804]}, "type": "Feature", "properties": {"collection_times": [{"days": "Mon-Fri", "time": "3:00pm"}, {"days": "Sat-Sun", "time": "Closed"}], "id": "9740100054", "name": "USPS COLLECTION BOX - BLUE BOX", "address": {"city": "EUGENE", "state": "OR", "street": "1144 WILLAGILLESPIE RD", "postcode": "97401"}}},
{"geometry": {"type": "Point", "coordinates": [-123.0967848657, 44.0664354288]}, "type": "Feature", "properties": {"collection_times": [{"days": "Mon-Fri", "time": "2:15pm"}, {"days": "Sat-Sun", "time": "Closed"}], "id": "9740100058", "name": "USPS COLLECTION BOX - BLUE BOX", "address": {"city": "EUGENE", "state": "OR", "street": "927 COUNTRY CLUB RD", "postcode": "97401"}}},
{"geometry": {"type": "Point", "coordinates": [-123.092799199, 44.0541020099]}, "type": "Feature", "properties": {"collection_times": [{"days": "Mon-Fri", "time": "5:00pm"}, {"days": "Sat", "time": "3:00pm"}, {"days": "Sun", "time": "Closed"}], "id": "9740100062", "name": "USPS COLLECTION BOX - BLUE BOX", "address": {"city": "EUGENE", "state": "OR", "street": "520 WILLAMETTE ST", "postcode": "97401"}}},
{"geometry": {"type": "Point", "coordinates": [-123.092799199, 44.0541020099]}, "type": "Feature", "properties": {"collection_times": [{"days": "Mon-Fri", "time": "5:00pm"}, {"days": "Sat", "time": "3:00pm"}, {"days": "Sun", "time": "Closed"}], "id": "9740100063", "name": "USPS COLLECTION BOX - BLUE BOX", "address": {"city": "EUGENE", "state": "OR", "street": "520 WILLAMETTE ST", "postcode": "97401"}}},
{"geometry": {"type": "Point", "coordinates": [-123.0943292339, 44.0542944093]}, "type": "Feature", "properties": {"collection_times": [{"days": "Mon-Fri", "time": "5:00pm"}, {"days": "Sat", "time": "3:00pm"}, {"days": "Sun", "time": "Closed"}], "id": "9740100064", "name": "USPS COLLECTION BOX - BLUE BOX", "address": {"city": "EUGENE", "state": "OR", "street": "500 OLIVE ST", "postcode": "97401"}}},
{"geometry": {"type": "Point", "coordinates": [-123.0943292339, 44.0542944093]}, "type": "Feature", "properties": {"collection_times": [{"days": "Mon-Fri", "time": "5:00pm"}, {"days": "Sat", "time": "3:00pm"}, {"days": "Sun", "time": "Closed"}], "id": "9740100065", "name": "USPS COLLECTION BOX - BLUE BOX", "address": {"city": "EUGENE", "state": "OR", "street": "500 OLIVE ST", "postcode": "97401"}}},
{"geometry": {"type": "Point", "coordinates": [-123.0913058382, 44.0422225599]}, "type": "Feature", "properties": {"collection_times": [{"days": "Mon-Sat", "time": "3:00pm"}, {"days": "Sun", "time": "Closed"}], "id": "9740100076", "name": "USPS COLLECTION BOX - BLUE BOX", "address": {"city": "EUGENE", "state": "OR", "street": "1600 OAK ST", "postcode": "97401"}}},
{"geometry": {"type": "Point", "coordinates": [-123.0913058382, 44.0422225599]}, "type": "Feature", "properties": {"collection_times": [{"days": "Mon-Sat", "time": "3:00pm"}, {"days": "Sun", "time": "Closed"}], "id": "9740100077", "name": "USPS COLLECTION BOX - BLUE BOX", "address": {"city": "EUGENE", "state": "OR", "street": "1600 OAK ST", "postcode": "97401"}}},
{"geometry": {"type": "Point", "coordinates": [-123.0913058382, 44.0422225599]}, "type": "Feature", "properties": {"collection_times": [{"days": "Mon-Sat", "time": "3:00pm"}, {"days": "Sun", "time": "Closed"}], "id": "9740100078", "name": "USPS COLLECTION BOX - BLUE BOX", "address": {"city": "EUGENE", "state": "OR", "street": "1600 OAK ST", "postcode": "97401"}}},
{"geometry": {"type": "Point", "coordinates": [-123.0895929854, 44.0472380156]}, "type": "Feature", "properties": {"collection_times": [{"days": "Mon-Fri", "time": "3:00pm"}, {"days": "Sat", "time": "2:00pm"}, {"days": "Sun", "time": "Closed"}], "id": "9740100080", "name": "USPS COLLECTION BOX - BLUE BOX", "address": {"city": "EUGENE", "state": "OR", "street": "1145 PEARL ST", "postcode": "97401"}}},
{"geometry": {"type": "Point", "coordinates": [-123.0785069667, 44.0611901887]}, "type": "Feature", "properties": {"collection_times": [{"days": "Mon-Fri", "time": "3:00pm"}, {"days": "Sat-Sun", "time": "Closed"}], "id": "9740100081", "name": "USPS COLLECTION BOX - BLUE BOX", "address": {"city": "EUGENE", "state": "OR", "street": "2149 CENTENNIAL LOOP PLZ", "postcode": "97401"}}},
{"geometry": {"type": "Point", "coordinates": [-123.0943292339, 44.0542944093]}, "type": "Feature", "properties": {"collection_times": [{"days": "Mon-Fri", "time": "5:00pm"}, {"days": "Sat", "time": "3:00pm"}, {"days": "Sun", "time": "Closed"}], "id": "9740100082", "name": "USPS COLLECTION BOX - BLUE BOX", "address": {"city": "EUGENE", "state": "OR", "street": "500 OLIVE ST", "postcode": "97401"}}},
{"geometry": {"type": "Point", "coordinates": [-123.092799199, 44.0541020099]}, "type": "Feature", "properties": {"collection_times": [{"days": "Mon-Fri", "time": "5:00pm"}, {"days": "Sat", "time": "3:00pm"}, {"days": "Sun", "time": "Closed"}], "id": "9740100083", "name": "USPS COLLECTION BOX - BLUE BOX", "address": {"city": "EUGENE", "state": "OR", "street": "520 WILLAMETTE ST", "postcode": "97401"}}},
{"geometry": {"type": "Point", "coordinates": [-123.0837267393, 44.0622004331]}, "type": "Feature", "properties": {"collection_times": [{"days": "Mon-Sat", "time": "3:00pm"}, {"days": "Sun", "time": "Closed"}], "id": "9740100084", "name": "USPS COLLECTION BOX - EXPRESS", "address": {"city": "EUGENE", "state": "OR", "street": "520 WILLAMETTE ST", "postcode": "97401"}}},
{"geometry": {"type": "Point", "coordinates": [-123.0837267393, 44.0622004331]}, "type": "Feature", "properties": {"collection_times": [{"days": "Mon-Fri", "time": "3:00pm"}, {"days": "Sat-Sun", "time": "Closed"}], "id": "9740100091", "name": "USPS COLLECTION BOX - EXPRESS", "address": {"city": "EUGENE", "state": "OR", "street": "1200 EXECUTIVE PKWY", "postcode": "97401"}}},
{"geometry": {"type": "Point", "coordinates": [-123.0881125935, 44.0515786471]}, "type": "Feature", "properties": {"collection_times": [{"days": "Mon-Fri", "time": "3:00pm"}, {"days": "Sat-Sun", "time": "Closed"}], "id": "9740100092", "name": "USPS COLLECTION BOX - BLUE BOX", "address": {"city": "EUGENE", "state": "OR", "street": "777 HIGH ST", "postcode": "97401"}}},
{"geometry": {"type": "Point", "coordinates": [-123.0911634447, 44.0491251902]}, "type": "Feature", "properties": {"collection_times": [{"days": "Mon-Sat", "time": "3:00pm"}, {"days": "Sun", "time": "Closed"}], "id": "9740100093", "name": "USPS COLLECTION BOX - BLUE BOX", "address": {"city": "EUGENE", "state": "OR", "street": "975 OAK", "postcode": "97401"}}},
{"geometry": {"type": "Point", "coordinates": [-123.0911634447, 44.0491251902]}, "type": "Feature", "properties": {"collection_times": [{"days": "Mon-Sat", "time": "3:00pm"}, {"days": "Sun", "time": "Closed"}], "id": "9740100095", "name": "USPS COLLECTION BOX - BLUE BOX", "address": {"city": "EUGENE", "state": "OR", "street": "975 OAK", "postcode": "97401"}}},
{"geometry": {"type": "Point", "coordinates": [-123.0837267393, 44.0622004331]}, "type": "Feature", "properties": {"collection_times": [{"days": "Mon-Fri", "time": "3:00pm"}, {"days": "Sat-Sun", "time": "Closed"}], "id": "9740100096", "name": "USPS COLLECTION BOX - EXPRESS", "address": {"city": "EUGENE", "state": "OR", "street": "975 OAK", "postcode": "97401"}}},
{"geometry": {"type": "Point", "coordinates": [-123.1100777756, 44.0711116655]}, "type": "Feature", "properties": {"collection_times": [{"days": "Mon-Fri", "time": "3:00pm"}, {"days": "Sat-Sun", "time": "Closed"}], "id": "9740100099", "name": "USPS COLLECTION BOX - BLUE BOX", "address": {"city": "EUGENE", "state": "OR", "street": "1650 VALLEY RIVER DR", "postcode": "97401"}}},
{"geometry": {"type": "Point", "coordinates": [-123.1100777756, 44.0711116655]}, "type": "Feature", "properties": {"collection_times": [{"days": "Mon-Fri", "time": "3:00pm"}, {"days": "Sat-Sun", "time": "Closed"}], "id": "9740100100", "name": "USPS COLLECTION BOX - BLUE BOX", "address": {"city": "EUGENE", "state": "OR", "street": "1650 VALLEY RIVER DR", "postcode": "97401"}}},
{"geometry": {"type": "Point", "coordinates": [-123.0984114343, 44.0477529578]}, "type": "Feature", "properties": {"collection_times": [{"days": "Mon-Sat", "time": "3:00pm"}, {"days": "Sun", "time": "Closed"}], "id": "9740100113", "name": "USPS COLLECTION BOX - BLUE BOX", "address": {"city": "EUGENE", "state": "OR", "street": "390 W 11TH AVE", "postcode": "97401"}}},
{"geometry": {"type": "Point", "coordinates": [-123.0785069667, 44.0611901887]}, "type": "Feature", "properties": {"collection_times": [{"days": "Mon-Fri", "time": "3:00pm"}, {"days": "Sat-Sun", "time": "Closed"}], "id": "9740100114", "name": "USPS COLLECTION BOX - BLUE BOX", "address": {"city": "EUGENE", "state": "OR", "street": "2149 CENTENNIAL LOOP PLZ", "postcode": "97401"}}},
{"geometry": {"type": "Point", "coordinates": [-123.085267326, 44.0477060794]}, "type": "Feature", "properties": {"collection_times": [{"days": "Mon-Fri", "time": "2:45pm"}, {"days": "Sat", "time": "2:00pm"}, {"days": "Sun", "time": "Closed"}], "id": "9740100116", "name": "USPS COLLECTION BOX - BLUE BOX", "address": {"city": "EUGENE", "state": "OR", "street": "1100 FERRY FRY", "postcode": "97401"}}},
{"geometry": {"type": "Point", "coordinates": [-123.0880595483, 44.0491442836]}, "type": "Feature", "properties": {"collection_times": [{"days": "Mon-Fri", "time": "3:00pm"}, {"days": "Sat-Sun", "time": "Closed"}], "id": "9740100117", "name": "USPS COLLECTION BOX - BLUE BOX", "address": {"city": "EUGENE", "state": "OR", "street": "975 HIGH ST", "postcode": "97401"}}},
{"geometry": {"type": "Point", "coordinates": [-123.089758351, 44.0510461703]}, "type": "Feature", "properties": {"collection_times": [{"days": "Mon-Fri", "time": "3:00pm"}, {"days": "Sat-Sun", "time": "Closed"}], "id": "9740100119", "name": "USPS COLLECTION BOX - BLUE BOX", "address": {"city": "EUGENE", "state": "OR", "street": "800 PEARL ST", "postcode": "97401"}}},
{"geometry": {"type": "Point", "coordinates": [-123.0927095721, 44.0507068064]}, "type": "Feature", "properties": {"collection_times": [{"days": "Mon-Fri", "time": "3:00pm"}, {"days": "Sat-Sun", "time": "Closed"}], "id": "9740100120", "name": "USPS COLLECTION BOX - BLUE BOX", "address": {"city": "EUGENE", "state": "OR", "street": "800 WILLAMETTE ST", "postcode": "97401"}}},
{"geometry": {"type": "Point", "coordinates": [-123.0953503228, 44.0532172969]}, "type": "Feature", "properties": {"collection_times": [{"days": "Mon-Fri", "time": "3:00pm"}, {"days": "Sat-Sun", "time": "Closed"}], "id": "9740100123", "name": "USPS COLLECTION BOX - BLUE BOX", "address": {"city": "EUGENE", "state": "OR", "street": "168 W 6TH AVE", "postcode": "97401"}}},
{"geometry": {"type": "Point", "coordinates": [-123.0906405768, 44.0499568104]}, "type": "Feature", "properties": {"collection_times": [{"days": "Mon-Sat", "time": "3:00pm"}, {"days": "Sun", "time": "Closed"}], "id": "9740100128", "name": "USPS COLLECTION BOX - BLUE BOX", "address": {"city": "EUGENE", "state": "OR", "street": "132 E BROADWAY", "postcode": "97401"}}},
{"geometry": {"type": "Point", "coordinates": [-123.0682492835, 44.0796722341]}, "type": "Feature", "properties": {"collection_times": [{"days": "Mon-Fri", "time": "3:00pm"}, {"days": "Sat", "time": "12:15pm"}, {"days": "Sun", "time": "Closed"}], "id": "9740100129", "name": "USPS COLLECTION BOX - BLUE BOX", "address": {"city": "EUGENE", "state": "OR", "street": "1560 COBURG RD", "postcode": "97401"}}},
{"geometry": {"type": "Point", "coordinates": [-123.08815518, 44.0464162142]}, "type": "Feature", "properties": {"collection_times": [{"days": "Mon-Fri", "time": "2:45pm"}, {"days": "Sat-Sun", "time": "Closed"}], "id": "9740100131", "name": "USPS COLLECTION BOX - BLUE BOX", "address": {"city": "EUGENE", "state": "OR", "street": "1200 HIGH ST", "postcode": "97401"}}},
{"geometry": {"type": "Point", "coordinates": [-123.0943648981, 44.0466057034]}, "type": "Feature", "properties": {"collection_times": [{"days": "Mon-Fri", "time": "3:00pm"}, {"days": "Sat-Sun", "time": "Closed"}], "id": "9740100134", "name": "USPS COLLECTION BOX - BLUE BOX", "address": {"city": "EUGENE", "state": "OR", "street": "1190 OLIVE ST", "postcode": "97401"}}},
{"geometry": {"type": "Point", "coordinates": [-123.0895929854, 44.0472380156]}, "type": "Feature", "properties": {"collection_times": [{"days": "Mon-Fri", "time": "3:00pm"}, {"days": "Sat", "time": "2:00pm"}, {"days": "Sun", "time": "Closed"}], "id": "9740100135", "name": "USPS COLLECTION BOX - BLUE BOX", "address": {"city": "EUGENE", "state": "OR", "street": "1145 PEARL ST", "postcode": "97401"}}},
{"geometry": {"type": "Point", "coordinates": [-123.0897547516, 44.0517856905]}, "type": "Feature", "properties": {"collection_times": [{"days": "Mon-Fri", "time": "3:00pm"}, {"days": "Sat-Sun", "time": "Closed"}], "id": "9740100136", "name": "USPS COLLECTION BOX - BLUE BOX", "address": {"city": "EUGENE", "state": "OR", "street": "700 PEARL ST", "postcode": "97401"}}},
{"geometry": {"type": "Point", "coordinates": [-123.0815980385, 44.0477553237]}, "type": "Feature", "properties": {"collection_times": [{"days": "Mon-Fri", "time": "2:00pm"}, {"days": "Sat-Sun", "time": "Closed"}], "id": "9740100139", "name": "USPS COLLECTION BOX - BLUE BOX", "address": {"city": "EUGENE", "state": "OR", "street": "722 E 11TH AVE", "postcode": "97401"}}},
{"geometry": {"type": "Point", "coordinates": [-123.0815980385, 44.0477553237]}, "type": "Feature", "properties": {"collection_times": [{"days": "Mon-Fri", "time": "2:00pm"}, {"days": "Sat-Sun", "time": "Closed"}], "id": "9740100140", "name": "USPS COLLECTION BOX - BLUE BOX", "address": {"city": "EUGENE", "state": "OR", "street": "722 E 11TH AVE", "postcode": "97401"}}},
{"geometry": {"type": "Point", "coordinates": [-123.0821043449, 44.0461181085]}, "type": "Feature", "properties": {"collection_times": [{"days": "Mon-Fri", "time": "3:00pm"}, {"days": "Sat", "time": "1:45pm"}, {"days": "Sun", "time": "Closed"}], "id": "9740100141", "name": "USPS COLLECTION BOX - BLUE BOX", "address": {"city": "EUGENE", "state": "OR", "street": "1200 HILYARD ST", "postcode": "97401"}}},
{"geometry": {"type": "Point", "coordinates": [-123.0821043449, 44.0461181085]}, "type": "Feature", "properties": {"collection_times": [{"days": "Mon-Fri", "time": "3:00pm"}, {"days": "Sat", "time": "1:45pm"}, {"days": "Sun", "time": "Closed"}], "id": "9740100142", "name": "USPS COLLECTION BOX - BLUE BOX", "address": {"city": "EUGENE", "state": "OR", "street": "1200 HILYARD ST", "postcode": "97401"}}},
{"geometry": {"type": "Point", "coordinates": [-123.0837267393, 44.0622004331]}, "type": "Feature", "properties": {"collection_times": [{"days": "Mon-Fri", "time": "3:00pm"}, {"days": "Sat-Sun", "time": "Closed"}], "id": "9740100149", "name": "USPS COLLECTION BOX - EXPRESS", "address": {"city": "EUGENE", "state": "OR", "street": "500 COUNTRY CLUB PKWY", "postcode": "97401"}}},
{"geometry": {"type": "Point", "coordinates": [-123.0916187498, 44.0630770822]}, "type": "Feature", "properties": {"collection_times": [{"days": "Mon-Fri", "time": "3:00pm"}, {"days": "Sat-Sun", "time": "Closed"}], "id": "9740100150", "name": "USPS COLLECTION BOX - BLUE BOX", "address": {"city": "EUGENE", "state": "OR", "street": "500 COUNTRY CLUB PKWY", "postcode": "97401"}}},
{"geometry": {"type": "Point", "coordinates": [-123.0916187498, 44.0630770822]}, "type": "Feature", "properties": {"collection_times": [{"days": "Mon-Fri", "time": "3:00pm"}, {"days": "Sat-Sun", "time": "Closed"}], "id": "9740100151", "name": "USPS COLLECTION BOX - BLUE BOX", "address": {"city": "EUGENE", "state": "OR", "street": "500 COUNTRY CLUB PKWY", "postcode": "97401"}}},
{"geometry": {"type": "Point", "coordinates": [-123.0837267393, 44.0622004331]}, "type": "Feature", "properties": {"collection_times": [{"days": "Mon-Fri", "time": "3:00pm"}, {"days": "Sat-Sun", "time": "Closed"}], "id": "9740100152", "name": "USPS COLLECTION BOX - BLUE BOX", "address": {"city": "EUGENE", "state": "OR", "street": "500 COUNTRY CLUB PKWY", "postcode": "97401"}}},
{"geometry": {"type": "Point", "coordinates": [-123.1050358711, 44.0880554915]}, "type": "Feature", "properties": {"collection_times": [{"days": "Mon-Fri", "time": "3:00pm"}, {"days": "Sat-Sun", "time": "Closed"}], "id": "9740100155", "name": "USPS COLLECTION BOX - BLUE BOX", "address": {"city": "EUGENE", "state": "OR", "street": "4730 VILLAGE PLAZA LOOP", "postcode": "97401"}}},
{"geometry": {"type": "Point", "coordinates": [-123.0958374855, 44.0492397304]}, "type": "Feature", "properties": {"collection_times": [{"days": "Mon-Fri", "time": "3:00pm"}, {"days": "Sat-Sun", "time": "Closed"}], "id": "9740100156", "name": "USPS COLLECTION BOX - BLUE BOX", "address": {"city": "EUGENE", "state": "OR", "street": "960 CHARNELTON ST", "postcode": "97401"}}},
{"geometry": {"type": "Point", "coordinates": [-123.0817154794, 44.0680901604]}, "type": "Feature", "properties": {"collection_times": [{"days": "Mon-Fri", "time": "3:00pm"}, {"days": "Sat", "time": "11:30am"}, {"days": "Sun", "time": "Closed"}], "id": "9740100160", "name": "USPS COLLECTION BOX - BLUE BOX", "address": {"city": "EUGENE", "state": "OR", "street": "20448 HWY 36", "postcode": "97401"}}},
{"geometry": {"type": "Point", "coordinates": [-123.0865433425, 44.0562695448]}, "type": "Feature", "properties": {"collection_times": [{"days": "Mon-Fri", "time": "3:00pm"}, {"days": "Sat-Sun", "time": "Closed"}], "id": "9740100162", "name": "USPS COLLECTION BOX - BLUE BOX", "address": {"city": "EUGENE", "state": "OR", "street": "321 MILL ST", "postcode": "97401"}}},
{"geometry": {"type": "Point", "coordinates": [-123.092799199, 44.0541020099]}, "type": "Feature", "properties": {"collection_times": [{"days": "Mon-Fri", "time": "3:00pm"}, {"days": "Sat", "time": "2:00pm"}, {"days": "Sun", "time": "Closed"}], "id": "9740100163", "name": "USPS COLLECTION BOX - APC", "address": {"city": "EUGENE", "state": "OR", "street": "520 WILLAMETTE ST", "postcode": "97401"}}},
{"geometry": {"type": "Point", "coordinates": [-123.1242581457, 44.0522624842]}, "type": "Feature", "properties": {"collection_times": [{"days": "Mon-Fri", "time": "2:30pm"}, {"days": "Sat", "time": "3:00pm"}, {"days": "Sun", "time": "Closed"}], "id": "9740200002", "name": "USPS COLLECTION BOX - BLUE BOX", "address": {"city": "EUGENE", "state": "OR", "street": "2125 W 7TH AVE", "postcode": "97402"}}},
{"geometry": {"type": "Point", "coordinates": [-123.1512090197, 44.0633909646]}, "type": "Feature", "properties": {"collection_times": [{"days": "Mon-Fri", "time": "5:00pm"}, {"days": "Sat", "time": "3:00pm"}, {"days": "Sun", "time": "Closed"}], "id": "9740200003", "name": "USPS COLLECTION BOX - BLUE BOX", "address": {"city": "EUGENE", "state": "OR", "street": "950 TYINN ST", "postcode": "97402"}}},
{"geometry": {"type": "Point", "coordinates": [-123.1512090197, 44.0633909646]}, "type": "Feature", "properties": {"collection_times": [{"days": "Mon-Fri", "time": "5:00pm"}, {"days": "Sat", "time": "3:00pm"}, {"days": "Sun", "time": "Closed"}], "id": "9740200005", "name": "USPS COLLECTION BOX - BLUE BOX", "address": {"city": "EUGENE", "state": "OR", "street": "950 TYINN ST", "postcode": "97402"}}},
{"geometry": {"type": "Point", "coordinates": [-123.1426948856, 44.0480600269]}, "type": "Feature", "properties": {"collection_times": [{"days": "Mon-Sat", "time": "3:00pm"}, {"days": "Sun", "time": "Closed"}], "id": "9740200006", "name": "USPS COLLECTION BOX - BLUE BOX", "address": {"city": "EUGENE", "state": "OR", "street": "3333 W 11TH AVE", "postcode": "97402"}}},
{"geometry": {"type": "Point", "coordinates": [-123.129265, 44.04783]}, "type": "Feature", "properties": {"collection_times": [{"days": "Mon-Fri", "time": "2:45pm"}, {"days": "Sat-Sun", "time": "Closed"}], "id": "9740200008", "name": "USPS COLLECTION BOX - BLUE BOX", "address": {"city": "EUGENE", "state": "OR", "street": "2370 W 11TH AVE", "postcode": "97402"}}},
{"geometry": {"type": "Point", "coordinates": [-123.1512090197, 44.0633909646]}, "type": "Feature", "properties": {"collection_times": [{"days": "Mon-Sat", "time": "3:00pm"}, {"days": "Sun", "time": "Closed"}], "id": "9740200014", "name": "USPS COLLECTION BOX - EXPRESS", "address": {"city": "EUGENE", "state": "OR", "street": "950 TYINN ST", "postcode": "97402"}}},
{"geometry": {"type": "Point", "coordinates": [-123.1426948856, 44.0480600269]}, "type": "Feature", "properties": {"collection_times": [{"days": "Mon-Sat", "time": "3:00pm"}, {"days": "Sun", "time": "Closed"}], "id": "9740200020", "name": "USPS COLLECTION BOX - BLUE BOX", "address": {"city": "EUGENE", "state": "OR", "street": "3333 W 11TH AVE", "postcode": "97402"}}},
{"geometry": {"type": "Point", "coordinates": [-123.1051439192, 44.0512886217]}, "type": "Feature", "properties": {"collection_times": [{"days": "Mon-Sat", "time": "3:00pm"}, {"days": "Sun", "time": "Closed"}], "id": "9740200021", "name": "USPS COLLECTION BOX - BLUE BOX", "address": {"city": "EUGENE", "state": "OR", "street": "790 BLAIR BLVD", "postcode": "97402"}}},
{"geometry": {"type": "Point", "coordinates": [-123.1685620514, 44.0846596011]}, "type": "Feature", "properties": {"collection_times": [{"days": "Mon-Sat", "time": "3:00pm"}, {"days": "Sun", "time": "Closed"}], "id": "9740200042", "name": "USPS COLLECTION BOX - BLUE BOX", "address": {"city": "EUGENE", "state": "OR", "street": "4257 BARGER DR", "postcode": "97402"}}},
{"geometry": {"type": "Point", "coordinates": [-123.1512090197, 44.0633909646]}, "type": "Feature", "properties": {"collection_times": [{"days": "Mon-Sat", "time": "3:00pm"}, {"days": "Sun", "time": "Closed"}], "id": "9740200043", "name": "USPS COLLECTION BOX - BLUE BOX", "address": {"city": "EUGENE", "state": "OR", "street": "950 TYINN ST", "postcode": "97402"}}},
{"geometry": {"type": "Point", "coordinates": [-123.1178650734, 44.0413012089]}, "type": "Feature", "properties": {"collection_times": [{"days": "Mon-Fri", "time": "2:30pm"}, {"days": "Sat", "time": "1:00pm"}, {"days": "Sun", "time": "Closed"}], "id": "9740200046", "name": "USPS COLLECTION BOX - BLUE BOX", "address": {"city": "EUGENE", "state": "OR", "street": "1700 CHAMBERS ST", "postcode": "97402"}}},
{"geometry": {"type": "Point", "coordinates": [-123.1178650734, 44.0413012089]}, "type": "Feature", "properties": {"collection_times": [{"days": "Mon-Fri", "time": "2:30pm"}, {"days": "Sat", "time": "1:00pm"}, {"days": "Sun", "time": "Closed"}], "id": "9740200047", "name": "USPS COLLECTION BOX - BLUE BOX", "address": {"city": "EUGENE", "state": "OR", "street": "1700 CHAMBERS ST", "postcode": "97402"}}},
{"geometry": {"type": "Point", "coordinates": [-123.1512090197, 44.0633909646]}, "type": "Feature", "properties": {"collection_times": [{"days": "Mon-Sat", "time": "3:00pm"}, {"days": "Sun", "time": "Closed"}], "id": "9740200050", "name": "USPS COLLECTION BOX - PO LOBBY", "address": {"city": "EUGENE", "state": "OR", "street": "950 TYINN ST", "postcode": "97402"}}},
{"geometry": {"type": "Point", "coordinates": [-123.1512090197, 44.0633909646]}, "type": "Feature", "properties": {"collection_times": [{"days": "Mon-Sat", "time": "3:00pm"}, {"days": "Sun", "time": "Closed"}], "id": "9740200051", "name": "USPS COLLECTION BOX - APC", "address": {"city": "EUGENE", "state": "OR", "street": "950 TYINN ST", "postcode": "97402"}}},
{"geometry": {"type": "Point", "coordinates": [-123.146460622, 44.0738522111]}, "type": "Feature", "properties": {"collection_times": [{"days": "Mon-Fri", "time": "3:00pm"}, {"days": "Sat-Sun", "time": "Closed"}], "id": "9740200052", "name": "USPS COLLECTION BOX - BLUE BOX", "address": {"city": "EUGENE", "state": "OR", "street": "1136 HIGHWAY 99 N", "postcode": "97402"}}},
{"geometry": {"type": "Point", "coordinates": [-123.2099252099, 44.1211010476]}, "type": "Feature", "properties": {"collection_times": [{"days": "Mon-Sat", "time": "1:00pm"}, {"days": "Sun", "time": "Closed"}], "id": "9740200053", "name": "USPS COLLECTION BOX - BLUE BOX", "address": {"city": "EUGENE", "state": "OR", "street": "28855 LOCKHEED DR", "postcode": "97402"}}},
{"geometry": {"type": "Point", "coordinates": [-123.1579452632, 44.0482538333]}, "type": "Feature", "properties": {"collection_times": [{"days": "Mon-Sat", "time": "2:45pm"}, {"days": "Sun", "time": "Closed"}], "id": "9740200054", "name": "USPS COLLECTION BOX - BLUE BOX", "address": {"city": "EUGENE", "state": "OR", "street": "4065 W 11TH AVE", "postcode": "97402"}}},
{"geometry": {"type": "Point", "coordinates": [-123.0745899332, 44.0448196833]}, "type": "Feature", "properties": {"collection_times": [{"days": "Mon-Fri", "time": "3:00pm"}, {"days": "Sat", "time": "12:45pm"}, {"days": "Sun", "time": "Closed"}], "id": "9740300003", "name": "USPS COLLECTION BOX - BLUE BOX", "address": {"city": "EUGENE", "state": "OR", "street": "1222 E 13TH AVE", "postcode": "97403"}}},
{"geometry": {"type": "Point", "coordinates": [-123.0698278276, 44.0389687935]}, "type": "Feature", "properties": {"collection_times": [{"days": "Mon-Fri", "time": "2:15pm"}, {"days": "Sat-Sun", "time": "Closed"}], "id": "9740300011", "name": "USPS COLLECTION BOX - BLUE BOX", "address": {"city": "EUGENE", "state": "OR", "street": "1495 E 19TH AVE", "postcode": "97403"}}},
{"geometry": {"type": "Point", "coordinates": [-123.0695806814, 44.0431153819]}, "type": "Feature", "properties": {"collection_times": [{"days": "Mon-Fri", "time": "2:15pm"}, {"days": "Sat-Sun", "time": "Closed"}], "id": "9740300012", "name": "USPS COLLECTION BOX - BLUE BOX", "address": {"city": "EUGENE", "state": "OR", "street": "1515 AGATE ST", "postcode": "97403"}}},
{"geometry": {"type": "Point", "coordinates": [-123.0785356022, 44.0437983637]}, "type": "Feature", "properties": {"collection_times": [{"days": "Mon-Fri", "time": "2:00pm"}, {"days": "Sat-Sun", "time": "Closed"}], "id": "9740300013", "name": "USPS COLLECTION BOX - BLUE BOX", "address": {"city": "EUGENE", "state": "OR", "street": "1500 KINCAID ST", "postcode": "97403"}}},
{"geometry": {"type": "Point", "coordinates": [-123.1286834049, 44.0989103753]}, "type": "Feature", "properties": {"collection_times": [{"days": "Mon-Sat", "time": "3:00pm"}, {"days": "Sun", "time": "Closed"}], "id": "9740400001", "name": "USPS COLLECTION BOX - BLUE BOX", "address": {"city": "EUGENE", "state": "OR", "street": "60 DIVISION AVE", "postcode": "97404"}}},
{"geometry": {"type": "Point", "coordinates": [-123.1292547234, 44.0989419582]}, "type": "Feature", "properties": {"collection_times": [{"days": "Mon-Sat", "time": "3:00pm"}, {"days": "Sun", "time": "Closed"}], "id": "9740400002", "name": "USPS COLLECTION BOX - BLUE BOX", "address": {"city": "EUGENE", "state": "OR", "street": "45 DIVISION AVE", "postcode": "97404"}}},
{"geometry": {"type": "Point", "coordinates": [-123.1230221186, 44.0961168597]}, "type": "Feature", "properties": {"collection_times": [{"days": "Mon-Fri", "time": "5:00pm"}, {"days": "Sat", "time": "3:00pm"}, {"days": "Sun", "time": "Closed"}], "id": "9740400004", "name": "USPS COLLECTION BOX - BLUE BOX", "address": {"city": "EUGENE", "state": "OR", "street": "255 RIVER AVE", "postcode": "97404"}}},
{"geometry": {"type": "Point", "coordinates": [-123.1230221186, 44.0961168597]}, "type": "Feature", "properties": {"collection_times": [{"days": "Mon-Fri", "time": "5:00pm"}, {"days": "Sat", "time": "3:00pm"}, {"days": "Sun", "time": "Closed"}], "id": "9740400005", "name": "USPS COLLECTION BOX - BLUE BOX", "address": {"city": "EUGENE", "state": "OR", "street": "255 RIVER AVE", "postcode": "97404"}}},
{"geometry": {"type": "Point", "coordinates": [-123.1230221186, 44.0961168597]}, "type": "Feature", "properties": {"collection_times": [{"days": "Mon-Fri", "time": "5:00pm"}, {"days": "Sat", "time": "3:00pm"}, {"days": "Sun", "time": "Closed"}], "id": "9740400006", "name": "USPS COLLECTION BOX - BLUE BOX", "address": {"city": "EUGENE", "state": "OR", "street": "255 RIVER AVE", "postcode": "97404"}}},
{"geometry": {"type": "Point", "coordinates": [-123.1230221186, 44.0961168597]}, "type": "Feature", "properties": {"collection_times": [{"days": "Mon-Fri", "time": "5:00pm"}, {"days": "Sat", "time": "3:00pm"}, {"days": "Sun", "time": "Closed"}], "id": "9740400007", "name": "USPS COLLECTION BOX - BLUE BOX", "address": {"city": "EUGENE", "state": "OR", "street": "255 RIVER AVE", "postcode": "97404"}}},
{"geometry": {"type": "Point", "coordinates": [-123.1343286733, 44.1007927719]}, "type": "Feature", "properties": {"collection_times": [{"days": "Mon-Sat", "time": "3:00pm"}, {"days": "Sun", "time": "Closed"}], "id": "9740400008", "name": "USPS COLLECTION BOX - EXPRESS", "address": {"city": "EUGENE", "state": "OR", "street": "255 RIVER AVE", "postcode": "97404"}}},
{"geometry": {"type": "Point", "coordinates": [-123.1308777431, 44.1023607096]}, "type": "Feature", "properties": {"collection_times": [{"days": "Mon-Fri", "time": "3:00pm"}, {"days": "Sat-Sun", "time": "Closed"}], "id": "9740400011", "name": "USPS COLLECTION BOX - BLUE BOX", "address": {"city": "EUGENE", "state": "OR", "street": "2620 RIVER RD", "postcode": "97404"}}},
{"geometry": {"type": "Point", "coordinates": [-123.1343286733, 44.1007927719]}, "type": "Feature", "properties": {"collection_times": [{"days": "Mon-Sat", "time": "3:00pm"}, {"days": "Sun", "time": "Closed"}], "id": "9740400012", "name": "USPS COLLECTION BOX - PO LOBBY", "address": {"city": "EUGENE", "state": "OR", "street": "255 RIVER AVE", "postcode": "97404"}}},
{"geometry": {"type": "Point", "coordinates": [-123.1343286733, 44.1007927719]}, "type": "Feature", "properties": {"collection_times": [{"days": "Mon-Sat", "time": "3:00pm"}, {"days": "Sun", "time": "Closed"}], "id": "9740400013", "name": "USPS COLLECTION BOX - APC", "address": {"city": "EUGENE", "state": "OR", "street": "255 RIVER AVE", "postcode": "97404"}}},
{"geometry": {"type": "Point", "coordinates": [-123.0872796158, 44.0113441991]}, "type": "Feature", "properties": {"collection_times": [{"days": "Mon-Fri", "time": "3:00pm"}, {"days": "Sat", "time": "1:30pm"}, {"days": "Sun", "time": "Closed"}], "id": "9740500001", "name": "USPS COLLECTION BOX - BLUE BOX", "address": {"city": "EUGENE", "state": "OR", "street": "4000 DONALD ST", "postcode": "97405"}}},
{"geometry": {"type": "Point", "coordinates": [-123.0815034018, 44.0234467]}, "type": "Feature", "properties": {"collection_times": [{"days": "Mon-Fri", "time": "3:00pm"}, {"days": "Sat", "time": "1:45pm"}, {"days": "Sun", "time": "Closed"}], "id": "9740500003", "name": "USPS COLLECTION BOX - BLUE BOX", "address": {"city": "EUGENE", "state": "OR", "street": "3075 HILYARD ST", "postcode": "97405"}}},
{"geometry": {"type": "Point", "coordinates": [-123.0836847781, 44.0361670577]}, "type": "Feature", "properties": {"collection_times": [{"days": "Mon-Fri", "time": "3:00pm"}, {"days": "Sat", "time": "1:45pm"}, {"days": "Sun", "time": "Closed"}], "id": "9740500004", "name": "USPS COLLECTION BOX - BLUE BOX", "address": {"city": "EUGENE", "state": "OR", "street": "2055 PATTERSON ST", "postcode": "97405"}}},
{"geometry": {"type": "Point", "coordinates": [-123.0913320637, 44.0204822335]}, "type": "Feature", "properties": {"collection_times": [{"days": "Mon-Fri", "time": "5:00pm"}, {"days": "Sat", "time": "3:00pm"}, {"days": "Sun", "time": "Closed"}], "id": "9740500006", "name": "USPS COLLECTION BOX - BLUE BOX", "address": {"city": "EUGENE", "state": "OR", "street": "30 E 33RD AVE", "postcode": "97405"}}},
{"geometry": {"type": "Point", "coordinates": [-123.0913320637, 44.0204822335]}, "type": "Feature", "properties": {"collection_times": [{"days": "Mon-Fri", "time": "5:00pm"}, {"days": "Sat", "time": "3:00pm"}, {"days": "Sun", "time": "Closed"}], "id": "9740500007", "name": "USPS COLLECTION BOX - BLUE BOX", "address": {"city": "EUGENE", "state": "OR", "street": "30 E 33RD AVE", "postcode": "97405"}}},
{"geometry": {"type": "Point", "coordinates": [-123.101697682, 44.0175424666]}, "type": "Feature", "properties": {"collection_times": [{"days": "Mon-Fri", "time": "3:00pm"}, {"days": "Sat", "time": "1:00pm"}, {"days": "Sun", "time": "Closed"}], "id": "9740500013", "name": "USPS COLLECTION BOX - EXPRESS", "address": {"city": "EUGENE", "state": "OR", "street": "30 E 33RD AVE", "postcode": "97405"}}},
{"geometry": {"type": "Point", "coordinates": [-123.0920494809, 44.0202598085]}, "type": "Feature", "properties": {"collection_times": [{"days": "Mon-Sat", "time": "3:00pm"}, {"days": "Sun", "time": "Closed"}], "id": "9740500014", "name": "USPS COLLECTION BOX - PO LOBBY", "address": {"city": "EUGENE", "state": "OR", "street": "30 E 33RD AVE", "postcode": "97405"}}},
{"geometry": {"type": "Point", "coordinates": [-123.0913320637, 44.0204822335]}, "type": "Feature", "properties": {"collection_times": [{"days": "Mon-Fri", "time": "5:00pm"}, {"days": "Sat", "time": "3:00pm"}, {"days": "Sun", "time": "Closed"}], "id": "9740500016", "name": "USPS COLLECTION BOX - BLUE BOX", "address": {"city": "EUGENE", "state": "OR", "street": "30 E 33RD AVE", "postcode": "97405"}}},
{"geometry": {"type": "Point", "coordinates": [-123.0920494809, 44.0202598085]}, "type": "Feature", "properties": {"collection_times": [{"days": "Mon-Sat", "time": "3:00pm"}, {"days": "Sun", "time": "Closed"}], "id": "9740500019", "name": "USPS COLLECTION BOX - APC", "address": {"city": "EUGENE", "state": "OR", "street": "30 E 33RD AVE", "postcode": "97405"}}},
{"geometry": {"type": "Point", "coordinates": [-123.0907903885, 44.0271194993]}, "type": "Feature", "properties": {"collection_times": [{"days": "Mon-Fri", "time": "3:00pm"}, {"days": "Sat", "time": "1:30pm"}, {"days": "Sun", "time": "Closed"}], "id": "9740500020", "name": "USPS COLLECTION BOX - BLUE BOX", "address": {"city": "EUGENE", "state": "OR", "street": "2852 WILLAMETTE ST", "postcode": "97405"}}},
{"geometry": {"type": "Point", "coordinates": [-124.056847206, 42.5578639389]}, "type": "Feature", "properties": {"collection_times": [{"days": "Mon-Sat", "time": "12:15pm"}, {"days": "Sun", "time": "Closed"}], "id": "9740600000", "name": "USPS COLLECTION BOX - PO LOBBY", "address": {"city": "AGNESS", "state": "OR", "street": "3996 COUGAR LN", "postcode": "97406"}}},
{"geometry": {"type": "Point", "coordinates": [-124.0314289239, 43.4264609534]}, "type": "Feature", "properties": {"collection_times": [{"days": "Mon-Sat", "time": "1:00pm"}, {"days": "Sun", "time": "Closed"}], "id": "9740700000", "name": "USPS COLLECTION BOX - PO LOBBY", "address": {"city": "ALLEGANY", "state": "OR", "street": "10361 HIGHWAY 241", "postcode": "97407"}}},
{"geometry": {"type": "Point", "coordinates": [-123.0667826604, 44.0901703174]}, "type": "Feature", "properties": {"collection_times": [{"days": "Mon-Fri", "time": "3:00pm"}, {"days": "Sat", "time": "12:15pm"}, {"days": "Sun", "time": "Closed"}], "id": "9740800000", "name": "USPS COLLECTION BOX - BLUE BOX", "address": {"city": "EUGENE", "state": "OR", "street": "2815 CHAD DR", "postcode": "97408"}}},
{"geometry": {"type": "Point", "coordinates": [-123.0935506559, 44.093324086]}, "type": "Feature", "properties": {"collection_times": [{"days": "Mon-Sat", "time": "3:00pm"}, {"days": "Sun", "time": "Closed"}], "id": "9740800002", "name": "USPS COLLECTION BOX - BLUE BOX", "address": {"city": "EUGENE", "state": "OR", "street": "1056 GREEN ACRES RD STE 102", "postcode": "97408"}}},
{"geometry": {"type": "Point", "coordinates": [-123.0673599444, 44.1393222624]}, "type": "Feature", "properties": {"collection_times": [{"days": "Mon-Fri", "time": "3:00pm"}, {"days": "Sat", "time": "12:00pm"}, {"days": "Sun", "time": "Closed"}], "id": "9740800003", "name": "USPS COLLECTION BOX - BLUE BOX", "address": {"city": "EUGENE", "state": "OR", "street": "91145 N WILLAMETTE ST", "postcode": "97408"}}},
{"geometry": {"type": "Point", "coordinates": [-123.0667826604, 44.0901703174]}, "type": "Feature", "properties": {"collection_times": [{"days": "Mon-Fri", "time": "3:00pm"}, {"days": "Sat", "time": "12:15pm"}, {"days": "Sun", "time": "Closed"}], "id": "9740800006", "name": "USPS COLLECTION BOX - BLUE BOX", "address": {"city": "EUGENE", "state": "OR", "street": "2815 CHAD DR", "postcode": "97408"}}},
{"geometry": {"type": "Point", "coordinates": [-123.0935506559, 44.093324086]}, "type": "Feature", "properties": {"collection_times": [{"days": "Mon-Sat", "time": "3:00pm"}, {"days": "Sun", "time": "Closed"}], "id": "9740800007", "name": "USPS COLLECTION BOX - BLUE BOX", "address": {"city": "EUGENE", "state": "OR", "street": "1056 GREEN ACRES RD STE 102", "postcode": "97408"}}},
{"geometry": {"type": "Point", "coordinates": [-123.0544033015, 44.0869770435]}, "type": "Feature", "properties": {"collection_times": [{"days": "Mon-Fri", "time": "12:00pm"}, {"days": "Sat-Sun", "time": "Closed"}], "id": "9740800018", "name": "USPS COLLECTION BOX - BLUE BOX", "address": {"city": "EUGENE", "state": "OR", "street": "3355 CHAD DR", "postcode": "97408"}}},
{"geometry": {"type": "Point", "coordinates": [-123.2651089935, 44.1268020211]}, "type": "Feature", "properties": {"collection_times": [{"days": "Mon-Fri", "time": "11:45am"}, {"days": "Sat", "time": "10:15am"}, {"days": "Sun", "time": "Closed"}], "id": "9740900000", "name": "USPS COLLECTION BOX - PO LOBBY", "address": {"city": "ALVADORE", "state": "OR", "street": "90828 RAILROAD ST", "postcode": "97409"}}},
{"geometry": {"type": "Point", "coordinates": [-123.2651089935, 44.1268020211]}, "type": "Feature", "properties": {"collection_times": [{"days": "Mon-Fri", "time": "11:45am"}, {"days": "Sat", "time": "10:15am"}, {"days": "Sun", "time": "Closed"}], "id": "9740900001", "name": "USPS COLLECTION BOX - BLUE BOX", "address": {"city": "ALVADORE", "state": "OR", "street": "90828 RAILROAD ST", "postcode": "97409"}}},
{"geometry": {"type": "Point", "coordinates": [-123.180659467, 42.818664204]}, "type": "Feature", "properties": {"collection_times": [{"days": "Mon-Fri", "time": "2:45pm"}, {"days": "Sat", "time": "10:15am"}, {"days": "Sun", "time": "Closed"}], "id": "9741000000", "name": "USPS COLLECTION BOX - BLUE BOX", "address": {"city": "AZALEA", "state": "OR", "street": "490 AZALEA GLEN RD", "postcode": "97410"}}},
{"geometry": {"type": "Point", "coordinates": [-123.180659467, 42.818664204]}, "type": "Feature", "properties": {"collection_times": [{"days": "Mon-Fri", "time": "11:45am"}, {"days": "Sat", "time": "10:15am"}, {"days": "Sun", "time": "Closed"}], "id": "9741000001", "name": "USPS COLLECTION BOX - PO LOBBY", "address": {"city": "AZALEA", "state": "OR", "street": "490 AZALEA GLEN RD", "postcode": "97410"}}},
{"geometry": {"type": "Point", "coordinates": [-124.4001647009, 43.1204296838]}, "type": "Feature", "properties": {"collection_times": [{"days": "Mon-Sat", "time": "1:00pm"}, {"days": "Sun", "time": "Closed"}], "id": "9741100000", "name": "USPS COLLECTION BOX - BLUE BOX", "address": {"city": "BANDON", "state": "OR", "street": "44 MICHIGAN AVE NE", "postcode": "97411"}}},
{"geometry": {"type": "Point", "coordinates": [-124.4019058178, 43.1098838526]}, "type": "Feature", "properties": {"collection_times": [{"days": "Mon-Sat", "time": "1:00pm"}, {"days": "Sun", "time": "Closed"}], "id": "9741100001", "name": "USPS COLLECTION BOX - PO LOBBY", "address": {"city": "BANDON", "state": "OR", "street": "105 12TH ST SE", "postcode": "97411"}}},
{"geometry": {"type": "Point", "coordinates": [-124.4148614167, 43.1124941101]}, "type": "Feature", "properties": {"collection_times": [{"days": "Mon-Sat", "time": "1:00pm"}, {"days": "Sun", "time": "Closed"}], "id": "9741100002", "name": "USPS COLLECTION BOX - BLUE BOX", "address": {"city": "BANDON", "state": "OR", "street": "105 12TH ST SE", "postcode": "97411"}}},
{"geometry": {"type": "Point", "coordinates": [-122.2115885453, 44.1705518353]}, "type": "Feature", "properties": {"collection_times": [{"days": "Mon-Sat", "time": "10:00am"}, {"days": "Sun", "time": "Closed"}], "id": "9741300000", "name": "USPS COLLECTION BOX - BLUE BOX", "address": {"city": "BLUE RIVER", "state": "OR", "street": "91160 MCCAULEY ST", "postcode": "97413"}}},
{"geometry": {"type": "Point", "coordinates": [-122.0787378739, 44.3227957104]}, "type": "Feature", "properties": {"collection_times": [{"days": "Mon-Sat", "time": "11:30am"}, {"days": "Sun", "time": "Closed"}], "id": "9741300001", "name": "USPS COLLECTION BOX - BLUE BOX", "address": {"city": "BLUE RIVER", "state": "OR", "street": "91337 TAYLOR", "postcode": "97413"}}},
{"geometry": {"type": "Point", "coordinates": [-122.2115885453, 44.1705518353]}, "type": "Feature", "properties": {"collection_times": [{"days": "Mon-Sat", "time": "10:00am"}, {"days": "Sun", "time": "Closed"}], "id": "9741300003", "name": "USPS COLLECTION BOX - PO LOBBY", "address": {"city": "BLUE RIVER", "state": "OR", "street": "91160 MCCAULEY ST", "postcode": "97413"}}},
{"geometry": {"type": "Point", "coordinates": [-124.139767291, 42.9983432164]}, "type": "Feature", "properties": {"collection_times": [{"days": "Mon-Sat", "time": "8:00am"}, {"days": "Sun", "time": "Closed"}], "id": "9741400000", "name": "USPS COLLECTION BOX - BLUE BOX", "address": {"city": "BROADBENT", "state": "OR", "street": "51008 DEMENT CREEK RD", "postcode": "97414"}}},
{"geometry": {"type": "Point", "coordinates": [-124.139767291, 42.9983432164]}, "type": "Feature", "properties": {"collection_times": [{"days": "Mon-Sat", "time": "8:00am"}, {"days": "Sun", "time": "Closed"}], "id": "9741400001", "name": "USPS COLLECTION BOX - PO LOBBY", "address": {"city": "BROADBENT", "state": "OR", "street": "51008 DEMENT CREEK RD", "postcode": "97414"}}},
{"geometry": {"type": "Point", "coordinates": [-124.2811178332, 42.0519289968]}, "type": "Feature", "properties": {"collection_times": [{"days": "Mon-Sat", "time": "11:00am"}, {"days": "Sun", "time": "Closed"}], "id": "9741500002", "name": "USPS COLLECTION BOX - BLUE BOX", "address": {"city": "BROOKINGS", "state": "OR", "street": "711 SPRUCE ST", "postcode": "97415"}}},
{"geometry": {"type": "Point", "coordinates": [-124.2811178332, 42.0519289968]}, "type": "Feature", "properties": {"collection_times": [{"days": "Mon-Sat", "time": "11:00am"}, {"days": "Sun", "time": "Closed"}], "id": "9741500003", "name": "USPS COLLECTION BOX - BLUE BOX", "address": {"city": "BROOKINGS", "state": "OR", "street": "711 SPRUCE ST", "postcode": "97415"}}},
{"geometry": {"type": "Point", "coordinates": [-124.2733979352, 42.0596742983]}, "type": "Feature", "properties": {"collection_times": [{"days": "Mon-Sat", "time": "11:00am"}, {"days": "Sun", "time": "Closed"}], "id": "9741500004", "name": "USPS COLLECTION BOX - PO LOBBY", "address": {"city": "BROOKINGS", "state": "OR", "street": "711 SPRUCE ST", "postcode": "97415"}}},
{"geometry": {"type": "Point", "coordinates": [-124.2733979352, 42.0596742983]}, "type": "Feature", "properties": {"collection_times": [{"days": "Mon-Sat", "time": "11:00am"}, {"days": "Sun", "time": "Closed"}], "id": "9741500005", "name": "USPS COLLECTION BOX - PO LOBBY", "address": {"city": "BROOKINGS", "state": "OR", "street": "711 SPRUCE ST", "postcode": "97415"}}},
{"geometry": {"type": "Point", "coordinates": [-124.2733979352, 42.0596742983]}, "type": "Feature", "properties": {"collection_times": [{"days": "Mon-Sat", "time": "11:00am"}, {"days": "Sun", "time": "Closed"}], "id": "9741500006", "name": "USPS COLLECTION BOX - PO LOBBY", "address": {"city": "BROOKINGS", "state": "OR", "street": "711 SPRUCE ST", "postcode": "97415"}}},
{"geometry": {"type": "Point", "coordinates": [-124.2879434419, 42.0550395315]}, "type": "Feature", "properties": {"collection_times": [{"days": "Mon-Sat", "time": "11:00am"}, {"days": "Sun", "time": "Closed"}], "id": "9741500007", "name": "USPS COLLECTION BOX - BLUE BOX", "address": {"city": "BROOKINGS", "state": "OR", "street": "898 ELK DR", "postcode": "97415"}}},
{"geometry": {"type": "Point", "coordinates": [-124.2811178332, 42.0519289968]}, "type": "Feature", "properties": {"collection_times": [{"days": "Mon-Sat", "time": "11:00am"}, {"days": "Sun", "time": "Closed"}], "id": "9741500008", "name": "USPS COLLECTION BOX - BLUE BOX", "address": {"city": "BROOKINGS", "state": "OR", "street": "711 SPRUCE ST", "postcode": "97415"}}},
{"geometry": {"type": "Point", "coordinates": [-123.2602469327, 42.9366832434]}, "type": "Feature", "properties": {"collection_times": [{"days": "Mon-Sat", "time": "2:30pm"}, {"days": "Sun", "time": "Closed"}], "id": "9741700000", "name": "USPS COLLECTION BOX - BLUE BOX", "address": {"city": "CANYONVILLE", "state": "OR", "street": "131 SE 2ND ST", "postcode": "97417"}}},
{"geometry": {"type": "Point", "coordinates": [-123.2602469327, 42.9366832434]}, "type": "Feature", "properties": {"collection_times": [{"days": "Mon-Fri", "time": "2:30pm"}, {"days": "Sat", "time": "10:00am"}, {"days": "Sun", "time": "Closed"}], "id": "9741700001", "name": "USPS COLLECTION BOX - PO LOBBY", "address": {"city": "CANYONVILLE", "state": "OR", "street": "131 SE 2ND ST", "postcode": "97417"}}},
{"geometry": {"type": "Point", "coordinates": [-123.3950368473, 44.1444047762]}, "type": "Feature", "properties": {"collection_times": [{"days": "Mon-Fri", "time": "2:30pm"}, {"days": "Sat", "time": "11:00am"}, {"days": "Sun", "time": "Closed"}], "id": "9741900000", "name": "USPS COLLECTION BOX - BLUE BOX", "address": {"city": "CHESHIRE", "state": "OR", "street": "27071 HIGHWAY 36", "postcode": "97419"}}},
{"geometry": {"type": "Point", "coordinates": [-123.3538861462, 44.1760613022]}, "type": "Feature", "properties": {"collection_times": [{"days": "Mon-Fri", "time": "2:30pm"}, {"days": "Sat", "time": "11:00am"}, {"days": "Sun", "time": "Closed"}], "id": "9741900001", "name": "USPS COLLECTION BOX - PO LOBBY", "address": {"city": "CHESHIRE", "state": "OR", "street": "27071 HIGHWAY 36", "postcode": "97419"}}},
{"geometry": {"type": "Point", "coordinates": [-124.2152677457, 43.3679965568]}, "type": "Feature", "properties": {"collection_times": [{"days": "Mon-Sat", "time": "1:30pm"}, {"days": "Sun", "time": "Closed"}], "id": "9742000005", "name": "USPS COLLECTION BOX - BLUE BOX", "address": {"city": "COOS BAY", "state": "OR", "street": "320 CENTRAL AVE", "postcode": "97420"}}},
{"geometry": {"type": "Point", "coordinates": [-124.21213279, 43.3576078874]}, "type": "Feature", "properties": {"collection_times": [{"days": "Mon-Sat", "time": "1:30pm"}, {"days": "Sun", "time": "Closed"}], "id": "9742000007", "name": "USPS COLLECTION BOX - BLUE BOX", "address": {"city": "COOS BAY", "state": "OR", "street": "1020 1ST ST", "postcode": "97420"}}},
{"geometry": {"type": "Point", "coordinates": [-124.2121910241, 43.3695016782]}, "type": "Feature", "properties": {"collection_times": [{"days": "Mon-Sat", "time": "1:30pm"}, {"days": "Sun", "time": "Closed"}], "id": "9742000009", "name": "USPS COLLECTION BOX - BLUE BOX", "address": {"city": "COOS BAY", "state": "OR", "street": "411 N BAYSHORE DR", "postcode": "97420"}}},
{"geometry": {"type": "Point", "coordinates": [-124.2141089988, 43.3697980873]}, "type": "Feature", "properties": {"collection_times": [{"days": "Mon-Sat", "time": "1:30pm"}, {"days": "Sun", "time": "Closed"}], "id": "9742000010", "name": "USPS COLLECTION BOX - BLUE BOX", "address": {"city": "COOS BAY", "state": "OR", "street": "381 N 2ND ST", "postcode": "97420"}}},
{"geometry": {"type": "Point", "coordinates": [-124.233488967, 43.3857761375]}, "type": "Feature", "properties": {"collection_times": [{"days": "Mon-Sat", "time": "1:15pm"}, {"days": "Sun", "time": "Closed"}], "id": "9742000011", "name": "USPS COLLECTION BOX - BLUE BOX", "address": {"city": "COOS BAY", "state": "OR", "street": "1775 THOMPSON RD", "postcode": "97420"}}},
{"geometry": {"type": "Point", "coordinates": [-124.2514933056, 43.3917285073]}, "type": "Feature", "properties": {"collection_times": [{"days": "Mon-Sat", "time": "1:15pm"}, {"days": "Sun", "time": "Closed"}], "id": "9742000012", "name": "USPS COLLECTION BOX - BLUE BOX", "address": {"city": "COOS BAY", "state": "OR", "street": "2051 NEWMARK AVE", "postcode": "97420"}}},
{"geometry": {"type": "Point", "coordinates": [-124.2732321305, 43.3917765342]}, "type": "Feature", "properties": {"collection_times": [{"days": "Mon-Sat", "time": "2:00pm"}, {"days": "Sun", "time": "Closed"}], "id": "9742000013", "name": "USPS COLLECTION BOX - BLUE BOX", "address": {"city": "COOS BAY", "state": "OR", "street": "730 NEWMARK AVE", "postcode": "97420"}}},
{"geometry": {"type": "Point", "coordinates": [-124.2229176613, 43.3627631727]}, "type": "Feature", "properties": {"collection_times": [{"days": "Mon-Sat", "time": "2:00pm"}, {"days": "Sun", "time": "Closed"}], "id": "9742000015", "name": "USPS COLLECTION BOX - BLUE BOX", "address": {"city": "COOS BAY", "state": "OR", "street": "470 GOLDEN AVE", "postcode": "97420"}}},
{"geometry": {"type": "Point", "coordinates": [-124.2229176613, 43.3627631727]}, "type": "Feature", "properties": {"collection_times": [{"days": "Mon-Sat", "time": "2:00pm"}, {"days": "Sun", "time": "Closed"}], "id": "9742000016", "name": "USPS COLLECTION BOX - BLUE BOX", "address": {"city": "COOS BAY", "state": "OR", "street": "470 GOLDEN AVE", "postcode": "97420"}}},
{"geometry": {"type": "Point", "coordinates": [-124.2229176613, 43.3627631727]}, "type": "Feature", "properties": {"collection_times": [{"days": "Mon-Sat", "time": "2:00pm"}, {"days": "Sun", "time": "Closed"}], "id": "9742000017", "name": "USPS COLLECTION BOX - BLUE BOX", "address": {"city": "COOS BAY", "state": "OR", "street": "470 GOLDEN AVE", "postcode": "97420"}}},
{"geometry": {"type": "Point", "coordinates": [-124.2229176613, 43.3627631727]}, "type": "Feature", "properties": {"collection_times": [{"days": "Mon-Sat", "time": "2:00pm"}, {"days": "Sun", "time": "Closed"}], "id": "9742000018", "name": "USPS COLLECTION BOX - BLUE BOX", "address": {"city": "COOS BAY", "state": "OR", "street": "470 GOLDEN AVE", "postcode": "97420"}}},
{"geometry": {"type": "Point", "coordinates": [-124.2505770987, 43.3914789528]}, "type": "Feature", "properties": {"collection_times": [{"days": "Mon-Fri", "time": "1:15pm"}, {"days": "Sat-Sun", "time": "Closed"}], "id": "9742000022", "name": "USPS COLLECTION BOX - BLUE BOX", "address": {"city": "COOS BAY", "state": "OR", "street": "2110 NEWMARK AVE", "postcode": "97420"}}},
{"geometry": {"type": "Point", "coordinates": [-124.2229176613, 43.3627631727]}, "type": "Feature", "properties": {"collection_times": [{"days": "Mon-Sat", "time": "2:00pm"}, {"days": "Sun", "time": "Closed"}], "id": "9742000023", "name": "USPS COLLECTION BOX - PO LOBBY", "address": {"city": "COOS BAY", "state": "OR", "street": "470 GOLDEN AVE", "postcode": "97420"}}},
{"geometry": {"type": "Point", "coordinates": [-124.1908316393, 43.1755308637]}, "type": "Feature", "properties": {"collection_times": [{"days": "Mon-Sat", "time": "1:00pm"}, {"days": "Sun", "time": "Closed"}], "id": "9742300000", "name": "USPS COLLECTION BOX - BLUE BOX", "address": {"city": "COQUILLE", "state": "OR", "street": "115 N BIRCH ST", "postcode": "97423"}}},
{"geometry": {"type": "Point", "coordinates": [-124.1855158539, 43.1789824751]}, "type": "Feature", "properties": {"collection_times": [{"days": "Mon-Sat", "time": "1:00pm"}, {"days": "Sun", "time": "Closed"}], "id": "9742300002", "name": "USPS COLLECTION BOX - PO LOBBY", "address": {"city": "COQUILLE", "state": "OR", "street": "75 N BIRCH ST", "postcode": "97423"}}},
{"geometry": {"type": "Point", "coordinates": [-123.0485944181, 43.7977054588]}, "type": "Feature", "properties": {"collection_times": [{"days": "Mon-Fri", "time": "3:30pm"}, {"days": "Sat", "time": "12:00pm"}, {"days": "Sun", "time": "Closed"}], "id": "9742400012", "name": "USPS COLLECTION BOX - BLUE BOX", "address": {"city": "COTTAGE GROVE", "state": "OR", "street": "100 GATEWAY BLVD", "postcode": "97424"}}},
{"geometry": {"type": "Point", "coordinates": [-123.0609281965, 43.7977960944]}, "type": "Feature", "properties": {"collection_times": [{"days": "Mon-Sat", "time": "10:00am"}, {"days": "Sun", "time": "Closed"}], "id": "9742400013", "name": "USPS COLLECTION BOX - BLUE BOX", "address": {"city": "COTTAGE GROVE", "state": "OR", "street": "29 N 7TH ST", "postcode": "97424"}}},
{"geometry": {"type": "Point", "coordinates": [-123.0535980008, 43.7978791646]}, "type": "Feature", "properties": {"collection_times": [{"days": "Mon-Fri", "time": "5:00pm"}, {"days": "Sat", "time": "2:00pm"}, {"days": "Sun", "time": "Closed"}], "id": "9742400017", "name": "USPS COLLECTION BOX - BLUE BOX", "address": {"city": "COTTAGE GROVE", "state": "OR", "street": "115 N 14TH ST", "postcode": "97424"}}},
{"geometry": {"type": "Point", "coordinates": [-123.0535980008, 43.7978791646]}, "type": "Feature", "properties": {"collection_times": [{"days": "Mon-Fri", "time": "5:00pm"}, {"days": "Sat", "time": "2:00pm"}, {"days": "Sun", "time": "Closed"}], "id": "9742400018", "name": "USPS COLLECTION BOX - BLUE BOX", "address": {"city": "COTTAGE GROVE", "state": "OR", "street": "115 N 14TH ST", "postcode": "97424"}}},
{"geometry": {"type": "Point", "coordinates": [-123.0535980008, 43.7978791646]}, "type": "Feature", "properties": {"collection_times": [{"days": "Mon-Fri", "time": "4:30pm"}, {"days": "Sat", "time": "2:00pm"}, {"days": "Sun", "time": "Closed"}], "id": "9742400019", "name": "USPS COLLECTION BOX - PO LOBBY", "address": {"city": "COTTAGE GROVE", "state": "OR", "street": "115 N 14TH ST", "postcode": "97424"}}},
{"geometry": {"type": "Point", "coordinates": [-123.0630941944, 43.7973300086]}, "type": "Feature", "properties": {"collection_times": [{"days": "Mon-Fri", "time": "3:30pm"}, {"days": "Sat", "time": "12:00pm"}, {"days": "Sun", "time": "Closed"}], "id": "9742400020", "name": "USPS COLLECTION BOX - BLUE BOX", "address": {"city": "COTTAGE GROVE", "state": "OR", "street": "435 E MAIN ST", "postcode": "97424"}}},
{"geometry": {"type": "Point", "coordinates": [-123.0176520087, 43.9194811684]}, "type": "Feature", "properties": {"collection_times": [{"days": "Mon-Fri", "time": "5:00pm"}, {"days": "Sat", "time": "4:30pm"}, {"days": "Sun", "time": "Closed"}], "id": "9742600000", "name": "USPS COLLECTION BOX - BLUE BOX", "address": {"city": "CRESWELL", "state": "OR", "street": "150 N MILL ST", "postcode": "97426"}}},
{"geometry": {"type": "Point", "coordinates": [-123.011318767, 43.8848321608]}, "type": "Feature", "properties": {"collection_times": [{"days": "Mon-Sat", "time": "10:00am"}, {"days": "Sun", "time": "Closed"}], "id": "9742600001", "name": "USPS COLLECTION BOX - BLUE BOX", "address": {"city": "CRESWELL", "state": "OR", "street": "33838 E RIVER DR", "postcode": "97426"}}},
{"geometry": {"type": "Point", "coordinates": [-123.0758362093, 42.9396030871]}, "type": "Feature", "properties": {"collection_times": [{"days": "Mon-Fri", "time": "12:45pm"}, {"days": "Sat", "time": "1:45pm"}, {"days": "Sun", "time": "Closed"}], "id": "9742900000", "name": "USPS COLLECTION BOX - BLUE BOX", "address": {"city": "DAYS CREEK", "state": "OR", "street": "11286 TILLER TRAIL HWY", "postcode": "97429"}}},
{"geometry": {"type": "Point", "coordinates": [-123.0758362093, 42.9396030871]}, "type": "Feature", "properties": {"collection_times": [{"days": "Mon-Fri", "time": "12:45pm"}, {"days": "Sat", "time": "10:30am"}, {"days": "Sun", "time": "Closed"}], "id": "9742900001", "name": "USPS COLLECTION BOX - PO LOBBY", "address": {"city": "DAYS CREEK", "state": "OR", "street": "11286 TILLER TRAIL HWY", "postcode": "97429"}}},
{"geometry": {"type": "Point", "coordinates": [-123.7222166075, 44.1445904274]}, "type": "Feature", "properties": {"collection_times": [{"days": "Mon-Fri", "time": "3:00pm"}, {"days": "Sat", "time": "8:45am"}, {"days": "Sun", "time": "Closed"}], "id": "9743000000", "name": "USPS COLLECTION BOX - BLUE BOX", "address": {"city": "DEADWOOD", "state": "OR", "street": "14701 HIGHWAY 36", "postcode": "97430"}}},
{"geometry": {"type": "Point", "coordinates": [-123.7222166075, 44.1445904274]}, "type": "Feature", "properties": {"collection_times": [{"days": "Mon-Fri", "time": "12:00pm"}, {"days": "Sat", "time": "8:45am"}, {"days": "Sun", "time": "Closed"}], "id": "9743000001", "name": "USPS COLLECTION BOX - PO LOBBY", "address": {"city": "DEADWOOD", "state": "OR", "street": "14701 HIGHWAY 36", "postcode": "97430"}}},
{"geometry": {"type": "Point", "coordinates": [-122.8212782609, 43.9158196652]}, "type": "Feature", "properties": {"collection_times": [{"days": "Mon-Fri", "time": "2:45pm"}, {"days": "Sat", "time": "9:00am"}, {"days": "Sun", "time": "Closed"}], "id": "9743100000", "name": "USPS COLLECTION BOX - PO LOBBY", "address": {"city": "DEXTER", "state": "OR", "street": "38880 DEXTER RD", "postcode": "97431"}}},
{"geometry": {"type": "Point", "coordinates": [-123.4285475711, 43.1001391679]}, "type": "Feature", "properties": {"collection_times": [{"days": "Mon-Fri", "time": "10:00am"}, {"days": "Sat", "time": "9:00am"}, {"days": "Sun", "time": "Closed"}], "id": "9743200000", "name": "USPS COLLECTION BOX - BLUE BOX", "address": {"city": "DILLARD", "state": "OR", "street": "9455 OLD HWY 99 S", "postcode": "97432"}}},
{"geometry": {"type": "Point", "coordinates": [-123.4292980617, 43.1050000665]}, "type": "Feature", "properties": {"collection_times": [{"days": "Mon-Fri", "time": "10:00am"}, {"days": "Sat", "time": "9:00am"}, {"days": "Sun", "time": "Closed"}], "id": "9743200001", "name": "USPS COLLECTION BOX - PO LOBBY", "address": {"city": "DILLARD", "state": "OR", "street": "9455 OLD HWY 99 S", "postcode": "97432"}}},
{"geometry": {"type": "Point", "coordinates": [-122.8633784753, 43.7218518073]}, "type": "Feature", "properties": {"collection_times": [{"days": "Mon-Sat", "time": "10:00am"}, {"days": "Sun", "time": "Closed"}], "id": "9743400000", "name": "USPS COLLECTION BOX - BLUE BOX", "address": {"city": "DORENA", "state": "OR", "street": "75694 WICKS RD", "postcode": "97434"}}},
{"geometry": {"type": "Point", "coordinates": [-122.8633784753, 43.7218518073]}, "type": "Feature", "properties": {"collection_times": [{"days": "Mon-Sat", "time": "10:00am"}, {"days": "Sun", "time": "Closed"}], "id": "9743400001", "name": "USPS COLLECTION BOX - PO LOBBY", "address": {"city": "DORENA", "state": "OR", "street": "75694 WICKS RD", "postcode": "97434"}}},
{"geometry": {"type": "Point", "coordinates": [-123.316434695, 43.6635644071]}, "type": "Feature", "properties": {"collection_times": [{"days": "Mon-Sat", "time": "4:00pm"}, {"days": "Sun", "time": "Closed"}], "id": "9743500000", "name": "USPS COLLECTION BOX - BLUE BOX", "address": {"city": "DRAIN", "state": "OR", "street": "228 W C AVE", "postcode": "97435"}}},
{"geometry": {"type": "Point", "coordinates": [-123.3145986065, 43.6768114803]}, "type": "Feature", "properties": {"collection_times": [{"days": "Mon-Fri", "time": "4:00pm"}, {"days": "Sat", "time": "9:30am"}, {"days": "Sun", "time": "Closed"}], "id": "9743500001", "name": "USPS COLLECTION BOX - PO LOBBY", "address": {"city": "DRAIN", "state": "OR", "street": "228 W C AVE", "postcode": "97435"}}},
{"geometry": {"type": "Point", "coordinates": [-123.5662348915, 43.6372033487]}, "type": "Feature", "properties": {"collection_times": [{"days": "Mon-Fri", "time": "3:30pm"}, {"days": "Sat", "time": "9:30am"}, {"days": "Sun", "time": "Closed"}], "id": "9743600000", "name": "USPS COLLECTION BOX - BLUE BOX", "address": {"city": "ELKTON", "state": "OR", "street": "275 B ST", "postcode": "97436"}}},
{"geometry": {"type": "Point", "coordinates": [-123.5662348915, 43.6372033487]}, "type": "Feature", "properties": {"collection_times": [{"days": "Mon-Fri", "time": "3:30pm"}, {"days": "Sat", "time": "9:30am"}, {"days": "Sun", "time": "Closed"}], "id": "9743600001", "name": "USPS COLLECTION BOX - PO LOBBY", "address": {"city": "ELKTON", "state": "OR", "street": "275 B ST", "postcode": "97436"}}},
{"geometry": {"type": "Point", "coordinates": [-123.3549275723, 44.0675086773]}, "type": "Feature", "properties": {"collection_times": [{"days": "Mon-Sat", "time": "1:45pm"}, {"days": "Sun", "time": "Closed"}], "id": "9743700000", "name": "USPS COLLECTION BOX - BLUE BOX", "address": {"city": "ELMIRA", "state": "OR", "street": "88769 TERRITORIAL RD", "postcode": "97437"}}},
{"geometry": {"type": "Point", "coordinates": [-124.1006274815, 43.9883700996]}, "type": "Feature", "properties": {"collection_times": [{"days": "Mon-Sat", "time": "3:30pm"}, {"days": "Sun", "time": "Closed"}], "id": "9743900003", "name": "USPS COLLECTION BOX - BLUE BOX", "address": {"city": "FLORENCE", "state": "OR", "street": "770 MAPLE ST", "postcode": "97439"}}},
{"geometry": {"type": "Point", "coordinates": [-124.1006274815, 43.9883700996]}, "type": "Feature", "properties": {"collection_times": [{"days": "Mon-Sat", "time": "3:30pm"}, {"days": "Sun", "time": "Closed"}], "id": "9743900005", "name": "USPS COLLECTION BOX - BLUE BOX", "address": {"city": "FLORENCE", "state": "OR", "street": "770 MAPLE ST", "postcode": "97439"}}},
{"geometry": {"type": "Point", "coordinates": [-124.1006274815, 43.9883700996]}, "type": "Feature", "properties": {"collection_times": [{"days": "Mon-Sat", "time": "3:30pm"}, {"days": "Sun", "time": "Closed"}], "id": "9743900007", "name": "USPS COLLECTION BOX - PO LOBBY", "address": {"city": "FLORENCE", "state": "OR", "street": "770 MAPLE ST", "postcode": "97439"}}},
{"geometry": {"type": "Point", "coordinates": [-124.1016479532, 44.0059989673]}, "type": "Feature", "properties": {"collection_times": [{"days": "Mon-Sat", "time": "11:00am"}, {"days": "Sun", "time": "Closed"}], "id": "9743900008", "name": "USPS COLLECTION BOX - BLUE BOX", "address": {"city": "FLORENCE", "state": "OR", "street": "4701 HIGHWAY 101", "postcode": "97439"}}},
{"geometry": {"type": "Point", "coordinates": [-124.1006274815, 43.9883700996]}, "type": "Feature", "properties": {"collection_times": [{"days": "Mon-Sat", "time": "12:00pm"}, {"days": "Sun", "time": "Closed"}], "id": "9743900009", "name": "USPS COLLECTION BOX - BLUE BOX", "address": {"city": "FLORENCE", "state": "OR", "street": "1384 BAY ST", "postcode": "97439"}}},
{"geometry": {"type": "Point", "coordinates": [-124.1114986852, 43.7407308562]}, "type": "Feature", "properties": {"collection_times": [{"days": "Mon-Fri", "time": "11:45am"}, {"days": "Sat", "time": "10:00am"}, {"days": "Sun", "time": "Closed"}], "id": "9744100000", "name": "USPS COLLECTION BOX - PO LOBBY", "address": {"city": "GARDINER", "state": "OR", "street": "77251 HIGHWAY 101", "postcode": "97441"}}},
{"geometry": {"type": "Point", "coordinates": [-123.4267226699, 42.7370963394]}, "type": "Feature", "properties": {"collection_times": [{"days": "Mon-Fri", "time": "2:15pm"}, {"days": "Sat", "time": "10:30am"}, {"days": "Sun", "time": "Closed"}], "id": "9744200000", "name": "USPS COLLECTION BOX - BLUE BOX", "address": {"city": "GLENDALE", "state": "OR", "street": "358 PACIFIC AVE", "postcode": "97442"}}},
{"geometry": {"type": "Point", "coordinates": [-123.4267226699, 42.7370963394]}, "type": "Feature", "properties": {"collection_times": [{"days": "Mon-Fri", "time": "2:15pm"}, {"days": "Sat", "time": "10:30am"}, {"days": "Sun", "time": "Closed"}], "id": "9744200001", "name": "USPS COLLECTION BOX - PO LOBBY", "address": {"city": "GLENDALE", "state": "OR", "street": "358 PACIFIC AVE", "postcode": "97442"}}},
{"geometry": {"type": "Point", "coordinates": [-123.0520386141, 43.2693716245]}, "type": "Feature", "properties": {"collection_times": [{"days": "Mon-Fri", "time": "2:00pm"}, {"days": "Sat", "time": "10:00am"}, {"days": "Sun", "time": "Closed"}], "id": "9744300000", "name": "USPS COLLECTION BOX - BLUE BOX", "address": {"city": "GLIDE", "state": "OR", "street": "19443 N UMPQUA HWY", "postcode": "97443"}}},
{"geometry": {"type": "Point", "coordinates": [-123.0520386141, 43.2693716245]}, "type": "Feature", "properties": {"collection_times": [{"days": "Mon-Fri", "time": "2:00pm"}, {"days": "Sat", "time": "10:00am"}, {"days": "Sun", "time": "Closed"}], "id": "9744300001", "name": "USPS COLLECTION BOX - PO LOBBY", "address": {"city": "GLIDE", "state": "OR", "street": "19443 N UMPQUA HWY", "postcode": "97443"}}},
{"geometry": {"type": "Point", "coordinates": [-124.3586829498, 42.4842444936]}, "type": "Feature", "properties": {"collection_times": [{"days": "Mon-Sat", "time": "11:30am"}, {"days": "Sun", "time": "Closed"}], "id": "9744400000", "name": "USPS COLLECTION BOX - BLUE BOX", "address": {"city": "GOLD BEACH", "state": "OR", "street": "29917 HARBOR WAY", "postcode": "97444"}}},
{"geometry": {"type": "Point", "coordinates": [-124.4051385019, 42.4274920488]}, "type": "Feature", "properties": {"collection_times": [{"days": "Mon-Sat", "time": "11:30am"}, {"days": "Sun", "time": "Closed"}], "id": "9744400001", "name": "USPS COLLECTION BOX - PO LOBBY", "address": {"city": "GOLD BEACH", "state": "OR", "street": "29917 HARBOR WAY", "postcode": "97444"}}},
{"geometry": {"type": "Point", "coordinates": [-124.4210153954, 42.4067856799]}, "type": "Feature", "properties": {"collection_times": [{"days": "Mon-Sat", "time": "11:00am"}, {"days": "Sun", "time": "Closed"}], "id": "9744400003", "name": "USPS COLLECTION BOX - BLUE BOX", "address": {"city": "GOLD BEACH", "state": "OR", "street": "29656 ELLENSBURG AVE", "postcode": "97444"}}},
{"geometry": {"type": "Point", "coordinates": [-123.172198326, 44.2722415659]}, "type": "Feature", "properties": {"collection_times": [{"days": "Mon-Fri", "time": "3:15pm"}, {"days": "Sat", "time": "8:30am"}, {"days": "Sun", "time": "Closed"}], "id": "9744600002", "name": "USPS COLLECTION BOX - PO LOBBY", "address": {"city": "HARRISBURG", "state": "OR", "street": "204 SMITH ST", "postcode": "97446"}}},
{"geometry": {"type": "Point", "coordinates": [-123.172198326, 44.2722415659]}, "type": "Feature", "properties": {"collection_times": [{"days": "Mon-Fri", "time": "3:15pm"}, {"days": "Sat", "time": "2:00pm"}, {"days": "Sun", "time": "Closed"}], "id": "9744600003", "name": "USPS COLLECTION BOX - BLUE BOX", "address": {"city": "HARRISBURG", "state": "OR", "street": "204 SMITH ST", "postcode": "97446"}}},
{"geometry": {"type": "Point", "coordinates": [-122.8270498843, 43.3183311465]}, "type": "Feature", "properties": {"collection_times": [{"days": "Mon-Fri", "time": "10:00am"}, {"days": "Sat", "time": "9:30am"}, {"days": "Sun", "time": "Closed"}], "id": "9744700000", "name": "USPS COLLECTION BOX - BLUE BOX", "address": {"city": "IDLEYLD PARK", "state": "OR", "street": "23843 N UMPQUA HWY", "postcode": "97447"}}},
{"geometry": {"type": "Point", "coordinates": [-122.8270498843, 43.3183311465]}, "type": "Feature", "properties": {"collection_times": [{"days": "Mon-Fri", "time": "10:00am"}, {"days": "Sat", "time": "9:30am"}, {"days": "Sun", "time": "Closed"}], "id": "9744700001", "name": "USPS COLLECTION BOX - PO LOBBY", "address": {"city": "IDLEYLD PARK", "state": "OR", "street": "23843 N UMPQUA HWY", "postcode": "97447"}}},
{"geometry": {"type": "Point", "coordinates": [-123.2025839837, 44.2198829509]}, "type": "Feature", "properties": {"collection_times": [{"days": "Mon-Fri", "time": "3:35pm"}, {"days": "Sat", "time": "3:00pm"}, {"days": "Sun", "time": "Closed"}], "id": "9744800000", "name": "USPS COLLECTION BOX - BLUE BOX", "address": {"city": "JUNCTION CITY", "state": "OR", "street": "669 GREENWOOD ST", "postcode": "97448"}}},
{"geometry": {"type": "Point", "coordinates": [-123.2025839837, 44.2198829509]}, "type": "Feature", "properties": {"collection_times": [{"days": "Mon-Fri", "time": "3:35pm"}, {"days": "Sat", "time": "3:00pm"}, {"days": "Sun", "time": "Closed"}], "id": "9744800001", "name": "USPS COLLECTION BOX - BLUE BOX", "address": {"city": "JUNCTION CITY", "state": "OR", "street": "669 GREENWOOD ST", "postcode": "97448"}}},
{"geometry": {"type": "Point", "coordinates": [-123.2025839837, 44.2198829509]}, "type": "Feature", "properties": {"collection_times": [{"days": "Mon-Fri", "time": "3:35pm"}, {"days": "Sat", "time": "3:00pm"}, {"days": "Sun", "time": "Closed"}], "id": "9744800002", "name": "USPS COLLECTION BOX - BLUE BOX", "address": {"city": "JUNCTION CITY", "state": "OR", "street": "669 GREENWOOD ST", "postcode": "97448"}}},
{"geometry": {"type": "Point", "coordinates": [-123.2051876764, 44.2289680758]}, "type": "Feature", "properties": {"collection_times": [{"days": "Mon-Sat", "time": "10:00am"}, {"days": "Sun", "time": "Closed"}], "id": "9744800004", "name": "USPS COLLECTION BOX - BLUE BOX", "address": {"city": "JUNCTION CITY", "state": "OR", "street": "1755 IVY ST", "postcode": "97448"}}},
{"geometry": {"type": "Point", "coordinates": [-124.1637082713, 43.5780929553]}, "type": "Feature", "properties": {"collection_times": [{"days": "Mon-Sat", "time": "10:00am"}, {"days": "Sun", "time": "Closed"}], "id": "9744900000", "name": "USPS COLLECTION BOX - BLUE BOX", "address": {"city": "LAKESIDE", "state": "OR", "street": "170 S 8TH ST", "postcode": "97449"}}},
{"geometry": {"type": "Point", "coordinates": [-124.1637082713, 43.5780929553]}, "type": "Feature", "properties": {"collection_times": [{"days": "Mon-Sat", "time": "10:00am"}, {"days": "Sun", "time": "Closed"}], "id": "9744900001", "name": "USPS COLLECTION BOX - PO LOBBY", "address": {"city": "LAKESIDE", "state": "OR", "street": "170 S 8TH ST", "postcode": "97449"}}},
{"geometry": {"type": "Point", "coordinates": [-124.4475513325, 42.9263515441]}, "type": "Feature", "properties": {"collection_times": [{"days": "Mon-Sat", "time": "10:00am"}, {"days": "Sun", "time": "Closed"}], "id": "9745000000", "name": "USPS COLLECTION BOX - PO LOBBY", "address": {"city": "LANGLOIS", "state": "OR", "street": "94262 2ND ST", "postcode": "97450"}}},
{"geometry": {"type": "Point", "coordinates": [-124.4475513325, 42.9263515441]}, "type": "Feature", "properties": {"collection_times": [{"days": "Mon-Sat", "time": "10:00am"}, {"days": "Sun", "time": "Closed"}], "id": "9745000001", "name": "USPS COLLECTION BOX - BLUE BOX", "address": {"city": "LANGLOIS", "state": "OR", "street": "94262 2ND ST", "postcode": "97450"}}},
{"geometry": {"type": "Point", "coordinates": [-123.2394899704, 43.8362226171]}, "type": "Feature", "properties": {"collection_times": [{"days": "Mon-Sat", "time": "10:00am"}, {"days": "Sun", "time": "Closed"}], "id": "9745100000", "name": "USPS COLLECTION BOX - PO LOBBY", "address": {"city": "LORANE", "state": "OR", "street": "80229 TERRITORIAL RD", "postcode": "97451"}}},
{"geometry": {"type": "Point", "coordinates": [-123.2394899704, 43.8362226171]}, "type": "Feature", "properties": {"collection_times": [{"days": "Mon-Sat", "time": "10:00am"}, {"days": "Sun", "time": "Closed"}], "id": "9745100001", "name": "USPS COLLECTION BOX - BLUE BOX", "address": {"city": "LORANE", "state": "OR", "street": "80229 TERRITORIAL RD", "postcode": "97451"}}},
{"geometry": {"type": "Point", "coordinates": [-122.7832778377, 43.9206396618]}, "type": "Feature", "properties": {"collection_times": [{"days": "Mon-Fri", "time": "3:00pm"}, {"days": "Sat", "time": "9:00am"}, {"days": "Sun", "time": "Closed"}], "id": "9745200000", "name": "USPS COLLECTION BOX - BLUE BOX", "address": {"city": "FALL CREEK", "state": "OR", "street": "135 N MOSS ST", "postcode": "97452"}}},
{"geometry": {"type": "Point", "coordinates": [-122.7832778377, 43.9206396618]}, "type": "Feature", "properties": {"collection_times": [{"days": "Mon-Fri", "time": "3:00pm"}, {"days": "Sat", "time": "9:00am"}, {"days": "Sun", "time": "Closed"}], "id": "9745200001", "name": "USPS COLLECTION BOX - PO LOBBY", "address": {"city": "FALL CREEK", "state": "OR", "street": "135 N MOSS ST", "postcode": "97452"}}},
{"geometry": {"type": "Point", "coordinates": [-122.9039670613, 43.996916824]}, "type": "Feature", "properties": {"collection_times": [{"days": "Mon-Fri", "time": "3:30pm"}, {"days": "Sat", "time": "12:00pm"}, {"days": "Sun", "time": "Closed"}], "id": "9745200003", "name": "USPS COLLECTION BOX - PO LOBBY", "address": {"city": "FALL CREEK", "state": "OR", "street": "36763 JASPER LOWELL RD", "postcode": "97452"}}},
{"geometry": {"type": "Point", "coordinates": [-123.8836292168, 44.0235820242]}, "type": "Feature", "properties": {"collection_times": [{"days": "Mon-Fri", "time": "4:15pm"}, {"days": "Sat", "time": "10:00am"}, {"days": "Sun", "time": "Closed"}], "id": "9745300000", "name": "USPS COLLECTION BOX - BLUE BOX", "address": {"city": "MAPLETON", "state": "OR", "street": "10656 HIGHWAY 126", "postcode": "97453"}}},
{"geometry": {"type": "Point", "coordinates": [-123.8836292168, 44.0235820242]}, "type": "Feature", "properties": {"collection_times": [{"days": "Mon-Fri", "time": "3:15pm"}, {"days": "Sat", "time": "10:00am"}, {"days": "Sun", "time": "Closed"}], "id": "9745300001", "name": "USPS COLLECTION BOX - PO LOBBY", "address": {"city": "MAPLETON", "state": "OR", "street": "10656 HIGHWAY 126", "postcode": "97453"}}},
{"geometry": {"type": "Point", "coordinates": [-122.8618810417, 44.172096831]}, "type": "Feature", "properties": {"collection_times": [{"days": "Mon-Fri", "time": "12:00pm"}, {"days": "Sat", "time": "11:00am"}, {"days": "Sun", "time": "Closed"}], "id": "9745400000", "name": "USPS COLLECTION BOX - BLUE BOX", "address": {"city": "MARCOLA", "state": "OR", "street": "92162 MARCOLA RD", "postcode": "97454"}}},
{"geometry": {"type": "Point", "coordinates": [-122.8618810417, 44.172096831]}, "type": "Feature", "properties": {"collection_times": [{"days": "Mon-Fri", "time": "12:00pm"}, {"days": "Sat", "time": "11:00am"}, {"days": "Sun", "time": "Closed"}], "id": "9745400001", "name": "USPS COLLECTION BOX - PO LOBBY", "address": {"city": "MARCOLA", "state": "OR", "street": "92162 MARCOLA RD", "postcode": "97454"}}},
{"geometry": {"type": "Point", "coordinates": [-123.2987380352, 44.3156858309]}, "type": "Feature", "properties": {"collection_times": [{"days": "Mon-Fri", "time": "3:00pm"}, {"days": "Sat", "time": "12:00pm"}, {"days": "Sun", "time": "Closed"}], "id": "9745600001", "name": "USPS COLLECTION BOX - PO LOBBY", "address": {"city": "MONROE", "state": "OR", "street": "590 MAIN ST", "postcode": "97456"}}},
{"geometry": {"type": "Point", "coordinates": [-123.2876465374, 43.0142937316]}, "type": "Feature", "properties": {"collection_times": [{"days": "Mon-Fri", "time": "3:00pm"}, {"days": "Sat", "time": "1:30pm"}, {"days": "Sun", "time": "Closed"}], "id": "9745700001", "name": "USPS COLLECTION BOX - PO LOBBY", "address": {"city": "MYRTLE CREEK", "state": "OR", "street": "124 BROADWAY ST", "postcode": "97457"}}},
{"geometry": {"type": "Point", "coordinates": [-123.2872109707, 43.0253334306]}, "type": "Feature", "properties": {"collection_times": [{"days": "Mon-Fri", "time": "3:00pm"}, {"days": "Sat", "time": "1:30pm"}, {"days": "Sun", "time": "Closed"}], "id": "9745700003", "name": "USPS COLLECTION BOX - BLUE BOX", "address": {"city": "MYRTLE CREEK", "state": "OR", "street": "124 BROADWAY ST", "postcode": "97457"}}},
{"geometry": {"type": "Point", "coordinates": [-123.2872109707, 43.0253334306]}, "type": "Feature", "properties": {"collection_times": [{"days": "Mon-Fri", "time": "3:00pm"}, {"days": "Sat", "time": "1:30pm"}, {"days": "Sun", "time": "Closed"}], "id": "9745700004", "name": "USPS COLLECTION BOX - BLUE BOX", "address": {"city": "MYRTLE CREEK", "state": "OR", "street": "124 BROADWAY ST", "postcode": "97457"}}},
{"geometry": {"type": "Point", "coordinates": [-124.1423505998, 43.0658229142]}, "type": "Feature", "properties": {"collection_times": [{"days": "Mon-Sat", "time": "1:00pm"}, {"days": "Sun", "time": "Closed"}], "id": "9745800004", "name": "USPS COLLECTION BOX - BLUE BOX", "address": {"city": "MYRTLE POINT", "state": "OR", "street": "514 ASH ST", "postcode": "97458"}}},
{"geometry": {"type": "Point", "coordinates": [-124.1057372079, 43.0672332786]}, "type": "Feature", "properties": {"collection_times": [{"days": "Mon-Sat", "time": "1:00pm"}, {"days": "Sun", "time": "Closed"}], "id": "9745800005", "name": "USPS COLLECTION BOX - PO LOBBY", "address": {"city": "MYRTLE POINT", "state": "OR", "street": "514 ASH ST", "postcode": "97458"}}},
{"geometry": {"type": "Point", "coordinates": [-124.1057372079, 43.0672332786]}, "type": "Feature", "properties": {"collection_times": [{"days": "Mon-Sat", "time": "1:00pm"}, {"days": "Sun", "time": "Closed"}], "id": "9745800006", "name": "USPS COLLECTION BOX - PO LOBBY", "address": {"city": "MYRTLE POINT", "state": "OR", "street": "514 ASH ST", "postcode": "97458"}}},
{"geometry": {"type": "Point", "coordinates": [-124.2346448734, 43.4065538509]}, "type": "Feature", "properties": {"collection_times": [{"days": "Mon-Sat", "time": "1:00pm"}, {"days": "Sun", "time": "Closed"}], "id": "9745900006", "name": "USPS COLLECTION BOX - BLUE BOX", "address": {"city": "NORTH BEND", "state": "OR", "street": "1611 VIRGINIA AVE", "postcode": "97459"}}},
{"geometry": {"type": "Point", "coordinates": [-124.2346448734, 43.4065538509]}, "type": "Feature", "properties": {"collection_times": [{"days": "Mon-Sat", "time": "1:00pm"}, {"days": "Sun", "time": "Closed"}], "id": "9745900007", "name": "USPS COLLECTION BOX - BLUE BOX", "address": {"city": "NORTH BEND", "state": "OR", "street": "1611 VIRGINIA AVE", "postcode": "97459"}}},
{"geometry": {"type": "Point", "coordinates": [-124.226060134, 43.4087445388]}, "type": "Feature", "properties": {"collection_times": [{"days": "Mon-Sat", "time": "2:30pm"}, {"days": "Sun", "time": "Closed"}], "id": "9745900009", "name": "USPS COLLECTION BOX - BLUE BOX", "address": {"city": "NORTH BEND", "state": "OR", "street": "1835 MCPHERSON ST", "postcode": "97459"}}},
{"geometry": {"type": "Point", "coordinates": [-124.226060134, 43.4087445388]}, "type": "Feature", "properties": {"collection_times": [{"days": "Mon-Sat", "time": "2:30pm"}, {"days": "Sun", "time": "Closed"}], "id": "9745900010", "name": "USPS COLLECTION BOX - BLUE BOX", "address": {"city": "NORTH BEND", "state": "OR", "street": "1835 MCPHERSON ST", "postcode": "97459"}}},
{"geometry": {"type": "Point", "coordinates": [-124.226060134, 43.4087445388]}, "type": "Feature", "properties": {"collection_times": [{"days": "Mon-Sat", "time": "2:30pm"}, {"days": "Sun", "time": "Closed"}], "id": "9745900011", "name": "USPS COLLECTION BOX - BLUE BOX", "address": {"city": "NORTH BEND", "state": "OR", "street": "1835 MCPHERSON ST", "postcode": "97459"}}},
{"geometry": {"type": "Point", "coordinates": [-124.226060134, 43.4087445388]}, "type": "Feature", "properties": {"collection_times": [{"days": "Mon-Sat", "time": "2:30pm"}, {"days": "Sun", "time": "Closed"}], "id": "9745900013", "name": "USPS COLLECTION BOX - BLUE BOX", "address": {"city": "NORTH BEND", "state": "OR", "street": "1835 MCPHERSON ST", "postcode": "97459"}}},
{"geometry": {"type": "Point", "coordinates": [-124.226060134, 43.4087445388]}, "type": "Feature", "properties": {"collection_times": [{"days": "Mon-Sat", "time": "2:30pm"}, {"days": "Sun", "time": "Closed"}], "id": "9745900014", "name": "USPS COLLECTION BOX - BLUE BOX", "address": {"city": "NORTH BEND", "state": "OR", "street": "1835 MCPHERSON ST", "postcode": "97459"}}},
{"geometry": {"type": "Point", "coordinates": [-123.4354899226, 44.0590206844]}, "type": "Feature", "properties": {"collection_times": [{"days": "Mon-Fri", "time": "11:45am"}, {"days": "Sat", "time": "9:30am"}, {"days": "Sun", "time": "Closed"}], "id": "9746100000", "name": "USPS COLLECTION BOX - BLUE BOX", "address": {"city": "NOTI", "state": "OR", "street": "22528 HIGHWAY 126", "postcode": "97461"}}},
{"geometry": {"type": "Point", "coordinates": [-123.4354899226, 44.0590206844]}, "type": "Feature", "properties": {"collection_times": [{"days": "Mon-Fri", "time": "11:45am"}, {"days": "Sat", "time": "9:30am"}, {"days": "Sun", "time": "Closed"}], "id": "9746100001", "name": "USPS COLLECTION BOX - PO LOBBY", "address": {"city": "NOTI", "state": "OR", "street": "22528 HIGHWAY 126", "postcode": "97461"}}},
{"geometry": {"type": "Point", "coordinates": [-123.2978296265, 43.4213342159]}, "type": "Feature", "properties": {"collection_times": [{"days": "Mon-Sat", "time": "2:30pm"}, {"days": "Sun", "time": "Closed"}], "id": "9746200001", "name": "USPS COLLECTION BOX - BLUE BOX", "address": {"city": "OAKLAND", "state": "OR", "street": "223 NE 2ND ST", "postcode": "97462"}}},
{"geometry": {"type": "Point", "coordinates": [-123.3409076148, 43.4564110763]}, "type": "Feature", "properties": {"collection_times": [{"days": "Mon-Fri", "time": "2:30pm"}, {"days": "Sat", "time": "9:30am"}, {"days": "Sun", "time": "Closed"}], "id": "9746200002", "name": "USPS COLLECTION BOX - PO LOBBY", "address": {"city": "OAKLAND", "state": "OR", "street": "223 NE 2ND ST", "postcode": "97462"}}},
{"geometry": {"type": "Point", "coordinates": [-122.464976231, 43.7479435653]}, "type": "Feature", "properties": {"collection_times": [{"days": "Mon-Fri", "time": "2:30pm"}, {"days": "Sat", "time": "10:00am"}, {"days": "Sun", "time": "Closed"}], "id": "9746300000", "name": "USPS COLLECTION BOX - PO LOBBY", "address": {"city": "OAKRIDGE", "state": "OR", "street": "48264 E 1ST ST", "postcode": "97463"}}},
{"geometry": {"type": "Point", "coordinates": [-122.4587311058, 43.7478066145]}, "type": "Feature", "properties": {"collection_times": [{"days": "Mon-Fri", "time": "2:30pm"}, {"days": "Sat", "time": "10:00am"}, {"days": "Sun", "time": "Closed"}], "id": "9746300001", "name": "USPS COLLECTION BOX - BLUE BOX", "address": {"city": "OAKRIDGE", "state": "OR", "street": "48264 E 1ST ST", "postcode": "97463"}}},
{"geometry": {"type": "Point", "coordinates": [-124.4147757241, 42.501052992]}, "type": "Feature", "properties": {"collection_times": [{"days": "Mon-Sat", "time": "9:00am"}, {"days": "Sun", "time": "Closed"}], "id": "9746400000", "name": "USPS COLLECTION BOX - BLUE BOX", "address": {"city": "OPHIR", "state": "OR", "street": "32865 NESIKA RD", "postcode": "97464"}}},
{"geometry": {"type": "Point", "coordinates": [-124.4147757241, 42.501052992]}, "type": "Feature", "properties": {"collection_times": [{"days": "Mon-Sat", "time": "9:00am"}, {"days": "Sun", "time": "Closed"}], "id": "9746400001", "name": "USPS COLLECTION BOX - PO LOBBY", "address": {"city": "OPHIR", "state": "OR", "street": "32865 NESIKA RD", "postcode": "97464"}}},
{"geometry": {"type": "Point", "coordinates": [-124.4946368155, 42.744337781]}, "type": "Feature", "properties": {"collection_times": [{"days": "Mon-Fri", "time": "12:30pm"}, {"days": "Sat", "time": "11:30am"}, {"days": "Sun", "time": "Closed"}], "id": "9746500000", "name": "USPS COLLECTION BOX - BLUE BOX", "address": {"city": "PORT ORFORD", "state": "OR", "street": "311 7TH ST", "postcode": "97465"}}},
{"geometry": {"type": "Point", "coordinates": [-124.4946368155, 42.744337781]}, "type": "Feature", "properties": {"collection_times": [{"days": "Mon-Fri", "time": "12:30pm"}, {"days": "Sat", "time": "11:30am"}, {"days": "Sun", "time": "Closed"}], "id": "9746500001", "name": "USPS COLLECTION BOX - PO LOBBY", "address": {"city": "PORT ORFORD", "state": "OR", "street": "311 7TH ST", "postcode": "97465"}}},
{"geometry": {"type": "Point", "coordinates": [-124.071573609, 42.8824218221]}, "type": "Feature", "properties": {"collection_times": [{"days": "Mon-Sat", "time": "8:00am"}, {"days": "Sun", "time": "Closed"}], "id": "9746600000", "name": "USPS COLLECTION BOX - BLUE BOX", "address": {"city": "POWERS", "state": "OR", "street": "590 2ND AVE", "postcode": "97466"}}},
{"geometry": {"type": "Point", "coordinates": [-124.0715289796, 42.8832005707]}, "type": "Feature", "properties": {"collection_times": [{"days": "Mon-Sat", "time": "8:00am"}, {"days": "Sun", "time": "Closed"}], "id": "9746600001", "name": "USPS COLLECTION BOX - PO LOBBY", "address": {"city": "POWERS", "state": "OR", "street": "590 2ND AVE", "postcode": "97466"}}},
{"geometry": {"type": "Point", "coordinates": [-124.0957299182, 43.7027640615]}, "type": "Feature", "properties": {"collection_times": [{"days": "Mon-Fri", "time": "3:30pm"}, {"days": "Sat", "time": "10:00am"}, {"days": "Sun", "time": "Closed"}], "id": "9746700011", "name": "USPS COLLECTION BOX - BLUE BOX", "address": {"city": "REEDSPORT", "state": "OR", "street": "301 FIR AVE", "postcode": "97467"}}},
{"geometry": {"type": "Point", "coordinates": [-124.0957299182, 43.7027640615]}, "type": "Feature", "properties": {"collection_times": [{"days": "Mon-Fri", "time": "3:30pm"}, {"days": "Sat", "time": "10:00am"}, {"days": "Sun", "time": "Closed"}], "id": "9746700016", "name": "USPS COLLECTION BOX - PO LOBBY", "address": {"city": "REEDSPORT", "state": "OR", "street": "301 FIR AVE", "postcode": "97467"}}},
{"geometry": {"type": "Point", "coordinates": [-123.3661627019, 42.9507174384]}, "type": "Feature", "properties": {"collection_times": [{"days": "Mon-Sat", "time": "3:15pm"}, {"days": "Sun", "time": "Closed"}], "id": "9746900000", "name": "USPS COLLECTION BOX - BLUE BOX", "address": {"city": "RIDDLE", "state": "OR", "street": "330 N MAIN ST", "postcode": "97469"}}},
{"geometry": {"type": "Point", "coordinates": [-123.3661627019, 42.9507174384]}, "type": "Feature", "properties": {"collection_times": [{"days": "Mon-Fri", "time": "3:15pm"}, {"days": "Sat", "time": "10:00am"}, {"days": "Sun", "time": "Closed"}], "id": "9746900001", "name": "USPS COLLECTION BOX - PO LOBBY", "address": {"city": "RIDDLE", "state": "OR", "street": "330 N MAIN ST", "postcode": "97469"}}},
{"geometry": {"type": "Point", "coordinates": [-123.342772893, 43.209498679]}, "type": "Feature", "properties": {"collection_times": [{"days": "Mon-Sat", "time": "1:00pm"}, {"days": "Sun", "time": "Closed"}], "id": "9747000000", "name": "USPS COLLECTION BOX - BLUE BOX", "address": {"city": "ROSEBURG", "state": "OR", "street": "1005 SE WASHINGTON AVE", "postcode": "97470"}}},
{"geometry": {"type": "Point", "coordinates": [-123.342772893, 43.209498679]}, "type": "Feature", "properties": {"collection_times": [{"days": "Mon-Sat", "time": "1:00pm"}, {"days": "Sun", "time": "Closed"}], "id": "9747000001", "name": "USPS COLLECTION BOX - BLUE BOX", "address": {"city": "ROSEBURG", "state": "OR", "street": "1005 SE WASHINGTON AVE", "postcode": "97470"}}},
{"geometry": {"type": "Point", "coordinates": [-123.342772893, 43.209498679]}, "type": "Feature", "properties": {"collection_times": [{"days": "Mon-Sat", "time": "1:00pm"}, {"days": "Sun", "time": "Closed"}], "id": "9747000002", "name": "USPS COLLECTION BOX - BLUE BOX", "address": {"city": "ROSEBURG", "state": "OR", "street": "1005 SE WASHINGTON AVE", "postcode": "97470"}}},
{"geometry": {"type": "Point", "coordinates": [-123.3445932064, 43.2082997138]}, "type": "Feature", "properties": {"collection_times": [{"days": "Mon-Fri", "time": "1:00pm"}, {"days": "Sat-Sun", "time": "Closed"}], "id": "9747000011", "name": "USPS COLLECTION BOX - BLUE BOX", "address": {"city": "ROSEBURG", "state": "OR", "street": "662 SE JACKSON ST", "postcode": "97470"}}},
{"geometry": {"type": "Point", "coordinates": [-123.3430735719, 43.210916389]}, "type": "Feature", "properties": {"collection_times": [{"days": "Mon-Fri", "time": "1:00pm"}, {"days": "Sat-Sun", "time": "Closed"}], "id": "9747000012", "name": "USPS COLLECTION BOX - BLUE BOX", "address": {"city": "ROSEBURG", "state": "OR", "street": "900 SE DOUGLAS AVE", "postcode": "97470"}}},
{"geometry": {"type": "Point", "coordinates": [-123.3487969889, 43.2262009881]}, "type": "Feature", "properties": {"collection_times": [{"days": "Mon-Fri", "time": "1:00pm"}, {"days": "Sat", "time": "10:00am"}, {"days": "Sun", "time": "Closed"}], "id": "9747000016", "name": "USPS COLLECTION BOX - BLUE BOX", "address": {"city": "ROSEBURG", "state": "OR", "street": "1350 NE STEPHENS ST STE 10", "postcode": "97470"}}},
{"geometry": {"type": "Point", "coordinates": [-123.3505829531, 43.2331264881]}, "type": "Feature", "properties": {"collection_times": [{"days": "Mon-Fri", "time": "1:00pm"}, {"days": "Sat", "time": "10:00am"}, {"days": "Sun", "time": "Closed"}], "id": "9747000018", "name": "USPS COLLECTION BOX - BLUE BOX", "address": {"city": "ROSEBURG", "state": "OR", "street": "1871 NE STEPHENS ST", "postcode": "97470"}}},
{"geometry": {"type": "Point", "coordinates": [-123.3527343943, 43.2268088719]}, "type": "Feature", "properties": {"collection_times": [{"days": "Mon-Fri", "time": "1:00pm"}, {"days": "Sat", "time": "10:00am"}, {"days": "Sun", "time": "Closed"}], "id": "9747000019", "name": "USPS COLLECTION BOX - BLUE BOX", "address": {"city": "ROSEBURG", "state": "OR", "street": "250 NE GARDEN VALLEY BLVD", "postcode": "97470"}}},
{"geometry": {"type": "Point", "coordinates": [-123.3455818123, 43.226662867]}, "type": "Feature", "properties": {"collection_times": [{"days": "Mon-Fri", "time": "1:00pm"}, {"days": "Sat-Sun", "time": "Closed"}], "id": "9747000026", "name": "USPS COLLECTION BOX - BLUE BOX", "address": {"city": "ROSEBURG", "state": "OR", "street": "913 NE GARDEN VALLEY BLVD", "postcode": "97470"}}},
{"geometry": {"type": "Point", "coordinates": [-123.3515140473, 43.2134135249]}, "type": "Feature", "properties": {"collection_times": [{"days": "Mon-Fri", "time": "1:00pm"}, {"days": "Sat", "time": "9:00am"}, {"days": "Sun", "time": "Closed"}], "id": "9747000038", "name": "USPS COLLECTION BOX - BLUE BOX", "address": {"city": "ROSEBURG", "state": "OR", "street": "621 W MADRONE ST", "postcode": "97470"}}},
{"geometry": {"type": "Point", "coordinates": [-123.3420442382, 43.209025142]}, "type": "Feature", "properties": {"collection_times": [{"days": "Mon-Fri", "time": "3:00pm"}, {"days": "Sat", "time": "1:00pm"}, {"days": "Sun", "time": "Closed"}], "id": "9747000063", "name": "USPS COLLECTION BOX - PO LOBBY", "address": {"city": "ROSEBURG", "state": "OR", "street": "519 SE KANE ST", "postcode": "97470"}}},
{"geometry": {"type": "Point", "coordinates": [-123.3420442382, 43.209025142]}, "type": "Feature", "properties": {"collection_times": [{"days": "Mon-Fri", "time": "3:30pm"}, {"days": "Sat", "time": "1:00pm"}, {"days": "Sun", "time": "Closed"}], "id": "9747000064", "name": "USPS COLLECTION BOX - BLUE BOX", "address": {"city": "ROSEBURG", "state": "OR", "street": "519 SE KANE ST", "postcode": "97470"}}},
{"geometry": {"type": "Point", "coordinates": [-123.3612340387, 43.2141077168]}, "type": "Feature", "properties": {"collection_times": [{"days": "Mon-Fri", "time": "1:00pm"}, {"days": "Sat", "time": "11:30am"}, {"days": "Sun", "time": "Closed"}], "id": "9747100001", "name": "USPS COLLECTION BOX - BLUE BOX", "address": {"city": "ROSEBURG", "state": "OR", "street": "1030 W HARVARD AVE", "postcode": "97471"}}},
{"geometry": {"type": "Point", "coordinates": [-123.3708059715, 43.2136461432]}, "type": "Feature", "properties": {"collection_times": [{"days": "Mon-Fri", "time": "1:00pm"}, {"days": "Sat", "time": "10:00am"}, {"days": "Sun", "time": "Closed"}], "id": "9747100002", "name": "USPS COLLECTION BOX - BLUE BOX", "address": {"city": "ROSEBURG", "state": "OR", "street": "1813 W HARVARD AVE", "postcode": "97471"}}},
{"geometry": {"type": "Point", "coordinates": [-123.3708059715, 43.2136461432]}, "type": "Feature", "properties": {"collection_times": [{"days": "Mon-Fri", "time": "1:00pm"}, {"days": "Sat", "time": "10:00am"}, {"days": "Sun", "time": "Closed"}], "id": "9747100003", "name": "USPS COLLECTION BOX - BLUE BOX", "address": {"city": "ROSEBURG", "state": "OR", "street": "1813 W HARVARD AVE", "postcode": "97471"}}},
{"geometry": {"type": "Point", "coordinates": [-123.3807430897, 43.214167029]}, "type": "Feature", "properties": {"collection_times": [{"days": "Mon-Fri", "time": "1:00pm"}, {"days": "Sat", "time": "12:00pm"}, {"days": "Sun", "time": "Closed"}], "id": "9747100004", "name": "USPS COLLECTION BOX - BLUE BOX", "address": {"city": "ROSEBURG", "state": "OR", "street": "2455 W HARVARD AVE", "postcode": "97471"}}},
{"geometry": {"type": "Point", "coordinates": [-123.3767944561, 43.2279199893]}, "type": "Feature", "properties": {"collection_times": [{"days": "Mon-Fri", "time": "1:00pm"}, {"days": "Sat", "time": "12:00pm"}, {"days": "Sun", "time": "Closed"}], "id": "9747100005", "name": "USPS COLLECTION BOX - BLUE BOX", "address": {"city": "ROSEBURG", "state": "OR", "street": "1612 NW KEASEY ST", "postcode": "97471"}}},
{"geometry": {"type": "Point", "coordinates": [-123.3985267327, 43.2145115851]}, "type": "Feature", "properties": {"collection_times": [{"days": "Mon-Fri", "time": "1:00pm"}, {"days": "Sat", "time": "10:00am"}, {"days": "Sun", "time": "Closed"}], "id": "9747100007", "name": "USPS COLLECTION BOX - BLUE BOX", "address": {"city": "ROSEBURG", "state": "OR", "street": "780 NW GARDEN VALLEY BLVD", "postcode": "97471"}}},
{"geometry": {"type": "Point", "coordinates": [-123.3660922021, 43.2282619309]}, "type": "Feature", "properties": {"collection_times": [{"days": "Mon-Fri", "time": "1:00pm"}, {"days": "Sat", "time": "12:00pm"}, {"days": "Sun", "time": "Closed"}], "id": "9747100008", "name": "USPS COLLECTION BOX - BLUE BOX", "address": {"city": "ROSEBURG", "state": "OR", "street": "929 NW GARDEN VALLEY BLVD", "postcode": "97471"}}},
{"geometry": {"type": "Point", "coordinates": [-123.3712168617, 43.2303080836]}, "type": "Feature", "properties": {"collection_times": [{"days": "Mon-Fri", "time": "1:00pm"}, {"days": "Sat", "time": "12:00pm"}, {"days": "Sun", "time": "Closed"}], "id": "9747100010", "name": "USPS COLLECTION BOX - BLUE BOX", "address": {"city": "ROSEBURG", "state": "OR", "street": "1381 NW GARDEN VALLEY BLVD", "postcode": "97471"}}},
{"geometry": {"type": "Point", "coordinates": [-123.3731176258, 43.2318311376]}, "type": "Feature", "properties": {"collection_times": [{"days": "Mon-Fri", "time": "1:00pm"}, {"days": "Sat", "time": "11:30am"}, {"days": "Sun", "time": "Closed"}], "id": "9747100011", "name": "USPS COLLECTION BOX - BLUE BOX", "address": {"city": "ROSEBURG", "state": "OR", "street": "1494 NW GARDEN VALLEY BLVD", "postcode": "97471"}}},
{"geometry": {"type": "Point", "coordinates": [-123.3670823517, 43.2399200205]}, "type": "Feature", "properties": {"collection_times": [{"days": "Mon-Fri", "time": "1:00pm"}, {"days": "Sat", "time": "10:00am"}, {"days": "Sun", "time": "Closed"}], "id": "9747100013", "name": "USPS COLLECTION BOX - BLUE BOX", "address": {"city": "ROSEBURG", "state": "OR", "street": "2700 NW STEWART PKWY", "postcode": "97471"}}},
{"geometry": {"type": "Point", "coordinates": [-123.3811171315, 43.1480899412]}, "type": "Feature", "properties": {"collection_times": [{"days": "Mon-Sat", "time": "2:30pm"}, {"days": "Sun", "time": "Closed"}], "id": "9747100014", "name": "USPS COLLECTION BOX - BLUE BOX", "address": {"city": "ROSEBURG", "state": "OR", "street": "4601 CARNES RD", "postcode": "97471"}}},
{"geometry": {"type": "Point", "coordinates": [-123.4624782588, 43.2472112684]}, "type": "Feature", "properties": {"collection_times": [{"days": "Mon-Sat", "time": "11:45am"}, {"days": "Sun", "time": "Closed"}], "id": "9747100015", "name": "USPS COLLECTION BOX - BLUE BOX", "address": {"city": "ROSEBURG", "state": "OR", "street": "3737 MELROSE RD", "postcode": "97471"}}},
{"geometry": {"type": "Point", "coordinates": [-123.3731929071, 43.213950075]}, "type": "Feature", "properties": {"collection_times": [{"days": "Mon-Fri", "time": "1:00pm"}, {"days": "Sat-Sun", "time": "Closed"}], "id": "9747100017", "name": "USPS COLLECTION BOX - BLUE BOX", "address": {"city": "ROSEBURG", "state": "OR", "street": "1937 W HARVARD AVE", "postcode": "97471"}}},
{"geometry": {"type": "Point", "coordinates": [-123.3810042631, 43.1480166426]}, "type": "Feature", "properties": {"collection_times": [{"days": "Mon-Sat", "time": "11:00am"}, {"days": "Sun", "time": "Closed"}], "id": "9747100018", "name": "USPS COLLECTION BOX - BLUE BOX", "address": {"city": "ROSEBURG", "state": "OR", "street": "4601 CARNES RD STE 8", "postcode": "97471"}}},
{"geometry": {"type": "Point", "coordinates": [-123.8094766619, 43.671835474]}, "type": "Feature", "properties": {"collection_times": [{"days": "Mon-Fri", "time": "1:45pm"}, {"days": "Sat", "time": "10:45am"}, {"days": "Sun", "time": "Closed"}], "id": "9747300001", "name": "USPS COLLECTION BOX - PO LOBBY", "address": {"city": "SCOTTSBURG", "state": "OR", "street": "35346 STATE HIGHWAY 38", "postcode": "97473"}}},
{"geometry": {"type": "Point", "coordinates": [-122.9789165166, 44.0558610701]}, "type": "Feature", "properties": {"collection_times": [{"days": "Mon-Sat", "time": "6:00pm"}, {"days": "Sun", "time": "Closed"}], "id": "9747500002", "name": "USPS COLLECTION BOX - BLUE BOX", "address": {"city": "SPRINGFIELD", "state": "OR", "street": "3148 GATEWAY ST", "postcode": "97475"}}},
{"geometry": {"type": "Point", "coordinates": [-122.9789165166, 44.0558610701]}, "type": "Feature", "properties": {"collection_times": [{"days": "Mon-Sat", "time": "6:00pm"}, {"days": "Sun", "time": "Closed"}], "id": "9747500003", "name": "USPS COLLECTION BOX - EXPRESS", "address": {"city": "SPRINGFIELD", "state": "OR", "street": "3148 GATEWAY ST", "postcode": "97475"}}},
{"geometry": {"type": "Point", "coordinates": [-122.9789165166, 44.0558610701]}, "type": "Feature", "properties": {"collection_times": [{"days": "Mon-Sat", "time": "6:00pm"}, {"days": "Sun", "time": "Closed"}], "id": "9747500004", "name": "USPS COLLECTION BOX - BLUE BOX", "address": {"city": "SPRINGFIELD", "state": "OR", "street": "3148 GATEWAY ST", "postcode": "97475"}}},
{"geometry": {"type": "Point", "coordinates": [-122.9789165166, 44.0558610701]}, "type": "Feature", "properties": {"collection_times": [{"days": "Mon-Sat", "time": "6:00pm"}, {"days": "Sun", "time": "Closed"}], "id": "9747500005", "name": "USPS COLLECTION BOX - APC", "address": {"city": "SPRINGFIELD", "state": "OR", "street": "3148 GATEWAY ST", "postcode": "97475"}}},
{"geometry": {"type": "Point", "coordinates": [-123.0018485763, 44.0532853926]}, "type": "Feature", "properties": {"collection_times": [{"days": "Mon-Sat", "time": "3:00pm"}, {"days": "Sun", "time": "Closed"}], "id": "9747700007", "name": "USPS COLLECTION BOX - BLUE BOX", "address": {"city": "SPRINGFIELD", "state": "OR", "street": "960 N 16TH ST", "postcode": "97477"}}},
{"geometry": {"type": "Point", "coordinates": [-122.9954575008, 44.0645072938]}, "type": "Feature", "properties": {"collection_times": [{"days": "Mon-Sat", "time": "3:00pm"}, {"days": "Sun", "time": "Closed"}], "id": "9747700008", "name": "USPS COLLECTION BOX - BLUE BOX", "address": {"city": "SPRINGFIELD", "state": "OR", "street": "2000 MARCOLA RD", "postcode": "97477"}}},
{"geometry": {"type": "Point", "coordinates": [-123.0195376453, 44.0473188119]}, "type": "Feature", "properties": {"collection_times": [{"days": "Mon-Sat", "time": "3:00pm"}, {"days": "Sun", "time": "Closed"}], "id": "9747700011", "name": "USPS COLLECTION BOX - BLUE BOX", "address": {"city": "SPRINGFIELD", "state": "OR", "street": "225 5TH ST", "postcode": "97477"}}},
{"geometry": {"type": "Point", "coordinates": [-123.0339511357, 44.0571311308]}, "type": "Feature", "properties": {"collection_times": [{"days": "Mon-Sat", "time": "3:00pm"}, {"days": "Sun", "time": "Closed"}], "id": "9747700016", "name": "USPS COLLECTION BOX - BLUE BOX", "address": {"city": "SPRINGFIELD", "state": "OR", "street": "551 W CENTENNIAL BLVD", "postcode": "97477"}}},
{"geometry": {"type": "Point", "coordinates": [-123.0261249482, 44.0634526104]}, "type": "Feature", "properties": {"collection_times": [{"days": "Mon-Sat", "time": "3:00pm"}, {"days": "Sun", "time": "Closed"}], "id": "9747700022", "name": "USPS COLLECTION BOX - BLUE BOX", "address": {"city": "SPRINGFIELD", "state": "OR", "street": "1891 PIONEER PKWY E", "postcode": "97477"}}},
{"geometry": {"type": "Point", "coordinates": [-123.0157492906, 44.0470665268]}, "type": "Feature", "properties": {"collection_times": [{"days": "Mon-Fri", "time": "5:00pm"}, {"days": "Sat", "time": "3:00pm"}, {"days": "Sun", "time": "Closed"}], "id": "9747700023", "name": "USPS COLLECTION BOX - BLUE BOX", "address": {"city": "SPRINGFIELD", "state": "OR", "street": "760 A ST", "postcode": "97477"}}},
{"geometry": {"type": "Point", "coordinates": [-123.0157492906, 44.0470665268]}, "type": "Feature", "properties": {"collection_times": [{"days": "Mon-Fri", "time": "5:00pm"}, {"days": "Sat", "time": "3:00pm"}, {"days": "Sun", "time": "Closed"}], "id": "9747700024", "name": "USPS COLLECTION BOX - BLUE BOX", "address": {"city": "SPRINGFIELD", "state": "OR", "street": "760 A ST", "postcode": "97477"}}},
{"geometry": {"type": "Point", "coordinates": [-123.0157492906, 44.0470665268]}, "type": "Feature", "properties": {"collection_times": [{"days": "Mon-Fri", "time": "5:00pm"}, {"days": "Sat", "time": "3:00pm"}, {"days": "Sun", "time": "Closed"}], "id": "9747700033", "name": "USPS COLLECTION BOX - PO LOBBY", "address": {"city": "SPRINGFIELD", "state": "OR", "street": "760 A ST", "postcode": "97477"}}},
{"geometry": {"type": "Point", "coordinates": [-123.0157734698, 44.0461784394]}, "type": "Feature", "properties": {"collection_times": [{"days": "Mon-Sat", "time": "3:00pm"}, {"days": "Sun", "time": "Closed"}], "id": "9747700036", "name": "USPS COLLECTION BOX - BLUE BOX", "address": {"city": "SPRINGFIELD", "state": "OR", "street": "741 MAIN ST", "postcode": "97477"}}},
{"geometry": {"type": "Point", "coordinates": [-123.0157492906, 44.0470665268]}, "type": "Feature", "properties": {"collection_times": [{"days": "Mon-Fri", "time": "5:00pm"}, {"days": "Sat", "time": "3:00pm"}, {"days": "Sun", "time": "Closed"}], "id": "9747700037", "name": "USPS COLLECTION BOX - PO LOBBY", "address": {"city": "SPRINGFIELD", "state": "OR", "street": "760 A ST", "postcode": "97477"}}},
{"geometry": {"type": "Point", "coordinates": [-123.0016305428, 44.0562719325]}, "type": "Feature", "properties": {"collection_times": [{"days": "Mon-Sat", "time": "3:00pm"}, {"days": "Sun", "time": "Closed"}], "id": "9747700038", "name": "USPS COLLECTION BOX - BLUE BOX", "address": {"city": "SPRINGFIELD", "state": "OR", "street": "1600 CENTENNIAL BLVD", "postcode": "97477"}}},
{"geometry": {"type": "Point", "coordinates": [-123.0016305428, 44.0562719325]}, "type": "Feature", "properties": {"collection_times": [{"days": "Mon-Sat", "time": "3:00pm"}, {"days": "Sun", "time": "Closed"}], "id": "9747700039", "name": "USPS COLLECTION BOX - BLUE BOX", "address": {"city": "SPRINGFIELD", "state": "OR", "street": "1600 CENTENNIAL BLVD", "postcode": "97477"}}},
{"geometry": {"type": "Point", "coordinates": [-123.0325147051, 44.0639062625]}, "type": "Feature", "properties": {"collection_times": [{"days": "Mon-Sat", "time": "3:00pm"}, {"days": "Sun", "time": "Closed"}], "id": "9747700040", "name": "USPS COLLECTION BOX - BLUE BOX", "address": {"city": "SPRINGFIELD", "state": "OR", "street": "451 SHELLEY ST", "postcode": "97477"}}},
{"geometry": {"type": "Point", "coordinates": [-123.0195376453, 44.0473188119]}, "type": "Feature", "properties": {"collection_times": [{"days": "Mon-Sat", "time": "3:00pm"}, {"days": "Sun", "time": "Closed"}], "id": "9747700041", "name": "USPS COLLECTION BOX - BLUE BOX", "address": {"city": "SPRINGFIELD", "state": "OR", "street": "225 5TH ST", "postcode": "97477"}}},
{"geometry": {"type": "Point", "coordinates": [-123.0176957782, 44.0621578491]}, "type": "Feature", "properties": {"collection_times": [{"days": "Mon-Sat", "time": "3:00pm"}, {"days": "Sun", "time": "Closed"}], "id": "9747700042", "name": "USPS COLLECTION BOX - BLUE BOX", "address": {"city": "SPRINGFIELD", "state": "OR", "street": "650 Q ST", "postcode": "97477"}}},
{"geometry": {"type": "Point", "coordinates": [-123.0016305428, 44.0562719325]}, "type": "Feature", "properties": {"collection_times": [{"days": "Mon-Sat", "time": "3:00pm"}, {"days": "Sun", "time": "Closed"}], "id": "9747700043", "name": "USPS COLLECTION BOX - BLUE BOX", "address": {"city": "SPRINGFIELD", "state": "OR", "street": "1600 CENTENNIAL BLVD", "postcode": "97477"}}},
{"geometry": {"type": "Point", "coordinates": [-123.0286334528, 44.0819851999]}, "type": "Feature", "properties": {"collection_times": [{"days": "Mon-Fri", "time": "3:00pm"}, {"days": "Sat-Sun", "time": "Closed"}], "id": "9747700044", "name": "USPS COLLECTION BOX - BLUE BOX", "address": {"city": "SPRINGFIELD", "state": "OR", "street": "3333 RIVERBEND DR", "postcode": "97477"}}},
{"geometry": {"type": "Point", "coordinates": [-123.0317670751, 44.0884219041]}, "type": "Feature", "properties": {"collection_times": [{"days": "Mon-Fri", "time": "3:00pm"}, {"days": "Sat-Sun", "time": "Closed"}], "id": "9747700045", "name": "USPS COLLECTION BOX - BLUE BOX", "address": {"city": "SPRINGFIELD", "state": "OR", "street": "123 INTERNATIONAL WAY", "postcode": "97477"}}},
{"geometry": {"type": "Point", "coordinates": [-122.9625604472, 44.0457154865]}, "type": "Feature", "properties": {"collection_times": [{"days": "Mon-Sat", "time": "3:00pm"}, {"days": "Sun", "time": "Closed"}], "id": "9747800001", "name": "USPS COLLECTION BOX - BLUE BOX", "address": {"city": "SPRINGFIELD", "state": "OR", "street": "4225 MAIN ST", "postcode": "97478"}}},
{"geometry": {"type": "Point", "coordinates": [-122.9278811584, 44.0456256091]}, "type": "Feature", "properties": {"collection_times": [{"days": "Mon-Sat", "time": "3:00pm"}, {"days": "Sun", "time": "Closed"}], "id": "9747800002", "name": "USPS COLLECTION BOX - BLUE BOX", "address": {"city": "SPRINGFIELD", "state": "OR", "street": "5755 MAIN ST", "postcode": "97478"}}},
{"geometry": {"type": "Point", "coordinates": [-122.9305400727, 44.0456339669]}, "type": "Feature", "properties": {"collection_times": [{"days": "Mon-Sat", "time": "1:00pm"}, {"days": "Sun", "time": "Closed"}], "id": "9747800003", "name": "USPS COLLECTION BOX - BLUE BOX", "address": {"city": "SPRINGFIELD", "state": "OR", "street": "5415 MAIN ST", "postcode": "97478"}}},
{"geometry": {"type": "Point", "coordinates": [-122.9166571089, 44.143223644]}, "type": "Feature", "properties": {"collection_times": [{"days": "Mon-Sat", "time": "9:15am"}, {"days": "Sun", "time": "Closed"}], "id": "9747800004", "name": "USPS COLLECTION BOX - BLUE BOX", "address": {"city": "SPRINGFIELD", "state": "OR", "street": "91130 DONNA RD", "postcode": "97478"}}},
{"geometry": {"type": "Point", "coordinates": [-123.3028279866, 43.3918616746]}, "type": "Feature", "properties": {"collection_times": [{"days": "Mon-Sat", "time": "2:00pm"}, {"days": "Sun", "time": "Closed"}], "id": "9747900002", "name": "USPS COLLECTION BOX - PO LOBBY", "address": {"city": "SUTHERLIN", "state": "OR", "street": "591 E CENTRAL AVE", "postcode": "97479"}}},
{"geometry": {"type": "Point", "coordinates": [-123.3046736152, 43.3915513191]}, "type": "Feature", "properties": {"collection_times": [{"days": "Mon-Sat", "time": "2:00pm"}, {"days": "Sun", "time": "Closed"}], "id": "9747900003", "name": "USPS COLLECTION BOX - BLUE BOX", "address": {"city": "SUTHERLIN", "state": "OR", "street": "591 E CENTRAL AVE", "postcode": "97479"}}},
{"geometry": {"type": "Point", "coordinates": [-123.3014979213, 43.3920952439]}, "type": "Feature", "properties": {"collection_times": [{"days": "Mon-Sat", "time": "1:00pm"}, {"days": "Sun", "time": "Closed"}], "id": "9747900005", "name": "USPS COLLECTION BOX - BLUE BOX", "address": {"city": "SUTHERLIN", "state": "OR", "street": "811 E CENTRAL AVE", "postcode": "97479"}}},
{"geometry": {"type": "Point", "coordinates": [-123.3046736152, 43.3915513191]}, "type": "Feature", "properties": {"collection_times": [{"days": "Mon-Sat", "time": "2:00pm"}, {"days": "Sun", "time": "Closed"}], "id": "9747900006", "name": "USPS COLLECTION BOX - BLUE BOX", "address": {"city": "SUTHERLIN", "state": "OR", "street": "591 E CENTRAL AVE", "postcode": "97479"}}},
{"geometry": {"type": "Point", "coordinates": [-123.8001277935, 44.0574271224]}, "type": "Feature", "properties": {"collection_times": [{"days": "Mon-Fri", "time": "3:00pm"}, {"days": "Sat", "time": "9:00am"}, {"days": "Sun", "time": "Closed"}], "id": "9748000000", "name": "USPS COLLECTION BOX - BLUE BOX", "address": {"city": "SWISSHOME", "state": "OR", "street": "13297 HIGHWAY 36", "postcode": "97480"}}},
{"geometry": {"type": "Point", "coordinates": [-123.8001277935, 44.0574271224]}, "type": "Feature", "properties": {"collection_times": [{"days": "Mon-Fri", "time": "1:00pm"}, {"days": "Sat", "time": "9:00am"}, {"days": "Sun", "time": "Closed"}], "id": "9748000001", "name": "USPS COLLECTION BOX - PO LOBBY", "address": {"city": "SWISSHOME", "state": "OR", "street": "13297 HIGHWAY 36", "postcode": "97480"}}},
{"geometry": {"type": "Point", "coordinates": [-123.5450576982, 43.1039833352]}, "type": "Feature", "properties": {"collection_times": [{"days": "Mon-Sat", "time": "10:00am"}, {"days": "Sun", "time": "Closed"}], "id": "9748100000", "name": "USPS COLLECTION BOX - BLUE BOX", "address": {"city": "TENMILE", "state": "OR", "street": "114 LENA AVE", "postcode": "97481"}}},
{"geometry": {"type": "Point", "coordinates": [-123.5450576982, 43.1039833352]}, "type": "Feature", "properties": {"collection_times": [{"days": "Mon-Sat", "time": "10:00am"}, {"days": "Sun", "time": "Closed"}], "id": "9748100001", "name": "USPS COLLECTION BOX - PO LOBBY", "address": {"city": "TENMILE", "state": "OR", "street": "114 LENA AVE", "postcode": "97481"}}},
{"geometry": {"type": "Point", "coordinates": [-122.9546611991, 42.9286717092]}, "type": "Feature", "properties": {"collection_times": [{"days": "Mon-Fri", "time": "1:30pm"}, {"days": "Sat", "time": "1:00pm"}, {"days": "Sun", "time": "Closed"}], "id": "9748400000", "name": "USPS COLLECTION BOX - PO LOBBY", "address": {"city": "TILLER", "state": "OR", "street": "27490 TILLER TRAIL HWY", "postcode": "97484"}}},
{"geometry": {"type": "Point", "coordinates": [-123.5341256644, 43.3975101817]}, "type": "Feature", "properties": {"collection_times": [{"days": "Mon-Sat", "time": "10:00am"}, {"days": "Sun", "time": "Closed"}], "id": "9748600000", "name": "USPS COLLECTION BOX - PO LOBBY", "address": {"city": "UMPQUA", "state": "OR", "street": "6451 FORT MCKAY RD", "postcode": "97486"}}},
{"geometry": {"type": "Point", "coordinates": [-123.5341256644, 43.3975101817]}, "type": "Feature", "properties": {"collection_times": [{"days": "Mon-Sat", "time": "10:00am"}, {"days": "Sun", "time": "Closed"}], "id": "9748600002", "name": "USPS COLLECTION BOX - BLUE BOX", "address": {"city": "UMPQUA", "state": "OR", "street": "6451 FORT MCKAY RD", "postcode": "97486"}}},
{"geometry": {"type": "Point", "coordinates": [-123.3537285418, 44.0585787827]}, "type": "Feature", "properties": {"collection_times": [{"days": "Mon-Sat", "time": "11:30am"}, {"days": "Sun", "time": "Closed"}], "id": "9748700000", "name": "USPS COLLECTION BOX - BLUE BOX", "address": {"city": "VENETA", "state": "OR", "street": "88320 N TERRITORIAL RD", "postcode": "97487"}}},
{"geometry": {"type": "Point", "coordinates": [-123.3498279111, 44.0428130186]}, "type": "Feature", "properties": {"collection_times": [{"days": "Mon-Fri", "time": "3:45pm"}, {"days": "Sat", "time": "9:30am"}, {"days": "Sun", "time": "Closed"}], "id": "9748700001", "name": "USPS COLLECTION BOX - BLUE BOX", "address": {"city": "VENETA", "state": "OR", "street": "25042 DUNHAM AVE", "postcode": "97487"}}},
{"geometry": {"type": "Point", "coordinates": [-123.3498279111, 44.0428130186]}, "type": "Feature", "properties": {"collection_times": [{"days": "Mon-Fri", "time": "3:45pm"}, {"days": "Sat", "time": "9:30am"}, {"days": "Sun", "time": "Closed"}], "id": "9748700002", "name": "USPS COLLECTION BOX - PO LOBBY", "address": {"city": "VENETA", "state": "OR", "street": "25042 DUNHAM AVE", "postcode": "97487"}}},
{"geometry": {"type": "Point", "coordinates": [-122.4843984056, 44.1331630629]}, "type": "Feature", "properties": {"collection_times": [{"days": "Mon-Sat", "time": "11:00am"}, {"days": "Sun", "time": "Closed"}], "id": "9748800000", "name": "USPS COLLECTION BOX - BLUE BOX", "address": {"city": "VIDA", "state": "OR", "street": "45598 MCKENZIE HWY", "postcode": "97488"}}},
{"geometry": {"type": "Point", "coordinates": [-122.4843984056, 44.1331630629]}, "type": "Feature", "properties": {"collection_times": [{"days": "Mon-Sat", "time": "11:00am"}, {"days": "Sun", "time": "Closed"}], "id": "9748800001", "name": "USPS COLLECTION BOX - PO LOBBY", "address": {"city": "VIDA", "state": "OR", "street": "45598 MCKENZIE HWY", "postcode": "97488"}}},
{"geometry": {"type": "Point", "coordinates": [-122.6412962789, 44.1436034631]}, "type": "Feature", "properties": {"collection_times": [{"days": "Mon-Fri", "time": "1:00pm"}, {"days": "Sat", "time": "9:30am"}, {"days": "Sun", "time": "Closed"}], "id": "9748900000", "name": "USPS COLLECTION BOX - BLUE BOX", "address": {"city": "WALTERVILLE", "state": "OR", "street": "39333 MCKENZIE HWY", "postcode": "97489"}}},
{"geometry": {"type": "Point", "coordinates": [-122.6315985019, 44.1244600169]}, "type": "Feature", "properties": {"collection_times": [{"days": "Mon-Fri", "time": "1:00pm"}, {"days": "Sat", "time": "9:30am"}, {"days": "Sun", "time": "Closed"}], "id": "9748900001", "name": "USPS COLLECTION BOX - PO LOBBY", "address": {"city": "WALTERVILLE", "state": "OR", "street": "39333 MCKENZIE HWY", "postcode": "97489"}}},
{"geometry": {"type": "Point", "coordinates": [-123.5844524051, 44.0308710173]}, "type": "Feature", "properties": {"collection_times": [{"days": "Mon-Fri", "time": "1:00pm"}, {"days": "Sat", "time": "11:30am"}, {"days": "Sun", "time": "Closed"}], "id": "9749000000", "name": "USPS COLLECTION BOX - PO LOBBY", "address": {"city": "WALTON", "state": "OR", "street": "18945 HIGHWAY 126", "postcode": "97490"}}},
{"geometry": {"type": "Point", "coordinates": [-124.413798098, 42.4297037024]}, "type": "Feature", "properties": {"collection_times": [{"days": "Mon-Fri", "time": "10:00am"}, {"days": "Sat-Sun", "time": "Closed"}], "id": "9749100000", "name": "USPS COLLECTION BOX - BLUE BOX", "address": {"city": "WEDDERBURN", "state": "OR", "street": "94221 N BANK ROGUE", "postcode": "97491"}}},
{"geometry": {"type": "Point", "coordinates": [-124.413798098, 42.4297037024]}, "type": "Feature", "properties": {"collection_times": [{"days": "Mon-Sat", "time": "10:00am"}, {"days": "Sun", "time": "Closed"}], "id": "9749100001", "name": "USPS COLLECTION BOX - PO LOBBY", "address": {"city": "WEDDERBURN", "state": "OR", "street": "94221 N BANK ROGUE", "postcode": "97491"}}},
{"geometry": {"type": "Point", "coordinates": [-122.4948159458, 43.7580813189]}, "type": "Feature", "properties": {"collection_times": [{"days": "Mon-Fri", "time": "2:00pm"}, {"days": "Sat", "time": "10:00am"}, {"days": "Sun", "time": "Closed"}], "id": "9749200000", "name": "USPS COLLECTION BOX - BLUE BOX", "address": {"city": "WESTFIR", "state": "OR", "street": "47395 WESTOAK RD", "postcode": "97492"}}},
{"geometry": {"type": "Point", "coordinates": [-122.4948159458, 43.7580813189]}, "type": "Feature", "properties": {"collection_times": [{"days": "Mon-Fri", "time": "11:45am"}, {"days": "Sat", "time": "10:00am"}, {"days": "Sun", "time": "Closed"}], "id": "9749200001", "name": "USPS COLLECTION BOX - PO LOBBY", "address": {"city": "WESTFIR", "state": "OR", "street": "47395 WESTOAK RD", "postcode": "97492"}}},
{"geometry": {"type": "Point", "coordinates": [-124.1153137175, 43.8834778123]}, "type": "Feature", "properties": {"collection_times": [{"days": "Mon-Fri", "time": "2:30pm"}, {"days": "Sat", "time": "9:45am"}, {"days": "Sun", "time": "Closed"}], "id": "9749300000", "name": "USPS COLLECTION BOX - BLUE BOX", "address": {"city": "WESTLAKE", "state": "OR", "street": "82853 LAKE BLVD", "postcode": "97493"}}},
{"geometry": {"type": "Point", "coordinates": [-124.1153137175, 43.8834778123]}, "type": "Feature", "properties": {"collection_times": [{"days": "Mon-Fri", "time": "2:30pm"}, {"days": "Sat", "time": "9:45am"}, {"days": "Sun", "time": "Closed"}], "id": "9749300001", "name": "USPS COLLECTION BOX - PO LOBBY", "address": {"city": "WESTLAKE", "state": "OR", "street": "82853 LAKE BLVD", "postcode": "97493"}}},
{"geometry": {"type": "Point", "coordinates": [-123.3440264915, 43.3168628722]}, "type": "Feature", "properties": {"collection_times": [{"days": "Mon-Fri", "time": "1:30pm"}, {"days": "Sat", "time": "9:45am"}, {"days": "Sun", "time": "Closed"}], "id": "9749400000", "name": "USPS COLLECTION BOX - BLUE BOX", "address": {"city": "WILBUR", "state": "OR", "street": "8837 OLD HWY 99 N", "postcode": "97494"}}},
{"geometry": {"type": "Point", "coordinates": [-123.3412986653, 43.3215334155]}, "type": "Feature", "properties": {"collection_times": [{"days": "Mon-Fri", "time": "1:30pm"}, {"days": "Sat", "time": "9:45am"}, {"days": "Sun", "time": "Closed"}], "id": "9749400001", "name": "USPS COLLECTION BOX - PO LOBBY", "address": {"city": "WILBUR", "state": "OR", "street": "8837 OLD HWY 99 N", "postcode": "97494"}}},
{"geometry": {"type": "Point", "coordinates": [-123.3546180177, 43.2801212281]}, "type": "Feature", "properties": {"collection_times": [{"days": "Mon-Fri", "time": "1:30pm"}, {"days": "Sat", "time": "10:00am"}, {"days": "Sun", "time": "Closed"}], "id": "9749500000", "name": "USPS COLLECTION BOX - BLUE BOX", "address": {"city": "WINCHESTER", "state": "OR", "street": "5571 NE STEPHENS ST", "postcode": "97495"}}},
{"geometry": {"type": "Point", "coordinates": [-123.354082098, 43.278494682]}, "type": "Feature", "properties": {"collection_times": [{"days": "Mon-Fri", "time": "1:30pm"}, {"days": "Sat", "time": "10:00am"}, {"days": "Sun", "time": "Closed"}], "id": "9749500003", "name": "USPS COLLECTION BOX - PO LOBBY", "address": {"city": "WINCHESTER", "state": "OR", "street": "5571 NE STEPHENS ST", "postcode": "97495"}}},
{"geometry": {"type": "Point", "coordinates": [-123.4139234106, 43.119241473]}, "type": "Feature", "properties": {"collection_times": [{"days": "Mon-Fri", "time": "2:30pm"}, {"days": "Sat", "time": "11:45am"}, {"days": "Sun", "time": "Closed"}], "id": "9749600000", "name": "USPS COLLECTION BOX - BLUE BOX", "address": {"city": "WINSTON", "state": "OR", "street": "291 SW MAIN ST", "postcode": "97496"}}},
{"geometry": {"type": "Point", "coordinates": [-123.4142881019, 43.1179355738]}, "type": "Feature", "properties": {"collection_times": [{"days": "Mon-Fri", "time": "2:30pm"}, {"days": "Sat", "time": "11:45am"}, {"days": "Sun", "time": "Closed"}], "id": "9749600001", "name": "USPS COLLECTION BOX - PO LOBBY", "address": {"city": "WINSTON", "state": "OR", "street": "291 SW MAIN ST", "postcode": "97496"}}},
{"geometry": {"type": "Point", "coordinates": [-123.4614715286, 43.1070448521]}, "type": "Feature", "properties": {"collection_times": [{"days": "Mon-Sat", "time": "10:30am"}, {"days": "Sun", "time": "Closed"}], "id": "9749600002", "name": "USPS COLLECTION BOX - BLUE BOX", "address": {"city": "WINSTON", "state": "OR", "street": "18493 HIGHWAY 42", "postcode": "97496"}}},
{"geometry": {"type": "Point", "coordinates": [-123.3791749967, 42.7017587733]}, "type": "Feature", "properties": {"collection_times": [{"days": "Mon-Fri", "time": "1:45pm"}, {"days": "Sat", "time": "10:30am"}, {"days": "Sun", "time": "Closed"}], "id": "9749700000", "name": "USPS COLLECTION BOX - BLUE BOX", "address": {"city": "WOLF CREEK", "state": "OR", "street": "100 RAILROAD AVE", "postcode": "97497"}}},
{"geometry": {"type": "Point", "coordinates": [-123.3786034816, 42.6331239019]}, "type": "Feature", "properties": {"collection_times": [{"days": "Mon-Sat", "time": "10:30am"}, {"days": "Sun", "time": "Closed"}], "id": "9749700001", "name": "USPS COLLECTION BOX - BLUE BOX", "address": {"city": "WOLF CREEK", "state": "OR", "street": "400 SUNNY VALLEY LOOP", "postcode": "97497"}}},
{"geometry": {"type": "Point", "coordinates": [-123.3791749967, 42.7017587733]}, "type": "Feature", "properties": {"collection_times": [{"days": "Mon-Fri", "time": "1:45pm"}, {"days": "Sat", "time": "10:30am"}, {"days": "Sun", "time": "Closed"}], "id": "9749700002", "name": "USPS COLLECTION BOX - PO LOBBY", "address": {"city": "WOLF CREEK", "state": "OR", "street": "100 RAILROAD AVE", "postcode": "97497"}}},
{"geometry": {"type": "Point", "coordinates": [-124.1037249711, 44.3105702649]}, "type": "Feature", "properties": {"collection_times": [{"days": "Mon-Fri", "time": "1:00pm"}, {"days": "Sat", "time": "11:45am"}, {"days": "Sun", "time": "Closed"}], "id": "9749800000", "name": "USPS COLLECTION BOX - BLUE BOX", "address": {"city": "YACHATS", "state": "OR", "street": "141 BEACH RD", "postcode": "97498"}}},
{"geometry": {"type": "Point", "coordinates": [-124.1037249711, 44.3105702649]}, "type": "Feature", "properties": {"collection_times": [{"days": "Mon-Fri", "time": "1:00pm"}, {"days": "Sat", "time": "11:45am"}, {"days": "Sun", "time": "Closed"}], "id": "9749800001", "name": "USPS COLLECTION BOX - PO LOBBY", "address": {"city": "YACHATS", "state": "OR", "street": "141 BEACH RD", "postcode": "97498"}}},
{"geometry": {"type": "Point", "coordinates": [-123.2834545908, 43.6001263829]}, "type": "Feature", "properties": {"collection_times": [{"days": "Mon-Fri", "time": "3:00pm"}, {"days": "Sat", "time": "9:00am"}, {"days": "Sun", "time": "Closed"}], "id": "9749900000", "name": "USPS COLLECTION BOX - BLUE BOX", "address": {"city": "YONCALLA", "state": "OR", "street": "173 ALDER ST", "postcode": "97499"}}}
]}
