{"type": "FeatureCollection", "features": [
{"geometry": {"type": "Point", "coordinates": [-122.8605810832, 42.3157531632]}, "type": "Feature", "properties": {"collection_times": [{"days": "Mon-Sat", "time": "3:30pm"}, {"days": "Sun", "time": "Closed"}], "id": "9750100000", "name": "USPS COLLECTION BOX - BLUE BOX", "address": {"city": "MEDFORD", "state": "OR", "street": "251 E BARNETT RD", "postcode": "97501"}}},
{"geometry": {"type": "Point", "coordinates": [-122.8605810832, 42.3157531632]}, "type": "Feature", "properties": {"collection_times": [{"days": "Mon-Sat", "time": "3:30pm"}, {"days": "Sun", "time": "Closed"}], "id": "9750100001", "name": "USPS COLLECTION BOX - BLUE BOX", "address": {"city": "MEDFORD", "state": "OR", "street": "251 E BARNETT RD", "postcode": "97501"}}},
{"geometry": {"type": "Point", "coordinates": [-122.8569008979, 42.3131731297]}, "type": "Feature", "properties": {"collection_times": [{"days": "Mon-Sat", "time": "3:30pm"}, {"days": "Sun", "time": "Closed"}], "id": "9750100005", "name": "USPS COLLECTION BOX - BLUE BOX", "address": {"city": "MEDFORD", "state": "OR", "street": "1301 CENTER DR", "postcode": "97501"}}},
{"geometry": {"type": "Point", "coordinates": [-122.8646931466, 42.3189782635]}, "type": "Feature", "properties": {"collection_times": [{"days": "Mon-Sat", "time": "3:30pm"}, {"days": "Sun", "time": "Closed"}], "id": "9750100007", "name": "USPS COLLECTION BOX - BLUE BOX", "address": {"city": "MEDFORD", "state": "OR", "street": "835 S RIVERSIDE AVE", "postcode": "97501"}}},
{"geometry": {"type": "Point", "coordinates": [-122.8800360264, 42.3224392473]}, "type": "Feature", "properties": {"collection_times": [{"days": "Mon-Sat", "time": "4:00pm"}, {"days": "Sun", "time": "Closed"}], "id": "9750100012", "name": "USPS COLLECTION BOX - BLUE BOX", "address": {"city": "MEDFORD", "state": "OR", "street": "816 W 8TH ST", "postcode": "97501"}}},
{"geometry": {"type": "Point", "coordinates": [-122.8763959692, 42.3388417334]}, "type": "Feature", "properties": {"collection_times": [{"days": "Mon-Sat", "time": "3:30pm"}, {"days": "Sun", "time": "Closed"}], "id": "9750100013", "name": "USPS COLLECTION BOX - BLUE BOX", "address": {"city": "MEDFORD", "state": "OR", "street": "1257 N RIVERSIDE AVE", "postcode": "97501"}}},
{"geometry": {"type": "Point", "coordinates": [-122.8786933679, 42.3426394545]}, "type": "Feature", "properties": {"collection_times": [{"days": "Mon-Sat", "time": "3:30pm"}, {"days": "Sun", "time": "Closed"}], "id": "9750100015", "name": "USPS COLLECTION BOX - BLUE BOX", "address": {"city": "MEDFORD", "state": "OR", "street": "1600 N RIVERSIDE AVE", "postcode": "97501"}}},
{"geometry": {"type": "Point", "coordinates": [-122.8786933679, 42.3426394545]}, "type": "Feature", "properties": {"collection_times": [{"days": "Mon-Sat", "time": "3:30pm"}, {"days": "Sun", "time": "Closed"}], "id": "9750100016", "name": "USPS COLLECTION BOX - BLUE BOX", "address": {"city": "MEDFORD", "state": "OR", "street": "1600 N RIVERSIDE AVE", "postcode": "97501"}}},
{"geometry": {"type": "Point", "coordinates": [-122.8786933679, 42.3426394545]}, "type": "Feature", "properties": {"collection_times": [{"days": "Mon-Sat", "time": "3:30pm"}, {"days": "Sun", "time": "Closed"}], "id": "9750100017", "name": "USPS COLLECTION BOX - BLUE BOX", "address": {"city": "MEDFORD", "state": "OR", "street": "1600 N RIVERSIDE AVE", "postcode": "97501"}}},
{"geometry": {"type": "Point", "coordinates": [-122.872494283, 42.3267595649]}, "type": "Feature", "properties": {"collection_times": [{"days": "Mon-Sat", "time": "3:30pm"}, {"days": "Sun", "time": "Closed"}], "id": "9750100018", "name": "USPS COLLECTION BOX - BLUE BOX", "address": {"city": "MEDFORD", "state": "OR", "street": "33 N CENTRAL AVE", "postcode": "97501"}}},
{"geometry": {"type": "Point", "coordinates": [-122.872494283, 42.3267595649]}, "type": "Feature", "properties": {"collection_times": [{"days": "Mon-Sat", "time": "3:30pm"}, {"days": "Sun", "time": "Closed"}], "id": "9750100019", "name": "USPS COLLECTION BOX - BLUE BOX", "address": {"city": "MEDFORD", "state": "OR", "street": "33 N CENTRAL AVE", "postcode": "97501"}}},
{"geometry": {"type": "Point", "coordinates": [-122.872494283, 42.3267595649]}, "type": "Feature", "properties": {"collection_times": [{"days": "Mon-Sat", "time": "3:30pm"}, {"days": "Sun", "time": "Closed"}], "id": "9750100020", "name": "USPS COLLECTION BOX - BLUE BOX", "address": {"city": "MEDFORD", "state": "OR", "street": "33 N CENTRAL AVE", "postcode": "97501"}}},
{"geometry": {"type": "Point", "coordinates": [-122.8767196821, 42.3241187151]}, "type": "Feature", "properties": {"collection_times": [{"days": "Mon-Sat", "time": "3:30pm"}, {"days": "Sun", "time": "Closed"}], "id": "9750100034", "name": "USPS COLLECTION BOX - BLUE BOX", "address": {"city": "MEDFORD", "state": "OR", "street": "399 W MAIN ST", "postcode": "97501"}}},
{"geometry": {"type": "Point", "coordinates": [-122.8767196821, 42.3241187151]}, "type": "Feature", "properties": {"collection_times": [{"days": "Mon-Sat", "time": "3:30pm"}, {"days": "Sun", "time": "Closed"}], "id": "9750100035", "name": "USPS COLLECTION BOX - BLUE BOX", "address": {"city": "MEDFORD", "state": "OR", "street": "399 W MAIN ST", "postcode": "97501"}}},
{"geometry": {"type": "Point", "coordinates": [-122.8767196821, 42.3241187151]}, "type": "Feature", "properties": {"collection_times": [{"days": "Mon-Sat", "time": "3:30pm"}, {"days": "Sun", "time": "Closed"}], "id": "9750100036", "name": "USPS COLLECTION BOX - BLUE BOX", "address": {"city": "MEDFORD", "state": "OR", "street": "399 W MAIN ST", "postcode": "97501"}}},
{"geometry": {"type": "Point", "coordinates": [-122.8755810029, 42.3235393991]}, "type": "Feature", "properties": {"collection_times": [{"days": "Mon-Fri", "time": "5:30pm"}, {"days": "Sat", "time": "5:00pm"}, {"days": "Sun", "time": "Closed"}], "id": "9750100040", "name": "USPS COLLECTION BOX - BLUE BOX", "address": {"city": "MEDFORD", "state": "OR", "street": "333 W 8TH ST", "postcode": "97501"}}},
{"geometry": {"type": "Point", "coordinates": [-122.8999759827, 42.3236091937]}, "type": "Feature", "properties": {"collection_times": [{"days": "Mon-Sat", "time": "4:00pm"}, {"days": "Sun", "time": "Closed"}], "id": "9750100048", "name": "USPS COLLECTION BOX - BLUE BOX", "address": {"city": "MEDFORD", "state": "OR", "street": "2305 W MAIN ST", "postcode": "97501"}}},
{"geometry": {"type": "Point", "coordinates": [-122.8999759827, 42.3236091937]}, "type": "Feature", "properties": {"collection_times": [{"days": "Mon-Sat", "time": "4:00pm"}, {"days": "Sun", "time": "Closed"}], "id": "9750100049", "name": "USPS COLLECTION BOX - BLUE BOX", "address": {"city": "MEDFORD", "state": "OR", "street": "2305 W MAIN ST", "postcode": "97501"}}},
{"geometry": {"type": "Point", "coordinates": [-122.8569008979, 42.3131731297]}, "type": "Feature", "properties": {"collection_times": [{"days": "Mon-Sat", "time": "3:30pm"}, {"days": "Sun", "time": "Closed"}], "id": "9750100052", "name": "USPS COLLECTION BOX - BLUE BOX", "address": {"city": "MEDFORD", "state": "OR", "street": "1301 CENTER DR", "postcode": "97501"}}},
{"geometry": {"type": "Point", "coordinates": [-122.8763959692, 42.3388417334]}, "type": "Feature", "properties": {"collection_times": [{"days": "Mon-Sat", "time": "3:30pm"}, {"days": "Sun", "time": "Closed"}], "id": "9750100053", "name": "USPS COLLECTION BOX - BLUE BOX", "address": {"city": "MEDFORD", "state": "OR", "street": "1257 N RIVERSIDE AVE", "postcode": "97501"}}},
{"geometry": {"type": "Point", "coordinates": [-122.8834176407, 42.320153033]}, "type": "Feature", "properties": {"collection_times": [{"days": "Mon-Fri", "time": "5:30pm"}, {"days": "Sat", "time": "2:00pm"}, {"days": "Sun", "time": "Closed"}], "id": "9750100060", "name": "USPS COLLECTION BOX - BLUE BOX", "address": {"city": "MEDFORD", "state": "OR", "street": "325 S RIVERSIDE AVE", "postcode": "97501"}}},
{"geometry": {"type": "Point", "coordinates": [-122.8834176407, 42.320153033]}, "type": "Feature", "properties": {"collection_times": [{"days": "Mon-Fri", "time": "5:30pm"}, {"days": "Sat", "time": "2:00pm"}, {"days": "Sun", "time": "Closed"}], "id": "9750100061", "name": "USPS COLLECTION BOX - APC", "address": {"city": "MEDFORD", "state": "OR", "street": "325 S RIVERSIDE AVE", "postcode": "97501"}}},
{"geometry": {"type": "Point", "coordinates": [-122.8834176407, 42.320153033]}, "type": "Feature", "properties": {"collection_times": [{"days": "Mon-Fri", "time": "5:30pm"}, {"days": "Sat", "time": "2:00pm"}, {"days": "Sun", "time": "Closed"}], "id": "9750100062", "name": "USPS COLLECTION BOX - PO LOBBY", "address": {"city": "MEDFORD", "state": "OR", "street": "325 S RIVERSIDE AVE", "postcode": "97501"}}},
{"geometry": {"type": "Point", "coordinates": [-122.8834176407, 42.320153033]}, "type": "Feature", "properties": {"collection_times": [{"days": "Mon-Fri", "time": "5:30pm"}, {"days": "Sat", "time": "2:00pm"}, {"days": "Sun", "time": "Closed"}], "id": "9750100063", "name": "USPS COLLECTION BOX - BLUE BOX", "address": {"city": "MEDFORD", "state": "OR", "street": "325 S RIVERSIDE AVE", "postcode": "97501"}}},
{"geometry": {"type": "Point", "coordinates": [-122.873935507, 42.3320921924]}, "type": "Feature", "properties": {"collection_times": [{"days": "Mon-Fri", "time": "5:00pm"}, {"days": "Sat", "time": "12:30pm"}, {"days": "Sun", "time": "Closed"}], "id": "9750200002", "name": "USPS COLLECTION BOX - BLUE BOX", "address": {"city": "MEDFORD", "state": "OR", "street": "625 E PINE ST", "postcode": "97502"}}},
{"geometry": {"type": "Point", "coordinates": [-122.873935507, 42.3320921924]}, "type": "Feature", "properties": {"collection_times": [{"days": "Mon-Fri", "time": "5:00pm"}, {"days": "Sat", "time": "12:30pm"}, {"days": "Sun", "time": "Closed"}], "id": "9750200003", "name": "USPS COLLECTION BOX - BLUE BOX", "address": {"city": "MEDFORD", "state": "OR", "street": "625 E PINE ST", "postcode": "97502"}}},
{"geometry": {"type": "Point", "coordinates": [-122.8499917551, 42.4266111608]}, "type": "Feature", "properties": {"collection_times": [{"days": "Mon-Fri", "time": "5:00pm"}, {"days": "Sat", "time": "2:15pm"}, {"days": "Sun", "time": "Closed"}], "id": "9750300000", "name": "USPS COLLECTION BOX - PO LOBBY", "address": {"city": "MEDFORD", "state": "OR", "street": "7561 CRATER LAKE HWY", "postcode": "97503"}}},
{"geometry": {"type": "Point", "coordinates": [-122.8499917551, 42.4266111608]}, "type": "Feature", "properties": {"collection_times": [{"days": "Mon-Fri", "time": "5:00pm"}, {"days": "Sat", "time": "2:15pm"}, {"days": "Sun", "time": "Closed"}], "id": "9750300001", "name": "USPS COLLECTION BOX - BLUE BOX", "address": {"city": "MEDFORD", "state": "OR", "street": "7561 CRATER LAKE HWY", "postcode": "97503"}}},
{"geometry": {"type": "Point", "coordinates": [-122.8499917551, 42.4266111608]}, "type": "Feature", "properties": {"collection_times": [{"days": "Mon-Fri", "time": "5:00pm"}, {"days": "Sat", "time": "2:15pm"}, {"days": "Sun", "time": "Closed"}], "id": "9750300003", "name": "USPS COLLECTION BOX - BLUE BOX", "address": {"city": "MEDFORD", "state": "OR", "street": "7561 CRATER LAKE HWY", "postcode": "97503"}}},
{"geometry": {"type": "Point", "coordinates": [-122.8884693408, 42.509799837]}, "type": "Feature", "properties": {"collection_times": [{"days": "Mon-Sat", "time": "12:00pm"}, {"days": "Sun", "time": "Closed"}], "id": "9750300004", "name": "USPS COLLECTION BOX - BLUE BOX", "address": {"city": "MEDFORD", "state": "OR", "street": "4000 HIGHWAY 234", "postcode": "97503"}}},
{"geometry": {"type": "Point", "coordinates": [-122.8355880254, 42.3186434595]}, "type": "Feature", "properties": {"collection_times": [{"days": "Mon-Sat", "time": "3:00pm"}, {"days": "Sun", "time": "Closed"}], "id": "9750400003", "name": "USPS COLLECTION BOX - BLUE BOX", "address": {"city": "MEDFORD", "state": "OR", "street": "555 BLACK OAK DR", "postcode": "97504"}}},
{"geometry": {"type": "Point", "coordinates": [-122.8779019684, 42.3661058115]}, "type": "Feature", "properties": {"collection_times": [{"days": "Mon-Sat", "time": "3:00pm"}, {"days": "Sun", "time": "Closed"}], "id": "9750400005", "name": "USPS COLLECTION BOX - BLUE BOX", "address": {"city": "MEDFORD", "state": "OR", "street": "881 OHARE PKWY", "postcode": "97504"}}},
{"geometry": {"type": "Point", "coordinates": [-122.8630049661, 42.3278642971]}, "type": "Feature", "properties": {"collection_times": [{"days": "Mon-Sat", "time": "3:00pm"}, {"days": "Sun", "time": "Closed"}], "id": "9750400012", "name": "USPS COLLECTION BOX - BLUE BOX", "address": {"city": "MEDFORD", "state": "OR", "street": "843 E MAIN ST", "postcode": "97504"}}},
{"geometry": {"type": "Point", "coordinates": [-122.8676247218, 42.3345478457]}, "type": "Feature", "properties": {"collection_times": [{"days": "Mon-Sat", "time": "3:00pm"}, {"days": "Sun", "time": "Closed"}], "id": "9750400018", "name": "USPS COLLECTION BOX - BLUE BOX", "address": {"city": "MEDFORD", "state": "OR", "street": "841 MEDFORD CTR", "postcode": "97504"}}},
{"geometry": {"type": "Point", "coordinates": [-122.8672991072, 42.331354026]}, "type": "Feature", "properties": {"collection_times": [{"days": "Mon-Sat", "time": "3:00pm"}, {"days": "Sun", "time": "Closed"}], "id": "9750400020", "name": "USPS COLLECTION BOX - BLUE BOX", "address": {"city": "MEDFORD", "state": "OR", "street": "519 MEDFORD CTR", "postcode": "97504"}}},
{"geometry": {"type": "Point", "coordinates": [-122.872232971, 42.3400515097]}, "type": "Feature", "properties": {"collection_times": [{"days": "Mon-Sat", "time": "3:00pm"}, {"days": "Sun", "time": "Closed"}], "id": "9750400027", "name": "USPS COLLECTION BOX - BLUE BOX", "address": {"city": "MEDFORD", "state": "OR", "street": "1000 BIDDLE RD", "postcode": "97504"}}},
{"geometry": {"type": "Point", "coordinates": [-122.8739621651, 42.3490260189]}, "type": "Feature", "properties": {"collection_times": [{"days": "Mon-Sat", "time": "3:00pm"}, {"days": "Sun", "time": "Closed"}], "id": "9750400028", "name": "USPS COLLECTION BOX - BLUE BOX", "address": {"city": "MEDFORD", "state": "OR", "street": "2230 BIDDLE RD", "postcode": "97504"}}},
{"geometry": {"type": "Point", "coordinates": [-122.8557108412, 42.3530885311]}, "type": "Feature", "properties": {"collection_times": [{"days": "Mon-Sat", "time": "3:00pm"}, {"days": "Sun", "time": "Closed"}], "id": "9750400031", "name": "USPS COLLECTION BOX - BLUE BOX", "address": {"city": "MEDFORD", "state": "OR", "street": "2424 CRATER LAKE HWY", "postcode": "97504"}}},
{"geometry": {"type": "Point", "coordinates": [-122.8557108412, 42.3530885311]}, "type": "Feature", "properties": {"collection_times": [{"days": "Mon-Sat", "time": "3:00pm"}, {"days": "Sun", "time": "Closed"}], "id": "9750400032", "name": "USPS COLLECTION BOX - BLUE BOX", "address": {"city": "MEDFORD", "state": "OR", "street": "2424 CRATER LAKE HWY", "postcode": "97504"}}},
{"geometry": {"type": "Point", "coordinates": [-122.872232971, 42.3400515097]}, "type": "Feature", "properties": {"collection_times": [{"days": "Mon-Sat", "time": "3:00pm"}, {"days": "Sun", "time": "Closed"}], "id": "9750400046", "name": "USPS COLLECTION BOX - BLUE BOX", "address": {"city": "MEDFORD", "state": "OR", "street": "1000 BIDDLE RD", "postcode": "97504"}}},
{"geometry": {"type": "Point", "coordinates": [-122.8288340135, 42.3176411657]}, "type": "Feature", "properties": {"collection_times": [{"days": "Mon-Sat", "time": "3:00pm"}, {"days": "Sun", "time": "Closed"}], "id": "9750400049", "name": "USPS COLLECTION BOX - BLUE BOX", "address": {"city": "MEDFORD", "state": "OR", "street": "691 MURPHY RD", "postcode": "97504"}}},
{"geometry": {"type": "Point", "coordinates": [-122.8779019684, 42.3661058115]}, "type": "Feature", "properties": {"collection_times": [{"days": "Mon-Sat", "time": "3:00pm"}, {"days": "Sun", "time": "Closed"}], "id": "9750400052", "name": "USPS COLLECTION BOX - BLUE BOX", "address": {"city": "MEDFORD", "state": "OR", "street": "881 OHARE PKWY", "postcode": "97504"}}},
{"geometry": {"type": "Point", "coordinates": [-122.8288123664, 42.3149391692]}, "type": "Feature", "properties": {"collection_times": [{"days": "Mon-Sat", "time": "3:00pm"}, {"days": "Sun", "time": "Closed"}], "id": "9750400056", "name": "USPS COLLECTION BOX - BLUE BOX", "address": {"city": "MEDFORD", "state": "OR", "street": "777 MURPHY RD", "postcode": "97504"}}},
{"geometry": {"type": "Point", "coordinates": [-122.8231599156, 42.3140959932]}, "type": "Feature", "properties": {"collection_times": [{"days": "Mon-Sat", "time": "3:00pm"}, {"days": "Sun", "time": "Closed"}], "id": "9750400057", "name": "USPS COLLECTION BOX - BLUE BOX", "address": {"city": "MEDFORD", "state": "OR", "street": "760 GOLF VIEW DR", "postcode": "97504"}}},
{"geometry": {"type": "Point", "coordinates": [-122.8560954334, 42.3656030198]}, "type": "Feature", "properties": {"collection_times": [{"days": "Mon-Sat", "time": "3:00pm"}, {"days": "Sun", "time": "Closed"}], "id": "9750400058", "name": "USPS COLLECTION BOX - BLUE BOX", "address": {"city": "MEDFORD", "state": "OR", "street": "3565 CRATER LAKE HWY", "postcode": "97504"}}},
{"geometry": {"type": "Point", "coordinates": [-122.8195714448, 42.3151687815]}, "type": "Feature", "properties": {"collection_times": [{"days": "Mon-Sat", "time": "3:00pm"}, {"days": "Sun", "time": "Closed"}], "id": "9750400059", "name": "USPS COLLECTION BOX - BLUE BOX", "address": {"city": "MEDFORD", "state": "OR", "street": "815 ALDER CREEK DR", "postcode": "97504"}}},
{"geometry": {"type": "Point", "coordinates": [-122.8705841842, 42.345047959]}, "type": "Feature", "properties": {"collection_times": [{"days": "Mon-Sat", "time": "3:00pm"}, {"days": "Sun", "time": "Closed"}], "id": "9750400060", "name": "USPS COLLECTION BOX - BLUE BOX", "address": {"city": "MEDFORD", "state": "OR", "street": "1201 PROGRESS DR", "postcode": "97504"}}},
{"geometry": {"type": "Point", "coordinates": [-122.8142935566, 42.3166999051]}, "type": "Feature", "properties": {"collection_times": [{"days": "Mon-Sat", "time": "12:00pm"}, {"days": "Sun", "time": "Closed"}], "id": "9750400062", "name": "USPS COLLECTION BOX - BLUE BOX", "address": {"city": "MEDFORD", "state": "OR", "street": "910 N PHOENIX RD", "postcode": "97504"}}},
{"geometry": {"type": "Point", "coordinates": [-122.7117421407, 42.1965771382]}, "type": "Feature", "properties": {"collection_times": [{"days": "Mon-Fri", "time": "5:00pm"}, {"days": "Sat", "time": "4:30pm"}, {"days": "Sun", "time": "Closed"}], "id": "9752000000", "name": "USPS COLLECTION BOX - BLUE BOX", "address": {"city": "ASHLAND", "state": "OR", "street": "200 LITHIA WAY", "postcode": "97520"}}},
{"geometry": {"type": "Point", "coordinates": [-122.7148579817, 42.1971953606]}, "type": "Feature", "properties": {"collection_times": [{"days": "Mon-Fri", "time": "4:30pm"}, {"days": "Sat", "time": "4:00pm"}, {"days": "Sun", "time": "Closed"}], "id": "9752000001", "name": "USPS COLLECTION BOX - BLUE BOX", "address": {"city": "ASHLAND", "state": "OR", "street": "15 N MAIN ST", "postcode": "97520"}}},
{"geometry": {"type": "Point", "coordinates": [-122.713807127, 42.1965834667]}, "type": "Feature", "properties": {"collection_times": [{"days": "Mon-Fri", "time": "4:30pm"}, {"days": "Sat", "time": "4:00pm"}, {"days": "Sun", "time": "Closed"}], "id": "9752000002", "name": "USPS COLLECTION BOX - BLUE BOX", "address": {"city": "ASHLAND", "state": "OR", "street": "110 E MAIN ST", "postcode": "97520"}}},
{"geometry": {"type": "Point", "coordinates": [-122.7110609848, 42.1951575945]}, "type": "Feature", "properties": {"collection_times": [{"days": "Mon-Fri", "time": "4:30pm"}, {"days": "Sat", "time": "4:00pm"}, {"days": "Sun", "time": "Closed"}], "id": "9752000003", "name": "USPS COLLECTION BOX - BLUE BOX", "address": {"city": "ASHLAND", "state": "OR", "street": "344 E MAIN ST", "postcode": "97520"}}},
{"geometry": {"type": "Point", "coordinates": [-122.7116832215, 42.1969060078]}, "type": "Feature", "properties": {"collection_times": [{"days": "Mon-Fri", "time": "5:00pm"}, {"days": "Sat", "time": "4:00pm"}, {"days": "Sun", "time": "Closed"}], "id": "9752000008", "name": "USPS COLLECTION BOX - PO LOBBY", "address": {"city": "ASHLAND", "state": "OR", "street": "120 N 1ST ST", "postcode": "97520"}}},
{"geometry": {"type": "Point", "coordinates": [-122.7117421407, 42.1965771382]}, "type": "Feature", "properties": {"collection_times": [{"days": "Mon-Fri", "time": "5:00pm"}, {"days": "Sat", "time": "4:30pm"}, {"days": "Sun", "time": "Closed"}], "id": "9752000009", "name": "USPS COLLECTION BOX - BLUE BOX", "address": {"city": "ASHLAND", "state": "OR", "street": "200 LITHIA WAY", "postcode": "97520"}}},
{"geometry": {"type": "Point", "coordinates": [-122.7117421407, 42.1965771382]}, "type": "Feature", "properties": {"collection_times": [{"days": "Mon-Fri", "time": "5:00pm"}, {"days": "Sat", "time": "4:30pm"}, {"days": "Sun", "time": "Closed"}], "id": "9752000010", "name": "USPS COLLECTION BOX - BLUE BOX", "address": {"city": "ASHLAND", "state": "OR", "street": "200 LITHIA WAY", "postcode": "97520"}}},
{"geometry": {"type": "Point", "coordinates": [-122.6871844109, 42.1853890657]}, "type": "Feature", "properties": {"collection_times": [{"days": "Mon-Fri", "time": "4:45pm"}, {"days": "Sat", "time": "4:15pm"}, {"days": "Sun", "time": "Closed"}], "id": "9752000011", "name": "USPS COLLECTION BOX - BLUE BOX", "address": {"city": "ASHLAND", "state": "OR", "street": "1634 ASHLAND ST", "postcode": "97520"}}},
{"geometry": {"type": "Point", "coordinates": [-122.6851593847, 42.1871611046]}, "type": "Feature", "properties": {"collection_times": [{"days": "Mon-Fri", "time": "4:45pm"}, {"days": "Sat", "time": "4:15pm"}, {"days": "Sun", "time": "Closed"}], "id": "9752000012", "name": "USPS COLLECTION BOX - BLUE BOX", "address": {"city": "ASHLAND", "state": "OR", "street": "2270 ASHLAND ST", "postcode": "97520"}}},
{"geometry": {"type": "Point", "coordinates": [-122.7116832215, 42.1969060078]}, "type": "Feature", "properties": {"collection_times": [{"days": "Mon-Fri", "time": "5:00pm"}, {"days": "Sat", "time": "4:00pm"}, {"days": "Sun", "time": "Closed"}], "id": "9752000013", "name": "USPS COLLECTION BOX - APC", "address": {"city": "ASHLAND", "state": "OR", "street": "120 N 1ST ST", "postcode": "97520"}}},
{"geometry": {"type": "Point", "coordinates": [-122.6871844109, 42.1853890657]}, "type": "Feature", "properties": {"collection_times": [{"days": "Mon-Fri", "time": "4:45pm"}, {"days": "Sat", "time": "4:15pm"}, {"days": "Sun", "time": "Closed"}], "id": "9752000014", "name": "USPS COLLECTION BOX - BLUE BOX", "address": {"city": "ASHLAND", "state": "OR", "street": "1634 ASHLAND ST", "postcode": "97520"}}},
{"geometry": {"type": "Point", "coordinates": [-122.6851593847, 42.1871611046]}, "type": "Feature", "properties": {"collection_times": [{"days": "Mon-Fri", "time": "4:45pm"}, {"days": "Sat", "time": "4:15pm"}, {"days": "Sun", "time": "Closed"}], "id": "9752000015", "name": "USPS COLLECTION BOX - BLUE BOX", "address": {"city": "ASHLAND", "state": "OR", "street": "2270 ASHLAND ST", "postcode": "97520"}}},
{"geometry": {"type": "Point", "coordinates": [-122.5438163558, 42.5364517518]}, "type": "Feature", "properties": {"collection_times": [{"days": "Mon-Fri", "time": "12:00pm"}, {"days": "Sat", "time": "10:30am"}, {"days": "Sun", "time": "Closed"}], "id": "9752200000", "name": "USPS COLLECTION BOX - PO LOBBY", "address": {"city": "BUTTE FALLS", "state": "OR", "street": "355 BROAD ST", "postcode": "97522"}}},
{"geometry": {"type": "Point", "coordinates": [-123.6472346595, 42.1673647409]}, "type": "Feature", "properties": {"collection_times": [{"days": "Mon-Fri", "time": "3:45pm"}, {"days": "Sat", "time": "3:00pm"}, {"days": "Sun", "time": "Closed"}], "id": "9752300001", "name": "USPS COLLECTION BOX - BLUE BOX", "address": {"city": "CAVE JUNCTION", "state": "OR", "street": "102 S HUSSEY AVE", "postcode": "97523"}}},
{"geometry": {"type": "Point", "coordinates": [-123.6472346595, 42.1673647409]}, "type": "Feature", "properties": {"collection_times": [{"days": "Mon-Fri", "time": "3:45pm"}, {"days": "Sat", "time": "3:00pm"}, {"days": "Sun", "time": "Closed"}], "id": "9752300002", "name": "USPS COLLECTION BOX - BLUE BOX", "address": {"city": "CAVE JUNCTION", "state": "OR", "street": "102 S HUSSEY AVE", "postcode": "97523"}}},
{"geometry": {"type": "Point", "coordinates": [-123.6472346595, 42.1673647409]}, "type": "Feature", "properties": {"collection_times": [{"days": "Mon-Fri", "time": "3:45pm"}, {"days": "Sat", "time": "11:00am"}, {"days": "Sun", "time": "Closed"}], "id": "9752300003", "name": "USPS COLLECTION BOX - PO LOBBY", "address": {"city": "CAVE JUNCTION", "state": "OR", "street": "102 S HUSSEY AVE", "postcode": "97523"}}},
{"geometry": {"type": "Point", "coordinates": [-122.8053085085, 42.4727637577]}, "type": "Feature", "properties": {"collection_times": [{"days": "Mon-Fri", "time": "4:30pm"}, {"days": "Sat", "time": "3:00pm"}, {"days": "Sun", "time": "Closed"}], "id": "9752400000", "name": "USPS COLLECTION BOX - BLUE BOX", "address": {"city": "EAGLE POINT", "state": "OR", "street": "236 LOTO ST", "postcode": "97524"}}},
{"geometry": {"type": "Point", "coordinates": [-122.7703997026, 42.4768339313]}, "type": "Feature", "properties": {"collection_times": [{"days": "Mon-Fri", "time": "4:30pm"}, {"days": "Sat", "time": "10:00am"}, {"days": "Sun", "time": "Closed"}], "id": "9752400001", "name": "USPS COLLECTION BOX - PO LOBBY", "address": {"city": "EAGLE POINT", "state": "OR", "street": "236 LOTO ST", "postcode": "97524"}}},
{"geometry": {"type": "Point", "coordinates": [-122.6518214542, 42.4487021358]}, "type": "Feature", "properties": {"collection_times": [{"days": "Mon-Sat", "time": "4:30pm"}, {"days": "Sun", "time": "Closed"}], "id": "9752400002", "name": "USPS COLLECTION BOX - BLUE BOX", "address": {"city": "EAGLE POINT", "state": "OR", "street": "11500 HANNON RD", "postcode": "97524"}}},
{"geometry": {"type": "Point", "coordinates": [-123.0484745819, 42.431102293]}, "type": "Feature", "properties": {"collection_times": [{"days": "Mon-Fri", "time": "4:15pm"}, {"days": "Sat", "time": "10:30am"}, {"days": "Sun", "time": "Closed"}], "id": "9752500000", "name": "USPS COLLECTION BOX - BLUE BOX", "address": {"city": "GOLD HILL", "state": "OR", "street": "375 2ND AVE", "postcode": "97525"}}},
{"geometry": {"type": "Point", "coordinates": [-123.078017402, 42.4333013212]}, "type": "Feature", "properties": {"collection_times": [{"days": "Mon-Fri", "time": "4:15pm"}, {"days": "Sat", "time": "10:30am"}, {"days": "Sun", "time": "Closed"}], "id": "9752500002", "name": "USPS COLLECTION BOX - PO LOBBY", "address": {"city": "GOLD HILL", "state": "OR", "street": "375 2ND AVE", "postcode": "97525"}}},
{"geometry": {"type": "Point", "coordinates": [-123.322466428, 42.4487305781]}, "type": "Feature", "properties": {"collection_times": [{"days": "Mon-Fri", "time": "4:30pm"}, {"days": "Sat", "time": "2:30pm"}, {"days": "Sun", "time": "Closed"}], "id": "9752600006", "name": "USPS COLLECTION BOX - BLUE BOX", "address": {"city": "GRANTS PASS", "state": "OR", "street": "1051 NE 6TH ST", "postcode": "97526"}}},
{"geometry": {"type": "Point", "coordinates": [-123.322466428, 42.4487305781]}, "type": "Feature", "properties": {"collection_times": [{"days": "Mon-Fri", "time": "4:30pm"}, {"days": "Sat", "time": "2:30pm"}, {"days": "Sun", "time": "Closed"}], "id": "9752600007", "name": "USPS COLLECTION BOX - BLUE BOX", "address": {"city": "GRANTS PASS", "state": "OR", "street": "1051 NE 6TH ST", "postcode": "97526"}}},
{"geometry": {"type": "Point", "coordinates": [-123.322466428, 42.4487305781]}, "type": "Feature", "properties": {"collection_times": [{"days": "Mon-Fri", "time": "4:30pm"}, {"days": "Sat", "time": "2:30pm"}, {"days": "Sun", "time": "Closed"}], "id": "9752600008", "name": "USPS COLLECTION BOX - BLUE BOX", "address": {"city": "GRANTS PASS", "state": "OR", "street": "1051 NE 6TH ST", "postcode": "97526"}}},
{"geometry": {"type": "Point", "coordinates": [-123.3288614161, 42.4358004683]}, "type": "Feature", "properties": {"collection_times": [{"days": "Mon-Fri", "time": "4:30pm"}, {"days": "Sat", "time": "2:30pm"}, {"days": "Sun", "time": "Closed"}], "id": "9752600009", "name": "USPS COLLECTION BOX - BLUE BOX", "address": {"city": "GRANTS PASS", "state": "OR", "street": "629 NE 6TH ST", "postcode": "97526"}}},
{"geometry": {"type": "Point", "coordinates": [-123.3288614161, 42.4358004683]}, "type": "Feature", "properties": {"collection_times": [{"days": "Mon-Fri", "time": "4:30pm"}, {"days": "Sat", "time": "2:30pm"}, {"days": "Sun", "time": "Closed"}], "id": "9752600010", "name": "USPS COLLECTION BOX - BLUE BOX", "address": {"city": "GRANTS PASS", "state": "OR", "street": "629 NE 6TH ST", "postcode": "97526"}}},
{"geometry": {"type": "Point", "coordinates": [-123.3268243669, 42.439276966]}, "type": "Feature", "properties": {"collection_times": [{"days": "Mon-Fri", "time": "5:00pm"}, {"days": "Sat", "time": "2:45pm"}, {"days": "Sun", "time": "Closed"}], "id": "9752600011", "name": "USPS COLLECTION BOX - BLUE BOX", "address": {"city": "GRANTS PASS", "state": "OR", "street": "131 NE 6TH ST", "postcode": "97526"}}},
{"geometry": {"type": "Point", "coordinates": [-123.3416766808, 42.4608834161]}, "type": "Feature", "properties": {"collection_times": [{"days": "Mon-Fri", "time": "5:00pm"}, {"days": "Sat", "time": "2:45pm"}, {"days": "Sun", "time": "Closed"}], "id": "9752600013", "name": "USPS COLLECTION BOX - EXPRESS", "address": {"city": "GRANTS PASS", "state": "OR", "street": "131 NE 6TH ST", "postcode": "97526"}}},
{"geometry": {"type": "Point", "coordinates": [-123.3028187198, 42.4393188154]}, "type": "Feature", "properties": {"collection_times": [{"days": "Mon-Fri", "time": "4:00pm"}, {"days": "Sat", "time": "3:00pm"}, {"days": "Sun", "time": "Closed"}], "id": "9752600022", "name": "USPS COLLECTION BOX - BLUE BOX", "address": {"city": "GRANTS PASS", "state": "OR", "street": "135 NE TERRY LN", "postcode": "97526"}}},
{"geometry": {"type": "Point", "coordinates": [-123.3416766808, 42.4608834161]}, "type": "Feature", "properties": {"collection_times": [{"days": "Mon-Fri", "time": "4:00pm"}, {"days": "Sat", "time": "3:00pm"}, {"days": "Sun", "time": "Closed"}], "id": "9752600023", "name": "USPS COLLECTION BOX - BLUE BOX", "address": {"city": "GRANTS PASS", "state": "OR", "street": "1101 GRANTS PASS PKWY", "postcode": "97526"}}},
{"geometry": {"type": "Point", "coordinates": [-123.3126954414, 42.4400483252]}, "type": "Feature", "properties": {"collection_times": [{"days": "Mon-Fri", "time": "3:30pm"}, {"days": "Sat", "time": "3:00pm"}, {"days": "Sun", "time": "Closed"}], "id": "9752600025", "name": "USPS COLLECTION BOX - BLUE BOX", "address": {"city": "GRANTS PASS", "state": "OR", "street": "939 NE D ST", "postcode": "97526"}}},
{"geometry": {"type": "Point", "coordinates": [-123.3126954414, 42.4400483252]}, "type": "Feature", "properties": {"collection_times": [{"days": "Mon-Fri", "time": "3:30pm"}, {"days": "Sat", "time": "3:00pm"}, {"days": "Sun", "time": "Closed"}], "id": "9752600026", "name": "USPS COLLECTION BOX - BLUE BOX", "address": {"city": "GRANTS PASS", "state": "OR", "street": "939 NE D ST", "postcode": "97526"}}},
{"geometry": {"type": "Point", "coordinates": [-123.3268243669, 42.439276966]}, "type": "Feature", "properties": {"collection_times": [{"days": "Mon-Fri", "time": "5:00pm"}, {"days": "Sat", "time": "2:45pm"}, {"days": "Sun", "time": "Closed"}], "id": "9752600032", "name": "USPS COLLECTION BOX - BLUE BOX", "address": {"city": "GRANTS PASS", "state": "OR", "street": "131 NE 6TH ST", "postcode": "97526"}}},
{"geometry": {"type": "Point", "coordinates": [-123.4146704947, 42.5123912454]}, "type": "Feature", "properties": {"collection_times": [{"days": "Mon-Sat", "time": "2:00pm"}, {"days": "Sun", "time": "Closed"}], "id": "9752600038", "name": "USPS COLLECTION BOX - BLUE BOX", "address": {"city": "GRANTS PASS", "state": "OR", "street": "3500 MERLIN RD", "postcode": "97526"}}},
{"geometry": {"type": "Point", "coordinates": [-123.324769453, 42.4377818292]}, "type": "Feature", "properties": {"collection_times": [{"days": "Mon-Fri", "time": "1:30pm"}, {"days": "Sat-Sun", "time": "Closed"}], "id": "9752600039", "name": "USPS COLLECTION BOX - BLUE BOX", "address": {"city": "GRANTS PASS", "state": "OR", "street": "235 SE 8TH ST", "postcode": "97526"}}},
{"geometry": {"type": "Point", "coordinates": [-123.3416766808, 42.4608834161]}, "type": "Feature", "properties": {"collection_times": [{"days": "Mon-Fri", "time": "5:00pm"}, {"days": "Sat-Sun", "time": "Closed"}], "id": "9752600041", "name": "USPS COLLECTION BOX - PO LOBBY", "address": {"city": "GRANTS PASS", "state": "OR", "street": "1636 NW WASHINGTON BLVD", "postcode": "97526"}}},
{"geometry": {"type": "Point", "coordinates": [-123.3416766808, 42.4608834161]}, "type": "Feature", "properties": {"collection_times": [{"days": "Mon-Fri", "time": "5:00pm"}, {"days": "Sat-Sun", "time": "Closed"}], "id": "9752600042", "name": "USPS COLLECTION BOX - PO LOBBY", "address": {"city": "GRANTS PASS", "state": "OR", "street": "1636 NW WASHINGTON BLVD", "postcode": "97526"}}},
{"geometry": {"type": "Point", "coordinates": [-123.3252922198, 42.4586228224]}, "type": "Feature", "properties": {"collection_times": [{"days": "Mon-Fri", "time": "5:00pm"}, {"days": "Sat", "time": "3:00pm"}, {"days": "Sun", "time": "Closed"}], "id": "9752600044", "name": "USPS COLLECTION BOX - BLUE BOX", "address": {"city": "GRANTS PASS", "state": "OR", "street": "1636 NW WASHINGTON BLVD", "postcode": "97526"}}},
{"geometry": {"type": "Point", "coordinates": [-123.3252922198, 42.4586228224]}, "type": "Feature", "properties": {"collection_times": [{"days": "Mon-Fri", "time": "5:00pm"}, {"days": "Sat", "time": "3:00pm"}, {"days": "Sun", "time": "Closed"}], "id": "9752600045", "name": "USPS COLLECTION BOX - BLUE BOX", "address": {"city": "GRANTS PASS", "state": "OR", "street": "1636 NW WASHINGTON BLVD", "postcode": "97526"}}},
{"geometry": {"type": "Point", "coordinates": [-123.3356502758, 42.4350042877]}, "type": "Feature", "properties": {"collection_times": [{"days": "Mon-Fri", "time": "3:00pm"}, {"days": "Sat", "time": "2:30pm"}, {"days": "Sun", "time": "Closed"}], "id": "9752600046", "name": "USPS COLLECTION BOX - BLUE BOX", "address": {"city": "GRANTS PASS", "state": "OR", "street": "732 SW BRIDGE ST", "postcode": "97526"}}},
{"geometry": {"type": "Point", "coordinates": [-123.3126954414, 42.4400483252]}, "type": "Feature", "properties": {"collection_times": [{"days": "Mon-Fri", "time": "3:30pm"}, {"days": "Sat", "time": "3:00pm"}, {"days": "Sun", "time": "Closed"}], "id": "9752600047", "name": "USPS COLLECTION BOX - BLUE BOX", "address": {"city": "GRANTS PASS", "state": "OR", "street": "939 NE D ST", "postcode": "97526"}}},
{"geometry": {"type": "Point", "coordinates": [-123.3268243669, 42.439276966]}, "type": "Feature", "properties": {"collection_times": [{"days": "Mon-Fri", "time": "5:00pm"}, {"days": "Sat", "time": "2:45pm"}, {"days": "Sun", "time": "Closed"}], "id": "9752600048", "name": "USPS COLLECTION BOX - BLUE BOX", "address": {"city": "GRANTS PASS", "state": "OR", "street": "131 NE 6TH ST", "postcode": "97526"}}},
{"geometry": {"type": "Point", "coordinates": [-123.3268243669, 42.439276966]}, "type": "Feature", "properties": {"collection_times": [{"days": "Mon-Fri", "time": "5:00pm"}, {"days": "Sat", "time": "2:45pm"}, {"days": "Sun", "time": "Closed"}], "id": "9752600049", "name": "USPS COLLECTION BOX - BLUE BOX", "address": {"city": "GRANTS PASS", "state": "OR", "street": "131 NE 6TH ST", "postcode": "97526"}}},
{"geometry": {"type": "Point", "coordinates": [-123.3288614161, 42.4358004683]}, "type": "Feature", "properties": {"collection_times": [{"days": "Mon-Fri", "time": "4:30pm"}, {"days": "Sat", "time": "2:30pm"}, {"days": "Sun", "time": "Closed"}], "id": "9752600050", "name": "USPS COLLECTION BOX - BLUE BOX", "address": {"city": "GRANTS PASS", "state": "OR", "street": "629 NE 6TH ST", "postcode": "97526"}}},
{"geometry": {"type": "Point", "coordinates": [-123.325236634, 42.4585790663]}, "type": "Feature", "properties": {"collection_times": [{"days": "Mon-Fri", "time": "5:00pm"}, {"days": "Sat", "time": "3:00pm"}, {"days": "Sun", "time": "Closed"}], "id": "9752600052", "name": "USPS COLLECTION BOX - APC", "address": {"city": "GRANTS PASS", "state": "OR", "street": "1636 NW WASHINGTON BLVD", "postcode": "97526"}}},
{"geometry": {"type": "Point", "coordinates": [-123.3279386535, 42.4244377685]}, "type": "Feature", "properties": {"collection_times": [{"days": "Mon-Fri", "time": "3:45pm"}, {"days": "Sat", "time": "2:45pm"}, {"days": "Sun", "time": "Closed"}], "id": "9752700000", "name": "USPS COLLECTION BOX - BLUE BOX", "address": {"city": "GRANTS PASS", "state": "OR", "street": "233 ROGUE RIVER HWY", "postcode": "97527"}}},
{"geometry": {"type": "Point", "coordinates": [-123.333077878, 42.421668406]}, "type": "Feature", "properties": {"collection_times": [{"days": "Mon-Fri", "time": "4:00pm"}, {"days": "Sat", "time": "3:00pm"}, {"days": "Sun", "time": "Closed"}], "id": "9752700003", "name": "USPS COLLECTION BOX - BLUE BOX", "address": {"city": "GRANTS PASS", "state": "OR", "street": "1620 WILLIAMS HWY", "postcode": "97527"}}},
{"geometry": {"type": "Point", "coordinates": [-123.3321283612, 42.4198585449]}, "type": "Feature", "properties": {"collection_times": [{"days": "Mon-Sat", "time": "3:00pm"}, {"days": "Sun", "time": "Closed"}], "id": "9752700007", "name": "USPS COLLECTION BOX - BLUE BOX", "address": {"city": "GRANTS PASS", "state": "OR", "street": "1760 HARBECK RD", "postcode": "97527"}}},
{"geometry": {"type": "Point", "coordinates": [-123.333077878, 42.421668406]}, "type": "Feature", "properties": {"collection_times": [{"days": "Mon-Fri", "time": "4:00pm"}, {"days": "Sat", "time": "3:00pm"}, {"days": "Sun", "time": "Closed"}], "id": "9752700011", "name": "USPS COLLECTION BOX - BLUE BOX", "address": {"city": "GRANTS PASS", "state": "OR", "street": "1620 WILLIAMS HWY", "postcode": "97527"}}},
{"geometry": {"type": "Point", "coordinates": [-123.333077878, 42.421668406]}, "type": "Feature", "properties": {"collection_times": [{"days": "Mon-Fri", "time": "4:00pm"}, {"days": "Sat", "time": "3:00pm"}, {"days": "Sun", "time": "Closed"}], "id": "9752700013", "name": "USPS COLLECTION BOX - BLUE BOX", "address": {"city": "GRANTS PASS", "state": "OR", "street": "1620 WILLIAMS HWY", "postcode": "97527"}}},
{"geometry": {"type": "Point", "coordinates": [-123.3516943074, 42.4207525688]}, "type": "Feature", "properties": {"collection_times": [{"days": "Mon-Fri", "time": "12:30pm"}, {"days": "Sat", "time": "11:00am"}, {"days": "Sun", "time": "Closed"}], "id": "9752700015", "name": "USPS COLLECTION BOX - BLUE BOX", "address": {"city": "GRANTS PASS", "state": "OR", "street": "1610 SW ALLEN CREEK RD", "postcode": "97527"}}},
{"geometry": {"type": "Point", "coordinates": [-123.3267404296, 42.4396833427]}, "type": "Feature", "properties": {"collection_times": [{"days": "Mon-Fri", "time": "5:00pm"}, {"days": "Sat", "time": "12:30pm"}, {"days": "Sun", "time": "Closed"}], "id": "9752800001", "name": "USPS COLLECTION BOX - APC", "address": {"city": "GRANTS PASS", "state": "OR", "street": "132 NW 6TH ST", "postcode": "97528"}}},
{"geometry": {"type": "Point", "coordinates": [-123.3226499017, 42.449751512]}, "type": "Feature", "properties": {"collection_times": [{"days": "Mon-Fri", "time": "5:00pm"}, {"days": "Sat", "time": "12:30pm"}, {"days": "Sun", "time": "Closed"}], "id": "9752800002", "name": "USPS COLLECTION BOX - PO LOBBY", "address": {"city": "GRANTS PASS", "state": "OR", "street": "132 NW 6TH ST", "postcode": "97528"}}},
{"geometry": {"type": "Point", "coordinates": [-123.3226499017, 42.449751512]}, "type": "Feature", "properties": {"collection_times": [{"days": "Mon-Fri", "time": "5:00pm"}, {"days": "Sat", "time": "12:30pm"}, {"days": "Sun", "time": "Closed"}], "id": "9752800003", "name": "USPS COLLECTION BOX - PO LOBBY", "address": {"city": "GRANTS PASS", "state": "OR", "street": "132 NW 6TH ST", "postcode": "97528"}}},
{"geometry": {"type": "Point", "coordinates": [-123.3226499017, 42.449751512]}, "type": "Feature", "properties": {"collection_times": [{"days": "Mon-Fri", "time": "5:00pm"}, {"days": "Sat", "time": "12:30pm"}, {"days": "Sun", "time": "Closed"}], "id": "9752800004", "name": "USPS COLLECTION BOX - PO LOBBY", "address": {"city": "GRANTS PASS", "state": "OR", "street": "132 NW 6TH ST", "postcode": "97528"}}},
{"geometry": {"type": "Point", "coordinates": [-123.0276196832, 42.2528315178]}, "type": "Feature", "properties": {"collection_times": [{"days": "Mon-Fri", "time": "4:30pm"}, {"days": "Sat", "time": "10:00am"}, {"days": "Sun", "time": "Closed"}], "id": "9753000000", "name": "USPS COLLECTION BOX - PO LOBBY", "address": {"city": "JACKSONVILLE", "state": "OR", "street": "175 N OREGON ST", "postcode": "97530"}}},
{"geometry": {"type": "Point", "coordinates": [-122.9683853167, 42.3149085305]}, "type": "Feature", "properties": {"collection_times": [{"days": "Mon-Fri", "time": "4:30pm"}, {"days": "Sat", "time": "2:00pm"}, {"days": "Sun", "time": "Closed"}], "id": "9753000001", "name": "USPS COLLECTION BOX - BLUE BOX", "address": {"city": "JACKSONVILLE", "state": "OR", "street": "175 N OREGON ST", "postcode": "97530"}}},
{"geometry": {"type": "Point", "coordinates": [-123.0276196832, 42.2528315178]}, "type": "Feature", "properties": {"collection_times": [{"days": "Mon-Fri", "time": "12:00pm"}, {"days": "Sat-Sun", "time": "Closed"}], "id": "9753000002", "name": "USPS COLLECTION BOX - PO LOBBY", "address": {"city": "JACKSONVILLE", "state": "OR", "street": "15095 HIGHWAY 238", "postcode": "97530"}}},
{"geometry": {"type": "Point", "coordinates": [-123.0365839951, 42.2395366498]}, "type": "Feature", "properties": {"collection_times": [{"days": "Mon-Fri", "time": "12:00pm"}, {"days": "Sat", "time": "11:30am"}, {"days": "Sun", "time": "Closed"}], "id": "9753000003", "name": "USPS COLLECTION BOX - BLUE BOX", "address": {"city": "JACKSONVILLE", "state": "OR", "street": "7360 HIGHWAY 238", "postcode": "97530"}}},
{"geometry": {"type": "Point", "coordinates": [-123.0276196832, 42.2528315178]}, "type": "Feature", "properties": {"collection_times": [{"days": "Mon-Sat", "time": "2:00pm"}, {"days": "Sun", "time": "Closed"}], "id": "9753000004", "name": "USPS COLLECTION BOX - BLUE BOX", "address": {"city": "JACKSONVILLE", "state": "OR", "street": "425 N 5TH ST", "postcode": "97530"}}},
{"geometry": {"type": "Point", "coordinates": [-123.5502946389, 42.5873551243]}, "type": "Feature", "properties": {"collection_times": [{"days": "Mon-Fri", "time": "4:30pm"}, {"days": "Sat", "time": "10:30am"}, {"days": "Sun", "time": "Closed"}], "id": "9753200001", "name": "USPS COLLECTION BOX - PO LOBBY", "address": {"city": "MERLIN", "state": "OR", "street": "317 JOSEPHINE ST", "postcode": "97532"}}},
{"geometry": {"type": "Point", "coordinates": [-123.3318960734, 42.3379414855]}, "type": "Feature", "properties": {"collection_times": [{"days": "Mon-Fri", "time": "4:00pm"}, {"days": "Sat", "time": "9:30am"}, {"days": "Sun", "time": "Closed"}], "id": "9753300000", "name": "USPS COLLECTION BOX - PO LOBBY", "address": {"city": "MURPHY", "state": "OR", "street": "7200 WILLIAMS HWY", "postcode": "97533"}}},
{"geometry": {"type": "Point", "coordinates": [-123.7043473866, 42.0657566912]}, "type": "Feature", "properties": {"collection_times": [{"days": "Mon-Fri", "time": "2:45pm"}, {"days": "Sat", "time": "1:45pm"}, {"days": "Sun", "time": "Closed"}], "id": "9753400000", "name": "USPS COLLECTION BOX - BLUE BOX", "address": {"city": "OBRIEN", "state": "OR", "street": "33096 REDWOOD HWY", "postcode": "97534"}}},
{"geometry": {"type": "Point", "coordinates": [-123.7043473866, 42.0657566912]}, "type": "Feature", "properties": {"collection_times": [{"days": "Mon-Fri", "time": "2:00pm"}, {"days": "Sat", "time": "10:30am"}, {"days": "Sun", "time": "Closed"}], "id": "9753400001", "name": "USPS COLLECTION BOX - PO LOBBY", "address": {"city": "OBRIEN", "state": "OR", "street": "33096 REDWOOD HWY", "postcode": "97534"}}},
{"geometry": {"type": "Point", "coordinates": [-122.8205066542, 42.2786139956]}, "type": "Feature", "properties": {"collection_times": [{"days": "Mon-Fri", "time": "4:30pm"}, {"days": "Sat", "time": "11:45am"}, {"days": "Sun", "time": "Closed"}], "id": "9753500000", "name": "USPS COLLECTION BOX - BLUE BOX", "address": {"city": "PHOENIX", "state": "OR", "street": "105 W BOLZ RD", "postcode": "97535"}}},
{"geometry": {"type": "Point", "coordinates": [-122.8176168774, 42.273552849]}, "type": "Feature", "properties": {"collection_times": [{"days": "Mon-Fri", "time": "5:00pm"}, {"days": "Sat", "time": "10:00am"}, {"days": "Sun", "time": "Closed"}], "id": "9753500001", "name": "USPS COLLECTION BOX - PO LOBBY", "address": {"city": "PHOENIX", "state": "OR", "street": "105 W BOLZ RD", "postcode": "97535"}}},
{"geometry": {"type": "Point", "coordinates": [-122.8205066542, 42.2786139956]}, "type": "Feature", "properties": {"collection_times": [{"days": "Mon-Fri", "time": "4:30pm"}, {"days": "Sat", "time": "11:45am"}, {"days": "Sun", "time": "Closed"}], "id": "9753500002", "name": "USPS COLLECTION BOX - BLUE BOX", "address": {"city": "PHOENIX", "state": "OR", "street": "105 W BOLZ RD", "postcode": "97535"}}},
{"geometry": {"type": "Point", "coordinates": [-122.5197189553, 42.7329502805]}, "type": "Feature", "properties": {"collection_times": [{"days": "Mon-Fri", "time": "1:15pm"}, {"days": "Sat", "time": "10:30am"}, {"days": "Sun", "time": "Closed"}], "id": "9753600000", "name": "USPS COLLECTION BOX - PO LOBBY", "address": {"city": "PROSPECT", "state": "OR", "street": "291 MILL CREEK DR", "postcode": "97536"}}},
{"geometry": {"type": "Point", "coordinates": [-122.4887735316, 42.7522129711]}, "type": "Feature", "properties": {"collection_times": [{"days": "Mon-Fri", "time": "2:45pm"}, {"days": "Sat", "time": "10:30am"}, {"days": "Sun", "time": "Closed"}], "id": "9753600001", "name": "USPS COLLECTION BOX - BLUE BOX", "address": {"city": "PROSPECT", "state": "OR", "street": "291 MILL CREEK DR", "postcode": "97536"}}},
{"geometry": {"type": "Point", "coordinates": [-123.1633089317, 42.4326807165]}, "type": "Feature", "properties": {"collection_times": [{"days": "Mon-Fri", "time": "4:45pm"}, {"days": "Sat", "time": "12:00pm"}, {"days": "Sun", "time": "Closed"}], "id": "9753700001", "name": "USPS COLLECTION BOX - PO LOBBY", "address": {"city": "ROGUE RIVER", "state": "OR", "street": "522 E MAIN ST", "postcode": "97537"}}},
{"geometry": {"type": "Point", "coordinates": [-123.1633089317, 42.4326807165]}, "type": "Feature", "properties": {"collection_times": [{"days": "Mon-Fri", "time": "4:45pm"}, {"days": "Sat", "time": "12:00pm"}, {"days": "Sun", "time": "Closed"}], "id": "9753700002", "name": "USPS COLLECTION BOX - PO LOBBY", "address": {"city": "ROGUE RIVER", "state": "OR", "street": "522 E MAIN ST", "postcode": "97537"}}},
{"geometry": {"type": "Point", "coordinates": [-123.16284007, 42.4325619561]}, "type": "Feature", "properties": {"collection_times": [{"days": "Mon-Fri", "time": "4:45pm"}, {"days": "Sat", "time": "12:00pm"}, {"days": "Sun", "time": "Closed"}], "id": "9753700003", "name": "USPS COLLECTION BOX - BLUE BOX", "address": {"city": "ROGUE RIVER", "state": "OR", "street": "522 E MAIN ST", "postcode": "97537"}}},
{"geometry": {"type": "Point", "coordinates": [-123.6123616131, 42.295192214]}, "type": "Feature", "properties": {"collection_times": [{"days": "Mon-Fri", "time": "4:00pm"}, {"days": "Sat", "time": "3:30pm"}, {"days": "Sun", "time": "Closed"}], "id": "9753800000", "name": "USPS COLLECTION BOX - BLUE BOX", "address": {"city": "SELMA", "state": "OR", "street": "18398 REDWOOD HWY", "postcode": "97538"}}},
{"geometry": {"type": "Point", "coordinates": [-123.5623768901, 42.2655015538]}, "type": "Feature", "properties": {"collection_times": [{"days": "Mon-Fri", "time": "4:00pm"}, {"days": "Sat", "time": "10:00am"}, {"days": "Sun", "time": "Closed"}], "id": "9753800001", "name": "USPS COLLECTION BOX - PO LOBBY", "address": {"city": "SELMA", "state": "OR", "street": "18398 REDWOOD HWY", "postcode": "97538"}}},
{"geometry": {"type": "Point", "coordinates": [-122.8187161638, 42.614023135]}, "type": "Feature", "properties": {"collection_times": [{"days": "Mon-Fri", "time": "3:30pm"}, {"days": "Sat", "time": "10:30am"}, {"days": "Sun", "time": "Closed"}], "id": "9753900000", "name": "USPS COLLECTION BOX - PO LOBBY", "address": {"city": "SHADY COVE", "state": "OR", "street": "81 WILLIAMS LN", "postcode": "97539"}}},
{"geometry": {"type": "Point", "coordinates": [-122.8115332386, 42.6194672308]}, "type": "Feature", "properties": {"collection_times": [{"days": "Mon-Fri", "time": "3:00pm"}, {"days": "Sat", "time": "10:30am"}, {"days": "Sun", "time": "Closed"}], "id": "9753900001", "name": "USPS COLLECTION BOX - BLUE BOX", "address": {"city": "SHADY COVE", "state": "OR", "street": "81 WILLIAMS LN", "postcode": "97539"}}},
{"geometry": {"type": "Point", "coordinates": [-122.7878970398, 42.2374024032]}, "type": "Feature", "properties": {"collection_times": [{"days": "Mon-Fri", "time": "4:45pm"}, {"days": "Sat", "time": "11:00am"}, {"days": "Sun", "time": "Closed"}], "id": "9754000000", "name": "USPS COLLECTION BOX - BLUE BOX", "address": {"city": "TALENT", "state": "OR", "street": "153 E WAGNER ST", "postcode": "97540"}}},
{"geometry": {"type": "Point", "coordinates": [-122.7878970398, 42.2374024032]}, "type": "Feature", "properties": {"collection_times": [{"days": "Mon-Fri", "time": "4:45pm"}, {"days": "Sat", "time": "11:00am"}, {"days": "Sun", "time": "Closed"}], "id": "9754000001", "name": "USPS COLLECTION BOX - PO LOBBY", "address": {"city": "TALENT", "state": "OR", "street": "153 E WAGNER ST", "postcode": "97540"}}},
{"geometry": {"type": "Point", "coordinates": [-122.7878970398, 42.2374024032]}, "type": "Feature", "properties": {"collection_times": [{"days": "Mon-Fri", "time": "4:45pm"}, {"days": "Sat", "time": "11:00am"}, {"days": "Sun", "time": "Closed"}], "id": "9754000002", "name": "USPS COLLECTION BOX - PO LOBBY", "address": {"city": "TALENT", "state": "OR", "street": "153 E WAGNER ST", "postcode": "97540"}}},
{"geometry": {"type": "Point", "coordinates": [-122.7845557306, 42.6684703989]}, "type": "Feature", "properties": {"collection_times": [{"days": "Mon-Sat", "time": "3:30pm"}, {"days": "Sun", "time": "Closed"}], "id": "9754100000", "name": "USPS COLLECTION BOX - BLUE BOX", "address": {"city": "TRAIL", "state": "OR", "street": "100 OLD HIGHWAY 62", "postcode": "97541"}}},
{"geometry": {"type": "Point", "coordinates": [-122.7845557306, 42.6684703989]}, "type": "Feature", "properties": {"collection_times": [{"days": "Mon-Fri", "time": "12:00pm"}, {"days": "Sat", "time": "10:00am"}, {"days": "Sun", "time": "Closed"}], "id": "9754100001", "name": "USPS COLLECTION BOX - PO LOBBY", "address": {"city": "TRAIL", "state": "OR", "street": "100 OLD HIGHWAY 62", "postcode": "97541"}}},
{"geometry": {"type": "Point", "coordinates": [-123.5388220775, 42.3638447931]}, "type": "Feature", "properties": {"collection_times": [{"days": "Mon-Sat", "time": "3:30pm"}, {"days": "Sun", "time": "Closed"}], "id": "9754300001", "name": "USPS COLLECTION BOX - BLUE BOX", "address": {"city": "SELMA", "state": "OR", "street": "7845 REDWOOD HWY", "postcode": "97543"}}},
{"geometry": {"type": "Point", "coordinates": [-123.5299527458, 42.3635021352]}, "type": "Feature", "properties": {"collection_times": [{"days": "Mon-Sat", "time": "3:30pm"}, {"days": "Sun", "time": "Closed"}], "id": "9754300002", "name": "USPS COLLECTION BOX - BLUE BOX", "address": {"city": "SELMA", "state": "OR", "street": "11465 REDWOOD HWY", "postcode": "97543"}}},
{"geometry": {"type": "Point", "coordinates": [-123.2799558776, 42.2327923524]}, "type": "Feature", "properties": {"collection_times": [{"days": "Mon-Fri", "time": "3:15pm"}, {"days": "Sat", "time": "10:00am"}, {"days": "Sun", "time": "Closed"}], "id": "9754400000", "name": "USPS COLLECTION BOX - BLUE BOX", "address": {"city": "WILLIAMS", "state": "OR", "street": "20160 WILLIAMS HWY", "postcode": "97544"}}},
{"geometry": {"type": "Point", "coordinates": [-123.2799558776, 42.2327923524]}, "type": "Feature", "properties": {"collection_times": [{"days": "Mon-Fri", "time": "3:00pm"}, {"days": "Sat-Sun", "time": "Closed"}], "id": "9754400001", "name": "USPS COLLECTION BOX - PO LOBBY", "address": {"city": "WILLIAMS", "state": "OR", "street": "20160 WILLIAMS HWY", "postcode": "97544"}}}
]}
