{"type": "FeatureCollection", "features": [
{"geometry": {"type": "Point", "coordinates": [-121.7805207449, 42.2224407924]}, "type": "Feature", "properties": {"collection_times": [{"days": "Mon-Sat", "time": "3:30pm"}, {"days": "Sun", "time": "Closed"}], "id": "9760100026", "name": "USPS COLLECTION BOX - BLUE BOX", "address": {"city": "KLAMATH FALLS", "state": "OR", "street": "422 S 5TH ST", "postcode": "97601"}}},
{"geometry": {"type": "Point", "coordinates": [-121.7824718747, 42.2247665793]}, "type": "Feature", "properties": {"collection_times": [{"days": "Mon-Fri", "time": "3:30pm"}, {"days": "Sat", "time": "3:15pm"}, {"days": "Sun", "time": "Closed"}], "id": "9760100029", "name": "USPS COLLECTION BOX - BLUE BOX", "address": {"city": "KLAMATH FALLS", "state": "OR", "street": "600 MAIN ST", "postcode": "97601"}}},
{"geometry": {"type": "Point", "coordinates": [-121.7846841223, 42.247892801]}, "type": "Feature", "properties": {"collection_times": [{"days": "Mon-Fri", "time": "3:15pm"}, {"days": "Sat", "time": "3:00pm"}, {"days": "Sun", "time": "Closed"}], "id": "9760100037", "name": "USPS COLLECTION BOX - BLUE BOX", "address": {"city": "KLAMATH FALLS", "state": "OR", "street": "2227 N ELDORADO AVE", "postcode": "97601"}}},
{"geometry": {"type": "Point", "coordinates": [-121.8114396088, 42.2337439086]}, "type": "Feature", "properties": {"collection_times": [{"days": "Mon-Fri", "time": "5:00pm"}, {"days": "Sat", "time": "4:30pm"}, {"days": "Sun", "time": "Closed"}], "id": "9760100039", "name": "USPS COLLECTION BOX - EXPRESS", "address": {"city": "KLAMATH FALLS", "state": "OR", "street": "317 S 7TH ST", "postcode": "97601"}}},
{"geometry": {"type": "Point", "coordinates": [-121.7799982688, 42.2242656896]}, "type": "Feature", "properties": {"collection_times": [{"days": "Mon-Fri", "time": "5:00pm"}, {"days": "Sat", "time": "4:30pm"}, {"days": "Sun", "time": "Closed"}], "id": "9760100040", "name": "USPS COLLECTION BOX - BLUE BOX", "address": {"city": "KLAMATH FALLS", "state": "OR", "street": "317 S 7TH ST", "postcode": "97601"}}},
{"geometry": {"type": "Point", "coordinates": [-121.7805207449, 42.2224407924]}, "type": "Feature", "properties": {"collection_times": [{"days": "Mon-Sat", "time": "3:30pm"}, {"days": "Sun", "time": "Closed"}], "id": "9760100056", "name": "USPS COLLECTION BOX - BLUE BOX", "address": {"city": "KLAMATH FALLS", "state": "OR", "street": "422 S 5TH ST", "postcode": "97601"}}},
{"geometry": {"type": "Point", "coordinates": [-121.7810052385, 42.2261160298]}, "type": "Feature", "properties": {"collection_times": [{"days": "Mon-Fri", "time": "3:30pm"}, {"days": "Sat", "time": "3:15pm"}, {"days": "Sun", "time": "Closed"}], "id": "9760100060", "name": "USPS COLLECTION BOX - BLUE BOX", "address": {"city": "KLAMATH FALLS", "state": "OR", "street": "800 MAIN ST", "postcode": "97601"}}},
{"geometry": {"type": "Point", "coordinates": [-121.7799982688, 42.2242656896]}, "type": "Feature", "properties": {"collection_times": [{"days": "Mon-Fri", "time": "5:00pm"}, {"days": "Sat", "time": "4:30pm"}, {"days": "Sun", "time": "Closed"}], "id": "9760100076", "name": "USPS COLLECTION BOX - BLUE BOX", "address": {"city": "KLAMATH FALLS", "state": "OR", "street": "317 S 7TH ST", "postcode": "97601"}}},
{"geometry": {"type": "Point", "coordinates": [-121.7895134555, 42.2527588852]}, "type": "Feature", "properties": {"collection_times": [{"days": "Mon-Fri", "time": "3:15pm"}, {"days": "Sat", "time": "3:00pm"}, {"days": "Sun", "time": "Closed"}], "id": "9760100077", "name": "USPS COLLECTION BOX - BLUE BOX", "address": {"city": "KLAMATH FALLS", "state": "OR", "street": "2865 DAGGETT AVE", "postcode": "97601"}}},
{"geometry": {"type": "Point", "coordinates": [-121.78026028, 42.226763624]}, "type": "Feature", "properties": {"collection_times": [{"days": "Mon-Fri", "time": "3:30pm"}, {"days": "Sat", "time": "3:15pm"}, {"days": "Sun", "time": "Closed"}], "id": "9760100088", "name": "USPS COLLECTION BOX - BLUE BOX", "address": {"city": "KLAMATH FALLS", "state": "OR", "street": "900 MAIN ST", "postcode": "97601"}}},
{"geometry": {"type": "Point", "coordinates": [-121.8114396088, 42.2337439086]}, "type": "Feature", "properties": {"collection_times": [{"days": "Mon-Fri", "time": "5:00pm"}, {"days": "Sat", "time": "4:30pm"}, {"days": "Sun", "time": "Closed"}], "id": "9760100089", "name": "USPS COLLECTION BOX - PO LOBBY", "address": {"city": "KLAMATH FALLS", "state": "OR", "street": "317 S 7TH ST", "postcode": "97601"}}},
{"geometry": {"type": "Point", "coordinates": [-121.7821829159, 42.2234559617]}, "type": "Feature", "properties": {"collection_times": [{"days": "Mon-Sat", "time": "3:30pm"}, {"days": "Sun", "time": "Closed"}], "id": "9760100090", "name": "USPS COLLECTION BOX - BLUE BOX", "address": {"city": "KLAMATH FALLS", "state": "OR", "street": "224 S 5TH ST", "postcode": "97601"}}},
{"geometry": {"type": "Point", "coordinates": [-121.7799982688, 42.2242656896]}, "type": "Feature", "properties": {"collection_times": [{"days": "Mon-Fri", "time": "5:00pm"}, {"days": "Sat", "time": "4:30pm"}, {"days": "Sun", "time": "Closed"}], "id": "9760100092", "name": "USPS COLLECTION BOX - APC", "address": {"city": "KLAMATH FALLS", "state": "OR", "street": "317 S 7TH ST", "postcode": "97601"}}},
{"geometry": {"type": "Point", "coordinates": [-121.7369356041, 42.2065473231]}, "type": "Feature", "properties": {"collection_times": [{"days": "Mon-Sat", "time": "4:00pm"}, {"days": "Sun", "time": "Closed"}], "id": "9760300000", "name": "USPS COLLECTION BOX - BLUE BOX", "address": {"city": "KLAMATH FALLS", "state": "OR", "street": "4331 S 6TH ST", "postcode": "97603"}}},
{"geometry": {"type": "Point", "coordinates": [-121.7422958085, 42.2064681168]}, "type": "Feature", "properties": {"collection_times": [{"days": "Mon-Sat", "time": "4:00pm"}, {"days": "Sun", "time": "Closed"}], "id": "9760300010", "name": "USPS COLLECTION BOX - BLUE BOX", "address": {"city": "KLAMATH FALLS", "state": "OR", "street": "3834 S 6TH ST", "postcode": "97603"}}},
{"geometry": {"type": "Point", "coordinates": [-121.7369356041, 42.2065473231]}, "type": "Feature", "properties": {"collection_times": [{"days": "Mon-Sat", "time": "4:00pm"}, {"days": "Sun", "time": "Closed"}], "id": "9760300011", "name": "USPS COLLECTION BOX - BLUE BOX", "address": {"city": "KLAMATH FALLS", "state": "OR", "street": "4331 S 6TH ST", "postcode": "97603"}}},
{"geometry": {"type": "Point", "coordinates": [-121.7422958085, 42.2064681168]}, "type": "Feature", "properties": {"collection_times": [{"days": "Mon-Sat", "time": "4:00pm"}, {"days": "Sun", "time": "Closed"}], "id": "9760300014", "name": "USPS COLLECTION BOX - BLUE BOX", "address": {"city": "KLAMATH FALLS", "state": "OR", "street": "3834 S 6TH ST", "postcode": "97603"}}},
{"geometry": {"type": "Point", "coordinates": [-121.7429588444, 42.2139605583]}, "type": "Feature", "properties": {"collection_times": [{"days": "Mon-Fri", "time": "3:45pm"}, {"days": "Sat-Sun", "time": "Closed"}], "id": "9760300023", "name": "USPS COLLECTION BOX - BLUE BOX", "address": {"city": "KLAMATH FALLS", "state": "OR", "street": "3737 SHASTA WAY", "postcode": "97603"}}},
{"geometry": {"type": "Point", "coordinates": [-121.7429588444, 42.2139605583]}, "type": "Feature", "properties": {"collection_times": [{"days": "Mon-Fri", "time": "3:45pm"}, {"days": "Sat-Sun", "time": "Closed"}], "id": "9760300024", "name": "USPS COLLECTION BOX - BLUE BOX", "address": {"city": "KLAMATH FALLS", "state": "OR", "street": "3737 SHASTA WAY", "postcode": "97603"}}},
{"geometry": {"type": "Point", "coordinates": [-121.7572258493, 42.1997130807]}, "type": "Feature", "properties": {"collection_times": [{"days": "Mon-Fri", "time": "4:00pm"}, {"days": "Sat", "time": "3:30pm"}, {"days": "Sun", "time": "Closed"}], "id": "9760300026", "name": "USPS COLLECTION BOX - BLUE BOX", "address": {"city": "KLAMATH FALLS", "state": "OR", "street": "2972 WASHBURN WAY", "postcode": "97603"}}},
{"geometry": {"type": "Point", "coordinates": [-121.7572258493, 42.1997130807]}, "type": "Feature", "properties": {"collection_times": [{"days": "Mon-Fri", "time": "4:00pm"}, {"days": "Sat", "time": "3:30pm"}, {"days": "Sun", "time": "Closed"}], "id": "9760300027", "name": "USPS COLLECTION BOX - BLUE BOX", "address": {"city": "KLAMATH FALLS", "state": "OR", "street": "2972 WASHBURN WAY", "postcode": "97603"}}},
{"geometry": {"type": "Point", "coordinates": [-121.721415468, 42.2064620803]}, "type": "Feature", "properties": {"collection_times": [{"days": "Mon-Sat", "time": "4:00pm"}, {"days": "Sun", "time": "Closed"}], "id": "9760300028", "name": "USPS COLLECTION BOX - BLUE BOX", "address": {"city": "KLAMATH FALLS", "state": "OR", "street": "5500 S 6TH ST", "postcode": "97603"}}},
{"geometry": {"type": "Point", "coordinates": [-121.721415468, 42.2064620803]}, "type": "Feature", "properties": {"collection_times": [{"days": "Mon-Sat", "time": "4:00pm"}, {"days": "Sun", "time": "Closed"}], "id": "9760300029", "name": "USPS COLLECTION BOX - BLUE BOX", "address": {"city": "KLAMATH FALLS", "state": "OR", "street": "5500 S 6TH ST", "postcode": "97603"}}},
{"geometry": {"type": "Point", "coordinates": [-121.7572132366, 42.1931607898]}, "type": "Feature", "properties": {"collection_times": [{"days": "Mon-Fri", "time": "4:00pm"}, {"days": "Sat", "time": "3:30pm"}, {"days": "Sun", "time": "Closed"}], "id": "9760300030", "name": "USPS COLLECTION BOX - BLUE BOX", "address": {"city": "KLAMATH FALLS", "state": "OR", "street": "3600 WASHBURN WAY", "postcode": "97603"}}},
{"geometry": {"type": "Point", "coordinates": [-121.7572132366, 42.1931607898]}, "type": "Feature", "properties": {"collection_times": [{"days": "Mon-Fri", "time": "4:00pm"}, {"days": "Sat", "time": "3:30pm"}, {"days": "Sun", "time": "Closed"}], "id": "9760300031", "name": "USPS COLLECTION BOX - BLUE BOX", "address": {"city": "KLAMATH FALLS", "state": "OR", "street": "3600 WASHBURN WAY", "postcode": "97603"}}},
{"geometry": {"type": "Point", "coordinates": [-121.7526095745, 42.208960968]}, "type": "Feature", "properties": {"collection_times": [{"days": "Mon-Fri", "time": "4:00pm"}, {"days": "Sat", "time": "3:45pm"}, {"days": "Sun", "time": "Closed"}], "id": "9760300032", "name": "USPS COLLECTION BOX - BLUE BOX", "address": {"city": "KLAMATH FALLS", "state": "OR", "street": "2972 S 6TH ST", "postcode": "97603"}}},
{"geometry": {"type": "Point", "coordinates": [-121.7526095745, 42.208960968]}, "type": "Feature", "properties": {"collection_times": [{"days": "Mon-Fri", "time": "4:00pm"}, {"days": "Sat", "time": "3:45pm"}, {"days": "Sun", "time": "Closed"}], "id": "9760300033", "name": "USPS COLLECTION BOX - BLUE BOX", "address": {"city": "KLAMATH FALLS", "state": "OR", "street": "2972 S 6TH ST", "postcode": "97603"}}},
{"geometry": {"type": "Point", "coordinates": [-121.756894796, 42.2122229924]}, "type": "Feature", "properties": {"collection_times": [{"days": "Mon-Fri", "time": "4:30pm"}, {"days": "Sat", "time": "12:00pm"}, {"days": "Sun", "time": "Closed"}], "id": "9760300035", "name": "USPS COLLECTION BOX - BLUE BOX", "address": {"city": "KLAMATH FALLS", "state": "OR", "street": "2621 PERSHING WAY", "postcode": "97603"}}},
{"geometry": {"type": "Point", "coordinates": [-119.8167779339, 42.1763507309]}, "type": "Feature", "properties": {"collection_times": [{"days": "Mon-Fri", "time": "1:00pm"}, {"days": "Sat-Sun", "time": "Closed"}], "id": "9762000000", "name": "USPS COLLECTION BOX - PO LOBBY", "address": {"city": "ADEL", "state": "OR", "street": "1 HIGHWAY 140 E", "postcode": "97620"}}},
{"geometry": {"type": "Point", "coordinates": [-121.1896660237, 42.4294419741]}, "type": "Feature", "properties": {"collection_times": [{"days": "Mon-Fri", "time": "3:00pm"}, {"days": "Sat", "time": "9:30am"}, {"days": "Sun", "time": "Closed"}], "id": "9762100000", "name": "USPS COLLECTION BOX - BLUE BOX", "address": {"city": "BEATTY", "state": "OR", "street": "24199 GODOWA SPRINGS RD", "postcode": "97621"}}},
{"geometry": {"type": "Point", "coordinates": [-121.215148434, 42.3807137196]}, "type": "Feature", "properties": {"collection_times": [{"days": "Mon-Fri", "time": "11:45am"}, {"days": "Sat", "time": "9:30am"}, {"days": "Sun", "time": "Closed"}], "id": "9762100001", "name": "USPS COLLECTION BOX - PO LOBBY", "address": {"city": "BEATTY", "state": "OR", "street": "24199 GODOWA SPRINGS RD", "postcode": "97621"}}},
{"geometry": {"type": "Point", "coordinates": [-121.0441768125, 42.3992625481]}, "type": "Feature", "properties": {"collection_times": [{"days": "Mon-Fri", "time": "2:30pm"}, {"days": "Sat", "time": "9:30am"}, {"days": "Sun", "time": "Closed"}], "id": "9762200000", "name": "USPS COLLECTION BOX - BLUE BOX", "address": {"city": "BLY", "state": "OR", "street": "61133 HWY 140 E", "postcode": "97622"}}},
{"geometry": {"type": "Point", "coordinates": [-121.0441768125, 42.3992625481]}, "type": "Feature", "properties": {"collection_times": [{"days": "Mon-Fri", "time": "12:30pm"}, {"days": "Sat", "time": "9:30am"}, {"days": "Sun", "time": "Closed"}], "id": "9762200001", "name": "USPS COLLECTION BOX - PO LOBBY", "address": {"city": "BLY", "state": "OR", "street": "61133 HWY 140 E", "postcode": "97622"}}},
{"geometry": {"type": "Point", "coordinates": [-121.3986684313, 42.265692734]}, "type": "Feature", "properties": {"collection_times": [{"days": "Mon-Fri", "time": "3:30pm"}, {"days": "Sat", "time": "10:00am"}, {"days": "Sun", "time": "Closed"}], "id": "9762300000", "name": "USPS COLLECTION BOX - BLUE BOX", "address": {"city": "BONANZA", "state": "OR", "street": "2899 MARKET ST", "postcode": "97623"}}},
{"geometry": {"type": "Point", "coordinates": [-121.3986684313, 42.265692734]}, "type": "Feature", "properties": {"collection_times": [{"days": "Mon-Fri", "time": "3:30pm"}, {"days": "Sat-Sun", "time": "Closed"}], "id": "9762300001", "name": "USPS COLLECTION BOX - PO LOBBY", "address": {"city": "BONANZA", "state": "OR", "street": "2899 MARKET ST", "postcode": "97623"}}},
{"geometry": {"type": "Point", "coordinates": [-121.7408376144, 42.5821438296]}, "type": "Feature", "properties": {"collection_times": [{"days": "Mon-Fri", "time": "4:30pm"}, {"days": "Sat", "time": "11:30am"}, {"days": "Sun", "time": "Closed"}], "id": "9762400001", "name": "USPS COLLECTION BOX - PO LOBBY", "address": {"city": "CHILOQUIN", "state": "OR", "street": "228 S 1ST AVE", "postcode": "97624"}}},
{"geometry": {"type": "Point", "coordinates": [-121.7408376144, 42.5821438296]}, "type": "Feature", "properties": {"collection_times": [{"days": "Mon-Sat", "time": "10:30am"}, {"days": "Sun", "time": "Closed"}], "id": "9762400003", "name": "USPS COLLECTION BOX - BLUE BOX", "address": {"city": "CHILOQUIN", "state": "OR", "street": "23402 SPRAGUE RIVER RD", "postcode": "97624"}}},
{"geometry": {"type": "Point", "coordinates": [-121.9957895021, 42.7024309619]}, "type": "Feature", "properties": {"collection_times": [{"days": "Mon-Fri", "time": "3:45pm"}, {"days": "Sat", "time": "9:45am"}, {"days": "Sun", "time": "Closed"}], "id": "9762600000", "name": "USPS COLLECTION BOX - BLUE BOX", "address": {"city": "FORT KLAMATH", "state": "OR", "street": "52649 HIGHWAY 62", "postcode": "97626"}}},
{"geometry": {"type": "Point", "coordinates": [-121.9957895021, 42.7024309619]}, "type": "Feature", "properties": {"collection_times": [{"days": "Mon-Fri", "time": "12:00pm"}, {"days": "Sat", "time": "9:45am"}, {"days": "Sun", "time": "Closed"}], "id": "9762600001", "name": "USPS COLLECTION BOX - PO LOBBY", "address": {"city": "FORT KLAMATH", "state": "OR", "street": "52649 HIGHWAY 62", "postcode": "97626"}}},
{"geometry": {"type": "Point", "coordinates": [-122.2819110135, 42.1318009814]}, "type": "Feature", "properties": {"collection_times": [{"days": "Mon-Fri", "time": "4:15pm"}, {"days": "Sat", "time": "9:45am"}, {"days": "Sun", "time": "Closed"}], "id": "9762700000", "name": "USPS COLLECTION BOX - BLUE BOX", "address": {"city": "KENO", "state": "OR", "street": "15750 HIGHWAY 66", "postcode": "97627"}}},
{"geometry": {"type": "Point", "coordinates": [-122.2819110135, 42.1318009814]}, "type": "Feature", "properties": {"collection_times": [{"days": "Mon-Fri", "time": "4:15pm"}, {"days": "Sat", "time": "9:45am"}, {"days": "Sun", "time": "Closed"}], "id": "9762700001", "name": "USPS COLLECTION BOX - PO LOBBY", "address": {"city": "KENO", "state": "OR", "street": "15750 HIGHWAY 66", "postcode": "97627"}}},
{"geometry": {"type": "Point", "coordinates": [-122.2819110135, 42.1318009814]}, "type": "Feature", "properties": {"collection_times": [{"days": "Mon-Fri", "time": "4:15pm"}, {"days": "Sat", "time": "9:45am"}, {"days": "Sun", "time": "Closed"}], "id": "9762700002", "name": "USPS COLLECTION BOX - PO LOBBY", "address": {"city": "KENO", "state": "OR", "street": "15750 HIGHWAY 66", "postcode": "97627"}}},
{"geometry": {"type": "Point", "coordinates": [-120.3469429363, 42.1893202945]}, "type": "Feature", "properties": {"collection_times": [{"days": "Mon-Sat", "time": "3:00pm"}, {"days": "Sun", "time": "Closed"}], "id": "9763000000", "name": "USPS COLLECTION BOX - PO LOBBY", "address": {"city": "LAKEVIEW", "state": "OR", "street": "18 S G ST", "postcode": "97630"}}},
{"geometry": {"type": "Point", "coordinates": [-120.3469429363, 42.1893202945]}, "type": "Feature", "properties": {"collection_times": [{"days": "Mon-Sat", "time": "3:00pm"}, {"days": "Sun", "time": "Closed"}], "id": "9763000001", "name": "USPS COLLECTION BOX - BLUE BOX", "address": {"city": "LAKEVIEW", "state": "OR", "street": "18 S G ST", "postcode": "97630"}}},
{"geometry": {"type": "Point", "coordinates": [-120.3469429363, 42.1893202945]}, "type": "Feature", "properties": {"collection_times": [{"days": "Mon-Sat", "time": "3:00pm"}, {"days": "Sun", "time": "Closed"}], "id": "9763000004", "name": "USPS COLLECTION BOX - BLUE BOX", "address": {"city": "LAKEVIEW", "state": "OR", "street": "18 S G ST", "postcode": "97630"}}},
{"geometry": {"type": "Point", "coordinates": [-120.5946284734, 42.2182039208]}, "type": "Feature", "properties": {"collection_times": [{"days": "Mon-Fri", "time": "12:30pm"}, {"days": "Sat-Sun", "time": "Closed"}], "id": "9763000008", "name": "USPS COLLECTION BOX - BLUE BOX", "address": {"city": "LAKEVIEW", "state": "OR", "street": "28215 HOGBACK RD", "postcode": "97630"}}},
{"geometry": {"type": "Point", "coordinates": [-121.418177506, 42.0211905845]}, "type": "Feature", "properties": {"collection_times": [{"days": "Mon-Fri", "time": "4:30pm"}, {"days": "Sat", "time": "11:00am"}, {"days": "Sun", "time": "Closed"}], "id": "9763200000", "name": "USPS COLLECTION BOX - PO LOBBY", "address": {"city": "MALIN", "state": "OR", "street": "2109 BROADWAY ST", "postcode": "97632"}}},
{"geometry": {"type": "Point", "coordinates": [-121.4082930312, 42.0100836259]}, "type": "Feature", "properties": {"collection_times": [{"days": "Mon-Fri", "time": "4:30pm"}, {"days": "Sat", "time": "4:00pm"}, {"days": "Sun", "time": "Closed"}], "id": "9763200001", "name": "USPS COLLECTION BOX - BLUE BOX", "address": {"city": "MALIN", "state": "OR", "street": "2109 BROADWAY ST", "postcode": "97632"}}},
{"geometry": {"type": "Point", "coordinates": [-121.5996874707, 42.0241126527]}, "type": "Feature", "properties": {"collection_times": [{"days": "Mon-Sat", "time": "4:15pm"}, {"days": "Sun", "time": "Closed"}], "id": "9763300000", "name": "USPS COLLECTION BOX - BLUE BOX", "address": {"city": "MERRILL", "state": "OR", "street": "138 E FRONT ST", "postcode": "97633"}}},
{"geometry": {"type": "Point", "coordinates": [-121.5752190397, 42.0241234633]}, "type": "Feature", "properties": {"collection_times": [{"days": "Mon-Fri", "time": "4:30pm"}, {"days": "Sat", "time": "10:30am"}, {"days": "Sun", "time": "Closed"}], "id": "9763300001", "name": "USPS COLLECTION BOX - PO LOBBY", "address": {"city": "MERRILL", "state": "OR", "street": "138 E FRONT ST", "postcode": "97633"}}},
{"geometry": {"type": "Point", "coordinates": [-121.5752190397, 42.0241234633]}, "type": "Feature", "properties": {"collection_times": [{"days": "Mon-Fri", "time": "4:30pm"}, {"days": "Sat", "time": "10:30am"}, {"days": "Sun", "time": "Closed"}], "id": "9763300002", "name": "USPS COLLECTION BOX - PO LOBBY", "address": {"city": "MERRILL", "state": "OR", "street": "138 E FRONT ST", "postcode": "97633"}}},
{"geometry": {"type": "Point", "coordinates": [-121.8235549402, 42.1294446395]}, "type": "Feature", "properties": {"collection_times": [{"days": "Mon-Fri", "time": "4:15pm"}, {"days": "Sat", "time": "9:15am"}, {"days": "Sun", "time": "Closed"}], "id": "9763400000", "name": "USPS COLLECTION BOX - BLUE BOX", "address": {"city": "MIDLAND", "state": "OR", "street": "10505 HWY 97 S", "postcode": "97634"}}},
{"geometry": {"type": "Point", "coordinates": [-121.8230668435, 42.1302936726]}, "type": "Feature", "properties": {"collection_times": [{"days": "Mon-Fri", "time": "3:00pm"}, {"days": "Sat", "time": "9:15am"}, {"days": "Sun", "time": "Closed"}], "id": "9763400001", "name": "USPS COLLECTION BOX - PO LOBBY", "address": {"city": "MIDLAND", "state": "OR", "street": "10505 HWY 97 S", "postcode": "97634"}}},
{"geometry": {"type": "Point", "coordinates": [-120.298067888, 41.9964027809]}, "type": "Feature", "properties": {"collection_times": [{"days": "Mon-Sat", "time": "1:00pm"}, {"days": "Sun", "time": "Closed"}], "id": "9763500000", "name": "USPS COLLECTION BOX - BLUE BOX", "address": {"city": "NEW PINE CREEK", "state": "OR", "street": "11166 HIGHWAY 395", "postcode": "97635"}}},
{"geometry": {"type": "Point", "coordinates": [-120.2998990954, 41.9949337163]}, "type": "Feature", "properties": {"collection_times": [{"days": "Mon-Sat", "time": "1:00pm"}, {"days": "Sun", "time": "Closed"}], "id": "9763500001", "name": "USPS COLLECTION BOX - PO LOBBY", "address": {"city": "NEW PINE CREEK", "state": "OR", "street": "11166 HIGHWAY 395", "postcode": "97635"}}},
{"geometry": {"type": "Point", "coordinates": [-120.5439646935, 42.6938108263]}, "type": "Feature", "properties": {"collection_times": [{"days": "Mon-Fri", "time": "1:00pm"}, {"days": "Sat", "time": "12:35pm"}, {"days": "Sun", "time": "Closed"}], "id": "9763600001", "name": "USPS COLLECTION BOX - PO LOBBY", "address": {"city": "PAISLEY", "state": "OR", "street": "511 MILL ST", "postcode": "97636"}}},
{"geometry": {"type": "Point", "coordinates": [-120.8539568168, 43.2365016579]}, "type": "Feature", "properties": {"collection_times": [{"days": "Mon-Sat", "time": "12:00pm"}, {"days": "Sun", "time": "Closed"}], "id": "9763800000", "name": "USPS COLLECTION BOX - PO LOBBY", "address": {"city": "SILVER LAKE", "state": "OR", "street": "65525 HIGHWAY 31", "postcode": "97638"}}},
{"geometry": {"type": "Point", "coordinates": [-120.7528485388, 43.001953916]}, "type": "Feature", "properties": {"collection_times": [{"days": "Mon-Sat", "time": "12:30pm"}, {"days": "Sun", "time": "Closed"}], "id": "9764000000", "name": "USPS COLLECTION BOX - PO LOBBY", "address": {"city": "SUMMER LAKE", "state": "OR", "street": "54128 HIGHWAY 31", "postcode": "97640"}}},
{"geometry": {"type": "Point", "coordinates": [-120.693756464, 43.2378703346]}, "type": "Feature", "properties": {"collection_times": [{"days": "Mon-Sat", "time": "1:00pm"}, {"days": "Sun", "time": "Closed"}], "id": "9764100000", "name": "USPS COLLECTION BOX - PO LOBBY", "address": {"city": "CHRISTMAS VLY", "state": "OR", "street": "86957 CHRISTMAS VALLEY HWY", "postcode": "97641"}}}
]}
