{"type": "FeatureCollection", "features": [
{"geometry": {"type": "Point", "coordinates": [-121.3024388899, 44.0622367231]}, "type": "Feature", "properties": {"collection_times": [{"days": "Mon-Fri", "time": "11:00am"}, {"days": "Sat-Sun", "time": "Closed"}], "id": "9770100003", "name": "USPS COLLECTION BOX - BLUE BOX", "address": {"city": "BEND", "state": "OR", "street": "1230 NE 3RD ST", "postcode": "97701"}}},
{"geometry": {"type": "Point", "coordinates": [-121.3267860045, 44.0566556007]}, "type": "Feature", "properties": {"collection_times": [{"days": "Mon-Sat", "time": "11:00am"}, {"days": "Sun", "time": "Closed"}], "id": "9770100004", "name": "USPS COLLECTION BOX - BLUE BOX", "address": {"city": "BEND", "state": "OR", "street": "1008 NW GALVESTON AVE", "postcode": "97701"}}},
{"geometry": {"type": "Point", "coordinates": [-121.3003238924, 44.1011764038]}, "type": "Feature", "properties": {"collection_times": [{"days": "Mon-Sat", "time": "11:00am"}, {"days": "Sun", "time": "Closed"}], "id": "9770100006", "name": "USPS COLLECTION BOX - BLUE BOX", "address": {"city": "BEND", "state": "OR", "street": "63085 N HIGHWAY 97", "postcode": "97701"}}},
{"geometry": {"type": "Point", "coordinates": [-121.32794613, 44.0623752888]}, "type": "Feature", "properties": {"collection_times": [{"days": "Mon-Sat", "time": "11:00am"}, {"days": "Sun", "time": "Closed"}], "id": "9770100007", "name": "USPS COLLECTION BOX - BLUE BOX", "address": {"city": "BEND", "state": "OR", "street": "1121 NW NEWPORT AVE", "postcode": "97701"}}},
{"geometry": {"type": "Point", "coordinates": [-121.3051137184, 44.0811685015]}, "type": "Feature", "properties": {"collection_times": [{"days": "Mon-Sat", "time": "11:00am"}, {"days": "Sun", "time": "Closed"}], "id": "9770100008", "name": "USPS COLLECTION BOX - BLUE BOX", "address": {"city": "BEND", "state": "OR", "street": "3188 N HIGHWAY 97", "postcode": "97701"}}},
{"geometry": {"type": "Point", "coordinates": [-121.2659949385, 44.0701306171]}, "type": "Feature", "properties": {"collection_times": [{"days": "Mon-Fri", "time": "11:00am"}, {"days": "Sat-Sun", "time": "Closed"}], "id": "9770100010", "name": "USPS COLLECTION BOX - BLUE BOX", "address": {"city": "BEND", "state": "OR", "street": "2275 NE DOCTORS DR", "postcode": "97701"}}},
{"geometry": {"type": "Point", "coordinates": [-121.3024492176, 44.0676760334]}, "type": "Feature", "properties": {"collection_times": [{"days": "Mon-Sat", "time": "11:00am"}, {"days": "Sun", "time": "Closed"}], "id": "9770100030", "name": "USPS COLLECTION BOX - BLUE BOX", "address": {"city": "BEND", "state": "OR", "street": "1800 NE 3RD ST", "postcode": "97701"}}},
{"geometry": {"type": "Point", "coordinates": [-121.3024532632, 44.0583748773]}, "type": "Feature", "properties": {"collection_times": [{"days": "Mon-Sat", "time": "11:00am"}, {"days": "Sun", "time": "Closed"}], "id": "9770100031", "name": "USPS COLLECTION BOX - BLUE BOX", "address": {"city": "BEND", "state": "OR", "street": "844 NE 3RD ST", "postcode": "97701"}}},
{"geometry": {"type": "Point", "coordinates": [-121.3053372164, 44.0837709957]}, "type": "Feature", "properties": {"collection_times": [{"days": "Mon-Fri", "time": "11:00am"}, {"days": "Sat", "time": "10:30am"}, {"days": "Sun", "time": "Closed"}], "id": "9770100038", "name": "USPS COLLECTION BOX - BLUE BOX", "address": {"city": "BEND", "state": "OR", "street": "60 NE BEND RIVER MALL DR", "postcode": "97701"}}},
{"geometry": {"type": "Point", "coordinates": [-121.3006700996, 44.0725057249]}, "type": "Feature", "properties": {"collection_times": [{"days": "Mon-Sat", "time": "3:00pm"}, {"days": "Sun", "time": "Closed"}], "id": "9770100040", "name": "USPS COLLECTION BOX - BLUE BOX", "address": {"city": "BEND", "state": "OR", "street": "2300 NE 4TH ST", "postcode": "97701"}}},
{"geometry": {"type": "Point", "coordinates": [-121.2646699576, 44.0629703507]}, "type": "Feature", "properties": {"collection_times": [{"days": "Mon-Sat", "time": "3:00pm"}, {"days": "Sun", "time": "Closed"}], "id": "9770100043", "name": "USPS COLLECTION BOX - BLUE BOX", "address": {"city": "BEND", "state": "OR", "street": "1247 NE MEDICAL CENTER DR", "postcode": "97701"}}},
{"geometry": {"type": "Point", "coordinates": [-121.3006700996, 44.0725057249]}, "type": "Feature", "properties": {"collection_times": [{"days": "Mon-Sat", "time": "3:00pm"}, {"days": "Sun", "time": "Closed"}], "id": "9770100051", "name": "USPS COLLECTION BOX - BLUE BOX", "address": {"city": "BEND", "state": "OR", "street": "2300 NE 4TH ST", "postcode": "97701"}}},
{"geometry": {"type": "Point", "coordinates": [-121.3028417269, 44.074991974]}, "type": "Feature", "properties": {"collection_times": [{"days": "Mon-Sat", "time": "11:00am"}, {"days": "Sun", "time": "Closed"}], "id": "9770100056", "name": "USPS COLLECTION BOX - BLUE BOX", "address": {"city": "BEND", "state": "OR", "street": "2680 NE HIGHWAY 20", "postcode": "97701"}}},
{"geometry": {"type": "Point", "coordinates": [-121.2970257176, 44.0787940091]}, "type": "Feature", "properties": {"collection_times": [{"days": "Mon-Sat", "time": "3:00pm"}, {"days": "Sun", "time": "Closed"}], "id": "9770100058", "name": "USPS COLLECTION BOX - EXPRESS", "address": {"city": "BEND", "state": "OR", "street": "2300 NE 4TH ST", "postcode": "97701"}}},
{"geometry": {"type": "Point", "coordinates": [-121.3153616089, 44.0579042247]}, "type": "Feature", "properties": {"collection_times": [{"days": "Mon-Sat", "time": "11:00am"}, {"days": "Sun", "time": "Closed"}], "id": "9770100061", "name": "USPS COLLECTION BOX - BLUE BOX", "address": {"city": "BEND", "state": "OR", "street": "777 NW WALL ST", "postcode": "97701"}}},
{"geometry": {"type": "Point", "coordinates": [-121.3028417269, 44.074991974]}, "type": "Feature", "properties": {"collection_times": [{"days": "Mon-Sat", "time": "11:00am"}, {"days": "Sun", "time": "Closed"}], "id": "9770100063", "name": "USPS COLLECTION BOX - BLUE BOX", "address": {"city": "BEND", "state": "OR", "street": "2680 NE HIGHWAY 20", "postcode": "97701"}}},
{"geometry": {"type": "Point", "coordinates": [-121.3115672758, 44.0585453706]}, "type": "Feature", "properties": {"collection_times": [{"days": "Mon-Sat", "time": "3:00pm"}, {"days": "Sun", "time": "Closed"}], "id": "9770100067", "name": "USPS COLLECTION BOX - BLUE BOX", "address": {"city": "BEND", "state": "OR", "street": "61 NW OREGON AVE", "postcode": "97701"}}},
{"geometry": {"type": "Point", "coordinates": [-121.3371249186, 43.9928291276]}, "type": "Feature", "properties": {"collection_times": [{"days": "Mon-Sat", "time": "11:00am"}, {"days": "Sun", "time": "Closed"}], "id": "9770200026", "name": "USPS COLLECTION BOX - BLUE BOX", "address": {"city": "BEND", "state": "OR", "street": "19745 BAKER RD", "postcode": "97702"}}},
{"geometry": {"type": "Point", "coordinates": [-121.2901533464, 44.0431798888]}, "type": "Feature", "properties": {"collection_times": [{"days": "Mon-Sat", "time": "2:15pm"}, {"days": "Sun", "time": "Closed"}], "id": "9770200027", "name": "USPS COLLECTION BOX - BLUE BOX", "address": {"city": "BEND", "state": "OR", "street": "836 SE BUSINESS WAY", "postcode": "97702"}}},
{"geometry": {"type": "Point", "coordinates": [-121.3127212253, 44.0467498293]}, "type": "Feature", "properties": {"collection_times": [{"days": "Mon-Sat", "time": "11:00am"}, {"days": "Sun", "time": "Closed"}], "id": "9770200030", "name": "USPS COLLECTION BOX - BLUE BOX", "address": {"city": "BEND", "state": "OR", "street": "388 SW BLUFF DR", "postcode": "97702"}}},
{"geometry": {"type": "Point", "coordinates": [-121.3270284382, 44.044492329]}, "type": "Feature", "properties": {"collection_times": [{"days": "Mon-Fri", "time": "11:00am"}, {"days": "Sat-Sun", "time": "Closed"}], "id": "9770200032", "name": "USPS COLLECTION BOX - BLUE BOX", "address": {"city": "BEND", "state": "OR", "street": "1001 SW EMKAY DR", "postcode": "97702"}}},
{"geometry": {"type": "Point", "coordinates": [-121.3073657902, 44.0338768295]}, "type": "Feature", "properties": {"collection_times": [{"days": "Mon-Sat", "time": "11:00am"}, {"days": "Sun", "time": "Closed"}], "id": "9770200035", "name": "USPS COLLECTION BOX - BLUE BOX", "address": {"city": "BEND", "state": "OR", "street": "61535 S HIGHWAY 97", "postcode": "97702"}}},
{"geometry": {"type": "Point", "coordinates": [-121.3161439336, 44.0215415617]}, "type": "Feature", "properties": {"collection_times": [{"days": "Mon-Sat", "time": "11:00am"}, {"days": "Sun", "time": "Closed"}], "id": "9770200036", "name": "USPS COLLECTION BOX - BLUE BOX", "address": {"city": "BEND", "state": "OR", "street": "61155 S HIGHWAY 97", "postcode": "97702"}}},
{"geometry": {"type": "Point", "coordinates": [-121.3161439336, 44.0215415617]}, "type": "Feature", "properties": {"collection_times": [{"days": "Mon-Sat", "time": "11:00am"}, {"days": "Sun", "time": "Closed"}], "id": "9770200037", "name": "USPS COLLECTION BOX - BLUE BOX", "address": {"city": "BEND", "state": "OR", "street": "61155 S HIGHWAY 97", "postcode": "97702"}}},
{"geometry": {"type": "Point", "coordinates": [-121.3113716883, 44.0296896927]}, "type": "Feature", "properties": {"collection_times": [{"days": "Mon-Sat", "time": "11:00am"}, {"days": "Sun", "time": "Closed"}], "id": "9770200038", "name": "USPS COLLECTION BOX - BLUE BOX", "address": {"city": "BEND", "state": "OR", "street": "61396 S HIGHWAY 97", "postcode": "97702"}}},
{"geometry": {"type": "Point", "coordinates": [-121.3113716883, 44.0296896927]}, "type": "Feature", "properties": {"collection_times": [{"days": "Mon-Sat", "time": "11:00am"}, {"days": "Sun", "time": "Closed"}], "id": "9770200039", "name": "USPS COLLECTION BOX - BLUE BOX", "address": {"city": "BEND", "state": "OR", "street": "61396 S HIGHWAY 97", "postcode": "97702"}}},
{"geometry": {"type": "Point", "coordinates": [-121.3023880916, 44.0434269998]}, "type": "Feature", "properties": {"collection_times": [{"days": "Mon-Sat", "time": "11:00am"}, {"days": "Sun", "time": "Closed"}], "id": "9770200040", "name": "USPS COLLECTION BOX - BLUE BOX", "address": {"city": "BEND", "state": "OR", "street": "694 SE 3RD ST", "postcode": "97702"}}},
{"geometry": {"type": "Point", "coordinates": [-121.3270284382, 44.044492329]}, "type": "Feature", "properties": {"collection_times": [{"days": "Mon-Fri", "time": "11:00am"}, {"days": "Sat-Sun", "time": "Closed"}], "id": "9770200041", "name": "USPS COLLECTION BOX - BLUE BOX", "address": {"city": "BEND", "state": "OR", "street": "1001 SW EMKAY DR", "postcode": "97702"}}},
{"geometry": {"type": "Point", "coordinates": [-121.4327589428, 43.8668540589]}, "type": "Feature", "properties": {"collection_times": [{"days": "Mon-Fri", "time": "2:00pm"}, {"days": "Sat", "time": "1:30pm"}, {"days": "Sun", "time": "Closed"}], "id": "9770700005", "name": "USPS COLLECTION BOX - BLUE BOX", "address": {"city": "BEND", "state": "OR", "street": "56857 ENTERPRISE DR", "postcode": "97707"}}},
{"geometry": {"type": "Point", "coordinates": [-121.4334393586, 43.8643457431]}, "type": "Feature", "properties": {"collection_times": [{"days": "Mon-Fri", "time": "2:00pm"}, {"days": "Sat", "time": "1:30pm"}, {"days": "Sun", "time": "Closed"}], "id": "9770700006", "name": "USPS COLLECTION BOX - BLUE BOX", "address": {"city": "BEND", "state": "OR", "street": "56857 ENTERPRISE DR", "postcode": "97707"}}},
{"geometry": {"type": "Point", "coordinates": [-118.9943683279, 43.5858531351]}, "type": "Feature", "properties": {"collection_times": [{"days": "Mon-Sat", "time": "11:30am"}, {"days": "Sun", "time": "Closed"}], "id": "9772000000", "name": "USPS COLLECTION BOX - BLUE BOX", "address": {"city": "BURNS", "state": "OR", "street": "100 S BROADWAY AVE", "postcode": "97720"}}},
{"geometry": {"type": "Point", "coordinates": [-118.9943683279, 43.5858531351]}, "type": "Feature", "properties": {"collection_times": [{"days": "Mon-Sat", "time": "11:30am"}, {"days": "Sun", "time": "Closed"}], "id": "9772000001", "name": "USPS COLLECTION BOX - BLUE BOX", "address": {"city": "BURNS", "state": "OR", "street": "100 S BROADWAY AVE", "postcode": "97720"}}},
{"geometry": {"type": "Point", "coordinates": [-118.9943683279, 43.5858531351]}, "type": "Feature", "properties": {"collection_times": [{"days": "Mon-Sat", "time": "11:30am"}, {"days": "Sun", "time": "Closed"}], "id": "9772000008", "name": "USPS COLLECTION BOX - PO LOBBY", "address": {"city": "BURNS", "state": "OR", "street": "100 S BROADWAY AVE", "postcode": "97720"}}},
{"geometry": {"type": "Point", "coordinates": [-118.70797658, 43.550765288]}, "type": "Feature", "properties": {"collection_times": [{"days": "Mon-Sat", "time": "10:30am"}, {"days": "Sun", "time": "Closed"}], "id": "9772000009", "name": "USPS COLLECTION BOX - BLUE BOX", "address": {"city": "BURNS", "state": "OR", "street": "52451 HIGHWAY 78", "postcode": "97720"}}},
{"geometry": {"type": "Point", "coordinates": [-121.6546457403, 44.4501094891]}, "type": "Feature", "properties": {"collection_times": [{"days": "Mon-Sat", "time": "11:00am"}, {"days": "Sun", "time": "Closed"}], "id": "9773000000", "name": "USPS COLLECTION BOX - BLUE BOX", "address": {"city": "CAMP SHERMAN", "state": "OR", "street": "25453 SW FOREST SERVICE RD", "postcode": "97730"}}},
{"geometry": {"type": "Point", "coordinates": [-121.6546457403, 44.4501094891]}, "type": "Feature", "properties": {"collection_times": [{"days": "Mon-Sat", "time": "11:00am"}, {"days": "Sun", "time": "Closed"}], "id": "9773000001", "name": "USPS COLLECTION BOX - PO LOBBY", "address": {"city": "CAMP SHERMAN", "state": "OR", "street": "25453 SW FOREST SERVICE RD", "postcode": "97730"}}},
{"geometry": {"type": "Point", "coordinates": [-121.8097971966, 43.1367621029]}, "type": "Feature", "properties": {"collection_times": [{"days": "Mon-Fri", "time": "1:15pm"}, {"days": "Sat", "time": "9:45am"}, {"days": "Sun", "time": "Closed"}], "id": "9773100000", "name": "USPS COLLECTION BOX - BLUE BOX", "address": {"city": "CHEMULT", "state": "OR", "street": "125 G C PALMER ST", "postcode": "97731"}}},
{"geometry": {"type": "Point", "coordinates": [-121.8098058867, 43.1367620567]}, "type": "Feature", "properties": {"collection_times": [{"days": "Mon-Fri", "time": "1:15pm"}, {"days": "Sat", "time": "9:45am"}, {"days": "Sun", "time": "Closed"}], "id": "9773100001", "name": "USPS COLLECTION BOX - PO LOBBY", "address": {"city": "CHEMULT", "state": "OR", "street": "125 G C PALMER ST", "postcode": "97731"}}},
{"geometry": {"type": "Point", "coordinates": [-121.6940963882, 43.462666313]}, "type": "Feature", "properties": {"collection_times": [{"days": "Mon-Fri", "time": "1:45pm"}, {"days": "Sat", "time": "9:30am"}, {"days": "Sun", "time": "Closed"}], "id": "9773300000", "name": "USPS COLLECTION BOX - BLUE BOX", "address": {"city": "CRESCENT", "state": "OR", "street": "136728 MAIN ST", "postcode": "97733"}}},
{"geometry": {"type": "Point", "coordinates": [-121.6940963882, 43.462666313]}, "type": "Feature", "properties": {"collection_times": [{"days": "Mon-Fri", "time": "1:45pm"}, {"days": "Sat", "time": "9:30am"}, {"days": "Sun", "time": "Closed"}], "id": "9773300001", "name": "USPS COLLECTION BOX - PO LOBBY", "address": {"city": "CRESCENT", "state": "OR", "street": "136728 MAIN ST", "postcode": "97733"}}},
{"geometry": {"type": "Point", "coordinates": [-121.8919873207, 43.4722703464]}, "type": "Feature", "properties": {"collection_times": [{"days": "Mon-Sat", "time": "1:30pm"}, {"days": "Sun", "time": "Closed"}], "id": "9773300003", "name": "USPS COLLECTION BOX - BLUE BOX", "address": {"city": "CRESCENT", "state": "OR", "street": "19954 HIGHWAY 58 N", "postcode": "97733"}}},
{"geometry": {"type": "Point", "coordinates": [-121.2766563318, 44.5408158239]}, "type": "Feature", "properties": {"collection_times": [{"days": "Mon-Fri", "time": "2:15pm"}, {"days": "Sat", "time": "11:00am"}, {"days": "Sun", "time": "Closed"}], "id": "9773400001", "name": "USPS COLLECTION BOX - PO LOBBY", "address": {"city": "CULVER", "state": "OR", "street": "200 W C ST", "postcode": "97734"}}},
{"geometry": {"type": "Point", "coordinates": [-121.1298793904, 43.4971235498]}, "type": "Feature", "properties": {"collection_times": [{"days": "Mon-Fri", "time": "11:45am"}, {"days": "Sat", "time": "9:30am"}, {"days": "Sun", "time": "Closed"}], "id": "9773500000", "name": "USPS COLLECTION BOX - BLUE BOX", "address": {"city": "FORT ROCK", "state": "OR", "street": "61698 ANTELOPE VISTA DR", "postcode": "97735"}}},
{"geometry": {"type": "Point", "coordinates": [-121.1298793904, 43.4971235498]}, "type": "Feature", "properties": {"collection_times": [{"days": "Mon-Fri", "time": "11:45am"}, {"days": "Sat", "time": "9:30am"}, {"days": "Sun", "time": "Closed"}], "id": "9773500001", "name": "USPS COLLECTION BOX - PO LOBBY", "address": {"city": "FORT ROCK", "state": "OR", "street": "61698 ANTELOPE VISTA DR", "postcode": "97735"}}},
{"geometry": {"type": "Point", "coordinates": [-121.5934376478, 43.5532612489]}, "type": "Feature", "properties": {"collection_times": [{"days": "Mon-Fri", "time": "2:00pm"}, {"days": "Sat", "time": "9:30am"}, {"days": "Sun", "time": "Closed"}], "id": "9773700000", "name": "USPS COLLECTION BOX - BLUE BOX", "address": {"city": "GILCHRIST", "state": "OR", "street": "138309 HIGHWAY 97 N", "postcode": "97737"}}},
{"geometry": {"type": "Point", "coordinates": [-121.5934376478, 43.5532612489]}, "type": "Feature", "properties": {"collection_times": [{"days": "Mon-Fri", "time": "2:00pm"}, {"days": "Sat", "time": "9:30am"}, {"days": "Sun", "time": "Closed"}], "id": "9773700001", "name": "USPS COLLECTION BOX - PO LOBBY", "address": {"city": "GILCHRIST", "state": "OR", "street": "138309 HIGHWAY 97 N", "postcode": "97737"}}},
{"geometry": {"type": "Point", "coordinates": [-119.0825542182, 43.5631118208]}, "type": "Feature", "properties": {"collection_times": [{"days": "Mon-Fri", "time": "11:45am"}, {"days": "Sat", "time": "11:00am"}, {"days": "Sun", "time": "Closed"}], "id": "9773800000", "name": "USPS COLLECTION BOX - BLUE BOX", "address": {"city": "HINES", "state": "OR", "street": "128 SW CIRCLE DR", "postcode": "97738"}}},
{"geometry": {"type": "Point", "coordinates": [-119.0825542182, 43.5631118208]}, "type": "Feature", "properties": {"collection_times": [{"days": "Mon-Fri", "time": "11:45am"}, {"days": "Sat", "time": "11:00am"}, {"days": "Sun", "time": "Closed"}], "id": "9773800001", "name": "USPS COLLECTION BOX - PO LOBBY", "address": {"city": "HINES", "state": "OR", "street": "128 SW CIRCLE DR", "postcode": "97738"}}},
{"geometry": {"type": "Point", "coordinates": [-121.5306088683, 43.6706632975]}, "type": "Feature", "properties": {"collection_times": [{"days": "Mon-Fri", "time": "2:30pm"}, {"days": "Sat", "time": "11:00am"}, {"days": "Sun", "time": "Closed"}], "id": "9773900001", "name": "USPS COLLECTION BOX - PO LOBBY", "address": {"city": "LAPINE", "state": "OR", "street": "51649 HUNTINGTON RD", "postcode": "97739"}}},
{"geometry": {"type": "Point", "coordinates": [-121.5040621782, 43.6764120148]}, "type": "Feature", "properties": {"collection_times": [{"days": "Mon-Sat", "time": "2:30pm"}, {"days": "Sun", "time": "Closed"}], "id": "9773900002", "name": "USPS COLLECTION BOX - BLUE BOX", "address": {"city": "LAPINE", "state": "OR", "street": "51649 HUNTINGTON RD", "postcode": "97739"}}},
{"geometry": {"type": "Point", "coordinates": [-121.5054555141, 43.6715499434]}, "type": "Feature", "properties": {"collection_times": [{"days": "Mon-Sat", "time": "2:30pm"}, {"days": "Sun", "time": "Closed"}], "id": "9773900003", "name": "USPS COLLECTION BOX - BLUE BOX", "address": {"city": "LAPINE", "state": "OR", "street": "51649 HUNTINGTON RD", "postcode": "97739"}}},
{"geometry": {"type": "Point", "coordinates": [-121.1356174533, 44.6347070478]}, "type": "Feature", "properties": {"collection_times": [{"days": "Mon-Sat", "time": "2:00pm"}, {"days": "Sun", "time": "Closed"}], "id": "9774100003", "name": "USPS COLLECTION BOX - BLUE BOX", "address": {"city": "MADRAS", "state": "OR", "street": "73 SE 6TH ST", "postcode": "97741"}}},
{"geometry": {"type": "Point", "coordinates": [-121.1356174533, 44.6347070478]}, "type": "Feature", "properties": {"collection_times": [{"days": "Mon-Sat", "time": "2:00pm"}, {"days": "Sun", "time": "Closed"}], "id": "9774100004", "name": "USPS COLLECTION BOX - BLUE BOX", "address": {"city": "MADRAS", "state": "OR", "street": "73 SE 6TH ST", "postcode": "97741"}}},
{"geometry": {"type": "Point", "coordinates": [-121.1356174533, 44.6347070478]}, "type": "Feature", "properties": {"collection_times": [{"days": "Mon-Sat", "time": "2:00pm"}, {"days": "Sun", "time": "Closed"}], "id": "9774100005", "name": "USPS COLLECTION BOX - PO LOBBY", "address": {"city": "MADRAS", "state": "OR", "street": "73 SE 6TH ST", "postcode": "97741"}}},
{"geometry": {"type": "Point", "coordinates": [-121.1356174533, 44.6347070478]}, "type": "Feature", "properties": {"collection_times": [{"days": "Mon-Sat", "time": "2:00pm"}, {"days": "Sun", "time": "Closed"}], "id": "9774100006", "name": "USPS COLLECTION BOX - PO LOBBY", "address": {"city": "MADRAS", "state": "OR", "street": "73 SE 6TH ST", "postcode": "97741"}}},
{"geometry": {"type": "Point", "coordinates": [-121.1356174533, 44.6347070478]}, "type": "Feature", "properties": {"collection_times": [{"days": "Mon-Sat", "time": "11:30am"}, {"days": "Sun", "time": "Closed"}], "id": "9774100008", "name": "USPS COLLECTION BOX - BLUE BOX", "address": {"city": "MADRAS", "state": "OR", "street": "115 SW 4TH ST", "postcode": "97741"}}},
{"geometry": {"type": "Point", "coordinates": [-121.1356174533, 44.6347070478]}, "type": "Feature", "properties": {"collection_times": [{"days": "Mon-Sat", "time": "11:30am"}, {"days": "Sun", "time": "Closed"}], "id": "9774100009", "name": "USPS COLLECTION BOX - BLUE BOX", "address": {"city": "MADRAS", "state": "OR", "street": "534 SW 5TH ST", "postcode": "97741"}}},
{"geometry": {"type": "Point", "coordinates": [-120.155989845, 44.5670749106]}, "type": "Feature", "properties": {"collection_times": [{"days": "Mon-Sat", "time": "12:00pm"}, {"days": "Sun", "time": "Closed"}], "id": "9775000000", "name": "USPS COLLECTION BOX - BLUE BOX", "address": {"city": "MITCHELL", "state": "OR", "street": "212 W MAIN ST", "postcode": "97750"}}},
{"geometry": {"type": "Point", "coordinates": [-120.1574394001, 44.5680285934]}, "type": "Feature", "properties": {"collection_times": [{"days": "Mon-Sat", "time": "12:00pm"}, {"days": "Sun", "time": "Closed"}], "id": "9775000001", "name": "USPS COLLECTION BOX - PO LOBBY", "address": {"city": "MITCHELL", "state": "OR", "street": "212 W MAIN ST", "postcode": "97750"}}},
{"geometry": {"type": "Point", "coordinates": [-119.797086369, 44.1994504668]}, "type": "Feature", "properties": {"collection_times": [{"days": "Mon-Sat", "time": "12:00pm"}, {"days": "Sun", "time": "Closed"}], "id": "9775100000", "name": "USPS COLLECTION BOX - PO LOBBY", "address": {"city": "PAULINA", "state": "OR", "street": "70344 SE PAULINA CITY RD", "postcode": "97751"}}},
{"geometry": {"type": "Point", "coordinates": [-120.3132295723, 44.1228306398]}, "type": "Feature", "properties": {"collection_times": [{"days": "Mon-Fri", "time": "3:30pm"}, {"days": "Sat", "time": "2:50pm"}, {"days": "Sun", "time": "Closed"}], "id": "9775200000", "name": "USPS COLLECTION BOX - BLUE BOX", "address": {"city": "POST", "state": "OR", "street": "28550 SE PAULINA HWY", "postcode": "97752"}}},
{"geometry": {"type": "Point", "coordinates": [-121.0277961418, 44.2251642094]}, "type": "Feature", "properties": {"collection_times": [{"days": "Mon-Fri", "time": "2:15pm"}, {"days": "Sat", "time": "10:30am"}, {"days": "Sun", "time": "Closed"}], "id": "9775300001", "name": "USPS COLLECTION BOX - PO LOBBY", "address": {"city": "POWELL BUTTE", "state": "OR", "street": "16052 SW HIGHWAY 126", "postcode": "97753"}}},
{"geometry": {"type": "Point", "coordinates": [-120.8470154519, 44.3084558296]}, "type": "Feature", "properties": {"collection_times": [{"days": "Mon-Fri", "time": "1:45pm"}, {"days": "Sat-Sun", "time": "Closed"}], "id": "9775400001", "name": "USPS COLLECTION BOX - BLUE BOX", "address": {"city": "PRINEVILLE", "state": "OR", "street": "930 N MAIN ST", "postcode": "97754"}}},
{"geometry": {"type": "Point", "coordinates": [-120.8471752283, 44.3024353854]}, "type": "Feature", "properties": {"collection_times": [{"days": "Mon-Sat", "time": "1:45pm"}, {"days": "Sun", "time": "Closed"}], "id": "9775400005", "name": "USPS COLLECTION BOX - BLUE BOX", "address": {"city": "PRINEVILLE", "state": "OR", "street": "247 N MAIN ST", "postcode": "97754"}}},
{"geometry": {"type": "Point", "coordinates": [-120.84471448, 44.3016168653]}, "type": "Feature", "properties": {"collection_times": [{"days": "Mon-Sat", "time": "1:45pm"}, {"days": "Sun", "time": "Closed"}], "id": "9775400007", "name": "USPS COLLECTION BOX - BLUE BOX", "address": {"city": "PRINEVILLE", "state": "OR", "street": "155 NE COURT ST", "postcode": "97754"}}},
{"geometry": {"type": "Point", "coordinates": [-120.84471448, 44.3016168653]}, "type": "Feature", "properties": {"collection_times": [{"days": "Mon-Sat", "time": "1:45pm"}, {"days": "Sun", "time": "Closed"}], "id": "9775400008", "name": "USPS COLLECTION BOX - PO LOBBY", "address": {"city": "PRINEVILLE", "state": "OR", "street": "155 NE COURT ST", "postcode": "97754"}}},
{"geometry": {"type": "Point", "coordinates": [-120.84471448, 44.3016168653]}, "type": "Feature", "properties": {"collection_times": [{"days": "Mon-Sat", "time": "1:45pm"}, {"days": "Sun", "time": "Closed"}], "id": "9775400009", "name": "USPS COLLECTION BOX - BLUE BOX", "address": {"city": "PRINEVILLE", "state": "OR", "street": "155 NE COURT ST", "postcode": "97754"}}},
{"geometry": {"type": "Point", "coordinates": [-121.1682249254, 44.254008456]}, "type": "Feature", "properties": {"collection_times": [{"days": "Mon-Sat", "time": "1:30pm"}, {"days": "Sun", "time": "Closed"}], "id": "9775600001", "name": "USPS COLLECTION BOX - BLUE BOX", "address": {"city": "REDMOND", "state": "OR", "street": "145 SE SALMON AVE", "postcode": "97756"}}},
{"geometry": {"type": "Point", "coordinates": [-121.1987373482, 44.2755706182]}, "type": "Feature", "properties": {"collection_times": [{"days": "Mon-Sat", "time": "2:30pm"}, {"days": "Sun", "time": "Closed"}], "id": "9775600002", "name": "USPS COLLECTION BOX - PO LOBBY", "address": {"city": "REDMOND", "state": "OR", "street": "618 NW HEMLOCK AVE", "postcode": "97756"}}},
{"geometry": {"type": "Point", "coordinates": [-121.1855120622, 44.2523728437]}, "type": "Feature", "properties": {"collection_times": [{"days": "Mon-Sat", "time": "1:30pm"}, {"days": "Sun", "time": "Closed"}], "id": "9775600003", "name": "USPS COLLECTION BOX - BLUE BOX", "address": {"city": "REDMOND", "state": "OR", "street": "1655 SW ODEM MEDO RD", "postcode": "97756"}}},
{"geometry": {"type": "Point", "coordinates": [-121.1987373482, 44.2755706182]}, "type": "Feature", "properties": {"collection_times": [{"days": "Mon-Sat", "time": "2:30pm"}, {"days": "Sun", "time": "Closed"}], "id": "9775600004", "name": "USPS COLLECTION BOX - BLUE BOX", "address": {"city": "REDMOND", "state": "OR", "street": "618 NW HEMLOCK AVE", "postcode": "97756"}}},
{"geometry": {"type": "Point", "coordinates": [-121.1755461251, 44.2836788628]}, "type": "Feature", "properties": {"collection_times": [{"days": "Mon-Sat", "time": "2:30pm"}, {"days": "Sun", "time": "Closed"}], "id": "9775600005", "name": "USPS COLLECTION BOX - BLUE BOX", "address": {"city": "REDMOND", "state": "OR", "street": "618 NW HEMLOCK AVE", "postcode": "97756"}}},
{"geometry": {"type": "Point", "coordinates": [-121.1677698299, 44.2539664741]}, "type": "Feature", "properties": {"collection_times": [{"days": "Mon-Sat", "time": "1:30pm"}, {"days": "Sun", "time": "Closed"}], "id": "9775600006", "name": "USPS COLLECTION BOX - BLUE BOX", "address": {"city": "REDMOND", "state": "OR", "street": "145 SE SALMON DR", "postcode": "97756"}}},
{"geometry": {"type": "Point", "coordinates": [-121.1742652944, 44.2788410753]}, "type": "Feature", "properties": {"collection_times": [{"days": "Mon-Sat", "time": "1:30pm"}, {"days": "Sun", "time": "Closed"}], "id": "9775600008", "name": "USPS COLLECTION BOX - BLUE BOX", "address": {"city": "REDMOND", "state": "OR", "street": "356 SW 6TH ST", "postcode": "97756"}}},
{"geometry": {"type": "Point", "coordinates": [-121.1755461251, 44.2836788628]}, "type": "Feature", "properties": {"collection_times": [{"days": "Mon-Sat", "time": "2:30pm"}, {"days": "Sun", "time": "Closed"}], "id": "9775600010", "name": "USPS COLLECTION BOX - BLUE BOX", "address": {"city": "REDMOND", "state": "OR", "street": "618 NW HEMLOCK AVE", "postcode": "97756"}}},
{"geometry": {"type": "Point", "coordinates": [-121.1987373482, 44.2755706182]}, "type": "Feature", "properties": {"collection_times": [{"days": "Mon-Sat", "time": "2:30pm"}, {"days": "Sun", "time": "Closed"}], "id": "9775600013", "name": "USPS COLLECTION BOX - EXPRESS", "address": {"city": "REDMOND", "state": "OR", "street": "618 NW HEMLOCK AVE", "postcode": "97756"}}},
{"geometry": {"type": "Point", "coordinates": [-121.258088963, 44.2745968163]}, "type": "Feature", "properties": {"collection_times": [{"days": "Mon-Sat", "time": "9:30am"}, {"days": "Sun", "time": "Closed"}], "id": "9775600016", "name": "USPS COLLECTION BOX - BLUE BOX", "address": {"city": "REDMOND", "state": "OR", "street": "1522 CLINE FALLS RD", "postcode": "97756"}}},
{"geometry": {"type": "Point", "coordinates": [-121.16776983, 44.253966474]}, "type": "Feature", "properties": {"collection_times": [{"days": "Mon-Sat", "time": "1:30pm"}, {"days": "Sun", "time": "Closed"}], "id": "9775600017", "name": "USPS COLLECTION BOX - BLUE BOX", "address": {"city": "REDMOND", "state": "OR", "street": "145 SE SALMON DR", "postcode": "97756"}}},
{"geometry": {"type": "Point", "coordinates": [-119.6000881646, 43.5404434826]}, "type": "Feature", "properties": {"collection_times": [{"days": "Mon-Fri", "time": "12:00pm"}, {"days": "Sat", "time": "8:30am"}, {"days": "Sun", "time": "Closed"}], "id": "9775800001", "name": "USPS COLLECTION BOX - PO LOBBY", "address": {"city": "RILEY", "state": "OR", "street": "17675 HIGHWAY 20 W", "postcode": "97758"}}},
{"geometry": {"type": "Point", "coordinates": [-121.5461491223, 44.2966806497]}, "type": "Feature", "properties": {"collection_times": [{"days": "Mon-Fri", "time": "2:15pm"}, {"days": "Sat", "time": "10:00am"}, {"days": "Sun", "time": "Closed"}], "id": "9775900000", "name": "USPS COLLECTION BOX - PO LOBBY", "address": {"city": "SISTERS", "state": "OR", "street": "694 N LARCH ST", "postcode": "97759"}}},
{"geometry": {"type": "Point", "coordinates": [-121.5461491223, 44.2966806497]}, "type": "Feature", "properties": {"collection_times": [{"days": "Mon-Fri", "time": "2:15pm"}, {"days": "Sat", "time": "2:00pm"}, {"days": "Sun", "time": "Closed"}], "id": "9775900002", "name": "USPS COLLECTION BOX - BLUE BOX", "address": {"city": "SISTERS", "state": "OR", "street": "694 N LARCH ST", "postcode": "97759"}}},
{"geometry": {"type": "Point", "coordinates": [-121.5461491223, 44.2966806497]}, "type": "Feature", "properties": {"collection_times": [{"days": "Mon-Fri", "time": "2:15pm"}, {"days": "Sat", "time": "2:00pm"}, {"days": "Sun", "time": "Closed"}], "id": "9775900003", "name": "USPS COLLECTION BOX - BLUE BOX", "address": {"city": "SISTERS", "state": "OR", "street": "694 N LARCH ST", "postcode": "97759"}}},
{"geometry": {"type": "Point", "coordinates": [-121.1782713995, 44.3493841357]}, "type": "Feature", "properties": {"collection_times": [{"days": "Mon-Fri", "time": "2:45pm"}, {"days": "Sat", "time": "10:00am"}, {"days": "Sun", "time": "Closed"}], "id": "9776000000", "name": "USPS COLLECTION BOX - BLUE BOX", "address": {"city": "TERREBONNE", "state": "OR", "street": "8080 11TH ST", "postcode": "97760"}}},
{"geometry": {"type": "Point", "coordinates": [-121.1782713995, 44.3493841357]}, "type": "Feature", "properties": {"collection_times": [{"days": "Mon-Fri", "time": "2:45pm"}, {"days": "Sat", "time": "10:00am"}, {"days": "Sun", "time": "Closed"}], "id": "9776000002", "name": "USPS COLLECTION BOX - PO LOBBY", "address": {"city": "TERREBONNE", "state": "OR", "street": "8080 11TH ST", "postcode": "97760"}}},
{"geometry": {"type": "Point", "coordinates": [-121.4539377192, 44.7152136893]}, "type": "Feature", "properties": {"collection_times": [{"days": "Mon-Fri", "time": "1:30pm"}, {"days": "Sat", "time": "10:00am"}, {"days": "Sun", "time": "Closed"}], "id": "9776100000", "name": "USPS COLLECTION BOX - BLUE BOX", "address": {"city": "WARM SPRINGS", "state": "OR", "street": "2128 WARM SPRINGS RD", "postcode": "97761"}}},
{"geometry": {"type": "Point", "coordinates": [-121.5618668378, 44.6997083301]}, "type": "Feature", "properties": {"collection_times": [{"days": "Mon-Fri", "time": "1:30pm"}, {"days": "Sat", "time": "10:00am"}, {"days": "Sun", "time": "Closed"}], "id": "9776100001", "name": "USPS COLLECTION BOX - PO LOBBY", "address": {"city": "WARM SPRINGS", "state": "OR", "street": "2128 WARM SPRINGS RD", "postcode": "97761"}}}
]}
