{"type": "FeatureCollection", "features": [
{"geometry": {"type": "Point", "coordinates": [-118.8062494722, 45.6669395991]}, "type": "Feature", "properties": {"collection_times": [{"days": "Mon-Sat", "time": "12:00pm"}, {"days": "Sun", "time": "Closed"}], "id": "9780100004", "name": "USPS COLLECTION BOX - BLUE BOX", "address": {"city": "PENDLETON", "state": "OR", "street": "201 SW 20TH ST", "postcode": "97801"}}},
{"geometry": {"type": "Point", "coordinates": [-118.8105965585, 45.655354592]}, "type": "Feature", "properties": {"collection_times": [{"days": "Mon-Fri", "time": "12:00pm"}, {"days": "Sat-Sun", "time": "Closed"}], "id": "9780100005", "name": "USPS COLLECTION BOX - BLUE BOX", "address": {"city": "PENDLETON", "state": "OR", "street": "1100 SOUTHGATE B", "postcode": "97801"}}},
{"geometry": {"type": "Point", "coordinates": [-118.7796095853, 45.6725655127]}, "type": "Feature", "properties": {"collection_times": [{"days": "Mon-Fri", "time": "12:00pm"}, {"days": "Sat-Sun", "time": "Closed"}], "id": "9780100010", "name": "USPS COLLECTION BOX - BLUE BOX", "address": {"city": "PENDLETON", "state": "OR", "street": "700 SE EMIGRANT AVE", "postcode": "97801"}}},
{"geometry": {"type": "Point", "coordinates": [-118.7878553126, 45.6713102226]}, "type": "Feature", "properties": {"collection_times": [{"days": "Mon-Sat", "time": "2:30pm"}, {"days": "Sun", "time": "Closed"}], "id": "9780100018", "name": "USPS COLLECTION BOX - BLUE BOX", "address": {"city": "PENDLETON", "state": "OR", "street": "104 SW DORION AVE", "postcode": "97801"}}},
{"geometry": {"type": "Point", "coordinates": [-118.7878553126, 45.6713102226]}, "type": "Feature", "properties": {"collection_times": [{"days": "Mon-Sat", "time": "2:30pm"}, {"days": "Sun", "time": "Closed"}], "id": "9780100019", "name": "USPS COLLECTION BOX - BLUE BOX", "address": {"city": "PENDLETON", "state": "OR", "street": "104 SW DORION AVE", "postcode": "97801"}}},
{"geometry": {"type": "Point", "coordinates": [-118.7878553126, 45.6713102226]}, "type": "Feature", "properties": {"collection_times": [{"days": "Mon-Sat", "time": "2:30pm"}, {"days": "Sun", "time": "Closed"}], "id": "9780100020", "name": "USPS COLLECTION BOX - BLUE BOX", "address": {"city": "PENDLETON", "state": "OR", "street": "104 SW DORION AVE", "postcode": "97801"}}},
{"geometry": {"type": "Point", "coordinates": [-118.7878553126, 45.6713102226]}, "type": "Feature", "properties": {"collection_times": [{"days": "Mon-Sat", "time": "2:30pm"}, {"days": "Sun", "time": "Closed"}], "id": "9780100021", "name": "USPS COLLECTION BOX - BLUE BOX", "address": {"city": "PENDLETON", "state": "OR", "street": "104 SW DORION AVE", "postcode": "97801"}}},
{"geometry": {"type": "Point", "coordinates": [-118.7915471193, 45.6701794677]}, "type": "Feature", "properties": {"collection_times": [{"days": "Mon-Sat", "time": "12:00pm"}, {"days": "Sun", "time": "Closed"}], "id": "9780100022", "name": "USPS COLLECTION BOX - BLUE BOX", "address": {"city": "PENDLETON", "state": "OR", "street": "500 SW DORION AVE", "postcode": "97801"}}},
{"geometry": {"type": "Point", "coordinates": [-118.7853561833, 45.6654466325]}, "type": "Feature", "properties": {"collection_times": [{"days": "Mon-Sat", "time": "2:30pm"}, {"days": "Sun", "time": "Closed"}], "id": "9780100025", "name": "USPS COLLECTION BOX - PO LOBBY", "address": {"city": "PENDLETON", "state": "OR", "street": "104 SW DORION AVE", "postcode": "97801"}}},
{"geometry": {"type": "Point", "coordinates": [-118.4033631149, 45.5692049368]}, "type": "Feature", "properties": {"collection_times": [{"days": "Mon-Sat", "time": "1:00pm"}, {"days": "Sun", "time": "Closed"}], "id": "9780100026", "name": "USPS COLLECTION BOX - BLUE BOX", "address": {"city": "PENDLETON", "state": "OR", "street": "64348 OLD HIGHWAY 30", "postcode": "97801"}}},
{"geometry": {"type": "Point", "coordinates": [-118.7835295866, 45.6736764079]}, "type": "Feature", "properties": {"collection_times": [{"days": "Mon-Fri", "time": "12:00pm"}, {"days": "Sat-Sun", "time": "Closed"}], "id": "9780100033", "name": "USPS COLLECTION BOX - BLUE BOX", "address": {"city": "PENDLETON", "state": "OR", "street": "216 SE 4TH ST", "postcode": "97801"}}},
{"geometry": {"type": "Point", "coordinates": [-118.5655653179, 45.7632210235]}, "type": "Feature", "properties": {"collection_times": [{"days": "Mon-Fri", "time": "2:00pm"}, {"days": "Sat", "time": "1:00pm"}, {"days": "Sun", "time": "Closed"}], "id": "9781000000", "name": "USPS COLLECTION BOX - BLUE BOX", "address": {"city": "ADAMS", "state": "OR", "street": "230 OLD HWY 11", "postcode": "97810"}}},
{"geometry": {"type": "Point", "coordinates": [-118.4995895166, 45.7380560194]}, "type": "Feature", "properties": {"collection_times": [{"days": "Mon-Fri", "time": "2:00pm"}, {"days": "Sat", "time": "1:00pm"}, {"days": "Sun", "time": "Closed"}], "id": "9781000001", "name": "USPS COLLECTION BOX - PO LOBBY", "address": {"city": "ADAMS", "state": "OR", "street": "230 OLD HWY 11", "postcode": "97810"}}},
{"geometry": {"type": "Point", "coordinates": [-120.2174199981, 45.5449833939]}, "type": "Feature", "properties": {"collection_times": [{"days": "Mon-Sat", "time": "10:45am"}, {"days": "Sun", "time": "Closed"}], "id": "9781200000", "name": "USPS COLLECTION BOX - BLUE BOX", "address": {"city": "ARLINGTON", "state": "OR", "street": "300 ARLINGTON MALL", "postcode": "97812"}}},
{"geometry": {"type": "Point", "coordinates": [-120.2270463882, 45.6142668127]}, "type": "Feature", "properties": {"collection_times": [{"days": "Mon-Fri", "time": "10:45am"}, {"days": "Sat", "time": "10:00am"}, {"days": "Sun", "time": "Closed"}], "id": "9781200001", "name": "USPS COLLECTION BOX - PO LOBBY", "address": {"city": "ARLINGTON", "state": "OR", "street": "300 ARLINGTON MALL", "postcode": "97812"}}},
{"geometry": {"type": "Point", "coordinates": [-120.2270463882, 45.6142668127]}, "type": "Feature", "properties": {"collection_times": [{"days": "Mon-Fri", "time": "10:45am"}, {"days": "Sat", "time": "10:00am"}, {"days": "Sun", "time": "Closed"}], "id": "9781200002", "name": "USPS COLLECTION BOX - PO LOBBY", "address": {"city": "ARLINGTON", "state": "OR", "street": "300 ARLINGTON MALL", "postcode": "97812"}}},
{"geometry": {"type": "Point", "coordinates": [-118.4897980141, 45.8117622226]}, "type": "Feature", "properties": {"collection_times": [{"days": "Mon-Sat", "time": "1:45pm"}, {"days": "Sun", "time": "Closed"}], "id": "9781300000", "name": "USPS COLLECTION BOX - BLUE BOX", "address": {"city": "ATHENA", "state": "OR", "street": "345 E MAIN ST", "postcode": "97813"}}},
{"geometry": {"type": "Point", "coordinates": [-118.4948969106, 45.8164486087]}, "type": "Feature", "properties": {"collection_times": [{"days": "Mon-Fri", "time": "1:45pm"}, {"days": "Sat", "time": "7:30am"}, {"days": "Sun", "time": "Closed"}], "id": "9781300001", "name": "USPS COLLECTION BOX - PO LOBBY", "address": {"city": "ATHENA", "state": "OR", "street": "345 E MAIN ST", "postcode": "97813"}}},
{"geometry": {"type": "Point", "coordinates": [-117.834008539, 44.783388791]}, "type": "Feature", "properties": {"collection_times": [{"days": "Mon-Sat", "time": "10:45am"}, {"days": "Sun", "time": "Closed"}], "id": "9781400000", "name": "USPS COLLECTION BOX - BLUE BOX", "address": {"city": "BAKER CITY", "state": "OR", "street": "1550 DEWEY AVE", "postcode": "97814"}}},
{"geometry": {"type": "Point", "coordinates": [-117.834008539, 44.783388791]}, "type": "Feature", "properties": {"collection_times": [{"days": "Mon-Sat", "time": "10:45am"}, {"days": "Sun", "time": "Closed"}], "id": "9781400002", "name": "USPS COLLECTION BOX - PO LOBBY", "address": {"city": "BAKER CITY", "state": "OR", "street": "1550 DEWEY AVE", "postcode": "97814"}}},
{"geometry": {"type": "Point", "coordinates": [-117.8333053186, 44.7770615626]}, "type": "Feature", "properties": {"collection_times": [{"days": "Mon-Sat", "time": "10:00am"}, {"days": "Sun", "time": "Closed"}], "id": "9781400003", "name": "USPS COLLECTION BOX - BLUE BOX", "address": {"city": "BAKER CITY", "state": "OR", "street": "1995 3RD ST", "postcode": "97814"}}},
{"geometry": {"type": "Point", "coordinates": [-117.8198599928, 44.7815952]}, "type": "Feature", "properties": {"collection_times": [{"days": "Mon-Sat", "time": "9:15am"}, {"days": "Sun", "time": "Closed"}], "id": "9781400006", "name": "USPS COLLECTION BOX - BLUE BOX", "address": {"city": "BAKER CITY", "state": "OR", "street": "1205 CAMPBELL ST", "postcode": "97814"}}},
{"geometry": {"type": "Point", "coordinates": [-117.8298834685, 44.7773505695]}, "type": "Feature", "properties": {"collection_times": [{"days": "Mon-Sat", "time": "10:00am"}, {"days": "Sun", "time": "Closed"}], "id": "9781400008", "name": "USPS COLLECTION BOX - BLUE BOX", "address": {"city": "BAKER CITY", "state": "OR", "street": "2021 MAIN ST", "postcode": "97814"}}},
{"geometry": {"type": "Point", "coordinates": [-117.834008539, 44.783388791]}, "type": "Feature", "properties": {"collection_times": [{"days": "Mon-Sat", "time": "10:45am"}, {"days": "Sun", "time": "Closed"}], "id": "9781400010", "name": "USPS COLLECTION BOX - BLUE BOX", "address": {"city": "BAKER CITY", "state": "OR", "street": "1550 DEWEY AVE", "postcode": "97814"}}},
{"geometry": {"type": "Point", "coordinates": [-117.834008539, 44.783388791]}, "type": "Feature", "properties": {"collection_times": [{"days": "Mon-Sat", "time": "10:45am"}, {"days": "Sun", "time": "Closed"}], "id": "9781400011", "name": "USPS COLLECTION BOX - BLUE BOX", "address": {"city": "BAKER CITY", "state": "OR", "street": "1550 DEWEY AVE", "postcode": "97814"}}},
{"geometry": {"type": "Point", "coordinates": [-117.834008539, 44.783388791]}, "type": "Feature", "properties": {"collection_times": [{"days": "Mon-Sat", "time": "10:45am"}, {"days": "Sun", "time": "Closed"}], "id": "9781400012", "name": "USPS COLLECTION BOX - PO LOBBY", "address": {"city": "BAKER CITY", "state": "OR", "street": "1550 DEWEY AVE", "postcode": "97814"}}},
{"geometry": {"type": "Point", "coordinates": [-119.7031935609, 45.8398378788]}, "type": "Feature", "properties": {"collection_times": [{"days": "Mon-Sat", "time": "11:30am"}, {"days": "Sun", "time": "Closed"}], "id": "9781800000", "name": "USPS COLLECTION BOX - BLUE BOX", "address": {"city": "BOARDMAN", "state": "OR", "street": "200 NW 1ST ST", "postcode": "97818"}}},
{"geometry": {"type": "Point", "coordinates": [-119.7031935609, 45.8398378788]}, "type": "Feature", "properties": {"collection_times": [{"days": "Mon-Fri", "time": "11:30am"}, {"days": "Sat", "time": "11:00am"}, {"days": "Sun", "time": "Closed"}], "id": "9781800001", "name": "USPS COLLECTION BOX - PO LOBBY", "address": {"city": "BOARDMAN", "state": "OR", "street": "200 NW 1ST ST", "postcode": "97818"}}},
{"geometry": {"type": "Point", "coordinates": [-118.9528691803, 44.3440739749]}, "type": "Feature", "properties": {"collection_times": [{"days": "Mon-Sat", "time": "10:00am"}, {"days": "Sun", "time": "Closed"}], "id": "9782000002", "name": "USPS COLLECTION BOX - PO LOBBY", "address": {"city": "CANYON CITY", "state": "OR", "street": "101 S CLARK ST", "postcode": "97820"}}},
{"geometry": {"type": "Point", "coordinates": [-120.1847775511, 45.2394390205]}, "type": "Feature", "properties": {"collection_times": [{"days": "Mon-Fri", "time": "11:00am"}, {"days": "Sat", "time": "9:30am"}, {"days": "Sun", "time": "Closed"}], "id": "9782300000", "name": "USPS COLLECTION BOX - BLUE BOX", "address": {"city": "CONDON", "state": "OR", "street": "330 S MAIN ST", "postcode": "97823"}}},
{"geometry": {"type": "Point", "coordinates": [-120.1538895306, 45.2165684593]}, "type": "Feature", "properties": {"collection_times": [{"days": "Mon-Fri", "time": "11:00am"}, {"days": "Sat", "time": "9:30am"}, {"days": "Sun", "time": "Closed"}], "id": "9782300001", "name": "USPS COLLECTION BOX - PO LOBBY", "address": {"city": "CONDON", "state": "OR", "street": "330 S MAIN ST", "postcode": "97823"}}},
{"geometry": {"type": "Point", "coordinates": [-117.812061898, 45.2969823325]}, "type": "Feature", "properties": {"collection_times": [{"days": "Mon-Fri", "time": "12:00pm"}, {"days": "Sat", "time": "11:00am"}, {"days": "Sun", "time": "Closed"}], "id": "9782400000", "name": "USPS COLLECTION BOX - BLUE BOX", "address": {"city": "COVE", "state": "OR", "street": "601 MAIN ST", "postcode": "97824"}}},
{"geometry": {"type": "Point", "coordinates": [-117.829198618, 45.326879459]}, "type": "Feature", "properties": {"collection_times": [{"days": "Mon-Fri", "time": "12:00pm"}, {"days": "Sat", "time": "11:00am"}, {"days": "Sun", "time": "Closed"}], "id": "9782400001", "name": "USPS COLLECTION BOX - PO LOBBY", "address": {"city": "COVE", "state": "OR", "street": "601 MAIN ST", "postcode": "97824"}}},
{"geometry": {"type": "Point", "coordinates": [-119.5344846427, 44.4670796782]}, "type": "Feature", "properties": {"collection_times": [{"days": "Mon-Sat", "time": "12:30pm"}, {"days": "Sun", "time": "Closed"}], "id": "9782500000", "name": "USPS COLLECTION BOX - BLUE BOX", "address": {"city": "DAYVILLE", "state": "OR", "street": "145 E FRANKLIN AVE", "postcode": "97825"}}},
{"geometry": {"type": "Point", "coordinates": [-119.5437160632, 44.4746457352]}, "type": "Feature", "properties": {"collection_times": [{"days": "Mon-Sat", "time": "12:30pm"}, {"days": "Sun", "time": "Closed"}], "id": "9782500001", "name": "USPS COLLECTION BOX - PO LOBBY", "address": {"city": "DAYVILLE", "state": "OR", "street": "145 E FRANKLIN AVE", "postcode": "97825"}}},
{"geometry": {"type": "Point", "coordinates": [-119.2151293673, 45.7196766462]}, "type": "Feature", "properties": {"collection_times": [{"days": "Mon-Sat", "time": "1:45pm"}, {"days": "Sun", "time": "Closed"}], "id": "9782600000", "name": "USPS COLLECTION BOX - BLUE BOX", "address": {"city": "ECHO", "state": "OR", "street": "130 W MAIN", "postcode": "97826"}}},
{"geometry": {"type": "Point", "coordinates": [-119.2151293673, 45.7196766462]}, "type": "Feature", "properties": {"collection_times": [{"days": "Mon-Fri", "time": "1:45pm"}, {"days": "Sat-Sun", "time": "Closed"}], "id": "9782600001", "name": "USPS COLLECTION BOX - PO LOBBY", "address": {"city": "ECHO", "state": "OR", "street": "130 W MAIN", "postcode": "97826"}}},
{"geometry": {"type": "Point", "coordinates": [-117.9185560245, 45.5648711896]}, "type": "Feature", "properties": {"collection_times": [{"days": "Mon-Sat", "time": "11:00am"}, {"days": "Sun", "time": "Closed"}], "id": "9782700000", "name": "USPS COLLECTION BOX - BLUE BOX", "address": {"city": "ELGIN", "state": "OR", "street": "887 DIVISION ST", "postcode": "97827"}}},
{"geometry": {"type": "Point", "coordinates": [-117.8753599564, 45.5853160411]}, "type": "Feature", "properties": {"collection_times": [{"days": "Mon-Fri", "time": "11:00am"}, {"days": "Sat-Sun", "time": "Closed"}], "id": "9782700001", "name": "USPS COLLECTION BOX - PO LOBBY", "address": {"city": "ELGIN", "state": "OR", "street": "887 DIVISION ST", "postcode": "97827"}}},
{"geometry": {"type": "Point", "coordinates": [-117.8753599564, 45.5853160411]}, "type": "Feature", "properties": {"collection_times": [{"days": "Mon-Fri", "time": "11:00am"}, {"days": "Sat-Sun", "time": "Closed"}], "id": "9782700002", "name": "USPS COLLECTION BOX - PO LOBBY", "address": {"city": "ELGIN", "state": "OR", "street": "887 DIVISION ST", "postcode": "97827"}}},
{"geometry": {"type": "Point", "coordinates": [-117.2818669651, 45.4876968025]}, "type": "Feature", "properties": {"collection_times": [{"days": "Mon-Sat", "time": "11:00am"}, {"days": "Sun", "time": "Closed"}], "id": "9782800000", "name": "USPS COLLECTION BOX - PO LOBBY", "address": {"city": "ENTERPRISE", "state": "OR", "street": "201 W NORTH ST", "postcode": "97828"}}},
{"geometry": {"type": "Point", "coordinates": [-117.2818669651, 45.4876968025]}, "type": "Feature", "properties": {"collection_times": [{"days": "Mon-Sat", "time": "11:00am"}, {"days": "Sun", "time": "Closed"}], "id": "9782800003", "name": "USPS COLLECTION BOX - BLUE BOX", "address": {"city": "ENTERPRISE", "state": "OR", "street": "201 W NORTH ST", "postcode": "97828"}}},
{"geometry": {"type": "Point", "coordinates": [-120.2136244338, 44.9960538871]}, "type": "Feature", "properties": {"collection_times": [{"days": "Mon-Sat", "time": "10:15am"}, {"days": "Sun", "time": "Closed"}], "id": "9783000000", "name": "USPS COLLECTION BOX - BLUE BOX", "address": {"city": "FOSSIL", "state": "OR", "street": "606 MAIN ST", "postcode": "97830"}}},
{"geometry": {"type": "Point", "coordinates": [-120.1315562023, 44.9487075603]}, "type": "Feature", "properties": {"collection_times": [{"days": "Mon-Sat", "time": "10:15am"}, {"days": "Sun", "time": "Closed"}], "id": "9783000001", "name": "USPS COLLECTION BOX - PO LOBBY", "address": {"city": "FOSSIL", "state": "OR", "street": "606 MAIN ST", "postcode": "97830"}}},
{"geometry": {"type": "Point", "coordinates": [-117.9929488402, 44.924006204]}, "type": "Feature", "properties": {"collection_times": [{"days": "Mon-Fri", "time": "10:30am"}, {"days": "Sat", "time": "10:00am"}, {"days": "Sun", "time": "Closed"}], "id": "9783300000", "name": "USPS COLLECTION BOX - BLUE BOX", "address": {"city": "HAINES", "state": "OR", "street": "918 FRONT ST", "postcode": "97833"}}},
{"geometry": {"type": "Point", "coordinates": [-117.9929488402, 44.924006204]}, "type": "Feature", "properties": {"collection_times": [{"days": "Mon-Fri", "time": "10:30am"}, {"days": "Sat", "time": "10:00am"}, {"days": "Sun", "time": "Closed"}], "id": "9783300001", "name": "USPS COLLECTION BOX - PO LOBBY", "address": {"city": "HAINES", "state": "OR", "street": "918 FRONT ST", "postcode": "97833"}}},
{"geometry": {"type": "Point", "coordinates": [-117.1037999497, 44.9043885042]}, "type": "Feature", "properties": {"collection_times": [{"days": "Mon-Fri", "time": "2:15pm"}, {"days": "Sat", "time": "11:45am"}, {"days": "Sun", "time": "Closed"}], "id": "9783400000", "name": "USPS COLLECTION BOX - PO LOBBY", "address": {"city": "HALFWAY", "state": "OR", "street": "107 S MAIN ST", "postcode": "97834"}}},
{"geometry": {"type": "Point", "coordinates": [-118.725099647, 45.8916867239]}, "type": "Feature", "properties": {"collection_times": [{"days": "Mon-Sat", "time": "1:00pm"}, {"days": "Sun", "time": "Closed"}], "id": "9783500000", "name": "USPS COLLECTION BOX - PO LOBBY", "address": {"city": "HELIX", "state": "OR", "street": "209 CONCORD ST", "postcode": "97835"}}},
{"geometry": {"type": "Point", "coordinates": [-119.5535319535, 45.3542693465]}, "type": "Feature", "properties": {"collection_times": [{"days": "Mon-Sat", "time": "12:15pm"}, {"days": "Sun", "time": "Closed"}], "id": "9783600000", "name": "USPS COLLECTION BOX - BLUE BOX", "address": {"city": "HEPPNER", "state": "OR", "street": "173 N MAIN ST", "postcode": "97836"}}},
{"geometry": {"type": "Point", "coordinates": [-119.5535824299, 45.3512705706]}, "type": "Feature", "properties": {"collection_times": [{"days": "Mon-Sat", "time": "12:00pm"}, {"days": "Sun", "time": "Closed"}], "id": "9783600001", "name": "USPS COLLECTION BOX - BLUE BOX", "address": {"city": "HEPPNER", "state": "OR", "street": "340 E MAIN ST", "postcode": "97836"}}},
{"geometry": {"type": "Point", "coordinates": [-119.5535319535, 45.3542693465]}, "type": "Feature", "properties": {"collection_times": [{"days": "Mon-Fri", "time": "12:15pm"}, {"days": "Sat", "time": "10:30am"}, {"days": "Sun", "time": "Closed"}], "id": "9783600003", "name": "USPS COLLECTION BOX - PO LOBBY", "address": {"city": "HEPPNER", "state": "OR", "street": "173 N MAIN ST", "postcode": "97836"}}},
{"geometry": {"type": "Point", "coordinates": [-119.5535319535, 45.3542693465]}, "type": "Feature", "properties": {"collection_times": [{"days": "Mon-Fri", "time": "12:15pm"}, {"days": "Sat", "time": "10:30am"}, {"days": "Sun", "time": "Closed"}], "id": "9783600004", "name": "USPS COLLECTION BOX - PO LOBBY", "address": {"city": "HEPPNER", "state": "OR", "street": "173 N MAIN ST", "postcode": "97836"}}},
{"geometry": {"type": "Point", "coordinates": [-119.30289578, 45.8496715904]}, "type": "Feature", "properties": {"collection_times": [{"days": "Mon-Fri", "time": "12:00pm"}, {"days": "Sat-Sun", "time": "Closed"}], "id": "9783800001", "name": "USPS COLLECTION BOX - BLUE BOX", "address": {"city": "HERMISTON", "state": "OR", "street": "750 W ELM AVE", "postcode": "97838"}}},
{"geometry": {"type": "Point", "coordinates": [-119.2848481084, 45.8405339986]}, "type": "Feature", "properties": {"collection_times": [{"days": "Mon-Fri", "time": "12:00pm"}, {"days": "Sat-Sun", "time": "Closed"}], "id": "9783800003", "name": "USPS COLLECTION BOX - BLUE BOX", "address": {"city": "HERMISTON", "state": "OR", "street": "411 E MAIN ST", "postcode": "97838"}}},
{"geometry": {"type": "Point", "coordinates": [-119.2727852038, 45.8284580777]}, "type": "Feature", "properties": {"collection_times": [{"days": "Mon-Fri", "time": "12:00pm"}, {"days": "Sat-Sun", "time": "Closed"}], "id": "9783800008", "name": "USPS COLLECTION BOX - BLUE BOX", "address": {"city": "HERMISTON", "state": "OR", "street": "980 SE COLUMBIA DR", "postcode": "97838"}}},
{"geometry": {"type": "Point", "coordinates": [-119.2890161858, 45.8458165008]}, "type": "Feature", "properties": {"collection_times": [{"days": "Mon-Sat", "time": "12:45pm"}, {"days": "Sun", "time": "Closed"}], "id": "9783800009", "name": "USPS COLLECTION BOX - BLUE BOX", "address": {"city": "HERMISTON", "state": "OR", "street": "375 W ORCHARD AVE", "postcode": "97838"}}},
{"geometry": {"type": "Point", "coordinates": [-119.2890161858, 45.8458165008]}, "type": "Feature", "properties": {"collection_times": [{"days": "Mon-Sat", "time": "12:45pm"}, {"days": "Sun", "time": "Closed"}], "id": "9783800010", "name": "USPS COLLECTION BOX - BLUE BOX", "address": {"city": "HERMISTON", "state": "OR", "street": "375 W ORCHARD AVE", "postcode": "97838"}}},
{"geometry": {"type": "Point", "coordinates": [-119.2890161858, 45.8458165008]}, "type": "Feature", "properties": {"collection_times": [{"days": "Mon-Sat", "time": "12:45pm"}, {"days": "Sun", "time": "Closed"}], "id": "9783800014", "name": "USPS COLLECTION BOX - BLUE BOX", "address": {"city": "HERMISTON", "state": "OR", "street": "375 W ORCHARD AVE", "postcode": "97838"}}},
{"geometry": {"type": "Point", "coordinates": [-119.2890161858, 45.8458165008]}, "type": "Feature", "properties": {"collection_times": [{"days": "Mon-Sat", "time": "12:45pm"}, {"days": "Sun", "time": "Closed"}], "id": "9783800017", "name": "USPS COLLECTION BOX - PO LOBBY", "address": {"city": "HERMISTON", "state": "OR", "street": "375 W ORCHARD AVE", "postcode": "97838"}}},
{"geometry": {"type": "Point", "coordinates": [-119.2890161858, 45.8458165008]}, "type": "Feature", "properties": {"collection_times": [{"days": "Mon-Sat", "time": "12:45pm"}, {"days": "Sun", "time": "Closed"}], "id": "9783800019", "name": "USPS COLLECTION BOX - BLUE BOX", "address": {"city": "HERMISTON", "state": "OR", "street": "375 W ORCHARD AVE", "postcode": "97838"}}},
{"geometry": {"type": "Point", "coordinates": [-119.2890161858, 45.8458165008]}, "type": "Feature", "properties": {"collection_times": [{"days": "Mon-Sat", "time": "12:45pm"}, {"days": "Sun", "time": "Closed"}], "id": "9783800020", "name": "USPS COLLECTION BOX - PO LOBBY", "address": {"city": "HERMISTON", "state": "OR", "street": "375 W ORCHARD AVE", "postcode": "97838"}}},
{"geometry": {"type": "Point", "coordinates": [-116.8498107613, 45.0227664141]}, "type": "Feature", "properties": {"collection_times": [{"days": "Mon-Fri", "time": "1:45pm"}, {"days": "Sat", "time": "12:30pm"}, {"days": "Sun", "time": "Closed"}], "id": "9784000000", "name": "USPS COLLECTION BOX - BLUE BOX", "address": {"city": "OXBOW", "state": "OR", "street": "49516 HOMESTEAD RD", "postcode": "97840"}}},
{"geometry": {"type": "Point", "coordinates": [-116.8498107613, 45.0227664141]}, "type": "Feature", "properties": {"collection_times": [{"days": "Mon-Fri", "time": "1:45pm"}, {"days": "Sat", "time": "12:30pm"}, {"days": "Sun", "time": "Closed"}], "id": "9784000001", "name": "USPS COLLECTION BOX - PO LOBBY", "address": {"city": "OXBOW", "state": "OR", "street": "49516 HOMESTEAD RD", "postcode": "97840"}}},
{"geometry": {"type": "Point", "coordinates": [-117.9625503277, 45.4620487308]}, "type": "Feature", "properties": {"collection_times": [{"days": "Mon-Fri", "time": "10:00am"}, {"days": "Sat", "time": "9:30am"}, {"days": "Sun", "time": "Closed"}], "id": "9784100000", "name": "USPS COLLECTION BOX - BLUE BOX", "address": {"city": "IMBLER", "state": "OR", "street": "510 RUCKMAN AVE", "postcode": "97841"}}},
{"geometry": {"type": "Point", "coordinates": [-117.9571373049, 45.4641381827]}, "type": "Feature", "properties": {"collection_times": [{"days": "Mon-Fri", "time": "10:00am"}, {"days": "Sat", "time": "9:30am"}, {"days": "Sun", "time": "Closed"}], "id": "9784100001", "name": "USPS COLLECTION BOX - PO LOBBY", "address": {"city": "IMBLER", "state": "OR", "street": "510 RUCKMAN AVE", "postcode": "97841"}}},
{"geometry": {"type": "Point", "coordinates": [-117.9571373049, 45.4641381827]}, "type": "Feature", "properties": {"collection_times": [{"days": "Mon-Sat", "time": "11:00am"}, {"days": "Sun", "time": "Closed"}], "id": "9784100003", "name": "USPS COLLECTION BOX - PO LOBBY", "address": {"city": "IMBLER", "state": "OR", "street": "301 MAIN ST", "postcode": "97841"}}},
{"geometry": {"type": "Point", "coordinates": [-116.8305295188, 45.4365387078]}, "type": "Feature", "properties": {"collection_times": [{"days": "Mon-Fri", "time": "1:30pm"}, {"days": "Sat-Sun", "time": "Closed"}], "id": "9784200000", "name": "USPS COLLECTION BOX - PO LOBBY", "address": {"city": "IMNAHA", "state": "OR", "street": "101 HAT POINT RD", "postcode": "97842"}}},
{"geometry": {"type": "Point", "coordinates": [-119.8266800762, 45.5013420016]}, "type": "Feature", "properties": {"collection_times": [{"days": "Mon-Fri", "time": "12:00pm"}, {"days": "Sat", "time": "9:30am"}, {"days": "Sun", "time": "Closed"}], "id": "9784300000", "name": "USPS COLLECTION BOX - BLUE BOX", "address": {"city": "IONE", "state": "OR", "street": "180 W MAIN ST", "postcode": "97843"}}},
{"geometry": {"type": "Point", "coordinates": [-119.8266800762, 45.5013420016]}, "type": "Feature", "properties": {"collection_times": [{"days": "Mon-Fri", "time": "12:00pm"}, {"days": "Sat", "time": "9:30am"}, {"days": "Sun", "time": "Closed"}], "id": "9784300001", "name": "USPS COLLECTION BOX - PO LOBBY", "address": {"city": "IONE", "state": "OR", "street": "180 W MAIN ST", "postcode": "97843"}}},
{"geometry": {"type": "Point", "coordinates": [-119.5029990167, 45.8901181769]}, "type": "Feature", "properties": {"collection_times": [{"days": "Mon-Fri", "time": "11:45am"}, {"days": "Sat-Sun", "time": "Closed"}], "id": "9784400001", "name": "USPS COLLECTION BOX - PO LOBBY", "address": {"city": "IRRIGON", "state": "OR", "street": "300 NE MAIN AVE", "postcode": "97844"}}},
{"geometry": {"type": "Point", "coordinates": [-119.5029990167, 45.8901181769]}, "type": "Feature", "properties": {"collection_times": [{"days": "Mon-Sat", "time": "11:45am"}, {"days": "Sun", "time": "Closed"}], "id": "9784400002", "name": "USPS COLLECTION BOX - BLUE BOX", "address": {"city": "IRRIGON", "state": "OR", "street": "300 NE MAIN AVE", "postcode": "97844"}}},
{"geometry": {"type": "Point", "coordinates": [-118.9459866916, 44.4149279796]}, "type": "Feature", "properties": {"collection_times": [{"days": "Mon-Sat", "time": "10:15am"}, {"days": "Sun", "time": "Closed"}], "id": "9784500000", "name": "USPS COLLECTION BOX - PO LOBBY", "address": {"city": "JOHN DAY", "state": "OR", "street": "151 N CANYON BLVD", "postcode": "97845"}}},
{"geometry": {"type": "Point", "coordinates": [-118.9459866916, 44.4149279796]}, "type": "Feature", "properties": {"collection_times": [{"days": "Mon-Sat", "time": "10:15am"}, {"days": "Sun", "time": "Closed"}], "id": "9784500001", "name": "USPS COLLECTION BOX - BLUE BOX", "address": {"city": "JOHN DAY", "state": "OR", "street": "151 N CANYON BLVD", "postcode": "97845"}}},
{"geometry": {"type": "Point", "coordinates": [-117.2069286553, 45.3297558526]}, "type": "Feature", "properties": {"collection_times": [{"days": "Mon-Fri", "time": "10:30am"}, {"days": "Sat", "time": "9:30am"}, {"days": "Sun", "time": "Closed"}], "id": "9784600000", "name": "USPS COLLECTION BOX - PO LOBBY", "address": {"city": "JOSEPH", "state": "OR", "street": "101 N MAIN ST", "postcode": "97846"}}},
{"geometry": {"type": "Point", "coordinates": [-117.2069286553, 45.3297558526]}, "type": "Feature", "properties": {"collection_times": [{"days": "Mon-Fri", "time": "10:30am"}, {"days": "Sat", "time": "9:30am"}, {"days": "Sun", "time": "Closed"}], "id": "9784600002", "name": "USPS COLLECTION BOX - BLUE BOX", "address": {"city": "JOSEPH", "state": "OR", "street": "101 N MAIN ST", "postcode": "97846"}}},
{"geometry": {"type": "Point", "coordinates": [-119.6529060514, 44.6721479602]}, "type": "Feature", "properties": {"collection_times": [{"days": "Mon-Fri", "time": "1:00pm"}, {"days": "Sat", "time": "11:15am"}, {"days": "Sun", "time": "Closed"}], "id": "9784800000", "name": "USPS COLLECTION BOX - PO LOBBY", "address": {"city": "KIMBERLY", "state": "OR", "street": "41345 HWY 19", "postcode": "97848"}}},
{"geometry": {"type": "Point", "coordinates": [-119.6529060514, 44.6721479602]}, "type": "Feature", "properties": {"collection_times": [{"days": "Mon-Fri", "time": "1:00pm"}, {"days": "Sat", "time": "11:15am"}, {"days": "Sun", "time": "Closed"}], "id": "9784800001", "name": "USPS COLLECTION BOX - PO LOBBY", "address": {"city": "KIMBERLY", "state": "OR", "street": "41345 HWY 19", "postcode": "97848"}}},
{"geometry": {"type": "Point", "coordinates": [-118.0781743763, 45.3292826586]}, "type": "Feature", "properties": {"collection_times": [{"days": "Mon-Sat", "time": "12:15pm"}, {"days": "Sun", "time": "Closed"}], "id": "9785000000", "name": "USPS COLLECTION BOX - BLUE BOX", "address": {"city": "LAGRANDE", "state": "OR", "street": "2212 ISLAND AVE", "postcode": "97850"}}},
{"geometry": {"type": "Point", "coordinates": [-118.0881392205, 45.3258671186]}, "type": "Feature", "properties": {"collection_times": [{"days": "Mon-Fri", "time": "12:45pm"}, {"days": "Sat", "time": "12:15pm"}, {"days": "Sun", "time": "Closed"}], "id": "9785000001", "name": "USPS COLLECTION BOX - BLUE BOX", "address": {"city": "LAGRANDE", "state": "OR", "street": "2111 ADAMS AVE", "postcode": "97850"}}},
{"geometry": {"type": "Point", "coordinates": [-118.0881479107, 45.3258670727]}, "type": "Feature", "properties": {"collection_times": [{"days": "Mon-Fri", "time": "1:25pm"}, {"days": "Sat", "time": "12:15pm"}, {"days": "Sun", "time": "Closed"}], "id": "9785000002", "name": "USPS COLLECTION BOX - PO LOBBY", "address": {"city": "LAGRANDE", "state": "OR", "street": "1202 WASHINGTON AVE", "postcode": "97850"}}},
{"geometry": {"type": "Point", "coordinates": [-118.0881479107, 45.3258670727]}, "type": "Feature", "properties": {"collection_times": [{"days": "Mon-Fri", "time": "1:25pm"}, {"days": "Sat", "time": "12:15pm"}, {"days": "Sun", "time": "Closed"}], "id": "9785000003", "name": "USPS COLLECTION BOX - BLUE BOX", "address": {"city": "LAGRANDE", "state": "OR", "street": "1202 WASHINGTON AVE", "postcode": "97850"}}},
{"geometry": {"type": "Point", "coordinates": [-118.0457388885, 45.3408623766]}, "type": "Feature", "properties": {"collection_times": [{"days": "Mon-Sat", "time": "12:15pm"}, {"days": "Sun", "time": "Closed"}], "id": "9785000004", "name": "USPS COLLECTION BOX - BLUE BOX", "address": {"city": "LAGRANDE", "state": "OR", "street": "10101 W 1ST ST", "postcode": "97850"}}},
{"geometry": {"type": "Point", "coordinates": [-118.0178069845, 45.3331430254]}, "type": "Feature", "properties": {"collection_times": [{"days": "Mon-Sat", "time": "12:15pm"}, {"days": "Sun", "time": "Closed"}], "id": "9785000005", "name": "USPS COLLECTION BOX - BLUE BOX", "address": {"city": "LAGRANDE", "state": "OR", "street": "11619 ISLAND AVE", "postcode": "97850"}}},
{"geometry": {"type": "Point", "coordinates": [-118.0881479107, 45.3258670727]}, "type": "Feature", "properties": {"collection_times": [{"days": "Mon-Fri", "time": "1:25pm"}, {"days": "Sat", "time": "12:15pm"}, {"days": "Sun", "time": "Closed"}], "id": "9785000007", "name": "USPS COLLECTION BOX - BLUE BOX", "address": {"city": "LAGRANDE", "state": "OR", "street": "1202 WASHINGTON AVE", "postcode": "97850"}}},
{"geometry": {"type": "Point", "coordinates": [-118.0881479107, 45.3258670727]}, "type": "Feature", "properties": {"collection_times": [{"days": "Mon-Fri", "time": "1:25pm"}, {"days": "Sat", "time": "12:15pm"}, {"days": "Sun", "time": "Closed"}], "id": "9785000009", "name": "USPS COLLECTION BOX - BLUE BOX", "address": {"city": "LAGRANDE", "state": "OR", "street": "1202 WASHINGTON AVE", "postcode": "97850"}}},
{"geometry": {"type": "Point", "coordinates": [-118.0881479107, 45.3258670727]}, "type": "Feature", "properties": {"collection_times": [{"days": "Mon-Fri", "time": "1:25pm"}, {"days": "Sat", "time": "12:15pm"}, {"days": "Sun", "time": "Closed"}], "id": "9785000011", "name": "USPS COLLECTION BOX - PO LOBBY", "address": {"city": "LAGRANDE", "state": "OR", "street": "1202 WASHINGTON AVE", "postcode": "97850"}}},
{"geometry": {"type": "Point", "coordinates": [-119.2045309967, 44.6424140862]}, "type": "Feature", "properties": {"collection_times": [{"days": "Mon-Fri", "time": "11:45am"}, {"days": "Sat", "time": "8:00am"}, {"days": "Sun", "time": "Closed"}], "id": "9785600000", "name": "USPS COLLECTION BOX - BLUE BOX", "address": {"city": "LONG CREEK", "state": "OR", "street": "610 HWY 395 N", "postcode": "97856"}}},
{"geometry": {"type": "Point", "coordinates": [-119.2045309967, 44.6424140862]}, "type": "Feature", "properties": {"collection_times": [{"days": "Mon-Fri", "time": "11:45am"}, {"days": "Sat", "time": "8:00am"}, {"days": "Sun", "time": "Closed"}], "id": "9785600001", "name": "USPS COLLECTION BOX - PO LOBBY", "address": {"city": "LONG CREEK", "state": "OR", "street": "610 HWY 395 N", "postcode": "97856"}}},
{"geometry": {"type": "Point", "coordinates": [-117.4209288662, 45.464385848]}, "type": "Feature", "properties": {"collection_times": [{"days": "Mon-Fri", "time": "10:30am"}, {"days": "Sat", "time": "8:00am"}, {"days": "Sun", "time": "Closed"}], "id": "9785700000", "name": "USPS COLLECTION BOX - BLUE BOX", "address": {"city": "LOSTINE", "state": "OR", "street": "137A HWY 82", "postcode": "97857"}}},
{"geometry": {"type": "Point", "coordinates": [-117.4209288662, 45.464385848]}, "type": "Feature", "properties": {"collection_times": [{"days": "Mon-Fri", "time": "10:30am"}, {"days": "Sat", "time": "8:00am"}, {"days": "Sun", "time": "Closed"}], "id": "9785700001", "name": "USPS COLLECTION BOX - PO LOBBY", "address": {"city": "LOSTINE", "state": "OR", "street": "137A HWY 82", "postcode": "97857"}}},
{"geometry": {"type": "Point", "coordinates": [-118.3972857611, 45.9373406049]}, "type": "Feature", "properties": {"collection_times": [{"days": "Mon-Sat", "time": "1:15pm"}, {"days": "Sun", "time": "Closed"}], "id": "9786200001", "name": "USPS COLLECTION BOX - BLUE BOX", "address": {"city": "MILTON FRWTR", "state": "OR", "street": "122 W BROADWAY AVE", "postcode": "97862"}}},
{"geometry": {"type": "Point", "coordinates": [-118.3853284192, 45.9287198218]}, "type": "Feature", "properties": {"collection_times": [{"days": "Mon-Sat", "time": "11:00am"}, {"days": "Sun", "time": "Closed"}], "id": "9786200003", "name": "USPS COLLECTION BOX - BLUE BOX", "address": {"city": "MILTON FRWTR", "state": "OR", "street": "722 S MAIN ST", "postcode": "97862"}}},
{"geometry": {"type": "Point", "coordinates": [-118.3876509871, 45.9407527677]}, "type": "Feature", "properties": {"collection_times": [{"days": "Mon-Sat", "time": "11:00am"}, {"days": "Sun", "time": "Closed"}], "id": "9786200005", "name": "USPS COLLECTION BOX - BLUE BOX", "address": {"city": "MILTON FRWTR", "state": "OR", "street": "455 N COLUMBIA ST", "postcode": "97862"}}},
{"geometry": {"type": "Point", "coordinates": [-118.397349959, 45.937162365]}, "type": "Feature", "properties": {"collection_times": [{"days": "Mon-Sat", "time": "1:15pm"}, {"days": "Sun", "time": "Closed"}], "id": "9786200009", "name": "USPS COLLECTION BOX - PO LOBBY", "address": {"city": "MILTON FRWTR", "state": "OR", "street": "109 W BROADWAY AVE", "postcode": "97862"}}},
{"geometry": {"type": "Point", "coordinates": [-119.4110563058, 44.8567196142]}, "type": "Feature", "properties": {"collection_times": [{"days": "Mon-Fri", "time": "1:30pm"}, {"days": "Sat", "time": "1:00pm"}, {"days": "Sun", "time": "Closed"}], "id": "9786400000", "name": "USPS COLLECTION BOX - BLUE BOX", "address": {"city": "MONUMENT", "state": "OR", "street": "177 NORTH ST", "postcode": "97864"}}},
{"geometry": {"type": "Point", "coordinates": [-119.4230291905, 44.8003994875]}, "type": "Feature", "properties": {"collection_times": [{"days": "Mon-Fri", "time": "2:10pm"}, {"days": "Sat", "time": "11:15am"}, {"days": "Sun", "time": "Closed"}], "id": "9786400002", "name": "USPS COLLECTION BOX - PO LOBBY", "address": {"city": "MONUMENT", "state": "OR", "street": "177 NORTH ST", "postcode": "97864"}}},
{"geometry": {"type": "Point", "coordinates": [-119.113397167, 44.4176881202]}, "type": "Feature", "properties": {"collection_times": [{"days": "Mon-Sat", "time": "10:30am"}, {"days": "Sun", "time": "Closed"}], "id": "9786500000", "name": "USPS COLLECTION BOX - BLUE BOX", "address": {"city": "MOUNT VERNON", "state": "OR", "street": "101 W MAIN ST", "postcode": "97865"}}},
{"geometry": {"type": "Point", "coordinates": [-119.113397167, 44.4176881202]}, "type": "Feature", "properties": {"collection_times": [{"days": "Mon-Sat", "time": "10:30am"}, {"days": "Sun", "time": "Closed"}], "id": "9786500001", "name": "USPS COLLECTION BOX - PO LOBBY", "address": {"city": "MOUNT VERNON", "state": "OR", "street": "101 W MAIN ST", "postcode": "97865"}}},
{"geometry": {"type": "Point", "coordinates": [-117.9505372415, 45.0107368588]}, "type": "Feature", "properties": {"collection_times": [{"days": "Mon-Fri", "time": "11:00am"}, {"days": "Sat-Sun", "time": "Closed"}], "id": "9786700000", "name": "USPS COLLECTION BOX - PO LOBBY", "address": {"city": "NORTH POWDER", "state": "OR", "street": "205 E ST", "postcode": "97867"}}},
{"geometry": {"type": "Point", "coordinates": [-117.9189098245, 45.0275555039]}, "type": "Feature", "properties": {"collection_times": [{"days": "Mon-Sat", "time": "11:00am"}, {"days": "Sun", "time": "Closed"}], "id": "9786700001", "name": "USPS COLLECTION BOX - BLUE BOX", "address": {"city": "NORTH POWDER", "state": "OR", "street": "205 E ST", "postcode": "97867"}}},
{"geometry": {"type": "Point", "coordinates": [-118.8337830724, 45.4827983393]}, "type": "Feature", "properties": {"collection_times": [{"days": "Mon-Sat", "time": "1:45pm"}, {"days": "Sun", "time": "Closed"}], "id": "9786800000", "name": "USPS COLLECTION BOX - BLUE BOX", "address": {"city": "PILOT ROCK", "state": "OR", "street": "103 NW ALDER PL", "postcode": "97868"}}},
{"geometry": {"type": "Point", "coordinates": [-118.8337830724, 45.4827983393]}, "type": "Feature", "properties": {"collection_times": [{"days": "Mon-Fri", "time": "1:45pm"}, {"days": "Sat-Sun", "time": "Closed"}], "id": "9786800001", "name": "USPS COLLECTION BOX - PO LOBBY", "address": {"city": "PILOT ROCK", "state": "OR", "street": "103 NW ALDER PL", "postcode": "97868"}}},
{"geometry": {"type": "Point", "coordinates": [-118.6756491394, 44.4495576734]}, "type": "Feature", "properties": {"collection_times": [{"days": "Mon-Fri", "time": "1:30pm"}, {"days": "Sat", "time": "12:30pm"}, {"days": "Sun", "time": "Closed"}], "id": "9786900000", "name": "USPS COLLECTION BOX - BLUE BOX", "address": {"city": "PRAIRIE CITY", "state": "OR", "street": "150 SW MAIN ST", "postcode": "97869"}}},
{"geometry": {"type": "Point", "coordinates": [-118.6756491394, 44.4495576734]}, "type": "Feature", "properties": {"collection_times": [{"days": "Mon-Fri", "time": "1:30pm"}, {"days": "Sat", "time": "10:30am"}, {"days": "Sun", "time": "Closed"}], "id": "9786900001", "name": "USPS COLLECTION BOX - PO LOBBY", "address": {"city": "PRAIRIE CITY", "state": "OR", "street": "150 SW MAIN ST", "postcode": "97869"}}},
{"geometry": {"type": "Point", "coordinates": [-117.1680575293, 44.7692371824]}, "type": "Feature", "properties": {"collection_times": [{"days": "Mon-Fri", "time": "2:30pm"}, {"days": "Sat", "time": "1:30pm"}, {"days": "Sun", "time": "Closed"}], "id": "9787000000", "name": "USPS COLLECTION BOX - BLUE BOX", "address": {"city": "RICHLAND", "state": "OR", "street": "203 MAIN ST", "postcode": "97870"}}},
{"geometry": {"type": "Point", "coordinates": [-117.1680575293, 44.7692371824]}, "type": "Feature", "properties": {"collection_times": [{"days": "Mon-Fri", "time": "2:45pm"}, {"days": "Sat", "time": "1:30pm"}, {"days": "Sun", "time": "Closed"}], "id": "9787000001", "name": "USPS COLLECTION BOX - PO LOBBY", "address": {"city": "RICHLAND", "state": "OR", "street": "203 MAIN ST", "postcode": "97870"}}},
{"geometry": {"type": "Point", "coordinates": [-118.970796673, 44.1323201319]}, "type": "Feature", "properties": {"collection_times": [{"days": "Mon-Fri", "time": "1:30pm"}, {"days": "Sat", "time": "10:30am"}, {"days": "Sun", "time": "Closed"}], "id": "9787300000", "name": "USPS COLLECTION BOX - BLUE BOX", "address": {"city": "SENECA", "state": "OR", "street": "112 BARNES AVE", "postcode": "97873"}}},
{"geometry": {"type": "Point", "coordinates": [-118.970796673, 44.1323201319]}, "type": "Feature", "properties": {"collection_times": [{"days": "Mon-Sat", "time": "10:30am"}, {"days": "Sun", "time": "Closed"}], "id": "9787300001", "name": "USPS COLLECTION BOX - PO LOBBY", "address": {"city": "SENECA", "state": "OR", "street": "112 BARNES AVE", "postcode": "97873"}}},
{"geometry": {"type": "Point", "coordinates": [-119.7980292351, 44.8387963011]}, "type": "Feature", "properties": {"collection_times": [{"days": "Mon-Fri", "time": "12:30pm"}, {"days": "Sat", "time": "12:00pm"}, {"days": "Sun", "time": "Closed"}], "id": "9787400000", "name": "USPS COLLECTION BOX - PO LOBBY", "address": {"city": "SPRAY", "state": "OR", "street": "701 WILLOW ST", "postcode": "97874"}}},
{"geometry": {"type": "Point", "coordinates": [-119.2175513136, 45.7780262732]}, "type": "Feature", "properties": {"collection_times": [{"days": "Mon-Sat", "time": "1:00pm"}, {"days": "Sun", "time": "Closed"}], "id": "9787500000", "name": "USPS COLLECTION BOX - BLUE BOX", "address": {"city": "STANFIELD", "state": "OR", "street": "420 S MAIN ST", "postcode": "97875"}}},
{"geometry": {"type": "Point", "coordinates": [-119.2089768395, 45.7948669663]}, "type": "Feature", "properties": {"collection_times": [{"days": "Mon-Fri", "time": "1:00pm"}, {"days": "Sat-Sun", "time": "Closed"}], "id": "9787500002", "name": "USPS COLLECTION BOX - PO LOBBY", "address": {"city": "STANFIELD", "state": "OR", "street": "420 S MAIN ST", "postcode": "97875"}}},
{"geometry": {"type": "Point", "coordinates": [-118.1986315742, 44.7432685878]}, "type": "Feature", "properties": {"collection_times": [{"days": "Mon-Sat", "time": "11:15am"}, {"days": "Sun", "time": "Closed"}], "id": "9787700000", "name": "USPS COLLECTION BOX - PO LOBBY", "address": {"city": "SUMPTER", "state": "OR", "street": "321 SE AUSTIN ST", "postcode": "97877"}}},
{"geometry": {"type": "Point", "coordinates": [-118.9316568635, 45.1342088801]}, "type": "Feature", "properties": {"collection_times": [{"days": "Mon-Fri", "time": "1:00pm"}, {"days": "Sat", "time": "9:45am"}, {"days": "Sun", "time": "Closed"}], "id": "9788000000", "name": "USPS COLLECTION BOX - BLUE BOX", "address": {"city": "UKIAH", "state": "OR", "street": "105 E MAIN ST", "postcode": "97880"}}},
{"geometry": {"type": "Point", "coordinates": [-118.9316568635, 45.1342088801]}, "type": "Feature", "properties": {"collection_times": [{"days": "Mon-Fri", "time": "12:00pm"}, {"days": "Sat-Sun", "time": "Closed"}], "id": "9788000001", "name": "USPS COLLECTION BOX - PO LOBBY", "address": {"city": "UKIAH", "state": "OR", "street": "105 E MAIN ST", "postcode": "97880"}}},
{"geometry": {"type": "Point", "coordinates": [-118.9316568635, 45.1342088801]}, "type": "Feature", "properties": {"collection_times": [{"days": "Mon-Fri", "time": "11:00am"}, {"days": "Sat", "time": "9:45am"}, {"days": "Sun", "time": "Closed"}], "id": "9788000002", "name": "USPS COLLECTION BOX - PO LOBBY", "address": {"city": "UKIAH", "state": "OR", "street": "PO BOX 2051", "postcode": "97880"}}},
{"geometry": {"type": "Point", "coordinates": [-119.3252531544, 45.9182676455]}, "type": "Feature", "properties": {"collection_times": [{"days": "Mon-Fri", "time": "12:15pm"}, {"days": "Sat", "time": "9:00am"}, {"days": "Sun", "time": "Closed"}], "id": "9788200002", "name": "USPS COLLECTION BOX - PO LOBBY", "address": {"city": "UMATILLA", "state": "OR", "street": "1900 6TH ST", "postcode": "97882"}}},
{"geometry": {"type": "Point", "coordinates": [-119.3252531544, 45.9182676455]}, "type": "Feature", "properties": {"collection_times": [{"days": "Mon-Sat", "time": "12:15pm"}, {"days": "Sun", "time": "Closed"}], "id": "9788200003", "name": "USPS COLLECTION BOX - BLUE BOX", "address": {"city": "UMATILLA", "state": "OR", "street": "1900 6TH ST", "postcode": "97882"}}},
{"geometry": {"type": "Point", "coordinates": [-119.3252531544, 45.9182676455]}, "type": "Feature", "properties": {"collection_times": [{"days": "Mon-Fri", "time": "12:15pm"}, {"days": "Sat", "time": "9:00am"}, {"days": "Sun", "time": "Closed"}], "id": "9788200006", "name": "USPS COLLECTION BOX - PO LOBBY", "address": {"city": "UMATILLA", "state": "OR", "street": "1900 6TH ST", "postcode": "97882"}}},
{"geometry": {"type": "Point", "coordinates": [-117.8563071073, 45.2037159331]}, "type": "Feature", "properties": {"collection_times": [{"days": "Mon-Fri", "time": "11:40am"}, {"days": "Sat", "time": "11:15am"}, {"days": "Sun", "time": "Closed"}], "id": "9788300000", "name": "USPS COLLECTION BOX - PO LOBBY", "address": {"city": "UNION", "state": "OR", "street": "268 S MAIN ST", "postcode": "97883"}}},
{"geometry": {"type": "Point", "coordinates": [-117.8655387734, 45.2080447462]}, "type": "Feature", "properties": {"collection_times": [{"days": "Mon-Fri", "time": "11:40am"}, {"days": "Sat", "time": "11:15am"}, {"days": "Sun", "time": "Closed"}], "id": "9788300001", "name": "USPS COLLECTION BOX - BLUE BOX", "address": {"city": "UNION", "state": "OR", "street": "268 S MAIN ST", "postcode": "97883"}}},
{"geometry": {"type": "Point", "coordinates": [-118.1828405421, 44.4372327909]}, "type": "Feature", "properties": {"collection_times": [{"days": "Mon-Fri", "time": "12:30pm"}, {"days": "Sat", "time": "11:15am"}, {"days": "Sun", "time": "Closed"}], "id": "9788400000", "name": "USPS COLLECTION BOX - BLUE BOX", "address": {"city": "UNITY", "state": "OR", "street": "105 MAIN ST", "postcode": "97884"}}},
{"geometry": {"type": "Point", "coordinates": [-118.2095995045, 44.4880674572]}, "type": "Feature", "properties": {"collection_times": [{"days": "Mon-Fri", "time": "12:45pm"}, {"days": "Sat", "time": "10:45am"}, {"days": "Sun", "time": "Closed"}], "id": "9788400001", "name": "USPS COLLECTION BOX - PO LOBBY", "address": {"city": "UNITY", "state": "OR", "street": "105 MAIN ST", "postcode": "97884"}}},
{"geometry": {"type": "Point", "coordinates": [-117.5268999875, 45.5701995061]}, "type": "Feature", "properties": {"collection_times": [{"days": "Mon-Fri", "time": "11:30am"}, {"days": "Sat", "time": "10:00am"}, {"days": "Sun", "time": "Closed"}], "id": "9788500000", "name": "USPS COLLECTION BOX - BLUE BOX", "address": {"city": "WALLOWA", "state": "OR", "street": "104 N STORIE ST", "postcode": "97885"}}},
{"geometry": {"type": "Point", "coordinates": [-117.5200688567, 45.570256252]}, "type": "Feature", "properties": {"collection_times": [{"days": "Mon-Fri", "time": "11:30am"}, {"days": "Sat", "time": "10:00am"}, {"days": "Sun", "time": "Closed"}], "id": "9788500001", "name": "USPS COLLECTION BOX - PO LOBBY", "address": {"city": "WALLOWA", "state": "OR", "street": "104 N STORIE ST", "postcode": "97885"}}},
{"geometry": {"type": "Point", "coordinates": [-118.4239405111, 45.8135524121]}, "type": "Feature", "properties": {"collection_times": [{"days": "Mon-Fri", "time": "1:30pm"}, {"days": "Sat", "time": "12:00pm"}, {"days": "Sun", "time": "Closed"}], "id": "9788600000", "name": "USPS COLLECTION BOX - BLUE BOX", "address": {"city": "WESTON", "state": "OR", "street": "204 E MAIN ST", "postcode": "97886"}}},
{"geometry": {"type": "Point", "coordinates": [-118.4239405111, 45.8135524121]}, "type": "Feature", "properties": {"collection_times": [{"days": "Mon-Fri", "time": "1:30pm"}, {"days": "Sat", "time": "9:00am"}, {"days": "Sun", "time": "Closed"}], "id": "9788600001", "name": "USPS COLLECTION BOX - PO LOBBY", "address": {"city": "WESTON", "state": "OR", "street": "204 E MAIN ST", "postcode": "97886"}}}
]}
