{"type": "FeatureCollection", "features": [
{"geometry": {"type": "Point", "coordinates": [-117.0558875741, 43.6893207511]}, "type": "Feature", "properties": {"collection_times": [{"days": "Mon-Fri", "time": "1:00pm"}, {"days": "Sat", "time": "8:30am"}, {"days": "Sun", "time": "Closed"}], "id": "9790100000", "name": "USPS COLLECTION BOX - PO LOBBY", "address": {"city": "ADRIAN", "state": "OR", "street": "105 OREGON ST", "postcode": "97901"}}},
{"geometry": {"type": "Point", "coordinates": [-117.0558875741, 43.6893207511]}, "type": "Feature", "properties": {"collection_times": [{"days": "Mon-Fri", "time": "5:00pm"}, {"days": "Sat", "time": "8:30am"}, {"days": "Sun", "time": "Closed"}], "id": "9790100001", "name": "USPS COLLECTION BOX - BLUE BOX", "address": {"city": "ADRIAN", "state": "OR", "street": "105 OREGON ST", "postcode": "97901"}}},
{"geometry": {"type": "Point", "coordinates": [-117.5261643799, 42.9148994252]}, "type": "Feature", "properties": {"collection_times": [{"days": "Mon-Fri", "time": "1:00pm"}, {"days": "Sat-Sun", "time": "Closed"}], "id": "9790200000", "name": "USPS COLLECTION BOX - BLUE BOX", "address": {"city": "AROCK", "state": "OR", "street": "3070 OREGON AVE", "postcode": "97902"}}},
{"geometry": {"type": "Point", "coordinates": [-117.5261643799, 42.9148994252]}, "type": "Feature", "properties": {"collection_times": [{"days": "Mon-Fri", "time": "1:00pm"}, {"days": "Sat-Sun", "time": "Closed"}], "id": "9790200001", "name": "USPS COLLECTION BOX - PO LOBBY", "address": {"city": "AROCK", "state": "OR", "street": "3070 OREGON AVE", "postcode": "97902"}}},
{"geometry": {"type": "Point", "coordinates": [-118.454909825, 43.847222596]}, "type": "Feature", "properties": {"collection_times": [{"days": "Mon-Fri", "time": "9:00am"}, {"days": "Sat", "time": "8:30am"}, {"days": "Sun", "time": "Closed"}], "id": "9790400000", "name": "USPS COLLECTION BOX - PO LOBBY", "address": {"city": "DREWSEY", "state": "OR", "street": "78912 DREWSEY RD", "postcode": "97904"}}},
{"geometry": {"type": "Point", "coordinates": [-117.4635029067, 44.5809804188]}, "type": "Feature", "properties": {"collection_times": [{"days": "Mon-Fri", "time": "2:15pm"}, {"days": "Sat", "time": "9:45am"}, {"days": "Sun", "time": "Closed"}], "id": "9790500001", "name": "USPS COLLECTION BOX - BLUE BOX", "address": {"city": "DURKEE", "state": "OR", "street": "28677 OLD HWY 30", "postcode": "97905"}}},
{"geometry": {"type": "Point", "coordinates": [-117.4635029067, 44.5809804188]}, "type": "Feature", "properties": {"collection_times": [{"days": "Mon-Sat", "time": "9:45am"}, {"days": "Sun", "time": "Closed"}], "id": "9790500002", "name": "USPS COLLECTION BOX - PO LOBBY", "address": {"city": "DURKEE", "state": "OR", "street": "28677 OLD HWY 30", "postcode": "97905"}}},
{"geometry": {"type": "Point", "coordinates": [-117.610436596, 43.8625739833]}, "type": "Feature", "properties": {"collection_times": [{"days": "Mon-Fri", "time": "9:45am"}, {"days": "Sat", "time": "11:30am"}, {"days": "Sun", "time": "Closed"}], "id": "9790600000", "name": "USPS COLLECTION BOX - PO LOBBY", "address": {"city": "HARPER", "state": "OR", "street": "2965 A ST", "postcode": "97906"}}},
{"geometry": {"type": "Point", "coordinates": [-117.610436596, 43.8625739833]}, "type": "Feature", "properties": {"collection_times": [{"days": "Mon-Fri", "time": "12:00pm"}, {"days": "Sat", "time": "11:30am"}, {"days": "Sun", "time": "Closed"}], "id": "9790600001", "name": "USPS COLLECTION BOX - BLUE BOX", "address": {"city": "HARPER", "state": "OR", "street": "2965 A ST", "postcode": "97906"}}},
{"geometry": {"type": "Point", "coordinates": [-117.2680763144, 44.3512405572]}, "type": "Feature", "properties": {"collection_times": [{"days": "Mon-Fri", "time": "1:00pm"}, {"days": "Sat", "time": "12:30pm"}, {"days": "Sun", "time": "Closed"}], "id": "9790700000", "name": "USPS COLLECTION BOX - BLUE BOX", "address": {"city": "HUNTINGTON", "state": "OR", "street": "10 E WASHINGTON ST", "postcode": "97907"}}},
{"geometry": {"type": "Point", "coordinates": [-117.3071157921, 44.4100789534]}, "type": "Feature", "properties": {"collection_times": [{"days": "Mon-Fri", "time": "2:30pm"}, {"days": "Sat", "time": "9:30am"}, {"days": "Sun", "time": "Closed"}], "id": "9790700002", "name": "USPS COLLECTION BOX - PO LOBBY", "address": {"city": "HUNTINGTON", "state": "OR", "street": "10 E WASHINGTON ST", "postcode": "97907"}}},
{"geometry": {"type": "Point", "coordinates": [-117.4416777843, 44.1923221809]}, "type": "Feature", "properties": {"collection_times": [{"days": "Mon-Sat", "time": "1:45pm"}, {"days": "Sun", "time": "Closed"}], "id": "9790900000", "name": "USPS COLLECTION BOX - PO LOBBY", "address": {"city": "JAMIESON", "state": "OR", "street": "5180 JOHN DAY HWY", "postcode": "97909"}}},
{"geometry": {"type": "Point", "coordinates": [-117.0474182268, 42.9730129328]}, "type": "Feature", "properties": {"collection_times": [{"days": "Mon-Fri", "time": "2:00pm"}, {"days": "Sat", "time": "11:15am"}, {"days": "Sun", "time": "Closed"}], "id": "9791000000", "name": "USPS COLLECTION BOX - BLUE BOX", "address": {"city": "JORDAN VALLEY", "state": "OR", "street": "509 YTURRI BLVD", "postcode": "97910"}}},
{"geometry": {"type": "Point", "coordinates": [-117.2028095901, 42.9847911443]}, "type": "Feature", "properties": {"collection_times": [{"days": "Mon-Fri", "time": "2:30pm"}, {"days": "Sat", "time": "11:15am"}, {"days": "Sun", "time": "Closed"}], "id": "9791000001", "name": "USPS COLLECTION BOX - PO LOBBY", "address": {"city": "JORDAN VALLEY", "state": "OR", "street": "509 YTURRI BLVD", "postcode": "97910"}}},
{"geometry": {"type": "Point", "coordinates": [-118.0773489253, 43.7434226867]}, "type": "Feature", "properties": {"collection_times": [{"days": "Mon-Fri", "time": "11:15am"}, {"days": "Sat", "time": "10:30am"}, {"days": "Sun", "time": "Closed"}], "id": "9791100000", "name": "USPS COLLECTION BOX - BLUE BOX", "address": {"city": "JUNTURA", "state": "OR", "street": "5828 4TH ST", "postcode": "97911"}}},
{"geometry": {"type": "Point", "coordinates": [-118.0773489253, 43.7434226867]}, "type": "Feature", "properties": {"collection_times": [{"days": "Mon-Fri", "time": "11:15am"}, {"days": "Sat", "time": "10:30am"}, {"days": "Sun", "time": "Closed"}], "id": "9791100001", "name": "USPS COLLECTION BOX - PO LOBBY", "address": {"city": "JUNTURA", "state": "OR", "street": "5828 4TH ST", "postcode": "97911"}}},
{"geometry": {"type": "Point", "coordinates": [-117.0259982812, 43.856690363]}, "type": "Feature", "properties": {"collection_times": [{"days": "Mon-Fri", "time": "5:00pm"}, {"days": "Sat", "time": "2:00pm"}, {"days": "Sun", "time": "Closed"}], "id": "9791300000", "name": "USPS COLLECTION BOX - BLUE BOX", "address": {"city": "NYSSA", "state": "OR", "street": "16 N 4TH ST", "postcode": "97913"}}},
{"geometry": {"type": "Point", "coordinates": [-117.0259982812, 43.856690363]}, "type": "Feature", "properties": {"collection_times": [{"days": "Mon-Fri", "time": "5:00pm"}, {"days": "Sat", "time": "2:00pm"}, {"days": "Sun", "time": "Closed"}], "id": "9791300001", "name": "USPS COLLECTION BOX - BLUE BOX", "address": {"city": "NYSSA", "state": "OR", "street": "16 N 4TH ST", "postcode": "97913"}}},
{"geometry": {"type": "Point", "coordinates": [-117.0259982812, 43.856690363]}, "type": "Feature", "properties": {"collection_times": [{"days": "Mon-Fri", "time": "5:00pm"}, {"days": "Sat", "time": "2:00pm"}, {"days": "Sun", "time": "Closed"}], "id": "9791300002", "name": "USPS COLLECTION BOX - PO LOBBY", "address": {"city": "NYSSA", "state": "OR", "street": "16 N 4TH ST", "postcode": "97913"}}},
{"geometry": {"type": "Point", "coordinates": [-117.0259982812, 43.856690363]}, "type": "Feature", "properties": {"collection_times": [{"days": "Mon-Fri", "time": "5:00pm"}, {"days": "Sat", "time": "2:00pm"}, {"days": "Sun", "time": "Closed"}], "id": "9791300003", "name": "USPS COLLECTION BOX - PO LOBBY", "address": {"city": "NYSSA", "state": "OR", "street": "16 N 4TH ST", "postcode": "97913"}}},
{"geometry": {"type": "Point", "coordinates": [-116.9646760478, 44.0250214873]}, "type": "Feature", "properties": {"collection_times": [{"days": "Mon-Fri", "time": "5:00pm"}, {"days": "Sat", "time": "3:00pm"}, {"days": "Sun", "time": "Closed"}], "id": "9791400000", "name": "USPS COLLECTION BOX - BLUE BOX", "address": {"city": "ONTARIO", "state": "OR", "street": "200 SW 1ST ST", "postcode": "97914"}}},
{"geometry": {"type": "Point", "coordinates": [-116.9646760478, 44.0250214873]}, "type": "Feature", "properties": {"collection_times": [{"days": "Mon-Fri", "time": "5:00pm"}, {"days": "Sat", "time": "3:00pm"}, {"days": "Sun", "time": "Closed"}], "id": "9791400001", "name": "USPS COLLECTION BOX - BLUE BOX", "address": {"city": "ONTARIO", "state": "OR", "street": "200 SW 1ST ST", "postcode": "97914"}}},
{"geometry": {"type": "Point", "coordinates": [-116.9646760478, 44.0250214873]}, "type": "Feature", "properties": {"collection_times": [{"days": "Mon-Fri", "time": "5:00pm"}, {"days": "Sat", "time": "3:00pm"}, {"days": "Sun", "time": "Closed"}], "id": "9791400002", "name": "USPS COLLECTION BOX - BLUE BOX", "address": {"city": "ONTARIO", "state": "OR", "street": "200 SW 1ST ST", "postcode": "97914"}}},
{"geometry": {"type": "Point", "coordinates": [-116.9646760478, 44.0250214873]}, "type": "Feature", "properties": {"collection_times": [{"days": "Mon-Fri", "time": "5:00pm"}, {"days": "Sat", "time": "3:00pm"}, {"days": "Sun", "time": "Closed"}], "id": "9791400003", "name": "USPS COLLECTION BOX - BLUE BOX", "address": {"city": "ONTARIO", "state": "OR", "street": "200 SW 1ST ST", "postcode": "97914"}}},
{"geometry": {"type": "Point", "coordinates": [-116.9794372023, 44.0393934992]}, "type": "Feature", "properties": {"collection_times": [{"days": "Mon-Fri", "time": "5:00pm"}, {"days": "Sat", "time": "3:00pm"}, {"days": "Sun", "time": "Closed"}], "id": "9791400004", "name": "USPS COLLECTION BOX - PO LOBBY", "address": {"city": "ONTARIO", "state": "OR", "street": "88 SW 2ND AVE", "postcode": "97914"}}},
{"geometry": {"type": "Point", "coordinates": [-116.9794372023, 44.0393934992]}, "type": "Feature", "properties": {"collection_times": [{"days": "Mon-Fri", "time": "5:00pm"}, {"days": "Sat", "time": "3:00pm"}, {"days": "Sun", "time": "Closed"}], "id": "9791400005", "name": "USPS COLLECTION BOX - PO LOBBY", "address": {"city": "ONTARIO", "state": "OR", "street": "88 SW 2ND AVE", "postcode": "97914"}}},
{"geometry": {"type": "Point", "coordinates": [-116.9645989817, 44.0249813307]}, "type": "Feature", "properties": {"collection_times": [{"days": "Mon-Fri", "time": "5:00pm"}, {"days": "Sat", "time": "3:00pm"}, {"days": "Sun", "time": "Closed"}], "id": "9791400006", "name": "USPS COLLECTION BOX - PO LOBBY", "address": {"city": "ONTARIO", "state": "OR", "street": "88 SW 2ND AVE", "postcode": "97914"}}},
{"geometry": {"type": "Point", "coordinates": [-116.9854962686, 44.0247131054]}, "type": "Feature", "properties": {"collection_times": [{"days": "Mon-Sat", "time": "1:00pm"}, {"days": "Sun", "time": "Closed"}], "id": "9791400011", "name": "USPS COLLECTION BOX - BLUE BOX", "address": {"city": "ONTARIO", "state": "OR", "street": "1410 WESTPARK PLZ", "postcode": "97914"}}},
{"geometry": {"type": "Point", "coordinates": [-116.94033573, 44.0233082873]}, "type": "Feature", "properties": {"collection_times": [{"days": "Mon-Sat", "time": "9:00am"}, {"days": "Sun", "time": "Closed"}], "id": "9791400012", "name": "USPS COLLECTION BOX - BLUE BOX", "address": {"city": "ONTARIO", "state": "OR", "street": "188 EAST LN", "postcode": "97914"}}},
{"geometry": {"type": "Point", "coordinates": [-117.2393184715, 43.9811800884]}, "type": "Feature", "properties": {"collection_times": [{"days": "Mon-Fri", "time": "4:00pm"}, {"days": "Sat", "time": "3:00pm"}, {"days": "Sun", "time": "Closed"}], "id": "9791800000", "name": "USPS COLLECTION BOX - BLUE BOX", "address": {"city": "VALE", "state": "OR", "street": "177 B ST E", "postcode": "97918"}}},
{"geometry": {"type": "Point", "coordinates": [-117.2393184715, 43.9811800884]}, "type": "Feature", "properties": {"collection_times": [{"days": "Mon-Fri", "time": "4:00pm"}, {"days": "Sat", "time": "3:00pm"}, {"days": "Sun", "time": "Closed"}], "id": "9791800001", "name": "USPS COLLECTION BOX - BLUE BOX", "address": {"city": "VALE", "state": "OR", "street": "177 B ST E", "postcode": "97918"}}},
{"geometry": {"type": "Point", "coordinates": [-117.2393184715, 43.9811800884]}, "type": "Feature", "properties": {"collection_times": [{"days": "Mon-Fri", "time": "4:15pm"}, {"days": "Sat", "time": "3:00pm"}, {"days": "Sun", "time": "Closed"}], "id": "9791800002", "name": "USPS COLLECTION BOX - PO LOBBY", "address": {"city": "VALE", "state": "OR", "street": "177 B ST E", "postcode": "97918"}}},
{"geometry": {"type": "Point", "coordinates": [-117.235404844, 43.9830275303]}, "type": "Feature", "properties": {"collection_times": [{"days": "Mon-Sat", "time": "10:30am"}, {"days": "Sun", "time": "Closed"}], "id": "9791800004", "name": "USPS COLLECTION BOX - BLUE BOX", "address": {"city": "VALE", "state": "OR", "street": "250 10TH ST N", "postcode": "97918"}}},
{"geometry": {"type": "Point", "coordinates": [-117.8007655676, 43.9897438125]}, "type": "Feature", "properties": {"collection_times": [{"days": "Mon-Sat", "time": "10:15am"}, {"days": "Sun", "time": "Closed"}], "id": "9792000000", "name": "USPS COLLECTION BOX - PO LOBBY", "address": {"city": "WESTFALL", "state": "OR", "street": "3870 N MAIN ST", "postcode": "97920"}}}
]}
