{"type": "FeatureCollection", "features": [
{"geometry": {"type": "Point", "coordinates": [-85.6715169298, 40.2730716571]}, "type": "Feature", "properties": {"collection_times": [{"days": "Mon-Sat", "time": "2:30pm"}, {"days": "Sun", "time": "Closed"}], "id": "4600100004", "name": "USPS COLLECTION BOX - BLUE BOX", "address": {"city": "ALEXANDRIA", "state": "IN", "street": "1216 LINCOLN AVE", "postcode": "46001"}}},
{"geometry": {"type": "Point", "coordinates": [-85.6759052219, 40.263511418]}, "type": "Feature", "properties": {"collection_times": [{"days": "Mon-Fri", "time": "5:00pm"}, {"days": "Sat", "time": "3:00pm"}, {"days": "Sun", "time": "Closed"}], "id": "4600100010", "name": "USPS COLLECTION BOX - PO LOBBY", "address": {"city": "ALEXANDRIA", "state": "IN", "street": "205 W CHURCH ST", "postcode": "46001"}}},
{"geometry": {"type": "Point", "coordinates": [-85.6759052219, 40.263511418]}, "type": "Feature", "properties": {"collection_times": [{"days": "Mon-Fri", "time": "5:00pm"}, {"days": "Sat", "time": "3:30pm"}, {"days": "Sun", "time": "Closed"}], "id": "4600100014", "name": "USPS COLLECTION BOX - BLUE BOX", "address": {"city": "ALEXANDRIA", "state": "IN", "street": "205 W CHURCH ST", "postcode": "46001"}}},
{"geometry": {"type": "Point", "coordinates": [-85.693194507, 40.129928028]}, "type": "Feature", "properties": {"collection_times": [{"days": "Mon-Fri", "time": "3:30pm"}, {"days": "Sat-Sun", "time": "Closed"}], "id": "4601100000", "name": "USPS COLLECTION BOX - BLUE BOX", "address": {"city": "ANDERSON", "state": "IN", "street": "1210 MEDICAL ARTS BLVD", "postcode": "46011"}}},
{"geometry": {"type": "Point", "coordinates": [-85.7111466537, 40.1011573129]}, "type": "Feature", "properties": {"collection_times": [{"days": "Mon-Sat", "time": "5:30pm"}, {"days": "Sun", "time": "Closed"}], "id": "4601100075", "name": "USPS COLLECTION BOX - BLUE BOX", "address": {"city": "ANDERSON", "state": "IN", "street": "1505 RAIBLE AVE", "postcode": "46011"}}},
{"geometry": {"type": "Point", "coordinates": [-85.7111466537, 40.1011573129]}, "type": "Feature", "properties": {"collection_times": [{"days": "Mon-Sat", "time": "5:30pm"}, {"days": "Sun", "time": "Closed"}], "id": "4601100076", "name": "USPS COLLECTION BOX - BLUE BOX", "address": {"city": "ANDERSON", "state": "IN", "street": "1505 RAIBLE AVE", "postcode": "46011"}}},
{"geometry": {"type": "Point", "coordinates": [-85.7111466537, 40.1011573129]}, "type": "Feature", "properties": {"collection_times": [{"days": "Mon-Sat", "time": "5:30pm"}, {"days": "Sun", "time": "Closed"}], "id": "4601100096", "name": "USPS COLLECTION BOX - PO LOBBY", "address": {"city": "ANDERSON", "state": "IN", "street": "1505 RAIBLE AVE", "postcode": "46011"}}},
{"geometry": {"type": "Point", "coordinates": [-85.7111466537, 40.1011573129]}, "type": "Feature", "properties": {"collection_times": [{"days": "Mon-Sat", "time": "5:30pm"}, {"days": "Sun", "time": "Closed"}], "id": "4601100097", "name": "USPS COLLECTION BOX - PO LOBBY", "address": {"city": "ANDERSON", "state": "IN", "street": "1505 RAIBLE AVE", "postcode": "46011"}}},
{"geometry": {"type": "Point", "coordinates": [-85.693194507, 40.129928028]}, "type": "Feature", "properties": {"collection_times": [{"days": "Mon-Fri", "time": "3:30pm"}, {"days": "Sat-Sun", "time": "Closed"}], "id": "4601100107", "name": "USPS COLLECTION BOX - BLUE BOX", "address": {"city": "ANDERSON", "state": "IN", "street": "1210 MEDICAL ARTS BLVD", "postcode": "46011"}}},
{"geometry": {"type": "Point", "coordinates": [-85.6759799483, 40.146288266]}, "type": "Feature", "properties": {"collection_times": [{"days": "Mon-Sat", "time": "3:30pm"}, {"days": "Sun", "time": "Closed"}], "id": "4601200001", "name": "USPS COLLECTION BOX - BLUE BOX", "address": {"city": "ANDERSON", "state": "IN", "street": "2820 BROADWAY ST", "postcode": "46012"}}},
{"geometry": {"type": "Point", "coordinates": [-85.6759799483, 40.146288266]}, "type": "Feature", "properties": {"collection_times": [{"days": "Mon-Sat", "time": "3:30pm"}, {"days": "Sun", "time": "Closed"}], "id": "4601200002", "name": "USPS COLLECTION BOX - BLUE BOX", "address": {"city": "ANDERSON", "state": "IN", "street": "2820 BROADWAY ST", "postcode": "46012"}}},
{"geometry": {"type": "Point", "coordinates": [-85.6618332257, 40.1378814497]}, "type": "Feature", "properties": {"collection_times": [{"days": "Mon-Sat", "time": "3:30pm"}, {"days": "Sun", "time": "Closed"}], "id": "4601200003", "name": "USPS COLLECTION BOX - BLUE BOX", "address": {"city": "ANDERSON", "state": "IN", "street": "1845 N SCATTERFIELD RD", "postcode": "46012"}}},
{"geometry": {"type": "Point", "coordinates": [-85.6618332257, 40.1378814497]}, "type": "Feature", "properties": {"collection_times": [{"days": "Mon-Sat", "time": "3:30pm"}, {"days": "Sun", "time": "Closed"}], "id": "4601200004", "name": "USPS COLLECTION BOX - BLUE BOX", "address": {"city": "ANDERSON", "state": "IN", "street": "1845 N SCATTERFIELD RD", "postcode": "46012"}}},
{"geometry": {"type": "Point", "coordinates": [-85.6527181441, 40.1078374635]}, "type": "Feature", "properties": {"collection_times": [{"days": "Mon-Sat", "time": "3:30pm"}, {"days": "Sun", "time": "Closed"}], "id": "4601200005", "name": "USPS COLLECTION BOX - BLUE BOX", "address": {"city": "ANDERSON", "state": "IN", "street": "806 S SCATTERFIELD RD", "postcode": "46012"}}},
{"geometry": {"type": "Point", "coordinates": [-85.6618332257, 40.1378814497]}, "type": "Feature", "properties": {"collection_times": [{"days": "Mon-Sat", "time": "3:30pm"}, {"days": "Sun", "time": "Closed"}], "id": "4601200006", "name": "USPS COLLECTION BOX - BLUE BOX", "address": {"city": "ANDERSON", "state": "IN", "street": "1845 N SCATTERFIELD RD", "postcode": "46012"}}},
{"geometry": {"type": "Point", "coordinates": [-85.6759799483, 40.146288266]}, "type": "Feature", "properties": {"collection_times": [{"days": "Mon-Sat", "time": "3:30pm"}, {"days": "Sun", "time": "Closed"}], "id": "4601200007", "name": "USPS COLLECTION BOX - BLUE BOX", "address": {"city": "ANDERSON", "state": "IN", "street": "2820 BROADWAY ST", "postcode": "46012"}}},
{"geometry": {"type": "Point", "coordinates": [-85.6570915977, 40.0566590143]}, "type": "Feature", "properties": {"collection_times": [{"days": "Mon-Sat", "time": "3:30pm"}, {"days": "Sun", "time": "Closed"}], "id": "4601300002", "name": "USPS COLLECTION BOX - BLUE BOX", "address": {"city": "ANDERSON", "state": "IN", "street": "1900 APPLEWOOD CENTER DR", "postcode": "46013"}}},
{"geometry": {"type": "Point", "coordinates": [-85.6570915977, 40.0566590143]}, "type": "Feature", "properties": {"collection_times": [{"days": "Mon-Sat", "time": "3:30pm"}, {"days": "Sun", "time": "Closed"}], "id": "4601300003", "name": "USPS COLLECTION BOX - BLUE BOX", "address": {"city": "ANDERSON", "state": "IN", "street": "1900 APPLEWOOD CENTER DR", "postcode": "46013"}}},
{"geometry": {"type": "Point", "coordinates": [-85.6521361389, 40.0478240428]}, "type": "Feature", "properties": {"collection_times": [{"days": "Mon-Sat", "time": "3:30pm"}, {"days": "Sun", "time": "Closed"}], "id": "4601300005", "name": "USPS COLLECTION BOX - BLUE BOX", "address": {"city": "ANDERSON", "state": "IN", "street": "6610 S SCATTERFIELD RD", "postcode": "46013"}}},
{"geometry": {"type": "Point", "coordinates": [-85.6570915977, 40.0566590143]}, "type": "Feature", "properties": {"collection_times": [{"days": "Mon-Sat", "time": "3:30pm"}, {"days": "Sun", "time": "Closed"}], "id": "4601300007", "name": "USPS COLLECTION BOX - BLUE BOX", "address": {"city": "ANDERSON", "state": "IN", "street": "1900 APPLEWOOD CENTER DR", "postcode": "46013"}}},
{"geometry": {"type": "Point", "coordinates": [-85.6831881368, 40.0991035365]}, "type": "Feature", "properties": {"collection_times": [{"days": "Mon-Fri", "time": "5:00pm"}, {"days": "Sat", "time": "3:30pm"}, {"days": "Sun", "time": "Closed"}], "id": "4601600001", "name": "USPS COLLECTION BOX - BLUE BOX", "address": {"city": "ANDERSON", "state": "IN", "street": "1001 MAIN ST", "postcode": "46016"}}},
{"geometry": {"type": "Point", "coordinates": [-85.6831881368, 40.0991035365]}, "type": "Feature", "properties": {"collection_times": [{"days": "Mon-Fri", "time": "5:00pm"}, {"days": "Sat", "time": "3:30pm"}, {"days": "Sun", "time": "Closed"}], "id": "4601600002", "name": "USPS COLLECTION BOX - BLUE BOX", "address": {"city": "ANDERSON", "state": "IN", "street": "1001 MAIN ST", "postcode": "46016"}}},
{"geometry": {"type": "Point", "coordinates": [-85.678650948, 40.107138201]}, "type": "Feature", "properties": {"collection_times": [{"days": "Mon-Fri", "time": "4:00pm"}, {"days": "Sat", "time": "3:30pm"}, {"days": "Sun", "time": "Closed"}], "id": "4601600005", "name": "USPS COLLECTION BOX - BLUE BOX", "address": {"city": "ANDERSON", "state": "IN", "street": "16 E 9TH ST", "postcode": "46016"}}},
{"geometry": {"type": "Point", "coordinates": [-85.678650948, 40.107138201]}, "type": "Feature", "properties": {"collection_times": [{"days": "Mon-Fri", "time": "4:00pm"}, {"days": "Sat", "time": "3:30pm"}, {"days": "Sun", "time": "Closed"}], "id": "4601600006", "name": "USPS COLLECTION BOX - BLUE BOX", "address": {"city": "ANDERSON", "state": "IN", "street": "16 E 9TH ST", "postcode": "46016"}}},
{"geometry": {"type": "Point", "coordinates": [-85.6498779607, 40.0915733707]}, "type": "Feature", "properties": {"collection_times": [{"days": "Mon-Sat", "time": "11:00am"}, {"days": "Sun", "time": "Closed"}], "id": "4601600010", "name": "USPS COLLECTION BOX - BLUE BOX", "address": {"city": "ANDERSON", "state": "IN", "street": "2400 MOUNDS RD", "postcode": "46016"}}},
{"geometry": {"type": "Point", "coordinates": [-85.680506456, 40.095960861]}, "type": "Feature", "properties": {"collection_times": [{"days": "Mon-Sat", "time": "11:00am"}, {"days": "Sun", "time": "Closed"}], "id": "4601600012", "name": "USPS COLLECTION BOX - BLUE BOX", "address": {"city": "ANDERSON", "state": "IN", "street": "2015 JACKSON ST", "postcode": "46016"}}},
{"geometry": {"type": "Point", "coordinates": [-85.679145128, 40.086240421]}, "type": "Feature", "properties": {"collection_times": [{"days": "Mon-Sat", "time": "3:30pm"}, {"days": "Sun", "time": "Closed"}], "id": "4601600013", "name": "USPS COLLECTION BOX - BLUE BOX", "address": {"city": "ANDERSON", "state": "IN", "street": "3050 MERIDIAN ST", "postcode": "46016"}}},
{"geometry": {"type": "Point", "coordinates": [-85.6526879825, 40.0951729965]}, "type": "Feature", "properties": {"collection_times": [{"days": "Mon-Sat", "time": "11:00am"}, {"days": "Sun", "time": "Closed"}], "id": "4601600014", "name": "USPS COLLECTION BOX - BLUE BOX", "address": {"city": "ANDERSON", "state": "IN", "street": "2109 S SCATTERFIELD RD", "postcode": "46016"}}},
{"geometry": {"type": "Point", "coordinates": [-85.679179435, 40.104963247]}, "type": "Feature", "properties": {"collection_times": [{"days": "Mon-Sat", "time": "3:30pm"}, {"days": "Sun", "time": "Closed"}], "id": "4601600016", "name": "USPS COLLECTION BOX - BLUE BOX", "address": {"city": "ANDERSON", "state": "IN", "street": "1106 MERIDIAN ST", "postcode": "46016"}}},
{"geometry": {"type": "Point", "coordinates": [-85.679179435, 40.104963247]}, "type": "Feature", "properties": {"collection_times": [{"days": "Mon-Sat", "time": "3:30pm"}, {"days": "Sun", "time": "Closed"}], "id": "4601600017", "name": "USPS COLLECTION BOX - BLUE BOX", "address": {"city": "ANDERSON", "state": "IN", "street": "1106 MERIDIAN ST", "postcode": "46016"}}},
{"geometry": {"type": "Point", "coordinates": [-85.678271274, 40.1060839859]}, "type": "Feature", "properties": {"collection_times": [{"days": "Mon-Fri", "time": "5:00pm"}, {"days": "Sat", "time": "12:00pm"}, {"days": "Sun", "time": "Closed"}], "id": "4601600018", "name": "USPS COLLECTION BOX - PO LOBBY", "address": {"city": "ANDERSON", "state": "IN", "street": "1001 MAIN ST", "postcode": "46016"}}},
{"geometry": {"type": "Point", "coordinates": [-85.678271274, 40.1060839859]}, "type": "Feature", "properties": {"collection_times": [{"days": "Mon-Fri", "time": "5:00pm"}, {"days": "Sat", "time": "12:00pm"}, {"days": "Sun", "time": "Closed"}], "id": "4601600019", "name": "USPS COLLECTION BOX - PO LOBBY", "address": {"city": "ANDERSON", "state": "IN", "street": "1001 MAIN ST", "postcode": "46016"}}},
{"geometry": {"type": "Point", "coordinates": [-85.678271274, 40.1060839859]}, "type": "Feature", "properties": {"collection_times": [{"days": "Mon-Fri", "time": "5:00pm"}, {"days": "Sat", "time": "3:30pm"}, {"days": "Sun", "time": "Closed"}], "id": "4601600020", "name": "USPS COLLECTION BOX - BLUE BOX", "address": {"city": "ANDERSON", "state": "IN", "street": "1001 MAIN ST", "postcode": "46016"}}},
{"geometry": {"type": "Point", "coordinates": [-85.678650948, 40.107138201]}, "type": "Feature", "properties": {"collection_times": [{"days": "Mon-Fri", "time": "4:00pm"}, {"days": "Sat", "time": "3:30pm"}, {"days": "Sun", "time": "Closed"}], "id": "4601600021", "name": "USPS COLLECTION BOX - BLUE BOX", "address": {"city": "ANDERSON", "state": "IN", "street": "16 E 9TH ST", "postcode": "46016"}}},
{"geometry": {"type": "Point", "coordinates": [-85.678650948, 40.107138201]}, "type": "Feature", "properties": {"collection_times": [{"days": "Mon-Fri", "time": "4:00pm"}, {"days": "Sat", "time": "3:30pm"}, {"days": "Sun", "time": "Closed"}], "id": "4601600022", "name": "USPS COLLECTION BOX - BLUE BOX", "address": {"city": "ANDERSON", "state": "IN", "street": "16 E 9TH ST", "postcode": "46016"}}},
{"geometry": {"type": "Point", "coordinates": [-85.5969744721, 40.1136302583]}, "type": "Feature", "properties": {"collection_times": [{"days": "Mon-Sat", "time": "3:30pm"}, {"days": "Sun", "time": "Closed"}], "id": "4601700001", "name": "USPS COLLECTION BOX - PO LOBBY", "address": {"city": "CHESTERFIELD", "state": "IN", "street": "7 N WASHINGTON ST", "postcode": "46017"}}},
{"geometry": {"type": "Point", "coordinates": [-85.6015543938, 40.1122610352]}, "type": "Feature", "properties": {"collection_times": [{"days": "Mon-Sat", "time": "3:30pm"}, {"days": "Sun", "time": "Closed"}], "id": "4601700002", "name": "USPS COLLECTION BOX - BLUE BOX", "address": {"city": "CHESTERFIELD", "state": "IN", "street": "205 FEDERAL DR", "postcode": "46017"}}},
{"geometry": {"type": "Point", "coordinates": [-85.6015543938, 40.1122610352]}, "type": "Feature", "properties": {"collection_times": [{"days": "Mon-Sat", "time": "3:30pm"}, {"days": "Sun", "time": "Closed"}], "id": "4601700003", "name": "USPS COLLECTION BOX - BLUE BOX", "address": {"city": "CHESTERFIELD", "state": "IN", "street": "205 FEDERAL DR", "postcode": "46017"}}},
{"geometry": {"type": "Point", "coordinates": [-86.0216022832, 40.1762917073]}, "type": "Feature", "properties": {"collection_times": [{"days": "Mon-Fri", "time": "4:00pm"}, {"days": "Sat", "time": "12:00pm"}, {"days": "Sun", "time": "Closed"}], "id": "4603000001", "name": "USPS COLLECTION BOX - BLUE BOX", "address": {"city": "ARCADIA", "state": "IN", "street": "104 N WASHINGTON ST", "postcode": "46030"}}},
{"geometry": {"type": "Point", "coordinates": [-86.0216022832, 40.1762917073]}, "type": "Feature", "properties": {"collection_times": [{"days": "Mon-Fri", "time": "4:00pm"}, {"days": "Sat", "time": "12:00pm"}, {"days": "Sun", "time": "Closed"}], "id": "4603000002", "name": "USPS COLLECTION BOX - PO LOBBY", "address": {"city": "ARCADIA", "state": "IN", "street": "104 N WASHINGTON ST", "postcode": "46030"}}},
{"geometry": {"type": "Point", "coordinates": [-86.0216022832, 40.1762917073]}, "type": "Feature", "properties": {"collection_times": [{"days": "Mon-Fri", "time": "4:00pm"}, {"days": "Sat", "time": "12:00pm"}, {"days": "Sun", "time": "Closed"}], "id": "4603000003", "name": "USPS COLLECTION BOX - PO LOBBY", "address": {"city": "ARCADIA", "state": "IN", "street": "104 N WASHINGTON ST", "postcode": "46030"}}},
{"geometry": {"type": "Point", "coordinates": [-86.0271947279, 40.2160613312]}, "type": "Feature", "properties": {"collection_times": [{"days": "Mon-Fri", "time": "3:30pm"}, {"days": "Sat", "time": "11:00am"}, {"days": "Sun", "time": "Closed"}], "id": "4603100000", "name": "USPS COLLECTION BOX - BLUE BOX", "address": {"city": "ATLANTA", "state": "IN", "street": "150 W MAIN ST", "postcode": "46031"}}},
{"geometry": {"type": "Point", "coordinates": [-86.0271947279, 40.2160613312]}, "type": "Feature", "properties": {"collection_times": [{"days": "Mon-Fri", "time": "12:45pm"}, {"days": "Sat", "time": "11:00am"}, {"days": "Sun", "time": "Closed"}], "id": "4603100001", "name": "USPS COLLECTION BOX - PO LOBBY", "address": {"city": "ATLANTA", "state": "IN", "street": "150 W MAIN ST", "postcode": "46031"}}},
{"geometry": {"type": "Point", "coordinates": [-86.1201847662, 39.9596833666]}, "type": "Feature", "properties": {"collection_times": [{"days": "Mon-Sat", "time": "5:15pm"}, {"days": "Sun", "time": "Closed"}], "id": "4603200012", "name": "USPS COLLECTION BOX - BLUE BOX", "address": {"city": "CARMEL", "state": "IN", "street": "275 MEDICAL DR", "postcode": "46032"}}},
{"geometry": {"type": "Point", "coordinates": [-86.1402055345, 39.9854138602]}, "type": "Feature", "properties": {"collection_times": [{"days": "Mon-Sat", "time": "2:15pm"}, {"days": "Sun", "time": "Closed"}], "id": "4603200015", "name": "USPS COLLECTION BOX - BLUE BOX", "address": {"city": "CARMEL", "state": "IN", "street": "13640 N MERIDIAN ST", "postcode": "46032"}}},
{"geometry": {"type": "Point", "coordinates": [-86.1285700959, 39.9783112002]}, "type": "Feature", "properties": {"collection_times": [{"days": "Mon-Sat", "time": "2:00pm"}, {"days": "Sun", "time": "Closed"}], "id": "4603200020", "name": "USPS COLLECTION BOX - BLUE BOX", "address": {"city": "CARMEL", "state": "IN", "street": "115 W MAIN ST", "postcode": "46032"}}},
{"geometry": {"type": "Point", "coordinates": [-86.1265071811, 39.991570539]}, "type": "Feature", "properties": {"collection_times": [{"days": "Mon-Sat", "time": "2:00pm"}, {"days": "Sun", "time": "Closed"}], "id": "4603200028", "name": "USPS COLLECTION BOX - BLUE BOX", "address": {"city": "CARMEL", "state": "IN", "street": "1010 CLUBHOUSE CT", "postcode": "46032"}}},
{"geometry": {"type": "Point", "coordinates": [-86.1255885227, 39.9783989604]}, "type": "Feature", "properties": {"collection_times": [{"days": "Mon-Sat", "time": "2:00pm"}, {"days": "Sun", "time": "Closed"}], "id": "4603200032", "name": "USPS COLLECTION BOX - BLUE BOX", "address": {"city": "CARMEL", "state": "IN", "street": "110 E MAIN ST", "postcode": "46032"}}},
{"geometry": {"type": "Point", "coordinates": [-86.1284577027, 39.9663584406]}, "type": "Feature", "properties": {"collection_times": [{"days": "Mon-Fri", "time": "2:30pm"}, {"days": "Sat-Sun", "time": "Closed"}], "id": "4603200035", "name": "USPS COLLECTION BOX - BLUE BOX", "address": {"city": "CARMEL", "state": "IN", "street": "2 CIVIC SQ", "postcode": "46032"}}},
{"geometry": {"type": "Point", "coordinates": [-86.1284577027, 39.9663584406]}, "type": "Feature", "properties": {"collection_times": [{"days": "Mon-Fri", "time": "2:30pm"}, {"days": "Sat-Sun", "time": "Closed"}], "id": "4603200036", "name": "USPS COLLECTION BOX - BLUE BOX", "address": {"city": "CARMEL", "state": "IN", "street": "2 CIVIC SQ", "postcode": "46032"}}},
{"geometry": {"type": "Point", "coordinates": [-86.155014278, 39.959080982]}, "type": "Feature", "properties": {"collection_times": [{"days": "Mon-Fri", "time": "3:30pm"}, {"days": "Sat-Sun", "time": "Closed"}], "id": "4603200042", "name": "USPS COLLECTION BOX - BLUE BOX", "address": {"city": "CARMEL", "state": "IN", "street": "11711 N PENNSYLVANIA ST", "postcode": "46032"}}},
{"geometry": {"type": "Point", "coordinates": [-86.1460324196, 39.9599164095]}, "type": "Feature", "properties": {"collection_times": [{"days": "Mon-Fri", "time": "3:30pm"}, {"days": "Sat-Sun", "time": "Closed"}], "id": "4603200054", "name": "USPS COLLECTION BOX - BLUE BOX", "address": {"city": "CARMEL", "state": "IN", "street": "11711 N COLLEGE AVE", "postcode": "46032"}}},
{"geometry": {"type": "Point", "coordinates": [-86.1444837504, 39.9780383287]}, "type": "Feature", "properties": {"collection_times": [{"days": "Mon-Sat", "time": "2:15pm"}, {"days": "Sun", "time": "Closed"}], "id": "4603200057", "name": "USPS COLLECTION BOX - BLUE BOX", "address": {"city": "CARMEL", "state": "IN", "street": "1017 W MAIN ST", "postcode": "46032"}}},
{"geometry": {"type": "Point", "coordinates": [-86.159471229, 39.971188408]}, "type": "Feature", "properties": {"collection_times": [{"days": "Mon-Fri", "time": "2:45pm"}, {"days": "Sat-Sun", "time": "Closed"}], "id": "4603200058", "name": "USPS COLLECTION BOX - BLUE BOX", "address": {"city": "CARMEL", "state": "IN", "street": "12460 N MERIDIAN ST", "postcode": "46032"}}},
{"geometry": {"type": "Point", "coordinates": [-86.1147608993, 39.9703228995]}, "type": "Feature", "properties": {"collection_times": [{"days": "Mon-Sat", "time": "1:45pm"}, {"days": "Sun", "time": "Closed"}], "id": "4603200063", "name": "USPS COLLECTION BOX - BLUE BOX", "address": {"city": "CARMEL", "state": "IN", "street": "755 MOHAWK HILLS DR", "postcode": "46032"}}},
{"geometry": {"type": "Point", "coordinates": [-86.118180338, 39.962048397]}, "type": "Feature", "properties": {"collection_times": [{"days": "Mon-Sat", "time": "3:45pm"}, {"days": "Sun", "time": "Closed"}], "id": "4603200066", "name": "USPS COLLECTION BOX - BLUE BOX", "address": {"city": "CARMEL", "state": "IN", "street": "452 E CARMEL DR", "postcode": "46032"}}},
{"geometry": {"type": "Point", "coordinates": [-86.1201847662, 39.9596833666]}, "type": "Feature", "properties": {"collection_times": [{"days": "Mon-Sat", "time": "5:15pm"}, {"days": "Sun", "time": "Closed"}], "id": "4603200079", "name": "USPS COLLECTION BOX - PO LOBBY", "address": {"city": "CARMEL", "state": "IN", "street": "275 MEDICAL DR", "postcode": "46032"}}},
{"geometry": {"type": "Point", "coordinates": [-86.1201847662, 39.9596833666]}, "type": "Feature", "properties": {"collection_times": [{"days": "Mon-Sat", "time": "5:15pm"}, {"days": "Sun", "time": "Closed"}], "id": "4603200080", "name": "USPS COLLECTION BOX - PO LOBBY", "address": {"city": "CARMEL", "state": "IN", "street": "275 MEDICAL DR", "postcode": "46032"}}},
{"geometry": {"type": "Point", "coordinates": [-86.1201847662, 39.9596833666]}, "type": "Feature", "properties": {"collection_times": [{"days": "Mon-Sat", "time": "5:15pm"}, {"days": "Sun", "time": "Closed"}], "id": "4603200081", "name": "USPS COLLECTION BOX - BLUE BOX", "address": {"city": "CARMEL", "state": "IN", "street": "275 MEDICAL DR", "postcode": "46032"}}},
{"geometry": {"type": "Point", "coordinates": [-86.1580256862, 39.9734852082]}, "type": "Feature", "properties": {"collection_times": [{"days": "Mon-Fri", "time": "2:45pm"}, {"days": "Sat-Sun", "time": "Closed"}], "id": "4603200082", "name": "USPS COLLECTION BOX - BLUE BOX", "address": {"city": "CARMEL", "state": "IN", "street": "12800 N MERIDIAN ST", "postcode": "46032"}}},
{"geometry": {"type": "Point", "coordinates": [-86.1580256862, 39.9734852082]}, "type": "Feature", "properties": {"collection_times": [{"days": "Mon-Fri", "time": "2:45pm"}, {"days": "Sat-Sun", "time": "Closed"}], "id": "4603200084", "name": "USPS COLLECTION BOX - BLUE BOX", "address": {"city": "CARMEL", "state": "IN", "street": "12800 N MERIDIAN ST", "postcode": "46032"}}},
{"geometry": {"type": "Point", "coordinates": [-86.1580256862, 39.9734852082]}, "type": "Feature", "properties": {"collection_times": [{"days": "Mon-Fri", "time": "2:45pm"}, {"days": "Sat-Sun", "time": "Closed"}], "id": "4603200085", "name": "USPS COLLECTION BOX - BLUE BOX", "address": {"city": "CARMEL", "state": "IN", "street": "12800 N MERIDIAN ST", "postcode": "46032"}}},
{"geometry": {"type": "Point", "coordinates": [-86.1201847662, 39.9596833666]}, "type": "Feature", "properties": {"collection_times": [{"days": "Mon-Sat", "time": "5:15pm"}, {"days": "Sun", "time": "Closed"}], "id": "4603200089", "name": "USPS COLLECTION BOX - APC", "address": {"city": "CARMEL", "state": "IN", "street": "275 MEDICAL DR", "postcode": "46032"}}},
{"geometry": {"type": "Point", "coordinates": [-86.1201847662, 39.9596833666]}, "type": "Feature", "properties": {"collection_times": [{"days": "Mon-Sat", "time": "5:15pm"}, {"days": "Sun", "time": "Closed"}], "id": "4603200091", "name": "USPS COLLECTION BOX - APC", "address": {"city": "CARMEL", "state": "IN", "street": "275 MEDICAL DR", "postcode": "46032"}}},
{"geometry": {"type": "Point", "coordinates": [-86.1251259858, 40.0033239057]}, "type": "Feature", "properties": {"collection_times": [{"days": "Mon-Sat", "time": "2:00pm"}, {"days": "Sun", "time": "Closed"}], "id": "4603300001", "name": "USPS COLLECTION BOX - BLUE BOX", "address": {"city": "CARMEL", "state": "IN", "street": "1950 E GREYHOUND PASS", "postcode": "46033"}}},
{"geometry": {"type": "Point", "coordinates": [-86.0895269416, 39.9708224791]}, "type": "Feature", "properties": {"collection_times": [{"days": "Mon-Sat", "time": "2:00pm"}, {"days": "Sun", "time": "Closed"}], "id": "4603300002", "name": "USPS COLLECTION BOX - BLUE BOX", "address": {"city": "CARMEL", "state": "IN", "street": "12588 N GRAY RD", "postcode": "46033"}}},
{"geometry": {"type": "Point", "coordinates": [-86.1251259858, 40.0033239057]}, "type": "Feature", "properties": {"collection_times": [{"days": "Mon-Sat", "time": "2:00pm"}, {"days": "Sun", "time": "Closed"}], "id": "4603300003", "name": "USPS COLLECTION BOX - BLUE BOX", "address": {"city": "CARMEL", "state": "IN", "street": "1950 E GREYHOUND PASS", "postcode": "46033"}}},
{"geometry": {"type": "Point", "coordinates": [-86.0160955803, 40.1316163761]}, "type": "Feature", "properties": {"collection_times": [{"days": "Mon-Fri", "time": "4:00pm"}, {"days": "Sat", "time": "11:15am"}, {"days": "Sun", "time": "Closed"}], "id": "4603400001", "name": "USPS COLLECTION BOX - PO LOBBY", "address": {"city": "CICERO", "state": "IN", "street": "69 WASHINGTON AVE", "postcode": "46034"}}},
{"geometry": {"type": "Point", "coordinates": [-86.0160955803, 40.1316163761]}, "type": "Feature", "properties": {"collection_times": [{"days": "Mon-Fri", "time": "4:00pm"}, {"days": "Sat", "time": "11:15am"}, {"days": "Sun", "time": "Closed"}], "id": "4603400004", "name": "USPS COLLECTION BOX - BLUE BOX", "address": {"city": "CICERO", "state": "IN", "street": "69 WASHINGTON AVE", "postcode": "46034"}}},
{"geometry": {"type": "Point", "coordinates": [-86.0160955803, 40.1316163761]}, "type": "Feature", "properties": {"collection_times": [{"days": "Mon-Fri", "time": "4:00pm"}, {"days": "Sat", "time": "11:15am"}, {"days": "Sun", "time": "Closed"}], "id": "4603400005", "name": "USPS COLLECTION BOX - PO LOBBY", "address": {"city": "CICERO", "state": "IN", "street": "69 WASHINGTON AVE", "postcode": "46034"}}},
{"geometry": {"type": "Point", "coordinates": [-86.6668223935, 40.1942542645]}, "type": "Feature", "properties": {"collection_times": [{"days": "Mon-Fri", "time": "3:45pm"}, {"days": "Sat", "time": "10:45am"}, {"days": "Sun", "time": "Closed"}], "id": "4603500001", "name": "USPS COLLECTION BOX - BLUE BOX", "address": {"city": "COLFAX", "state": "IN", "street": "114 W MAIN ST", "postcode": "46035"}}},
{"geometry": {"type": "Point", "coordinates": [-86.6668223935, 40.1942542645]}, "type": "Feature", "properties": {"collection_times": [{"days": "Mon-Fri", "time": "11:45am"}, {"days": "Sat", "time": "10:45am"}, {"days": "Sun", "time": "Closed"}], "id": "4603500003", "name": "USPS COLLECTION BOX - PO LOBBY", "address": {"city": "COLFAX", "state": "IN", "street": "114 W MAIN ST", "postcode": "46035"}}},
{"geometry": {"type": "Point", "coordinates": [-85.8418348898, 40.2779832092]}, "type": "Feature", "properties": {"collection_times": [{"days": "Mon-Fri", "time": "5:00pm"}, {"days": "Sat", "time": "2:00pm"}, {"days": "Sun", "time": "Closed"}], "id": "4603600002", "name": "USPS COLLECTION BOX - BLUE BOX", "address": {"city": "ELWOOD", "state": "IN", "street": "1500 N A ST", "postcode": "46036"}}},
{"geometry": {"type": "Point", "coordinates": [-85.8418139733, 40.2771486423]}, "type": "Feature", "properties": {"collection_times": [{"days": "Mon-Fri", "time": "5:00pm"}, {"days": "Sat", "time": "2:00pm"}, {"days": "Sun", "time": "Closed"}], "id": "4603600003", "name": "USPS COLLECTION BOX - PO LOBBY", "address": {"city": "ELWOOD", "state": "IN", "street": "119 N ANDERSON ST", "postcode": "46036"}}},
{"geometry": {"type": "Point", "coordinates": [-85.8180833942, 40.264575204]}, "type": "Feature", "properties": {"collection_times": [{"days": "Mon-Sat", "time": "11:00am"}, {"days": "Sun", "time": "Closed"}], "id": "4603600004", "name": "USPS COLLECTION BOX - BLUE BOX", "address": {"city": "ELWOOD", "state": "IN", "street": "1515 S STATE ROAD 37", "postcode": "46036"}}},
{"geometry": {"type": "Point", "coordinates": [-86.0146122615, 39.9274942888]}, "type": "Feature", "properties": {"collection_times": [{"days": "Mon-Fri", "time": "3:30pm"}, {"days": "Sat", "time": "2:00pm"}, {"days": "Sun", "time": "Closed"}], "id": "4603700001", "name": "USPS COLLECTION BOX - BLUE BOX", "address": {"city": "FISHERS", "state": "IN", "street": "8766 E 96TH ST", "postcode": "46037"}}},
{"geometry": {"type": "Point", "coordinates": [-86.0252094958, 39.9273169524]}, "type": "Feature", "properties": {"collection_times": [{"days": "Mon-Fri", "time": "3:30pm"}, {"days": "Sat", "time": "2:00pm"}, {"days": "Sun", "time": "Closed"}], "id": "4603700002", "name": "USPS COLLECTION BOX - BLUE BOX", "address": {"city": "FISHERS", "state": "IN", "street": "7820 E 96TH ST", "postcode": "46037"}}},
{"geometry": {"type": "Point", "coordinates": [-86.0014074054, 39.9603682998]}, "type": "Feature", "properties": {"collection_times": [{"days": "Mon-Fri", "time": "2:00pm"}, {"days": "Sat", "time": "1:30pm"}, {"days": "Sun", "time": "Closed"}], "id": "4603700003", "name": "USPS COLLECTION BOX - BLUE BOX", "address": {"city": "FISHERS", "state": "IN", "street": "11800 EXIT 5 PKWY", "postcode": "46037"}}},
{"geometry": {"type": "Point", "coordinates": [-86.013646144, 39.9359540164]}, "type": "Feature", "properties": {"collection_times": [{"days": "Mon-Fri", "time": "3:30pm"}, {"days": "Sat", "time": "1:45pm"}, {"days": "Sun", "time": "Closed"}], "id": "4603700004", "name": "USPS COLLECTION BOX - BLUE BOX", "address": {"city": "FISHERS", "state": "IN", "street": "8800 BRADWELL PL", "postcode": "46037"}}},
{"geometry": {"type": "Point", "coordinates": [-85.918724, 39.959072]}, "type": "Feature", "properties": {"collection_times": [{"days": "Mon-Fri", "time": "2:00pm"}, {"days": "Sat", "time": "1:30pm"}, {"days": "Sun", "time": "Closed"}], "id": "4603700005", "name": "USPS COLLECTION BOX - BLUE BOX", "address": {"city": "FISHERS", "state": "IN", "street": "11700 OLIO RD", "postcode": "46037"}}},
{"geometry": {"type": "Point", "coordinates": [-85.9444767026, 39.9605509618]}, "type": "Feature", "properties": {"collection_times": [{"days": "Mon-Fri", "time": "5:00pm"}, {"days": "Sat", "time": "2:00pm"}, {"days": "Sun", "time": "Closed"}], "id": "4603700006", "name": "USPS COLLECTION BOX - PO LOBBY", "address": {"city": "FISHERS", "state": "IN", "street": "13326 OVERVIEW DR", "postcode": "46037"}}},
{"geometry": {"type": "Point", "coordinates": [-86.0134558424, 39.9467808331]}, "type": "Feature", "properties": {"collection_times": [{"days": "Mon-Fri", "time": "4:45pm"}, {"days": "Sat-Sun", "time": "Closed"}], "id": "4603700007", "name": "USPS COLLECTION BOX - BLUE BOX", "address": {"city": "FISHERS", "state": "IN", "street": "11100 USA PKWY", "postcode": "46037"}}},
{"geometry": {"type": "Point", "coordinates": [-86.0134558424, 39.9467808331]}, "type": "Feature", "properties": {"collection_times": [{"days": "Mon-Fri", "time": "4:45pm"}, {"days": "Sat-Sun", "time": "Closed"}], "id": "4603700008", "name": "USPS COLLECTION BOX - BLUE BOX", "address": {"city": "FISHERS", "state": "IN", "street": "11100 USA PKWY", "postcode": "46037"}}},
{"geometry": {"type": "Point", "coordinates": [-85.9924006692, 39.9569807772]}, "type": "Feature", "properties": {"collection_times": [{"days": "Mon-Fri", "time": "2:00pm"}, {"days": "Sat", "time": "1:30pm"}, {"days": "Sun", "time": "Closed"}], "id": "4603700009", "name": "USPS COLLECTION BOX - BLUE BOX", "address": {"city": "FISHERS", "state": "IN", "street": "9865 E 116TH ST", "postcode": "46037"}}},
{"geometry": {"type": "Point", "coordinates": [-86.0187026428, 39.9569367974]}, "type": "Feature", "properties": {"collection_times": [{"days": "Mon-Fri", "time": "5:30pm"}, {"days": "Sat", "time": "5:00pm"}, {"days": "Sun", "time": "Closed"}], "id": "4603800001", "name": "USPS COLLECTION BOX - BLUE BOX", "address": {"city": "FISHERS", "state": "IN", "street": "8500 E 116TH ST", "postcode": "46038"}}},
{"geometry": {"type": "Point", "coordinates": [-86.0187026428, 39.9569367974]}, "type": "Feature", "properties": {"collection_times": [{"days": "Mon-Fri", "time": "5:30pm"}, {"days": "Sat", "time": "5:00pm"}, {"days": "Sun", "time": "Closed"}], "id": "4603800003", "name": "USPS COLLECTION BOX - PO LOBBY", "address": {"city": "FISHERS", "state": "IN", "street": "8500 E 116TH ST", "postcode": "46038"}}},
{"geometry": {"type": "Point", "coordinates": [-86.0568988275, 39.9342876035]}, "type": "Feature", "properties": {"collection_times": [{"days": "Mon-Fri", "time": "2:30pm"}, {"days": "Sat", "time": "2:00pm"}, {"days": "Sun", "time": "Closed"}], "id": "4603800005", "name": "USPS COLLECTION BOX - BLUE BOX", "address": {"city": "FISHERS", "state": "IN", "street": "10089 ALLISONVILLE RD", "postcode": "46038"}}},
{"geometry": {"type": "Point", "coordinates": [-86.0561653929, 39.9351452488]}, "type": "Feature", "properties": {"collection_times": [{"days": "Mon-Fri", "time": "2:30pm"}, {"days": "Sat", "time": "2:00pm"}, {"days": "Sun", "time": "Closed"}], "id": "4603800006", "name": "USPS COLLECTION BOX - BLUE BOX", "address": {"city": "FISHERS", "state": "IN", "street": "10190 ALLISONVILLE RD", "postcode": "46038"}}},
{"geometry": {"type": "Point", "coordinates": [-86.0216064297, 39.9573671329]}, "type": "Feature", "properties": {"collection_times": [{"days": "Mon-Fri", "time": "2:30pm"}, {"days": "Sat", "time": "1:30pm"}, {"days": "Sun", "time": "Closed"}], "id": "4603800010", "name": "USPS COLLECTION BOX - BLUE BOX", "address": {"city": "FISHERS", "state": "IN", "street": "11602 LAKE CIR", "postcode": "46038"}}},
{"geometry": {"type": "Point", "coordinates": [-86.0119591765, 39.9610493614]}, "type": "Feature", "properties": {"collection_times": [{"days": "Mon-Fri", "time": "2:30pm"}, {"days": "Sat", "time": "1:30pm"}, {"days": "Sun", "time": "Closed"}], "id": "4603800012", "name": "USPS COLLECTION BOX - BLUE BOX", "address": {"city": "FISHERS", "state": "IN", "street": "8937 TECHNOLOGY DR", "postcode": "46038"}}},
{"geometry": {"type": "Point", "coordinates": [-86.0060743552, 39.9677639105]}, "type": "Feature", "properties": {"collection_times": [{"days": "Mon-Fri", "time": "2:30pm"}, {"days": "Sat", "time": "1:30pm"}, {"days": "Sun", "time": "Closed"}], "id": "4603800013", "name": "USPS COLLECTION BOX - BLUE BOX", "address": {"city": "FISHERS", "state": "IN", "street": "12347 WINDSOR EAST DR", "postcode": "46038"}}},
{"geometry": {"type": "Point", "coordinates": [-86.0386788935, 39.9585382623]}, "type": "Feature", "properties": {"collection_times": [{"days": "Mon-Fri", "time": "2:30pm"}, {"days": "Sat", "time": "2:00pm"}, {"days": "Sun", "time": "Closed"}], "id": "4603800014", "name": "USPS COLLECTION BOX - BLUE BOX", "address": {"city": "FISHERS", "state": "IN", "street": "7400 FISHERS STATION DR", "postcode": "46038"}}},
{"geometry": {"type": "Point", "coordinates": [-86.0404864548, 39.9553253457]}, "type": "Feature", "properties": {"collection_times": [{"days": "Mon-Fri", "time": "2:30pm"}, {"days": "Sat", "time": "1:30pm"}, {"days": "Sun", "time": "Closed"}], "id": "4603800015", "name": "USPS COLLECTION BOX - BLUE BOX", "address": {"city": "FISHERS", "state": "IN", "street": "11501 ALLISONVILLE RD", "postcode": "46038"}}},
{"geometry": {"type": "Point", "coordinates": [-86.0415948873, 39.9527216531]}, "type": "Feature", "properties": {"collection_times": [{"days": "Mon-Fri", "time": "3:00pm"}, {"days": "Sat", "time": "2:00pm"}, {"days": "Sun", "time": "Closed"}], "id": "4603800019", "name": "USPS COLLECTION BOX - BLUE BOX", "address": {"city": "FISHERS", "state": "IN", "street": "11530 ALLISONVILLE RD", "postcode": "46038"}}},
{"geometry": {"type": "Point", "coordinates": [-86.0022236471, 39.989076348]}, "type": "Feature", "properties": {"collection_times": [{"days": "Mon-Fri", "time": "2:00pm"}, {"days": "Sat", "time": "1:30pm"}, {"days": "Sun", "time": "Closed"}], "id": "4603800024", "name": "USPS COLLECTION BOX - BLUE BOX", "address": {"city": "FISHERS", "state": "IN", "street": "13791 OLD OAK DR", "postcode": "46038"}}},
{"geometry": {"type": "Point", "coordinates": [-86.0004740507, 39.9780180476]}, "type": "Feature", "properties": {"collection_times": [{"days": "Mon-Fri", "time": "2:00pm"}, {"days": "Sat", "time": "1:30pm"}, {"days": "Sun", "time": "Closed"}], "id": "4603800025", "name": "USPS COLLECTION BOX - BLUE BOX", "address": {"city": "FISHERS", "state": "IN", "street": "13095 PARKSIDE DR", "postcode": "46038"}}},
{"geometry": {"type": "Point", "coordinates": [-86.0410229955, 39.9575110307]}, "type": "Feature", "properties": {"collection_times": [{"days": "Mon-Fri", "time": "2:30pm"}, {"days": "Sat", "time": "2:00pm"}, {"days": "Sun", "time": "Closed"}], "id": "4603800026", "name": "USPS COLLECTION BOX - BLUE BOX", "address": {"city": "FISHERS", "state": "IN", "street": "7272 FISHERS CROSSING DR", "postcode": "46038"}}},
{"geometry": {"type": "Point", "coordinates": [-86.0063711012, 39.9721706814]}, "type": "Feature", "properties": {"collection_times": [{"days": "Mon-Fri", "time": "2:30pm"}, {"days": "Sat", "time": "1:30pm"}, {"days": "Sun", "time": "Closed"}], "id": "4603800027", "name": "USPS COLLECTION BOX - BLUE BOX", "address": {"city": "FISHERS", "state": "IN", "street": "12650 FORD DR", "postcode": "46038"}}},
{"geometry": {"type": "Point", "coordinates": [-85.9909263889, 39.9717105104]}, "type": "Feature", "properties": {"collection_times": [{"days": "Mon-Fri", "time": "2:00pm"}, {"days": "Sat", "time": "1:30pm"}, {"days": "Sun", "time": "Closed"}], "id": "4603800029", "name": "USPS COLLECTION BOX - BLUE BOX", "address": {"city": "FISHERS", "state": "IN", "street": "9929 E 126TH ST", "postcode": "46038"}}},
{"geometry": {"type": "Point", "coordinates": [-86.0187026428, 39.9569367974]}, "type": "Feature", "properties": {"collection_times": [{"days": "Mon-Fri", "time": "5:30pm"}, {"days": "Sat", "time": "5:00pm"}, {"days": "Sun", "time": "Closed"}], "id": "4603800030", "name": "USPS COLLECTION BOX - APC", "address": {"city": "FISHERS", "state": "IN", "street": "8500 E 116TH ST", "postcode": "46038"}}},
{"geometry": {"type": "Point", "coordinates": [-86.0529715578, 39.9381673891]}, "type": "Feature", "properties": {"collection_times": [{"days": "Mon-Fri", "time": "2:30pm"}, {"days": "Sat", "time": "2:00pm"}, {"days": "Sun", "time": "Closed"}], "id": "4603800031", "name": "USPS COLLECTION BOX - BLUE BOX", "address": {"city": "FISHERS", "state": "IN", "street": "10412 ALLISONVILLE RD", "postcode": "46038"}}},
{"geometry": {"type": "Point", "coordinates": [-86.3323553774, 40.3738996958]}, "type": "Feature", "properties": {"collection_times": [{"days": "Mon-Fri", "time": "3:30pm"}, {"days": "Sat", "time": "10:15am"}, {"days": "Sun", "time": "Closed"}], "id": "4603900001", "name": "USPS COLLECTION BOX - BLUE BOX", "address": {"city": "FOREST", "state": "IN", "street": "9333 E COUNTY ROAD 600 N", "postcode": "46039"}}},
{"geometry": {"type": "Point", "coordinates": [-85.8490398431, 39.9333233404]}, "type": "Feature", "properties": {"collection_times": [{"days": "Mon-Fri", "time": "4:30pm"}, {"days": "Sat", "time": "2:30pm"}, {"days": "Sun", "time": "Closed"}], "id": "4604000005", "name": "USPS COLLECTION BOX - BLUE BOX", "address": {"city": "FORTVILLE", "state": "IN", "street": "101 S MAIN ST", "postcode": "46040"}}},
{"geometry": {"type": "Point", "coordinates": [-85.8490398431, 39.9333233404]}, "type": "Feature", "properties": {"collection_times": [{"days": "Mon-Fri", "time": "4:30pm"}, {"days": "Sat", "time": "2:30pm"}, {"days": "Sun", "time": "Closed"}], "id": "4604000007", "name": "USPS COLLECTION BOX - PO LOBBY", "address": {"city": "FORTVILLE", "state": "IN", "street": "101 S MAIN ST", "postcode": "46040"}}},
{"geometry": {"type": "Point", "coordinates": [-86.4960375403, 40.2789200282]}, "type": "Feature", "properties": {"collection_times": [{"days": "Mon-Fri", "time": "3:00pm"}, {"days": "Sat", "time": "2:00pm"}, {"days": "Sun", "time": "Closed"}], "id": "4604100001", "name": "USPS COLLECTION BOX - BLUE BOX", "address": {"city": "FRANKFORT", "state": "IN", "street": "1447 E WABASH ST", "postcode": "46041"}}},
{"geometry": {"type": "Point", "coordinates": [-86.4676474409, 40.2788034473]}, "type": "Feature", "properties": {"collection_times": [{"days": "Mon-Fri", "time": "3:00pm"}, {"days": "Sat", "time": "2:00pm"}, {"days": "Sun", "time": "Closed"}], "id": "4604100003", "name": "USPS COLLECTION BOX - BLUE BOX", "address": {"city": "FRANKFORT", "state": "IN", "street": "2460 E WABASH ST", "postcode": "46041"}}},
{"geometry": {"type": "Point", "coordinates": [-86.4893938424, 40.2780980499]}, "type": "Feature", "properties": {"collection_times": [{"days": "Mon-Fri", "time": "3:00pm"}, {"days": "Sat", "time": "2:00pm"}, {"days": "Sun", "time": "Closed"}], "id": "4604100004", "name": "USPS COLLECTION BOX - BLUE BOX", "address": {"city": "FRANKFORT", "state": "IN", "street": "400 KENTWOOD DR", "postcode": "46041"}}},
{"geometry": {"type": "Point", "coordinates": [-86.5106065483, 40.2703071377]}, "type": "Feature", "properties": {"collection_times": [{"days": "Mon-Fri", "time": "3:00pm"}, {"days": "Sat", "time": "2:00pm"}, {"days": "Sun", "time": "Closed"}], "id": "4604100006", "name": "USPS COLLECTION BOX - BLUE BOX", "address": {"city": "FRANKFORT", "state": "IN", "street": "1300 S JACKSON ST", "postcode": "46041"}}},
{"geometry": {"type": "Point", "coordinates": [-86.5104611714, 40.269506609]}, "type": "Feature", "properties": {"collection_times": [{"days": "Mon-Fri", "time": "3:00pm"}, {"days": "Sat", "time": "2:00pm"}, {"days": "Sun", "time": "Closed"}], "id": "4604100007", "name": "USPS COLLECTION BOX - BLUE BOX", "address": {"city": "FRANKFORT", "state": "IN", "street": "1401 S JACKSON ST", "postcode": "46041"}}},
{"geometry": {"type": "Point", "coordinates": [-86.516544816, 40.279707665]}, "type": "Feature", "properties": {"collection_times": [{"days": "Mon-Fri", "time": "3:00pm"}, {"days": "Sat", "time": "2:00pm"}, {"days": "Sun", "time": "Closed"}], "id": "4604100008", "name": "USPS COLLECTION BOX - BLUE BOX", "address": {"city": "FRANKFORT", "state": "IN", "street": "656 W WALNUT ST", "postcode": "46041"}}},
{"geometry": {"type": "Point", "coordinates": [-86.488875413, 40.2788730136]}, "type": "Feature", "properties": {"collection_times": [{"days": "Mon-Fri", "time": "3:00pm"}, {"days": "Sat", "time": "2:00pm"}, {"days": "Sun", "time": "Closed"}], "id": "4604100015", "name": "USPS COLLECTION BOX - BLUE BOX", "address": {"city": "FRANKFORT", "state": "IN", "street": "2021 E WABASH ST", "postcode": "46041"}}},
{"geometry": {"type": "Point", "coordinates": [-86.5119140157, 40.2806250693]}, "type": "Feature", "properties": {"collection_times": [{"days": "Mon-Fri", "time": "3:00pm"}, {"days": "Sat", "time": "2:00pm"}, {"days": "Sun", "time": "Closed"}], "id": "4604100017", "name": "USPS COLLECTION BOX - BLUE BOX", "address": {"city": "FRANKFORT", "state": "IN", "street": "1 E CLINTON ST", "postcode": "46041"}}},
{"geometry": {"type": "Point", "coordinates": [-86.5083396171, 40.2817506772]}, "type": "Feature", "properties": {"collection_times": [{"days": "Mon-Fri", "time": "5:00pm"}, {"days": "Sat", "time": "2:00pm"}, {"days": "Sun", "time": "Closed"}], "id": "4604100018", "name": "USPS COLLECTION BOX - BLUE BOX", "address": {"city": "FRANKFORT", "state": "IN", "street": "100 WASHINGTON AVE", "postcode": "46041"}}},
{"geometry": {"type": "Point", "coordinates": [-86.5083396171, 40.2817506772]}, "type": "Feature", "properties": {"collection_times": [{"days": "Mon-Fri", "time": "5:00pm"}, {"days": "Sat", "time": "2:00pm"}, {"days": "Sun", "time": "Closed"}], "id": "4604100022", "name": "USPS COLLECTION BOX - BLUE BOX", "address": {"city": "FRANKFORT", "state": "IN", "street": "100 WASHINGTON AVE", "postcode": "46041"}}},
{"geometry": {"type": "Point", "coordinates": [-86.5083396171, 40.2817506772]}, "type": "Feature", "properties": {"collection_times": [{"days": "Mon-Fri", "time": "5:00pm"}, {"days": "Sat", "time": "2:00pm"}, {"days": "Sun", "time": "Closed"}], "id": "4604100023", "name": "USPS COLLECTION BOX - BLUE BOX", "address": {"city": "FRANKFORT", "state": "IN", "street": "100 WASHINGTON AVE", "postcode": "46041"}}},
{"geometry": {"type": "Point", "coordinates": [-86.5106359917, 40.2811521005]}, "type": "Feature", "properties": {"collection_times": [{"days": "Mon-Fri", "time": "3:00pm"}, {"days": "Sat", "time": "2:00pm"}, {"days": "Sun", "time": "Closed"}], "id": "4604100027", "name": "USPS COLLECTION BOX - BLUE BOX", "address": {"city": "FRANKFORT", "state": "IN", "street": "47 N JACKSON ST", "postcode": "46041"}}},
{"geometry": {"type": "Point", "coordinates": [-86.5112680456, 40.2817138969]}, "type": "Feature", "properties": {"collection_times": [{"days": "Mon-Fri", "time": "3:00pm"}, {"days": "Sat", "time": "2:00pm"}, {"days": "Sun", "time": "Closed"}], "id": "4604100028", "name": "USPS COLLECTION BOX - BLUE BOX", "address": {"city": "FRANKFORT", "state": "IN", "street": "56 E WASHINGTON ST", "postcode": "46041"}}},
{"geometry": {"type": "Point", "coordinates": [-86.5082644178, 40.2812165846]}, "type": "Feature", "properties": {"collection_times": [{"days": "Mon-Fri", "time": "3:00pm"}, {"days": "Sat", "time": "2:00pm"}, {"days": "Sun", "time": "Closed"}], "id": "4604100029", "name": "USPS COLLECTION BOX - BLUE BOX", "address": {"city": "FRANKFORT", "state": "IN", "street": "53 SYCAMORE ST", "postcode": "46041"}}},
{"geometry": {"type": "Point", "coordinates": [-86.5083396171, 40.2817506772]}, "type": "Feature", "properties": {"collection_times": [{"days": "Mon-Fri", "time": "5:00pm"}, {"days": "Sat", "time": "2:00pm"}, {"days": "Sun", "time": "Closed"}], "id": "4604100035", "name": "USPS COLLECTION BOX - PO LOBBY", "address": {"city": "FRANKFORT", "state": "IN", "street": "100 WASHINGTON AVE", "postcode": "46041"}}},
{"geometry": {"type": "Point", "coordinates": [-86.5083396171, 40.2817506772]}, "type": "Feature", "properties": {"collection_times": [{"days": "Mon-Fri", "time": "5:00pm"}, {"days": "Sat", "time": "2:00pm"}, {"days": "Sun", "time": "Closed"}], "id": "4604100036", "name": "USPS COLLECTION BOX - PO LOBBY", "address": {"city": "FRANKFORT", "state": "IN", "street": "100 WASHINGTON AVE", "postcode": "46041"}}},
{"geometry": {"type": "Point", "coordinates": [-86.5083396171, 40.2817506772]}, "type": "Feature", "properties": {"collection_times": [{"days": "Mon-Fri", "time": "5:00pm"}, {"days": "Sat", "time": "2:00pm"}, {"days": "Sun", "time": "Closed"}], "id": "4604100037", "name": "USPS COLLECTION BOX - PO LOBBY", "address": {"city": "FRANKFORT", "state": "IN", "street": "100 WASHINGTON AVE", "postcode": "46041"}}},
{"geometry": {"type": "Point", "coordinates": [-86.5083396171, 40.2817506772]}, "type": "Feature", "properties": {"collection_times": [{"days": "Mon-Fri", "time": "5:00pm"}, {"days": "Sat", "time": "2:00pm"}, {"days": "Sun", "time": "Closed"}], "id": "4604100038", "name": "USPS COLLECTION BOX - PO LOBBY", "address": {"city": "FRANKFORT", "state": "IN", "street": "100 WASHINGTON AVE", "postcode": "46041"}}},
{"geometry": {"type": "Point", "coordinates": [-86.4809563712, 40.2787953965]}, "type": "Feature", "properties": {"collection_times": [{"days": "Mon-Fri", "time": "3:00pm"}, {"days": "Sat", "time": "2:00pm"}, {"days": "Sun", "time": "Closed"}], "id": "4604100039", "name": "USPS COLLECTION BOX - BLUE BOX", "address": {"city": "FRANKFORT", "state": "IN", "street": "2401 E WABASH ST", "postcode": "46041"}}},
{"geometry": {"type": "Point", "coordinates": [-85.790048738, 40.2089397016]}, "type": "Feature", "properties": {"collection_times": [{"days": "Mon-Fri", "time": "4:15pm"}, {"days": "Sat", "time": "10:45am"}, {"days": "Sun", "time": "Closed"}], "id": "4604400001", "name": "USPS COLLECTION BOX - BLUE BOX", "address": {"city": "FRANKTON", "state": "IN", "street": "106 E SIGLER ST", "postcode": "46044"}}},
{"geometry": {"type": "Point", "coordinates": [-85.790048738, 40.2089397016]}, "type": "Feature", "properties": {"collection_times": [{"days": "Mon-Fri", "time": "4:15pm"}, {"days": "Sat", "time": "10:45am"}, {"days": "Sun", "time": "Closed"}], "id": "4604400002", "name": "USPS COLLECTION BOX - PO LOBBY", "address": {"city": "FRANKTON", "state": "IN", "street": "106 E SIGLER ST", "postcode": "46044"}}},
{"geometry": {"type": "Point", "coordinates": [-85.9473557812, 40.2834534299]}, "type": "Feature", "properties": {"collection_times": [{"days": "Mon-Fri", "time": "10:45am"}, {"days": "Sat", "time": "8:45am"}, {"days": "Sun", "time": "Closed"}], "id": "4604700000", "name": "USPS COLLECTION BOX - BLUE BOX", "address": {"city": "HOBBS", "state": "IN", "street": "3484 E 150 S", "postcode": "46047"}}},
{"geometry": {"type": "Point", "coordinates": [-85.9473557812, 40.2834534299]}, "type": "Feature", "properties": {"collection_times": [{"days": "Mon-Fri", "time": "10:45am"}, {"days": "Sat", "time": "8:45am"}, {"days": "Sun", "time": "Closed"}], "id": "4604700001", "name": "USPS COLLECTION BOX - PO LOBBY", "address": {"city": "HOBBS", "state": "IN", "street": "3484 E 150 S", "postcode": "46047"}}},
{"geometry": {"type": "Point", "coordinates": [-85.8057667295, 39.9553725105]}, "type": "Feature", "properties": {"collection_times": [{"days": "Mon-Fri", "time": "4:00pm"}, {"days": "Sat", "time": "11:00am"}, {"days": "Sun", "time": "Closed"}], "id": "4604800000", "name": "USPS COLLECTION BOX - BLUE BOX", "address": {"city": "INGALLS", "state": "IN", "street": "151 W BROADWAY ST", "postcode": "46048"}}},
{"geometry": {"type": "Point", "coordinates": [-85.8057667295, 39.9553725105]}, "type": "Feature", "properties": {"collection_times": [{"days": "Mon-Fri", "time": "11:45am"}, {"days": "Sat", "time": "11:15am"}, {"days": "Sun", "time": "Closed"}], "id": "4604800001", "name": "USPS COLLECTION BOX - PO LOBBY", "address": {"city": "INGALLS", "state": "IN", "street": "151 W BROADWAY ST", "postcode": "46048"}}},
{"geometry": {"type": "Point", "coordinates": [-85.8057667295, 39.9553725105]}, "type": "Feature", "properties": {"collection_times": [{"days": "Mon-Fri", "time": "11:45am"}, {"days": "Sat", "time": "11:15am"}, {"days": "Sun", "time": "Closed"}], "id": "4604800002", "name": "USPS COLLECTION BOX - PO LOBBY", "address": {"city": "INGALLS", "state": "IN", "street": "151 W BROADWAY ST", "postcode": "46048"}}},
{"geometry": {"type": "Point", "coordinates": [-86.218595859, 40.2975910033]}, "type": "Feature", "properties": {"collection_times": [{"days": "Mon-Fri", "time": "3:45pm"}, {"days": "Sat", "time": "10:15am"}, {"days": "Sun", "time": "Closed"}], "id": "4604900001", "name": "USPS COLLECTION BOX - BLUE BOX", "address": {"city": "KEMPTON", "state": "IN", "street": "101 S WEST ST", "postcode": "46049"}}},
{"geometry": {"type": "Point", "coordinates": [-86.218595859, 40.2975910033]}, "type": "Feature", "properties": {"collection_times": [{"days": "Mon-Fri", "time": "11:45am"}, {"days": "Sat", "time": "10:15am"}, {"days": "Sun", "time": "Closed"}], "id": "4604900002", "name": "USPS COLLECTION BOX - PO LOBBY", "address": {"city": "KEMPTON", "state": "IN", "street": "101 S WEST ST", "postcode": "46049"}}},
{"geometry": {"type": "Point", "coordinates": [-86.218595859, 40.2975910033]}, "type": "Feature", "properties": {"collection_times": [{"days": "Mon-Fri", "time": "11:45am"}, {"days": "Sat", "time": "10:15am"}, {"days": "Sun", "time": "Closed"}], "id": "4604900003", "name": "USPS COLLECTION BOX - PO LOBBY", "address": {"city": "KEMPTON", "state": "IN", "street": "101 S WEST ST", "postcode": "46049"}}},
{"geometry": {"type": "Point", "coordinates": [-86.3588193363, 40.1927223399]}, "type": "Feature", "properties": {"collection_times": [{"days": "Mon-Fri", "time": "3:45pm"}, {"days": "Sat", "time": "10:30am"}, {"days": "Sun", "time": "Closed"}], "id": "4605000001", "name": "USPS COLLECTION BOX - BLUE BOX", "address": {"city": "KIRKLIN", "state": "IN", "street": "102 S OHIO ST", "postcode": "46050"}}},
{"geometry": {"type": "Point", "coordinates": [-86.3588193363, 40.1927223399]}, "type": "Feature", "properties": {"collection_times": [{"days": "Mon-Fri", "time": "3:45pm"}, {"days": "Sat", "time": "10:30am"}, {"days": "Sun", "time": "Closed"}], "id": "4605000002", "name": "USPS COLLECTION BOX - PO LOBBY", "address": {"city": "KIRKLIN", "state": "IN", "street": "102 S OHIO ST", "postcode": "46050"}}},
{"geometry": {"type": "Point", "coordinates": [-86.3588193363, 40.1927223399]}, "type": "Feature", "properties": {"collection_times": [{"days": "Mon-Fri", "time": "3:45pm"}, {"days": "Sat", "time": "10:30am"}, {"days": "Sun", "time": "Closed"}], "id": "4605000003", "name": "USPS COLLECTION BOX - PO LOBBY", "address": {"city": "KIRKLIN", "state": "IN", "street": "102 S OHIO ST", "postcode": "46050"}}},
{"geometry": {"type": "Point", "coordinates": [-85.8481742753, 40.0673929833]}, "type": "Feature", "properties": {"collection_times": [{"days": "Mon-Fri", "time": "4:00pm"}, {"days": "Sat", "time": "11:00am"}, {"days": "Sun", "time": "Closed"}], "id": "4605100001", "name": "USPS COLLECTION BOX - BLUE BOX", "address": {"city": "LAPEL", "state": "IN", "street": "803 N MAIN ST", "postcode": "46051"}}},
{"geometry": {"type": "Point", "coordinates": [-85.8481742753, 40.0673929833]}, "type": "Feature", "properties": {"collection_times": [{"days": "Mon-Fri", "time": "4:00pm"}, {"days": "Sat", "time": "11:00am"}, {"days": "Sun", "time": "Closed"}], "id": "4605100002", "name": "USPS COLLECTION BOX - PO LOBBY", "address": {"city": "LAPEL", "state": "IN", "street": "803 N MAIN ST", "postcode": "46051"}}},
{"geometry": {"type": "Point", "coordinates": [-85.8481742753, 40.0673929833]}, "type": "Feature", "properties": {"collection_times": [{"days": "Mon-Fri", "time": "4:00pm"}, {"days": "Sat", "time": "11:00am"}, {"days": "Sun", "time": "Closed"}], "id": "4605100003", "name": "USPS COLLECTION BOX - PO LOBBY", "address": {"city": "LAPEL", "state": "IN", "street": "803 N MAIN ST", "postcode": "46051"}}},
{"geometry": {"type": "Point", "coordinates": [-85.8481742753, 40.0673929833]}, "type": "Feature", "properties": {"collection_times": [{"days": "Mon-Fri", "time": "4:00pm"}, {"days": "Sat", "time": "11:00am"}, {"days": "Sun", "time": "Closed"}], "id": "4605100004", "name": "USPS COLLECTION BOX - BLUE BOX", "address": {"city": "LAPEL", "state": "IN", "street": "803 N MAIN ST", "postcode": "46051"}}},
{"geometry": {"type": "Point", "coordinates": [-86.470288195, 40.0476352508]}, "type": "Feature", "properties": {"collection_times": [{"days": "Mon-Fri", "time": "5:00pm"}, {"days": "Sat", "time": "4:00pm"}, {"days": "Sun", "time": "Closed"}], "id": "4605200000", "name": "USPS COLLECTION BOX - BLUE BOX", "address": {"city": "LEBANON", "state": "IN", "street": "304 W MAIN ST", "postcode": "46052"}}},
{"geometry": {"type": "Point", "coordinates": [-86.470288195, 40.0476352508]}, "type": "Feature", "properties": {"collection_times": [{"days": "Mon-Fri", "time": "5:00pm"}, {"days": "Sat", "time": "4:00pm"}, {"days": "Sun", "time": "Closed"}], "id": "4605200008", "name": "USPS COLLECTION BOX - BLUE BOX", "address": {"city": "LEBANON", "state": "IN", "street": "304 W MAIN ST", "postcode": "46052"}}},
{"geometry": {"type": "Point", "coordinates": [-86.4854236714, 40.0548338401]}, "type": "Feature", "properties": {"collection_times": [{"days": "Mon-Fri", "time": "3:45pm"}, {"days": "Sat", "time": "3:30pm"}, {"days": "Sun", "time": "Closed"}], "id": "4605200013", "name": "USPS COLLECTION BOX - BLUE BOX", "address": {"city": "LEBANON", "state": "IN", "street": "820 CAMPBELL ST", "postcode": "46052"}}},
{"geometry": {"type": "Point", "coordinates": [-86.4732170463, 40.0678521303]}, "type": "Feature", "properties": {"collection_times": [{"days": "Mon-Fri", "time": "4:00pm"}, {"days": "Sat", "time": "3:30pm"}, {"days": "Sun", "time": "Closed"}], "id": "4605200018", "name": "USPS COLLECTION BOX - BLUE BOX", "address": {"city": "LEBANON", "state": "IN", "street": "2226 N LEBANON ST", "postcode": "46052"}}},
{"geometry": {"type": "Point", "coordinates": [-86.4738870749, 40.0709693289]}, "type": "Feature", "properties": {"collection_times": [{"days": "Mon-Fri", "time": "4:00pm"}, {"days": "Sat", "time": "3:30pm"}, {"days": "Sun", "time": "Closed"}], "id": "4605200021", "name": "USPS COLLECTION BOX - BLUE BOX", "address": {"city": "LEBANON", "state": "IN", "street": "2442 N LEBANON ST", "postcode": "46052"}}},
{"geometry": {"type": "Point", "coordinates": [-86.4746284519, 40.0747235051]}, "type": "Feature", "properties": {"collection_times": [{"days": "Mon-Fri", "time": "4:00pm"}, {"days": "Sat", "time": "3:30pm"}, {"days": "Sun", "time": "Closed"}], "id": "4605200022", "name": "USPS COLLECTION BOX - BLUE BOX", "address": {"city": "LEBANON", "state": "IN", "street": "2605 N LEBANON ST", "postcode": "46052"}}},
{"geometry": {"type": "Point", "coordinates": [-86.4683589897, 40.0475215096]}, "type": "Feature", "properties": {"collection_times": [{"days": "Mon-Fri", "time": "4:15pm"}, {"days": "Sat", "time": "3:30pm"}, {"days": "Sun", "time": "Closed"}], "id": "4605200025", "name": "USPS COLLECTION BOX - BLUE BOX", "address": {"city": "LEBANON", "state": "IN", "street": "127 W MAIN ST", "postcode": "46052"}}},
{"geometry": {"type": "Point", "coordinates": [-86.4679747624, 40.0478357642]}, "type": "Feature", "properties": {"collection_times": [{"days": "Mon-Fri", "time": "4:15pm"}, {"days": "Sat", "time": "3:30pm"}, {"days": "Sun", "time": "Closed"}], "id": "4605200028", "name": "USPS COLLECTION BOX - BLUE BOX", "address": {"city": "LEBANON", "state": "IN", "street": "129 N MERIDIAN ST", "postcode": "46052"}}},
{"geometry": {"type": "Point", "coordinates": [-85.9189615651, 39.89026143]}, "type": "Feature", "properties": {"collection_times": [{"days": "Mon-Fri", "time": "5:00pm"}, {"days": "Sat", "time": "12:00pm"}, {"days": "Sun", "time": "Closed"}], "id": "4605500001", "name": "USPS COLLECTION BOX - BLUE BOX", "address": {"city": "MC CORDSVILLE", "state": "IN", "street": "7397 N 600 W STE 1000", "postcode": "46055"}}},
{"geometry": {"type": "Point", "coordinates": [-85.9189615651, 39.89026143]}, "type": "Feature", "properties": {"collection_times": [{"days": "Mon-Fri", "time": "5:00pm"}, {"days": "Sat", "time": "12:00pm"}, {"days": "Sun", "time": "Closed"}], "id": "4605500002", "name": "USPS COLLECTION BOX - PO LOBBY", "address": {"city": "MC CORDSVILLE", "state": "IN", "street": "7397 N 600 W STE 1000", "postcode": "46055"}}},
{"geometry": {"type": "Point", "coordinates": [-85.6145052613, 39.9774591453]}, "type": "Feature", "properties": {"collection_times": [{"days": "Mon-Fri", "time": "3:15pm"}, {"days": "Sat", "time": "10:45am"}, {"days": "Sun", "time": "Closed"}], "id": "4605600001", "name": "USPS COLLECTION BOX - BLUE BOX", "address": {"city": "MARKLEVILLE", "state": "IN", "street": "109 E MAIN ST", "postcode": "46056"}}},
{"geometry": {"type": "Point", "coordinates": [-85.6145052613, 39.9774591453]}, "type": "Feature", "properties": {"collection_times": [{"days": "Mon-Fri", "time": "3:15pm"}, {"days": "Sat", "time": "10:45am"}, {"days": "Sun", "time": "Closed"}], "id": "4605600002", "name": "USPS COLLECTION BOX - PO LOBBY", "address": {"city": "MARKLEVILLE", "state": "IN", "street": "109 E MAIN ST", "postcode": "46056"}}},
{"geometry": {"type": "Point", "coordinates": [-86.3929890854, 40.3253495257]}, "type": "Feature", "properties": {"collection_times": [{"days": "Mon-Fri", "time": "4:00pm"}, {"days": "Sat", "time": "11:00am"}, {"days": "Sun", "time": "Closed"}], "id": "4605700001", "name": "USPS COLLECTION BOX - BLUE BOX", "address": {"city": "MICHIGANTOWN", "state": "IN", "street": "226 MAIN ST", "postcode": "46057"}}},
{"geometry": {"type": "Point", "coordinates": [-86.3929890854, 40.3253495257]}, "type": "Feature", "properties": {"collection_times": [{"days": "Mon-Fri", "time": "3:45pm"}, {"days": "Sat", "time": "11:00am"}, {"days": "Sun", "time": "Closed"}], "id": "4605700002", "name": "USPS COLLECTION BOX - PO LOBBY", "address": {"city": "MICHIGANTOWN", "state": "IN", "street": "226 MAIN ST", "postcode": "46057"}}},
{"geometry": {"type": "Point", "coordinates": [-86.3929890854, 40.3253495257]}, "type": "Feature", "properties": {"collection_times": [{"days": "Mon-Fri", "time": "3:45pm"}, {"days": "Sat", "time": "11:00am"}, {"days": "Sun", "time": "Closed"}], "id": "4605700003", "name": "USPS COLLECTION BOX - PO LOBBY", "address": {"city": "MICHIGANTOWN", "state": "IN", "street": "226 MAIN ST", "postcode": "46057"}}},
{"geometry": {"type": "Point", "coordinates": [-86.6660692666, 40.3447574337]}, "type": "Feature", "properties": {"collection_times": [{"days": "Mon-Fri", "time": "4:00pm"}, {"days": "Sat", "time": "11:00am"}, {"days": "Sun", "time": "Closed"}], "id": "4605800001", "name": "USPS COLLECTION BOX - BLUE BOX", "address": {"city": "MULBERRY", "state": "IN", "street": "120 E JACKSON ST", "postcode": "46058"}}},
{"geometry": {"type": "Point", "coordinates": [-86.6660692666, 40.3447574337]}, "type": "Feature", "properties": {"collection_times": [{"days": "Mon-Fri", "time": "4:00pm"}, {"days": "Sat", "time": "11:00am"}, {"days": "Sun", "time": "Closed"}], "id": "4605800002", "name": "USPS COLLECTION BOX - PO LOBBY", "address": {"city": "MULBERRY", "state": "IN", "street": "120 E JACKSON ST", "postcode": "46058"}}},
{"geometry": {"type": "Point", "coordinates": [-86.6660692666, 40.3447574337]}, "type": "Feature", "properties": {"collection_times": [{"days": "Mon-Fri", "time": "4:00pm"}, {"days": "Sat", "time": "11:00am"}, {"days": "Sun", "time": "Closed"}], "id": "4605800003", "name": "USPS COLLECTION BOX - PO LOBBY", "address": {"city": "MULBERRY", "state": "IN", "street": "120 E JACKSON ST", "postcode": "46058"}}},
{"geometry": {"type": "Point", "coordinates": [-85.9995690871, 40.0392515525]}, "type": "Feature", "properties": {"collection_times": [{"days": "Mon-Fri", "time": "5:15pm"}, {"days": "Sat", "time": "4:45pm"}, {"days": "Sun", "time": "Closed"}], "id": "4606000001", "name": "USPS COLLECTION BOX - BLUE BOX", "address": {"city": "NOBLESVILLE", "state": "IN", "street": "1900 PLEASANT ST", "postcode": "46060"}}},
{"geometry": {"type": "Point", "coordinates": [-86.0121285625, 40.0356458935]}, "type": "Feature", "properties": {"collection_times": [{"days": "Mon-Sat", "time": "2:00pm"}, {"days": "Sun", "time": "Closed"}], "id": "4606000006", "name": "USPS COLLECTION BOX - BLUE BOX", "address": {"city": "NOBLESVILLE", "state": "IN", "street": "1197 S 10TH ST", "postcode": "46060"}}},
{"geometry": {"type": "Point", "coordinates": [-86.0116612781, 40.0543832101]}, "type": "Feature", "properties": {"collection_times": [{"days": "Mon-Sat", "time": "2:00pm"}, {"days": "Sun", "time": "Closed"}], "id": "4606000009", "name": "USPS COLLECTION BOX - BLUE BOX", "address": {"city": "NOBLESVILLE", "state": "IN", "street": "938 N 10TH ST", "postcode": "46060"}}},
{"geometry": {"type": "Point", "coordinates": [-86.014870943, 40.046153513]}, "type": "Feature", "properties": {"collection_times": [{"days": "Mon-Fri", "time": "2:30pm"}, {"days": "Sat-Sun", "time": "Closed"}], "id": "4606000011", "name": "USPS COLLECTION BOX - BLUE BOX", "address": {"city": "NOBLESVILLE", "state": "IN", "street": "1 HAMILTON COUNTY SQ", "postcode": "46060"}}},
{"geometry": {"type": "Point", "coordinates": [-86.014032885, 40.045606265]}, "type": "Feature", "properties": {"collection_times": [{"days": "Mon-Sat", "time": "2:00pm"}, {"days": "Sun", "time": "Closed"}], "id": "4606000012", "name": "USPS COLLECTION BOX - BLUE BOX", "address": {"city": "NOBLESVILLE", "state": "IN", "street": "859 CONNER ST", "postcode": "46060"}}},
{"geometry": {"type": "Point", "coordinates": [-86.0245110988, 40.0492495612]}, "type": "Feature", "properties": {"collection_times": [{"days": "Mon-Sat", "time": "12:00pm"}, {"days": "Sun", "time": "Closed"}], "id": "4606000015", "name": "USPS COLLECTION BOX - BLUE BOX", "address": {"city": "NOBLESVILLE", "state": "IN", "street": "172 LOGAN ST", "postcode": "46060"}}},
{"geometry": {"type": "Point", "coordinates": [-86.0252139219, 40.0480869095]}, "type": "Feature", "properties": {"collection_times": [{"days": "Mon-Sat", "time": "12:00pm"}, {"days": "Sun", "time": "Closed"}], "id": "4606000016", "name": "USPS COLLECTION BOX - BLUE BOX", "address": {"city": "NOBLESVILLE", "state": "IN", "street": "175 SHERIDAN RD", "postcode": "46060"}}},
{"geometry": {"type": "Point", "coordinates": [-86.0237120967, 40.0470271418]}, "type": "Feature", "properties": {"collection_times": [{"days": "Mon-Sat", "time": "12:00pm"}, {"days": "Sun", "time": "Closed"}], "id": "4606000017", "name": "USPS COLLECTION BOX - BLUE BOX", "address": {"city": "NOBLESVILLE", "state": "IN", "street": "395 WESTFIELD RD", "postcode": "46060"}}},
{"geometry": {"type": "Point", "coordinates": [-86.0272834498, 40.0470105803]}, "type": "Feature", "properties": {"collection_times": [{"days": "Mon-Sat", "time": "12:00pm"}, {"days": "Sun", "time": "Closed"}], "id": "4606000018", "name": "USPS COLLECTION BOX - BLUE BOX", "address": {"city": "NOBLESVILLE", "state": "IN", "street": "655 WESTFIELD RD", "postcode": "46060"}}},
{"geometry": {"type": "Point", "coordinates": [-86.0001179801, 40.0456194206]}, "type": "Feature", "properties": {"collection_times": [{"days": "Mon-Sat", "time": "9:00am"}, {"days": "Sun", "time": "Closed"}], "id": "4606000020", "name": "USPS COLLECTION BOX - BLUE BOX", "address": {"city": "NOBLESVILLE", "state": "IN", "street": "1930 CONNER ST", "postcode": "46060"}}},
{"geometry": {"type": "Point", "coordinates": [-85.9950944599, 40.0563568131]}, "type": "Feature", "properties": {"collection_times": [{"days": "Mon-Sat", "time": "12:00pm"}, {"days": "Sun", "time": "Closed"}], "id": "4606000021", "name": "USPS COLLECTION BOX - BLUE BOX", "address": {"city": "NOBLESVILLE", "state": "IN", "street": "1100 NORTHLAKE DR", "postcode": "46060"}}},
{"geometry": {"type": "Point", "coordinates": [-85.996717963, 40.047391296]}, "type": "Feature", "properties": {"collection_times": [{"days": "Mon-Sat", "time": "12:00pm"}, {"days": "Sun", "time": "Closed"}], "id": "4606000022", "name": "USPS COLLECTION BOX - BLUE BOX", "address": {"city": "NOBLESVILLE", "state": "IN", "street": "777 QUEENS LN", "postcode": "46060"}}},
{"geometry": {"type": "Point", "coordinates": [-86.0057417824, 40.0089957405]}, "type": "Feature", "properties": {"collection_times": [{"days": "Mon-Fri", "time": "2:30pm"}, {"days": "Sat-Sun", "time": "Closed"}], "id": "4606000026", "name": "USPS COLLECTION BOX - BLUE BOX", "address": {"city": "NOBLESVILLE", "state": "IN", "street": "15203 HERRIMAN BLVD", "postcode": "46060"}}},
{"geometry": {"type": "Point", "coordinates": [-85.9995690871, 40.0392515525]}, "type": "Feature", "properties": {"collection_times": [{"days": "Mon-Fri", "time": "5:15pm"}, {"days": "Sat", "time": "4:45pm"}, {"days": "Sun", "time": "Closed"}], "id": "4606000057", "name": "USPS COLLECTION BOX - PO LOBBY", "address": {"city": "NOBLESVILLE", "state": "IN", "street": "1900 PLEASANT ST", "postcode": "46060"}}},
{"geometry": {"type": "Point", "coordinates": [-86.0110532528, 40.0446801512]}, "type": "Feature", "properties": {"collection_times": [{"days": "Mon-Sat", "time": "2:30pm"}, {"days": "Sun", "time": "Closed"}], "id": "4606000058", "name": "USPS COLLECTION BOX - BLUE BOX", "address": {"city": "NOBLESVILLE", "state": "IN", "street": "1082 MAPLE AVE", "postcode": "46060"}}},
{"geometry": {"type": "Point", "coordinates": [-86.0110532528, 40.0446801512]}, "type": "Feature", "properties": {"collection_times": [{"days": "Mon-Sat", "time": "2:30pm"}, {"days": "Sun", "time": "Closed"}], "id": "4606000059", "name": "USPS COLLECTION BOX - BLUE BOX", "address": {"city": "NOBLESVILLE", "state": "IN", "street": "1082 MAPLE AVE", "postcode": "46060"}}},
{"geometry": {"type": "Point", "coordinates": [-85.9965501759, 40.0339294201]}, "type": "Feature", "properties": {"collection_times": [{"days": "Mon-Sat", "time": "12:00pm"}, {"days": "Sun", "time": "Closed"}], "id": "4606000060", "name": "USPS COLLECTION BOX - BLUE BOX", "address": {"city": "NOBLESVILLE", "state": "IN", "street": "16865 CLOVER RD", "postcode": "46060"}}},
{"geometry": {"type": "Point", "coordinates": [-86.0135090756, 40.0468260387]}, "type": "Feature", "properties": {"collection_times": [{"days": "Mon-Sat", "time": "2:15pm"}, {"days": "Sun", "time": "Closed"}], "id": "4606000061", "name": "USPS COLLECTION BOX - BLUE BOX", "address": {"city": "NOBLESVILLE", "state": "IN", "street": "110 N 9TH ST", "postcode": "46060"}}},
{"geometry": {"type": "Point", "coordinates": [-86.0135090756, 40.0468260387]}, "type": "Feature", "properties": {"collection_times": [{"days": "Mon-Sat", "time": "2:15pm"}, {"days": "Sun", "time": "Closed"}], "id": "4606000062", "name": "USPS COLLECTION BOX - BLUE BOX", "address": {"city": "NOBLESVILLE", "state": "IN", "street": "110 N 9TH ST", "postcode": "46060"}}},
{"geometry": {"type": "Point", "coordinates": [-86.0148824909, 40.0461056167]}, "type": "Feature", "properties": {"collection_times": [{"days": "Mon-Fri", "time": "2:30pm"}, {"days": "Sat-Sun", "time": "Closed"}], "id": "4606000064", "name": "USPS COLLECTION BOX - BLUE BOX", "address": {"city": "NOBLESVILLE", "state": "IN", "street": "1 HAMILTON COUNTY SQ", "postcode": "46060"}}},
{"geometry": {"type": "Point", "coordinates": [-85.9992305351, 40.0060639484]}, "type": "Feature", "properties": {"collection_times": [{"days": "Mon-Fri", "time": "2:30pm"}, {"days": "Sat-Sun", "time": "Closed"}], "id": "4606000065", "name": "USPS COLLECTION BOX - BLUE BOX", "address": {"city": "NOBLESVILLE", "state": "IN", "street": "14870 N POINTE BLVD", "postcode": "46060"}}},
{"geometry": {"type": "Point", "coordinates": [-85.9992305351, 40.0060639484]}, "type": "Feature", "properties": {"collection_times": [{"days": "Mon-Fri", "time": "2:30pm"}, {"days": "Sat-Sun", "time": "Closed"}], "id": "4606000066", "name": "USPS COLLECTION BOX - BLUE BOX", "address": {"city": "NOBLESVILLE", "state": "IN", "street": "14870 N POINTE BLVD", "postcode": "46060"}}},
{"geometry": {"type": "Point", "coordinates": [-86.0116612781, 40.0543832101]}, "type": "Feature", "properties": {"collection_times": [{"days": "Mon-Sat", "time": "2:00pm"}, {"days": "Sun", "time": "Closed"}], "id": "4606000068", "name": "USPS COLLECTION BOX - BLUE BOX", "address": {"city": "NOBLESVILLE", "state": "IN", "street": "938 N 10TH ST", "postcode": "46060"}}},
{"geometry": {"type": "Point", "coordinates": [-86.0148824909, 40.0461056167]}, "type": "Feature", "properties": {"collection_times": [{"days": "Mon-Fri", "time": "9:30am"}, {"days": "Sat-Sun", "time": "Closed"}], "id": "4606000069", "name": "USPS COLLECTION BOX - BLUE BOX", "address": {"city": "NOBLESVILLE", "state": "IN", "street": "1 HAMILTON COUNTY SQ", "postcode": "46060"}}},
{"geometry": {"type": "Point", "coordinates": [-85.9995690871, 40.0392515525]}, "type": "Feature", "properties": {"collection_times": [{"days": "Mon-Fri", "time": "5:15pm"}, {"days": "Sat", "time": "4:45pm"}, {"days": "Sun", "time": "Closed"}], "id": "4606000070", "name": "USPS COLLECTION BOX - APC", "address": {"city": "NOBLESVILLE", "state": "IN", "street": "1900 PLEASANT ST", "postcode": "46060"}}},
{"geometry": {"type": "Point", "coordinates": [-86.0280116169, 40.0470872987]}, "type": "Feature", "properties": {"collection_times": [{"days": "Mon-Sat", "time": "9:00am"}, {"days": "Sun", "time": "Closed"}], "id": "4606200001", "name": "USPS COLLECTION BOX - BLUE BOX", "address": {"city": "NOBLESVILLE", "state": "IN", "street": "17901 RIVER RD", "postcode": "46062"}}},
{"geometry": {"type": "Point", "coordinates": [-86.0497442916, 40.0612250152]}, "type": "Feature", "properties": {"collection_times": [{"days": "Mon-Sat", "time": "12:00pm"}, {"days": "Sun", "time": "Closed"}], "id": "4606200002", "name": "USPS COLLECTION BOX - BLUE BOX", "address": {"city": "NOBLESVILLE", "state": "IN", "street": "121 S HARBOUR DR", "postcode": "46062"}}},
{"geometry": {"type": "Point", "coordinates": [-86.0493134175, 40.0934429704]}, "type": "Feature", "properties": {"collection_times": [{"days": "Mon-Sat", "time": "12:00pm"}, {"days": "Sun", "time": "Closed"}], "id": "4606200003", "name": "USPS COLLECTION BOX - BLUE BOX", "address": {"city": "NOBLESVILLE", "state": "IN", "street": "2449 N HARBOUR DR", "postcode": "46062"}}},
{"geometry": {"type": "Point", "coordinates": [-86.0619466113, 40.0573132736]}, "type": "Feature", "properties": {"collection_times": [{"days": "Mon-Sat", "time": "12:00pm"}, {"days": "Sun", "time": "Closed"}], "id": "4606200004", "name": "USPS COLLECTION BOX - BLUE BOX", "address": {"city": "NOBLESVILLE", "state": "IN", "street": "500 LIONS CREEK CIR", "postcode": "46062"}}},
{"geometry": {"type": "Point", "coordinates": [-86.0296465536, 40.038567966]}, "type": "Feature", "properties": {"collection_times": [{"days": "Mon-Sat", "time": "10:00am"}, {"days": "Sun", "time": "Closed"}], "id": "4606200005", "name": "USPS COLLECTION BOX - BLUE BOX", "address": {"city": "NOBLESVILLE", "state": "IN", "street": "242 WESTBROOK BLVD", "postcode": "46062"}}},
{"geometry": {"type": "Point", "coordinates": [-86.0281564735, 40.0500235768]}, "type": "Feature", "properties": {"collection_times": [{"days": "Mon-Sat", "time": "9:00am"}, {"days": "Sun", "time": "Closed"}], "id": "4606200006", "name": "USPS COLLECTION BOX - BLUE BOX", "address": {"city": "NOBLESVILLE", "state": "IN", "street": "18051 RIVER RD", "postcode": "46062"}}},
{"geometry": {"type": "Point", "coordinates": [-85.7282801534, 40.2691847822]}, "type": "Feature", "properties": {"collection_times": [{"days": "Mon-Fri", "time": "3:45pm"}, {"days": "Sat", "time": "10:30am"}, {"days": "Sun", "time": "Closed"}], "id": "4606300001", "name": "USPS COLLECTION BOX - BLUE BOX", "address": {"city": "ORESTES", "state": "IN", "street": "15 S SUPERIOR ST", "postcode": "46063"}}},
{"geometry": {"type": "Point", "coordinates": [-85.7282801534, 40.2691847822]}, "type": "Feature", "properties": {"collection_times": [{"days": "Mon-Fri", "time": "3:45pm"}, {"days": "Sat", "time": "10:30am"}, {"days": "Sun", "time": "Closed"}], "id": "4606300002", "name": "USPS COLLECTION BOX - PO LOBBY", "address": {"city": "ORESTES", "state": "IN", "street": "15 S SUPERIOR ST", "postcode": "46063"}}},
{"geometry": {"type": "Point", "coordinates": [-85.7462355124, 40.0023944196]}, "type": "Feature", "properties": {"collection_times": [{"days": "Mon-Fri", "time": "5:15pm"}, {"days": "Sat", "time": "3:30pm"}, {"days": "Sun", "time": "Closed"}], "id": "4606400001", "name": "USPS COLLECTION BOX - BLUE BOX", "address": {"city": "PENDLETON", "state": "IN", "street": "137 W STATE ST", "postcode": "46064"}}},
{"geometry": {"type": "Point", "coordinates": [-85.745661429, 40.0024988539]}, "type": "Feature", "properties": {"collection_times": [{"days": "Mon-Fri", "time": "3:30pm"}, {"days": "Sat", "time": "1:45pm"}, {"days": "Sun", "time": "Closed"}], "id": "4606400004", "name": "USPS COLLECTION BOX - BLUE BOX", "address": {"city": "PENDLETON", "state": "IN", "street": "100 W STATE ST", "postcode": "46064"}}},
{"geometry": {"type": "Point", "coordinates": [-85.736461049, 39.9957498378]}, "type": "Feature", "properties": {"collection_times": [{"days": "Mon-Sat", "time": "1:00pm"}, {"days": "Sun", "time": "Closed"}], "id": "4606400005", "name": "USPS COLLECTION BOX - BLUE BOX", "address": {"city": "PENDLETON", "state": "IN", "street": "3319 ANGLE RD", "postcode": "46064"}}},
{"geometry": {"type": "Point", "coordinates": [-85.8431165898, 39.9891301501]}, "type": "Feature", "properties": {"collection_times": [{"days": "Mon-Sat", "time": "10:00am"}, {"days": "Sun", "time": "Closed"}], "id": "4606400007", "name": "USPS COLLECTION BOX - BLUE BOX", "address": {"city": "PENDLETON", "state": "IN", "street": "7858 S STATE ROAD 13", "postcode": "46064"}}},
{"geometry": {"type": "Point", "coordinates": [-85.7491826987, 39.9845139218]}, "type": "Feature", "properties": {"collection_times": [{"days": "Mon-Sat", "time": "10:00am"}, {"days": "Sun", "time": "Closed"}], "id": "4606400008", "name": "USPS COLLECTION BOX - BLUE BOX", "address": {"city": "PENDLETON", "state": "IN", "street": "1 ARROWHEAD DR", "postcode": "46064"}}},
{"geometry": {"type": "Point", "coordinates": [-85.7462355124, 40.0023944196]}, "type": "Feature", "properties": {"collection_times": [{"days": "Mon-Fri", "time": "5:15pm"}, {"days": "Sat", "time": "3:30pm"}, {"days": "Sun", "time": "Closed"}], "id": "4606400009", "name": "USPS COLLECTION BOX - PO LOBBY", "address": {"city": "PENDLETON", "state": "IN", "street": "137 W STATE ST", "postcode": "46064"}}},
{"geometry": {"type": "Point", "coordinates": [-85.7491826987, 39.9845139218]}, "type": "Feature", "properties": {"collection_times": [{"days": "Mon-Sat", "time": "3:00pm"}, {"days": "Sun", "time": "Closed"}], "id": "4606400010", "name": "USPS COLLECTION BOX - BLUE BOX", "address": {"city": "PENDLETON", "state": "IN", "street": "3015 W US HIGHWAY 36", "postcode": "46064"}}},
{"geometry": {"type": "Point", "coordinates": [-85.769336592, 40.003540922]}, "type": "Feature", "properties": {"collection_times": [{"days": "Mon-Sat", "time": "1:00pm"}, {"days": "Sun", "time": "Closed"}], "id": "4606400011", "name": "USPS COLLECTION BOX - BLUE BOX", "address": {"city": "PENDLETON", "state": "IN", "street": "11 ENTERPRISE DR", "postcode": "46064"}}},
{"geometry": {"type": "Point", "coordinates": [-86.5954011561, 40.4169042007]}, "type": "Feature", "properties": {"collection_times": [{"days": "Mon-Fri", "time": "4:00pm"}, {"days": "Sat", "time": "11:00am"}, {"days": "Sun", "time": "Closed"}], "id": "4606500001", "name": "USPS COLLECTION BOX - BLUE BOX", "address": {"city": "ROSSVILLE", "state": "IN", "street": "27 W MAIN ST", "postcode": "46065"}}},
{"geometry": {"type": "Point", "coordinates": [-86.5954011561, 40.4169042007]}, "type": "Feature", "properties": {"collection_times": [{"days": "Mon-Fri", "time": "4:00pm"}, {"days": "Sat", "time": "11:00am"}, {"days": "Sun", "time": "Closed"}], "id": "4606500002", "name": "USPS COLLECTION BOX - PO LOBBY", "address": {"city": "ROSSVILLE", "state": "IN", "street": "27 W MAIN ST", "postcode": "46065"}}},
{"geometry": {"type": "Point", "coordinates": [-86.5954011561, 40.4169042007]}, "type": "Feature", "properties": {"collection_times": [{"days": "Mon-Fri", "time": "4:00pm"}, {"days": "Sat", "time": "11:00am"}, {"days": "Sun", "time": "Closed"}], "id": "4606500003", "name": "USPS COLLECTION BOX - PO LOBBY", "address": {"city": "ROSSVILLE", "state": "IN", "street": "27 W MAIN ST", "postcode": "46065"}}},
{"geometry": {"type": "Point", "coordinates": [-86.51522025, 40.4166769407]}, "type": "Feature", "properties": {"collection_times": [{"days": "Mon-Fri", "time": "2:30pm"}, {"days": "Sat", "time": "10:30am"}, {"days": "Sun", "time": "Closed"}], "id": "4606700001", "name": "USPS COLLECTION BOX - BLUE BOX", "address": {"city": "SEDALIA", "state": "IN", "street": "470 W STATE ROAD 26", "postcode": "46067"}}},
{"geometry": {"type": "Point", "coordinates": [-86.51522025, 40.4166769407]}, "type": "Feature", "properties": {"collection_times": [{"days": "Mon-Fri", "time": "10:45am"}, {"days": "Sat", "time": "10:30am"}, {"days": "Sun", "time": "Closed"}], "id": "4606700002", "name": "USPS COLLECTION BOX - PO LOBBY", "address": {"city": "SEDALIA", "state": "IN", "street": "470 W STATE ROAD 26", "postcode": "46067"}}},
{"geometry": {"type": "Point", "coordinates": [-86.51522025, 40.4166769407]}, "type": "Feature", "properties": {"collection_times": [{"days": "Mon-Fri", "time": "10:45am"}, {"days": "Sat", "time": "10:30am"}, {"days": "Sun", "time": "Closed"}], "id": "4606700003", "name": "USPS COLLECTION BOX - PO LOBBY", "address": {"city": "SEDALIA", "state": "IN", "street": "470 W STATE ROAD 26", "postcode": "46067"}}},
{"geometry": {"type": "Point", "coordinates": [-86.0860404473, 40.377738207]}, "type": "Feature", "properties": {"collection_times": [{"days": "Mon-Fri", "time": "3:30pm"}, {"days": "Sat", "time": "11:00am"}, {"days": "Sun", "time": "Closed"}], "id": "4606800001", "name": "USPS COLLECTION BOX - BLUE BOX", "address": {"city": "SHARPSVILLE", "state": "IN", "street": "202 S MAIN ST", "postcode": "46068"}}},
{"geometry": {"type": "Point", "coordinates": [-86.0860404473, 40.377738207]}, "type": "Feature", "properties": {"collection_times": [{"days": "Mon-Fri", "time": "3:30pm"}, {"days": "Sat", "time": "11:00am"}, {"days": "Sun", "time": "Closed"}], "id": "4606800002", "name": "USPS COLLECTION BOX - PO LOBBY", "address": {"city": "SHARPSVILLE", "state": "IN", "street": "202 S MAIN ST", "postcode": "46068"}}},
{"geometry": {"type": "Point", "coordinates": [-86.2212384463, 40.1353132809]}, "type": "Feature", "properties": {"collection_times": [{"days": "Mon-Fri", "time": "4:30pm"}, {"days": "Sat", "time": "3:30pm"}, {"days": "Sun", "time": "Closed"}], "id": "4606900000", "name": "USPS COLLECTION BOX - BLUE BOX", "address": {"city": "SHERIDAN", "state": "IN", "street": "107 W 4TH ST", "postcode": "46069"}}},
{"geometry": {"type": "Point", "coordinates": [-86.2206404585, 40.1354107379]}, "type": "Feature", "properties": {"collection_times": [{"days": "Mon-Fri", "time": "3:15pm"}, {"days": "Sat", "time": "2:30pm"}, {"days": "Sun", "time": "Closed"}], "id": "4606900008", "name": "USPS COLLECTION BOX - BLUE BOX", "address": {"city": "SHERIDAN", "state": "IN", "street": "322 S MAIN ST", "postcode": "46069"}}},
{"geometry": {"type": "Point", "coordinates": [-86.2212384463, 40.1353132809]}, "type": "Feature", "properties": {"collection_times": [{"days": "Mon-Fri", "time": "4:30pm"}, {"days": "Sat", "time": "3:30pm"}, {"days": "Sun", "time": "Closed"}], "id": "4606900010", "name": "USPS COLLECTION BOX - PO LOBBY", "address": {"city": "SHERIDAN", "state": "IN", "street": "107 W 4TH ST", "postcode": "46069"}}},
{"geometry": {"type": "Point", "coordinates": [-85.6449599066, 40.3378376176]}, "type": "Feature", "properties": {"collection_times": [{"days": "Mon-Fri", "time": "3:30pm"}, {"days": "Sat", "time": "11:00am"}, {"days": "Sun", "time": "Closed"}], "id": "4607000001", "name": "USPS COLLECTION BOX - BLUE BOX", "address": {"city": "SUMMITVILLE", "state": "IN", "street": "120 S MAIN ST", "postcode": "46070"}}},
{"geometry": {"type": "Point", "coordinates": [-85.6451256906, 40.337526749]}, "type": "Feature", "properties": {"collection_times": [{"days": "Mon-Fri", "time": "12:00pm"}, {"days": "Sat", "time": "11:00am"}, {"days": "Sun", "time": "Closed"}], "id": "4607000003", "name": "USPS COLLECTION BOX - PO LOBBY", "address": {"city": "SUMMITVILLE", "state": "IN", "street": "120 S MAIN ST", "postcode": "46070"}}},
{"geometry": {"type": "Point", "coordinates": [-86.6065112314, 40.1306374959]}, "type": "Feature", "properties": {"collection_times": [{"days": "Mon-Fri", "time": "3:45pm"}, {"days": "Sat", "time": "11:15am"}, {"days": "Sun", "time": "Closed"}], "id": "4607100001", "name": "USPS COLLECTION BOX - BLUE BOX", "address": {"city": "THORNTOWN", "state": "IN", "street": "200 N MARKET ST", "postcode": "46071"}}},
{"geometry": {"type": "Point", "coordinates": [-86.6062492025, 40.1293453038]}, "type": "Feature", "properties": {"collection_times": [{"days": "Mon-Fri", "time": "3:30pm"}, {"days": "Sat-Sun", "time": "Closed"}], "id": "4607100004", "name": "USPS COLLECTION BOX - BLUE BOX", "address": {"city": "THORNTOWN", "state": "IN", "street": "117 E MAIN ST", "postcode": "46071"}}},
{"geometry": {"type": "Point", "coordinates": [-86.6065112314, 40.1306374959]}, "type": "Feature", "properties": {"collection_times": [{"days": "Mon-Fri", "time": "3:45pm"}, {"days": "Sat", "time": "11:15am"}, {"days": "Sun", "time": "Closed"}], "id": "4607100006", "name": "USPS COLLECTION BOX - PO LOBBY", "address": {"city": "THORNTOWN", "state": "IN", "street": "200 N MARKET ST", "postcode": "46071"}}},
{"geometry": {"type": "Point", "coordinates": [-86.6259763458, 40.0544595178]}, "type": "Feature", "properties": {"collection_times": [{"days": "Mon-Fri", "time": "10:15am"}, {"days": "Sat-Sun", "time": "Closed"}], "id": "4607100007", "name": "USPS COLLECTION BOX - BLUE BOX", "address": {"city": "THORNTOWN", "state": "IN", "street": "7984 W STATE ROAD 32", "postcode": "46071"}}},
{"geometry": {"type": "Point", "coordinates": [-86.0394436415, 40.2822413681]}, "type": "Feature", "properties": {"collection_times": [{"days": "Mon-Fri", "time": "4:30pm"}, {"days": "Sat", "time": "3:00pm"}, {"days": "Sun", "time": "Closed"}], "id": "4607200022", "name": "USPS COLLECTION BOX - BLUE BOX", "address": {"city": "TIPTON", "state": "IN", "street": "203 E JEFFERSON ST", "postcode": "46072"}}},
{"geometry": {"type": "Point", "coordinates": [-86.0404479722, 40.2820503763]}, "type": "Feature", "properties": {"collection_times": [{"days": "Mon-Fri", "time": "3:00pm"}, {"days": "Sat", "time": "9:00am"}, {"days": "Sun", "time": "Closed"}], "id": "4607200023", "name": "USPS COLLECTION BOX - BLUE BOX", "address": {"city": "TIPTON", "state": "IN", "street": "114 COURT ST", "postcode": "46072"}}},
{"geometry": {"type": "Point", "coordinates": [-86.0394436415, 40.2822413681]}, "type": "Feature", "properties": {"collection_times": [{"days": "Mon-Fri", "time": "4:30pm"}, {"days": "Sat", "time": "3:00pm"}, {"days": "Sun", "time": "Closed"}], "id": "4607200026", "name": "USPS COLLECTION BOX - PO LOBBY", "address": {"city": "TIPTON", "state": "IN", "street": "203 E JEFFERSON ST", "postcode": "46072"}}},
{"geometry": {"type": "Point", "coordinates": [-86.0244985862, 40.2831898585]}, "type": "Feature", "properties": {"collection_times": [{"days": "Mon-Fri", "time": "3:00pm"}, {"days": "Sat", "time": "11:00am"}, {"days": "Sun", "time": "Closed"}], "id": "4607200028", "name": "USPS COLLECTION BOX - BLUE BOX", "address": {"city": "TIPTON", "state": "IN", "street": "840 E JEFFERSON ST", "postcode": "46072"}}},
{"geometry": {"type": "Point", "coordinates": [-86.1514660434, 40.0418042975]}, "type": "Feature", "properties": {"collection_times": [{"days": "Mon-Fri", "time": "4:45pm"}, {"days": "Sat", "time": "2:00pm"}, {"days": "Sun", "time": "Closed"}], "id": "4607400003", "name": "USPS COLLECTION BOX - PO LOBBY", "address": {"city": "WESTFIELD", "state": "IN", "street": "17520 DARTOWN RD", "postcode": "46074"}}},
{"geometry": {"type": "Point", "coordinates": [-86.1514660434, 40.0418042975]}, "type": "Feature", "properties": {"collection_times": [{"days": "Mon-Fri", "time": "4:45pm"}, {"days": "Sat", "time": "2:00pm"}, {"days": "Sun", "time": "Closed"}], "id": "4607400004", "name": "USPS COLLECTION BOX - PO LOBBY", "address": {"city": "WESTFIELD", "state": "IN", "street": "17520 DARTOWN RD", "postcode": "46074"}}},
{"geometry": {"type": "Point", "coordinates": [-86.1514660434, 40.0418042975]}, "type": "Feature", "properties": {"collection_times": [{"days": "Mon-Fri", "time": "4:30pm"}, {"days": "Sat", "time": "2:00pm"}, {"days": "Sun", "time": "Closed"}], "id": "4607400005", "name": "USPS COLLECTION BOX - BLUE BOX", "address": {"city": "WESTFIELD", "state": "IN", "street": "17520 DARTOWN RD", "postcode": "46074"}}},
{"geometry": {"type": "Point", "coordinates": [-86.1277225807, 40.0424751157]}, "type": "Feature", "properties": {"collection_times": [{"days": "Mon-Fri", "time": "1:00pm"}, {"days": "Sat", "time": "11:00am"}, {"days": "Sun", "time": "Closed"}], "id": "4607400007", "name": "USPS COLLECTION BOX - BLUE BOX", "address": {"city": "WESTFIELD", "state": "IN", "street": "103 S UNION ST", "postcode": "46074"}}},
{"geometry": {"type": "Point", "coordinates": [-86.1514660434, 40.0418042975]}, "type": "Feature", "properties": {"collection_times": [{"days": "Mon-Fri", "time": "4:45pm"}, {"days": "Sat", "time": "2:00pm"}, {"days": "Sun", "time": "Closed"}], "id": "4607400010", "name": "USPS COLLECTION BOX - APC", "address": {"city": "WESTFIELD", "state": "IN", "street": "17520 DARTOWN RD", "postcode": "46074"}}},
{"geometry": {"type": "Point", "coordinates": [-86.3462467788, 39.9958917311]}, "type": "Feature", "properties": {"collection_times": [{"days": "Mon-Fri", "time": "3:30pm"}, {"days": "Sat", "time": "10:30am"}, {"days": "Sun", "time": "Closed"}], "id": "4607500001", "name": "USPS COLLECTION BOX - BLUE BOX", "address": {"city": "WHITESTOWN", "state": "IN", "street": "110 PORTER AVE", "postcode": "46075"}}},
{"geometry": {"type": "Point", "coordinates": [-86.3462467788, 39.9958917311]}, "type": "Feature", "properties": {"collection_times": [{"days": "Mon-Fri", "time": "3:30pm"}, {"days": "Sat", "time": "10:30am"}, {"days": "Sun", "time": "Closed"}], "id": "4607500002", "name": "USPS COLLECTION BOX - PO LOBBY", "address": {"city": "WHITESTOWN", "state": "IN", "street": "110 PORTER AVE", "postcode": "46075"}}},
{"geometry": {"type": "Point", "coordinates": [-86.3462467788, 39.9958917311]}, "type": "Feature", "properties": {"collection_times": [{"days": "Mon-Fri", "time": "3:30pm"}, {"days": "Sat", "time": "10:30am"}, {"days": "Sun", "time": "Closed"}], "id": "4607500003", "name": "USPS COLLECTION BOX - PO LOBBY", "address": {"city": "WHITESTOWN", "state": "IN", "street": "110 PORTER AVE", "postcode": "46075"}}},
{"geometry": {"type": "Point", "coordinates": [-85.9564959139, 40.3629661506]}, "type": "Feature", "properties": {"collection_times": [{"days": "Mon-Fri", "time": "4:00pm"}, {"days": "Sat", "time": "10:00am"}, {"days": "Sun", "time": "Closed"}], "id": "4607600001", "name": "USPS COLLECTION BOX - BLUE BOX", "address": {"city": "WINDFALL", "state": "IN", "street": "106 MCCLELLAN ST", "postcode": "46076"}}},
{"geometry": {"type": "Point", "coordinates": [-85.9564959139, 40.3629661506]}, "type": "Feature", "properties": {"collection_times": [{"days": "Mon-Fri", "time": "4:00pm"}, {"days": "Sat", "time": "10:00am"}, {"days": "Sun", "time": "Closed"}], "id": "4607600002", "name": "USPS COLLECTION BOX - PO LOBBY", "address": {"city": "WINDFALL", "state": "IN", "street": "106 MCCLELLAN ST", "postcode": "46076"}}},
{"geometry": {"type": "Point", "coordinates": [-86.2805582089, 39.9501505996]}, "type": "Feature", "properties": {"collection_times": [{"days": "Mon-Fri", "time": "4:30pm"}, {"days": "Sat", "time": "3:15pm"}, {"days": "Sun", "time": "Closed"}], "id": "4607700002", "name": "USPS COLLECTION BOX - BLUE BOX", "address": {"city": "ZIONSVILLE", "state": "IN", "street": "1475 W OAK ST", "postcode": "46077"}}},
{"geometry": {"type": "Point", "coordinates": [-86.2805582089, 39.9501505996]}, "type": "Feature", "properties": {"collection_times": [{"days": "Mon-Fri", "time": "4:30pm"}, {"days": "Sat", "time": "3:15pm"}, {"days": "Sun", "time": "Closed"}], "id": "4607700004", "name": "USPS COLLECTION BOX - BLUE BOX", "address": {"city": "ZIONSVILLE", "state": "IN", "street": "1475 W OAK ST", "postcode": "46077"}}},
{"geometry": {"type": "Point", "coordinates": [-86.2781209084, 39.9533575114]}, "type": "Feature", "properties": {"collection_times": [{"days": "Mon-Fri", "time": "1:00pm"}, {"days": "Sat", "time": "10:00am"}, {"days": "Sun", "time": "Closed"}], "id": "4607700005", "name": "USPS COLLECTION BOX - BLUE BOX", "address": {"city": "ZIONSVILLE", "state": "IN", "street": "1380 SAYLOR DR", "postcode": "46077"}}},
{"geometry": {"type": "Point", "coordinates": [-86.2370294618, 39.9374600227]}, "type": "Feature", "properties": {"collection_times": [{"days": "Mon-Fri", "time": "3:00pm"}, {"days": "Sat", "time": "10:00am"}, {"days": "Sun", "time": "Closed"}], "id": "4607700010", "name": "USPS COLLECTION BOX - BLUE BOX", "address": {"city": "ZIONSVILLE", "state": "IN", "street": "10679 N MICHIGAN RD", "postcode": "46077"}}},
{"geometry": {"type": "Point", "coordinates": [-86.2805582089, 39.9501505996]}, "type": "Feature", "properties": {"collection_times": [{"days": "Mon-Fri", "time": "4:30pm"}, {"days": "Sat", "time": "3:15pm"}, {"days": "Sun", "time": "Closed"}], "id": "4607700013", "name": "USPS COLLECTION BOX - PO LOBBY", "address": {"city": "ZIONSVILLE", "state": "IN", "street": "1475 W OAK ST", "postcode": "46077"}}},
{"geometry": {"type": "Point", "coordinates": [-86.2805582089, 39.9501505996]}, "type": "Feature", "properties": {"collection_times": [{"days": "Mon-Fri", "time": "4:30pm"}, {"days": "Sat", "time": "3:15pm"}, {"days": "Sun", "time": "Closed"}], "id": "4607700014", "name": "USPS COLLECTION BOX - PO LOBBY", "address": {"city": "ZIONSVILLE", "state": "IN", "street": "1475 W OAK ST", "postcode": "46077"}}},
{"geometry": {"type": "Point", "coordinates": [-86.2615058969, 39.950315253]}, "type": "Feature", "properties": {"collection_times": [{"days": "Mon-Fri", "time": "3:00pm"}, {"days": "Sat", "time": "10:00am"}, {"days": "Sun", "time": "Closed"}], "id": "4607700017", "name": "USPS COLLECTION BOX - BLUE BOX", "address": {"city": "ZIONSVILLE", "state": "IN", "street": "205 S MAIN ST", "postcode": "46077"}}},
{"geometry": {"type": "Point", "coordinates": [-86.2805582089, 39.9501505996]}, "type": "Feature", "properties": {"collection_times": [{"days": "Mon-Fri", "time": "4:30pm"}, {"days": "Sat", "time": "3:15pm"}, {"days": "Sun", "time": "Closed"}], "id": "4607700019", "name": "USPS COLLECTION BOX - APC", "address": {"city": "ZIONSVILLE", "state": "IN", "street": "1475 W OAK ST", "postcode": "46077"}}}
]}
