{"type": "FeatureCollection", "features": [
{"geometry": {"type": "Point", "coordinates": [-86.6198710116, 39.9964840356]}, "type": "Feature", "properties": {"collection_times": [{"days": "Mon-Fri", "time": "3:45pm"}, {"days": "Sat", "time": "10:15am"}, {"days": "Sun", "time": "Closed"}], "id": "4610200000", "name": "USPS COLLECTION BOX - BLUE BOX", "address": {"city": "ADVANCE", "state": "IN", "street": "110 N MAIN ST", "postcode": "46102"}}},
{"geometry": {"type": "Point", "coordinates": [-86.6198710116, 39.9964840356]}, "type": "Feature", "properties": {"collection_times": [{"days": "Mon-Fri", "time": "11:45am"}, {"days": "Sat", "time": "10:15am"}, {"days": "Sun", "time": "Closed"}], "id": "4610200001", "name": "USPS COLLECTION BOX - PO LOBBY", "address": {"city": "ADVANCE", "state": "IN", "street": "110 N MAIN ST", "postcode": "46102"}}},
{"geometry": {"type": "Point", "coordinates": [-86.6133630479, 39.6893795368]}, "type": "Feature", "properties": {"collection_times": [{"days": "Mon-Fri", "time": "4:30pm"}, {"days": "Sat", "time": "10:00am"}, {"days": "Sun", "time": "Closed"}], "id": "4610300001", "name": "USPS COLLECTION BOX - BLUE BOX", "address": {"city": "AMO", "state": "IN", "street": "4925 PEARL ST", "postcode": "46103"}}},
{"geometry": {"type": "Point", "coordinates": [-86.6133630479, 39.6893795368]}, "type": "Feature", "properties": {"collection_times": [{"days": "Mon-Fri", "time": "11:45am"}, {"days": "Sat", "time": "10:15am"}, {"days": "Sun", "time": "Closed"}], "id": "4610300003", "name": "USPS COLLECTION BOX - PO LOBBY", "address": {"city": "AMO", "state": "IN", "street": "4925 PEARL ST", "postcode": "46103"}}},
{"geometry": {"type": "Point", "coordinates": [-85.5760695237, 39.6420470268]}, "type": "Feature", "properties": {"collection_times": [{"days": "Mon-Fri", "time": "4:30pm"}, {"days": "Sat", "time": "10:00am"}, {"days": "Sun", "time": "Closed"}], "id": "4610400001", "name": "USPS COLLECTION BOX - BLUE BOX", "address": {"city": "ARLINGTON", "state": "IN", "street": "2150 N 700 W", "postcode": "46104"}}},
{"geometry": {"type": "Point", "coordinates": [-85.5760695237, 39.6420470268]}, "type": "Feature", "properties": {"collection_times": [{"days": "Mon-Fri", "time": "11:45am"}, {"days": "Sat", "time": "10:15am"}, {"days": "Sun", "time": "Closed"}], "id": "4610400002", "name": "USPS COLLECTION BOX - PO LOBBY", "address": {"city": "ARLINGTON", "state": "IN", "street": "2150 N 700 W", "postcode": "46104"}}},
{"geometry": {"type": "Point", "coordinates": [-86.8209081844, 39.7614537609]}, "type": "Feature", "properties": {"collection_times": [{"days": "Mon-Fri", "time": "3:15pm"}, {"days": "Sat", "time": "10:45am"}, {"days": "Sun", "time": "Closed"}], "id": "4610500001", "name": "USPS COLLECTION BOX - BLUE BOX", "address": {"city": "BAINBRIDGE", "state": "IN", "street": "106 W MAIN ST", "postcode": "46105"}}},
{"geometry": {"type": "Point", "coordinates": [-86.8209081844, 39.7614537609]}, "type": "Feature", "properties": {"collection_times": [{"days": "Mon-Fri", "time": "3:30pm"}, {"days": "Sat", "time": "11:00am"}, {"days": "Sun", "time": "Closed"}], "id": "4610500002", "name": "USPS COLLECTION BOX - PO LOBBY", "address": {"city": "BAINBRIDGE", "state": "IN", "street": "106 W MAIN ST", "postcode": "46105"}}},
{"geometry": {"type": "Point", "coordinates": [-86.1674951628, 39.5209936791]}, "type": "Feature", "properties": {"collection_times": [{"days": "Mon-Fri", "time": "4:30pm"}, {"days": "Sat", "time": "11:00am"}, {"days": "Sun", "time": "Closed"}], "id": "4610600001", "name": "USPS COLLECTION BOX - BLUE BOX", "address": {"city": "BARGERSVILLE", "state": "IN", "street": "71 E HARRIMAN AVE", "postcode": "46106"}}},
{"geometry": {"type": "Point", "coordinates": [-86.1674951628, 39.5209936791]}, "type": "Feature", "properties": {"collection_times": [{"days": "Mon-Fri", "time": "4:30pm"}, {"days": "Sat", "time": "11:00am"}, {"days": "Sun", "time": "Closed"}], "id": "4610600002", "name": "USPS COLLECTION BOX - PO LOBBY", "address": {"city": "BARGERSVILLE", "state": "IN", "street": "71 E HARRIMAN AVE", "postcode": "46106"}}},
{"geometry": {"type": "Point", "coordinates": [-86.1674951628, 39.5209936791]}, "type": "Feature", "properties": {"collection_times": [{"days": "Mon-Fri", "time": "4:30pm"}, {"days": "Sat", "time": "11:00am"}, {"days": "Sun", "time": "Closed"}], "id": "4610600003", "name": "USPS COLLECTION BOX - PO LOBBY", "address": {"city": "BARGERSVILLE", "state": "IN", "street": "71 E HARRIMAN AVE", "postcode": "46106"}}},
{"geometry": {"type": "Point", "coordinates": [-86.08272062, 39.71363843]}, "type": "Feature", "properties": {"collection_times": [{"days": "Mon-Sat", "time": "2:00pm"}, {"days": "Sun", "time": "Closed"}], "id": "4610700001", "name": "USPS COLLECTION BOX - BLUE BOX", "address": {"city": "BEECH GROVE", "state": "IN", "street": "3535 S EMERSON AVE STE 2", "postcode": "46107"}}},
{"geometry": {"type": "Point", "coordinates": [-86.0838743069, 39.7218314607]}, "type": "Feature", "properties": {"collection_times": [{"days": "Mon-Fri", "time": "5:00pm"}, {"days": "Sat", "time": "3:00pm"}, {"days": "Sun", "time": "Closed"}], "id": "4610700006", "name": "USPS COLLECTION BOX - BLUE BOX", "address": {"city": "BEECH GROVE", "state": "IN", "street": "202 MAIN ST", "postcode": "46107"}}},
{"geometry": {"type": "Point", "coordinates": [-86.1033247172, 39.7233147096]}, "type": "Feature", "properties": {"collection_times": [{"days": "Mon-Sat", "time": "2:00pm"}, {"days": "Sun", "time": "Closed"}], "id": "4610700014", "name": "USPS COLLECTION BOX - BLUE BOX", "address": {"city": "BEECH GROVE", "state": "IN", "street": "1825 ALBANY ST", "postcode": "46107"}}},
{"geometry": {"type": "Point", "coordinates": [-86.087556392, 39.7217122434]}, "type": "Feature", "properties": {"collection_times": [{"days": "Mon-Sat", "time": "2:00pm"}, {"days": "Sun", "time": "Closed"}], "id": "4610700017", "name": "USPS COLLECTION BOX - BLUE BOX", "address": {"city": "BEECH GROVE", "state": "IN", "street": "501 MAIN ST", "postcode": "46107"}}},
{"geometry": {"type": "Point", "coordinates": [-86.0909830277, 39.7217160714]}, "type": "Feature", "properties": {"collection_times": [{"days": "Mon-Sat", "time": "2:00pm"}, {"days": "Sun", "time": "Closed"}], "id": "4610700019", "name": "USPS COLLECTION BOX - BLUE BOX", "address": {"city": "BEECH GROVE", "state": "IN", "street": "802 MAIN ST", "postcode": "46107"}}},
{"geometry": {"type": "Point", "coordinates": [-86.0945601352, 39.7216796161]}, "type": "Feature", "properties": {"collection_times": [{"days": "Mon-Sat", "time": "2:00pm"}, {"days": "Sun", "time": "Closed"}], "id": "4610700020", "name": "USPS COLLECTION BOX - BLUE BOX", "address": {"city": "BEECH GROVE", "state": "IN", "street": "1102 MAIN ST", "postcode": "46107"}}},
{"geometry": {"type": "Point", "coordinates": [-86.0838743069, 39.7218314607]}, "type": "Feature", "properties": {"collection_times": [{"days": "Mon-Fri", "time": "5:00pm"}, {"days": "Sat", "time": "3:00pm"}, {"days": "Sun", "time": "Closed"}], "id": "4610700040", "name": "USPS COLLECTION BOX - PO LOBBY", "address": {"city": "BEECH GROVE", "state": "IN", "street": "202 MAIN ST", "postcode": "46107"}}},
{"geometry": {"type": "Point", "coordinates": [-86.0838743069, 39.7218314607]}, "type": "Feature", "properties": {"collection_times": [{"days": "Mon-Fri", "time": "5:00pm"}, {"days": "Sat", "time": "3:00pm"}, {"days": "Sun", "time": "Closed"}], "id": "4610700041", "name": "USPS COLLECTION BOX - PO LOBBY", "address": {"city": "BEECH GROVE", "state": "IN", "street": "202 MAIN ST", "postcode": "46107"}}},
{"geometry": {"type": "Point", "coordinates": [-85.9151004751, 39.5619221885]}, "type": "Feature", "properties": {"collection_times": [{"days": "Mon-Fri", "time": "12:00pm"}, {"days": "Sat", "time": "11:00am"}, {"days": "Sun", "time": "Closed"}], "id": "4611000001", "name": "USPS COLLECTION BOX - BLUE BOX", "address": {"city": "BOGGSTOWN", "state": "IN", "street": "6951 W LYNN LN", "postcode": "46110"}}},
{"geometry": {"type": "Point", "coordinates": [-86.370698378, 39.5386796025]}, "type": "Feature", "properties": {"collection_times": [{"days": "Mon-Fri", "time": "3:00pm"}, {"days": "Sat", "time": "10:30am"}, {"days": "Sun", "time": "Closed"}], "id": "4611100001", "name": "USPS COLLECTION BOX - BLUE BOX", "address": {"city": "BROOKLYN", "state": "IN", "street": "8 N MAIN ST", "postcode": "46111"}}},
{"geometry": {"type": "Point", "coordinates": [-86.370698378, 39.5386796025]}, "type": "Feature", "properties": {"collection_times": [{"days": "Mon-Fri", "time": "11:45am"}, {"days": "Sat", "time": "10:30am"}, {"days": "Sun", "time": "Closed"}], "id": "4611100002", "name": "USPS COLLECTION BOX - PO LOBBY", "address": {"city": "BROOKLYN", "state": "IN", "street": "8 N MAIN ST", "postcode": "46111"}}},
{"geometry": {"type": "Point", "coordinates": [-86.3857659295, 39.8566727128]}, "type": "Feature", "properties": {"collection_times": [{"days": "Mon-Fri", "time": "5:00pm"}, {"days": "Sat", "time": "3:30pm"}, {"days": "Sun", "time": "Closed"}], "id": "4611200000", "name": "USPS COLLECTION BOX - BLUE BOX", "address": {"city": "BROWNSBURG", "state": "IN", "street": "411 E NORTHFIELD DR", "postcode": "46112"}}},
{"geometry": {"type": "Point", "coordinates": [-86.4011852009, 39.8259216072]}, "type": "Feature", "properties": {"collection_times": [{"days": "Mon-Sat", "time": "11:00am"}, {"days": "Sun", "time": "Closed"}], "id": "4611200001", "name": "USPS COLLECTION BOX - BLUE BOX", "address": {"city": "BROWNSBURG", "state": "IN", "street": "1471 S GREEN ST", "postcode": "46112"}}},
{"geometry": {"type": "Point", "coordinates": [-86.3815142102, 39.837182588]}, "type": "Feature", "properties": {"collection_times": [{"days": "Mon-Sat", "time": "11:00am"}, {"days": "Sun", "time": "Closed"}], "id": "4611200004", "name": "USPS COLLECTION BOX - BLUE BOX", "address": {"city": "BROWNSBURG", "state": "IN", "street": "1008 E MAIN ST", "postcode": "46112"}}},
{"geometry": {"type": "Point", "coordinates": [-86.3938832974, 39.8523104516]}, "type": "Feature", "properties": {"collection_times": [{"days": "Mon-Sat", "time": "11:00am"}, {"days": "Sun", "time": "Closed"}], "id": "4611200007", "name": "USPS COLLECTION BOX - BLUE BOX", "address": {"city": "BROWNSBURG", "state": "IN", "street": "37 MOTIF BLVD", "postcode": "46112"}}},
{"geometry": {"type": "Point", "coordinates": [-86.3955229217, 39.8501170209]}, "type": "Feature", "properties": {"collection_times": [{"days": "Mon-Sat", "time": "11:00am"}, {"days": "Sun", "time": "Closed"}], "id": "4611200008", "name": "USPS COLLECTION BOX - BLUE BOX", "address": {"city": "BROWNSBURG", "state": "IN", "street": "931 N GREEN ST", "postcode": "46112"}}},
{"geometry": {"type": "Point", "coordinates": [-86.3900347283, 39.8573134502]}, "type": "Feature", "properties": {"collection_times": [{"days": "Mon-Sat", "time": "11:00am"}, {"days": "Sun", "time": "Closed"}], "id": "4611200009", "name": "USPS COLLECTION BOX - BLUE BOX", "address": {"city": "BROWNSBURG", "state": "IN", "street": "124 E NORTHFIELD DR", "postcode": "46112"}}},
{"geometry": {"type": "Point", "coordinates": [-86.3857659295, 39.8566727128]}, "type": "Feature", "properties": {"collection_times": [{"days": "Mon-Fri", "time": "5:00pm"}, {"days": "Sat", "time": "3:30pm"}, {"days": "Sun", "time": "Closed"}], "id": "4611200021", "name": "USPS COLLECTION BOX - PO LOBBY", "address": {"city": "BROWNSBURG", "state": "IN", "street": "411 E NORTHFIELD DR", "postcode": "46112"}}},
{"geometry": {"type": "Point", "coordinates": [-86.3926608155, 39.8560180751]}, "type": "Feature", "properties": {"collection_times": [{"days": "Mon-Sat", "time": "11:00am"}, {"days": "Sun", "time": "Closed"}], "id": "4611200024", "name": "USPS COLLECTION BOX - BLUE BOX", "address": {"city": "BROWNSBURG", "state": "IN", "street": "1551 N GREEN ST", "postcode": "46112"}}},
{"geometry": {"type": "Point", "coordinates": [-86.3857659295, 39.8566727128]}, "type": "Feature", "properties": {"collection_times": [{"days": "Mon-Fri", "time": "5:00pm"}, {"days": "Sat", "time": "3:30pm"}, {"days": "Sun", "time": "Closed"}], "id": "4611200025", "name": "USPS COLLECTION BOX - APC", "address": {"city": "BROWNSBURG", "state": "IN", "street": "411 E NORTHFIELD DR", "postcode": "46112"}}},
{"geometry": {"type": "Point", "coordinates": [-86.3977102339, 39.8436875041]}, "type": "Feature", "properties": {"collection_times": [{"days": "Mon-Fri", "time": "3:00pm"}, {"days": "Sat", "time": "12:00pm"}, {"days": "Sun", "time": "Closed"}], "id": "4611200026", "name": "USPS COLLECTION BOX - BLUE BOX", "address": {"city": "BROWNSBURG", "state": "IN", "street": "61 N GREEN ST", "postcode": "46112"}}},
{"geometry": {"type": "Point", "coordinates": [-86.3072283229, 39.6618367754]}, "type": "Feature", "properties": {"collection_times": [{"days": "Mon-Fri", "time": "4:00pm"}, {"days": "Sat", "time": "10:00am"}, {"days": "Sun", "time": "Closed"}], "id": "4611300000", "name": "USPS COLLECTION BOX - BLUE BOX", "address": {"city": "CAMBY", "state": "IN", "street": "8255 CAMBY RD", "postcode": "46113"}}},
{"geometry": {"type": "Point", "coordinates": [-86.3072283229, 39.6618367754]}, "type": "Feature", "properties": {"collection_times": [{"days": "Mon-Fri", "time": "4:00pm"}, {"days": "Sat", "time": "10:00am"}, {"days": "Sun", "time": "Closed"}], "id": "4611300002", "name": "USPS COLLECTION BOX - PO LOBBY", "address": {"city": "CAMBY", "state": "IN", "street": "8255 CAMBY RD", "postcode": "46113"}}},
{"geometry": {"type": "Point", "coordinates": [-86.3361760178, 39.6406160696]}, "type": "Feature", "properties": {"collection_times": [{"days": "Mon-Fri", "time": "11:30am"}, {"days": "Sat-Sun", "time": "Closed"}], "id": "4611300003", "name": "USPS COLLECTION BOX - BLUE BOX", "address": {"city": "CAMBY", "state": "IN", "street": "10509 HEARTLAND BLVD", "postcode": "46113"}}},
{"geometry": {"type": "Point", "coordinates": [-85.5719416161, 39.7382388116]}, "type": "Feature", "properties": {"collection_times": [{"days": "Mon-Fri", "time": "4:00pm"}, {"days": "Sat", "time": "11:00am"}, {"days": "Sun", "time": "Closed"}], "id": "4611500001", "name": "USPS COLLECTION BOX - BLUE BOX", "address": {"city": "CARTHAGE", "state": "IN", "street": "2 W MILL ST", "postcode": "46115"}}},
{"geometry": {"type": "Point", "coordinates": [-85.5719416161, 39.7382388116]}, "type": "Feature", "properties": {"collection_times": [{"days": "Mon-Fri", "time": "2:15pm"}, {"days": "Sat", "time": "11:00am"}, {"days": "Sun", "time": "Closed"}], "id": "4611500002", "name": "USPS COLLECTION BOX - PO LOBBY", "address": {"city": "CARTHAGE", "state": "IN", "street": "2 W MILL ST", "postcode": "46115"}}},
{"geometry": {"type": "Point", "coordinates": [-85.6114700908, 39.7914843795]}, "type": "Feature", "properties": {"collection_times": [{"days": "Mon-Fri", "time": "3:45pm"}, {"days": "Sat", "time": "10:45am"}, {"days": "Sun", "time": "Closed"}], "id": "4611700000", "name": "USPS COLLECTION BOX - BLUE BOX", "address": {"city": "CHARLOTTESVILLE", "state": "IN", "street": "10372 E US HIGHWAY 40", "postcode": "46117"}}},
{"geometry": {"type": "Point", "coordinates": [-86.5222872945, 39.6890404823]}, "type": "Feature", "properties": {"collection_times": [{"days": "Mon-Fri", "time": "4:30pm"}, {"days": "Sat", "time": "12:15pm"}, {"days": "Sun", "time": "Closed"}], "id": "4611800000", "name": "USPS COLLECTION BOX - BLUE BOX", "address": {"city": "CLAYTON", "state": "IN", "street": "38 E KENTUCKY ST", "postcode": "46118"}}},
{"geometry": {"type": "Point", "coordinates": [-86.4798221473, 39.6082391889]}, "type": "Feature", "properties": {"collection_times": [{"days": "Mon-Fri", "time": "10:30am"}, {"days": "Sat-Sun", "time": "Closed"}], "id": "4611800002", "name": "USPS COLLECTION BOX - BLUE BOX", "address": {"city": "CLAYTON", "state": "IN", "street": "10346 S STATE ROAD 39", "postcode": "46118"}}},
{"geometry": {"type": "Point", "coordinates": [-86.5220597338, 39.6156399535]}, "type": "Feature", "properties": {"collection_times": [{"days": "Mon-Fri", "time": "11:00am"}, {"days": "Sat", "time": "10:00am"}, {"days": "Sun", "time": "Closed"}], "id": "4611800003", "name": "USPS COLLECTION BOX - BLUE BOX", "address": {"city": "CLAYTON", "state": "IN", "street": "9989 S COUNTY ROAD 0", "postcode": "46118"}}},
{"geometry": {"type": "Point", "coordinates": [-86.5222872945, 39.6890404823]}, "type": "Feature", "properties": {"collection_times": [{"days": "Mon-Fri", "time": "4:30pm"}, {"days": "Sat", "time": "12:15pm"}, {"days": "Sun", "time": "Closed"}], "id": "4611800005", "name": "USPS COLLECTION BOX - PO LOBBY", "address": {"city": "CLAYTON", "state": "IN", "street": "38 E KENTUCKY ST", "postcode": "46118"}}},
{"geometry": {"type": "Point", "coordinates": [-86.5222872945, 39.6890404823]}, "type": "Feature", "properties": {"collection_times": [{"days": "Mon-Fri", "time": "4:30pm"}, {"days": "Sat", "time": "12:15pm"}, {"days": "Sun", "time": "Closed"}], "id": "4611800006", "name": "USPS COLLECTION BOX - PO LOBBY", "address": {"city": "CLAYTON", "state": "IN", "street": "38 E KENTUCKY ST", "postcode": "46118"}}},
{"geometry": {"type": "Point", "coordinates": [-86.7943219137, 39.5148444973]}, "type": "Feature", "properties": {"collection_times": [{"days": "Mon-Fri", "time": "4:00pm"}, {"days": "Sat", "time": "10:30am"}, {"days": "Sun", "time": "Closed"}], "id": "4612000001", "name": "USPS COLLECTION BOX - BLUE BOX", "address": {"city": "CLOVERDALE", "state": "IN", "street": "10 N MAIN ST", "postcode": "46120"}}},
{"geometry": {"type": "Point", "coordinates": [-86.7943219137, 39.5148444973]}, "type": "Feature", "properties": {"collection_times": [{"days": "Mon-Fri", "time": "4:00pm"}, {"days": "Sat", "time": "10:30am"}, {"days": "Sun", "time": "Closed"}], "id": "4612000003", "name": "USPS COLLECTION BOX - PO LOBBY", "address": {"city": "CLOVERDALE", "state": "IN", "street": "10 N MAIN ST", "postcode": "46120"}}},
{"geometry": {"type": "Point", "coordinates": [-86.6705171488, 39.6881035829]}, "type": "Feature", "properties": {"collection_times": [{"days": "Mon-Fri", "time": "4:15pm"}, {"days": "Sat", "time": "11:00am"}, {"days": "Sun", "time": "Closed"}], "id": "4612100001", "name": "USPS COLLECTION BOX - BLUE BOX", "address": {"city": "COATESVILLE", "state": "IN", "street": "8041 MAIN ST", "postcode": "46121"}}},
{"geometry": {"type": "Point", "coordinates": [-86.6705171488, 39.6881035829]}, "type": "Feature", "properties": {"collection_times": [{"days": "Mon-Fri", "time": "4:30pm"}, {"days": "Sat", "time": "11:00am"}, {"days": "Sun", "time": "Closed"}], "id": "4612100002", "name": "USPS COLLECTION BOX - PO LOBBY", "address": {"city": "COATESVILLE", "state": "IN", "street": "8041 MAIN ST", "postcode": "46121"}}},
{"geometry": {"type": "Point", "coordinates": [-86.6705171488, 39.6881035829]}, "type": "Feature", "properties": {"collection_times": [{"days": "Mon-Fri", "time": "4:30pm"}, {"days": "Sat", "time": "11:00am"}, {"days": "Sun", "time": "Closed"}], "id": "4612100003", "name": "USPS COLLECTION BOX - PO LOBBY", "address": {"city": "COATESVILLE", "state": "IN", "street": "8041 MAIN ST", "postcode": "46121"}}},
{"geometry": {"type": "Point", "coordinates": [-86.523841178, 39.7608199107]}, "type": "Feature", "properties": {"collection_times": [{"days": "Mon-Sat", "time": "9:45am"}, {"days": "Sun", "time": "Closed"}], "id": "4612200005", "name": "USPS COLLECTION BOX - BLUE BOX", "address": {"city": "DANVILLE", "state": "IN", "street": "4 E MAIN ST", "postcode": "46122"}}},
{"geometry": {"type": "Point", "coordinates": [-86.5076742901, 39.7578269196]}, "type": "Feature", "properties": {"collection_times": [{"days": "Mon-Sat", "time": "10:30am"}, {"days": "Sun", "time": "Closed"}], "id": "4612200013", "name": "USPS COLLECTION BOX - BLUE BOX", "address": {"city": "DANVILLE", "state": "IN", "street": "785 E MAIN ST", "postcode": "46122"}}},
{"geometry": {"type": "Point", "coordinates": [-86.5009937808, 39.7607687493]}, "type": "Feature", "properties": {"collection_times": [{"days": "Mon-Fri", "time": "3:30pm"}, {"days": "Sat", "time": "10:00am"}, {"days": "Sun", "time": "Closed"}], "id": "4612200015", "name": "USPS COLLECTION BOX - BLUE BOX", "address": {"city": "DANVILLE", "state": "IN", "street": "1000 E MAIN ST", "postcode": "46122"}}},
{"geometry": {"type": "Point", "coordinates": [-86.4868937486, 39.7615640842]}, "type": "Feature", "properties": {"collection_times": [{"days": "Mon-Fri", "time": "5:15pm"}, {"days": "Sat", "time": "2:30pm"}, {"days": "Sun", "time": "Closed"}], "id": "4612200020", "name": "USPS COLLECTION BOX - BLUE BOX", "address": {"city": "DANVILLE", "state": "IN", "street": "1965 E MAIN ST", "postcode": "46122"}}},
{"geometry": {"type": "Point", "coordinates": [-86.4868937486, 39.7615640842]}, "type": "Feature", "properties": {"collection_times": [{"days": "Mon-Fri", "time": "5:15pm"}, {"days": "Sat", "time": "2:30pm"}, {"days": "Sun", "time": "Closed"}], "id": "4612200029", "name": "USPS COLLECTION BOX - PO LOBBY", "address": {"city": "DANVILLE", "state": "IN", "street": "1965 E MAIN ST", "postcode": "46122"}}},
{"geometry": {"type": "Point", "coordinates": [-86.4868937486, 39.7615640842]}, "type": "Feature", "properties": {"collection_times": [{"days": "Mon-Fri", "time": "5:15pm"}, {"days": "Sat", "time": "2:30pm"}, {"days": "Sun", "time": "Closed"}], "id": "4612200030", "name": "USPS COLLECTION BOX - PO LOBBY", "address": {"city": "DANVILLE", "state": "IN", "street": "1965 E MAIN ST", "postcode": "46122"}}},
{"geometry": {"type": "Point", "coordinates": [-86.5239061238, 39.7571974338]}, "type": "Feature", "properties": {"collection_times": [{"days": "Mon-Fri", "time": "3:30pm"}, {"days": "Sat", "time": "3:15pm"}, {"days": "Sun", "time": "Closed"}], "id": "4612200031", "name": "USPS COLLECTION BOX - BLUE BOX", "address": {"city": "DANVILLE", "state": "IN", "street": "355 S WASHINGTON ST", "postcode": "46122"}}},
{"geometry": {"type": "Point", "coordinates": [-86.5238866491, 39.7608200408]}, "type": "Feature", "properties": {"collection_times": [{"days": "Mon-Sat", "time": "3:00pm"}, {"days": "Sun", "time": "Closed"}], "id": "4612200032", "name": "USPS COLLECTION BOX - BLUE BOX", "address": {"city": "DANVILLE", "state": "IN", "street": "1 COURTHOUSE SQ", "postcode": "46122"}}},
{"geometry": {"type": "Point", "coordinates": [-86.3912763032, 39.762960876]}, "type": "Feature", "properties": {"collection_times": [{"days": "Mon-Sat", "time": "10:00am"}, {"days": "Sun", "time": "Closed"}], "id": "4612300000", "name": "USPS COLLECTION BOX - BLUE BOX", "address": {"city": "DANVILLE", "state": "IN", "street": "5201 E US HIGHWAY 36", "postcode": "46123"}}},
{"geometry": {"type": "Point", "coordinates": [-86.4333958109, 39.7594960027]}, "type": "Feature", "properties": {"collection_times": [{"days": "Mon-Sat", "time": "10:30am"}, {"days": "Sun", "time": "Closed"}], "id": "4612300001", "name": "USPS COLLECTION BOX - BLUE BOX", "address": {"city": "DANVILLE", "state": "IN", "street": "5250 E US HIGHWAY 36", "postcode": "46123"}}},
{"geometry": {"type": "Point", "coordinates": [-86.4035762124, 39.7625931415]}, "type": "Feature", "properties": {"collection_times": [{"days": "Mon-Sat", "time": "9:30am"}, {"days": "Sun", "time": "Closed"}], "id": "4612300002", "name": "USPS COLLECTION BOX - BLUE BOX", "address": {"city": "DANVILLE", "state": "IN", "street": "6781 E US HIGHWAY 36", "postcode": "46123"}}},
{"geometry": {"type": "Point", "coordinates": [-86.3975218099, 39.762749889]}, "type": "Feature", "properties": {"collection_times": [{"days": "Mon-Sat", "time": "9:30am"}, {"days": "Sun", "time": "Closed"}], "id": "4612300003", "name": "USPS COLLECTION BOX - BLUE BOX", "address": {"city": "DANVILLE", "state": "IN", "street": "7127 E US HIGHWAY 36", "postcode": "46123"}}},
{"geometry": {"type": "Point", "coordinates": [-86.3790666067, 39.7631211435]}, "type": "Feature", "properties": {"collection_times": [{"days": "Mon-Fri", "time": "3:00pm"}, {"days": "Sat", "time": "2:45pm"}, {"days": "Sun", "time": "Closed"}], "id": "4612300004", "name": "USPS COLLECTION BOX - BLUE BOX", "address": {"city": "DANVILLE", "state": "IN", "street": "8100 E US HIGHWAY 36", "postcode": "46123"}}},
{"geometry": {"type": "Point", "coordinates": [-86.375366564, 39.763162608]}, "type": "Feature", "properties": {"collection_times": [{"days": "Mon-Fri", "time": "3:00pm"}, {"days": "Sat", "time": "2:45pm"}, {"days": "Sun", "time": "Closed"}], "id": "4612300005", "name": "USPS COLLECTION BOX - BLUE BOX", "address": {"city": "DANVILLE", "state": "IN", "street": "8244 E US HIGHWAY 36", "postcode": "46123"}}},
{"geometry": {"type": "Point", "coordinates": [-86.380409603, 39.763032998]}, "type": "Feature", "properties": {"collection_times": [{"days": "Mon-Sat", "time": "9:00am"}, {"days": "Sun", "time": "Closed"}], "id": "4612300007", "name": "USPS COLLECTION BOX - BLUE BOX", "address": {"city": "DANVILLE", "state": "IN", "street": "8103 E US HIGHWAY 36", "postcode": "46123"}}},
{"geometry": {"type": "Point", "coordinates": [-86.3847518457, 39.7614407473]}, "type": "Feature", "properties": {"collection_times": [{"days": "Mon-Sat", "time": "10:00am"}, {"days": "Sun", "time": "Closed"}], "id": "4612300008", "name": "USPS COLLECTION BOX - BLUE BOX", "address": {"city": "DANVILLE", "state": "IN", "street": "71 VISTA PARK WAY", "postcode": "46123"}}},
{"geometry": {"type": "Point", "coordinates": [-86.3576171114, 39.7679072184]}, "type": "Feature", "properties": {"collection_times": [{"days": "Mon-Sat", "time": "11:00am"}, {"days": "Sun", "time": "Closed"}], "id": "4612300009", "name": "USPS COLLECTION BOX - BLUE BOX", "address": {"city": "DANVILLE", "state": "IN", "street": "291 GREAT LAKES CIR W", "postcode": "46123"}}},
{"geometry": {"type": "Point", "coordinates": [-86.3960525886, 39.763868473]}, "type": "Feature", "properties": {"collection_times": [{"days": "Mon-Fri", "time": "3:30pm"}, {"days": "Sat", "time": "2:45pm"}, {"days": "Sun", "time": "Closed"}], "id": "4612300010", "name": "USPS COLLECTION BOX - BLUE BOX", "address": {"city": "DANVILLE", "state": "IN", "street": "110 N AVON AVE", "postcode": "46123"}}},
{"geometry": {"type": "Point", "coordinates": [-86.33862547, 39.7637720688]}, "type": "Feature", "properties": {"collection_times": [{"days": "Mon-Sat", "time": "1:00pm"}, {"days": "Sun", "time": "Closed"}], "id": "4612300011", "name": "USPS COLLECTION BOX - BLUE BOX", "address": {"city": "DANVILLE", "state": "IN", "street": "10346 E US HIGHWAY 36", "postcode": "46123"}}},
{"geometry": {"type": "Point", "coordinates": [-86.4019467441, 39.7635491743]}, "type": "Feature", "properties": {"collection_times": [{"days": "Mon-Sat", "time": "12:30pm"}, {"days": "Sun", "time": "Closed"}], "id": "4612300012", "name": "USPS COLLECTION BOX - BLUE BOX", "address": {"city": "DANVILLE", "state": "IN", "street": "1111 RONALD REAGAN PKWY", "postcode": "46123"}}},
{"geometry": {"type": "Point", "coordinates": [-86.4019467441, 39.7635491743]}, "type": "Feature", "properties": {"collection_times": [{"days": "Mon-Sat", "time": "12:30pm"}, {"days": "Sun", "time": "Closed"}], "id": "4612300013", "name": "USPS COLLECTION BOX - BLUE BOX", "address": {"city": "DANVILLE", "state": "IN", "street": "1115 RONALD REAGAN PKWY", "postcode": "46123"}}},
{"geometry": {"type": "Point", "coordinates": [-86.4333958109, 39.7594960027]}, "type": "Feature", "properties": {"collection_times": [{"days": "Mon-Sat", "time": "10:30am"}, {"days": "Sun", "time": "Closed"}], "id": "4612300014", "name": "USPS COLLECTION BOX - BLUE BOX", "address": {"city": "DANVILLE", "state": "IN", "street": "5250 E US HIGHWAY 36", "postcode": "46123"}}},
{"geometry": {"type": "Point", "coordinates": [-85.966564532, 39.3538309326]}, "type": "Feature", "properties": {"collection_times": [{"days": "Mon-Fri", "time": "4:00pm"}, {"days": "Sat", "time": "3:00pm"}, {"days": "Sun", "time": "Closed"}], "id": "4612400001", "name": "USPS COLLECTION BOX - BLUE BOX", "address": {"city": "EDINBURGH", "state": "IN", "street": "102 S WALNUT ST", "postcode": "46124"}}},
{"geometry": {"type": "Point", "coordinates": [-85.9591891635, 39.3109634902]}, "type": "Feature", "properties": {"collection_times": [{"days": "Mon-Sat", "time": "10:00am"}, {"days": "Sun", "time": "Closed"}], "id": "4612400017", "name": "USPS COLLECTION BOX - BLUE BOX", "address": {"city": "EDINBURGH", "state": "IN", "street": "11626 NE EXECUTIVE DR", "postcode": "46124"}}},
{"geometry": {"type": "Point", "coordinates": [-85.966564532, 39.3538309326]}, "type": "Feature", "properties": {"collection_times": [{"days": "Mon-Fri", "time": "4:00pm"}, {"days": "Sat", "time": "3:00pm"}, {"days": "Sun", "time": "Closed"}], "id": "4612400024", "name": "USPS COLLECTION BOX - PO LOBBY", "address": {"city": "EDINBURGH", "state": "IN", "street": "102 S WALNUT ST", "postcode": "46124"}}},
{"geometry": {"type": "Point", "coordinates": [-86.6414271618, 39.521316696]}, "type": "Feature", "properties": {"collection_times": [{"days": "Mon-Fri", "time": "3:30pm"}, {"days": "Sat", "time": "9:30am"}, {"days": "Sun", "time": "Closed"}], "id": "4612500001", "name": "USPS COLLECTION BOX - BLUE BOX", "address": {"city": "EMINENCE", "state": "IN", "street": "6543 STATE ROAD 42 N", "postcode": "46125"}}},
{"geometry": {"type": "Point", "coordinates": [-86.6414271618, 39.521316696]}, "type": "Feature", "properties": {"collection_times": [{"days": "Mon-Fri", "time": "11:45am"}, {"days": "Sat", "time": "9:30am"}, {"days": "Sun", "time": "Closed"}], "id": "4612500002", "name": "USPS COLLECTION BOX - PO LOBBY", "address": {"city": "EMINENCE", "state": "IN", "street": "6543 STATE ROAD 42 N", "postcode": "46125"}}},
{"geometry": {"type": "Point", "coordinates": [-85.8620410825, 39.5859750766]}, "type": "Feature", "properties": {"collection_times": [{"days": "Mon-Fri", "time": "4:00pm"}, {"days": "Sat", "time": "11:30am"}, {"days": "Sun", "time": "Closed"}], "id": "4612600001", "name": "USPS COLLECTION BOX - BLUE BOX", "address": {"city": "FAIRLAND", "state": "IN", "street": "103 W WASHINGTON ST", "postcode": "46126"}}},
{"geometry": {"type": "Point", "coordinates": [-85.9440417253, 39.6645957302]}, "type": "Feature", "properties": {"collection_times": [{"days": "Mon-Sat", "time": "11:00am"}, {"days": "Sun", "time": "Closed"}], "id": "4612600002", "name": "USPS COLLECTION BOX - BLUE BOX", "address": {"city": "FAIRLAND", "state": "IN", "street": "9795 N MICHIGAN RD", "postcode": "46126"}}},
{"geometry": {"type": "Point", "coordinates": [-85.3012655798, 39.6998892988]}, "type": "Feature", "properties": {"collection_times": [{"days": "Mon-Fri", "time": "3:45pm"}, {"days": "Sat", "time": "9:45am"}, {"days": "Sun", "time": "Closed"}], "id": "4612700001", "name": "USPS COLLECTION BOX - BLUE BOX", "address": {"city": "FALMOUTH", "state": "IN", "street": "5935 N 800 E", "postcode": "46127"}}},
{"geometry": {"type": "Point", "coordinates": [-85.3012655798, 39.6998892988]}, "type": "Feature", "properties": {"collection_times": [{"days": "Mon-Fri", "time": "11:45am"}, {"days": "Sat", "time": "9:45am"}, {"days": "Sun", "time": "Closed"}], "id": "4612700002", "name": "USPS COLLECTION BOX - PO LOBBY", "address": {"city": "FALMOUTH", "state": "IN", "street": "5935 N 800 E", "postcode": "46127"}}},
{"geometry": {"type": "Point", "coordinates": [-86.7532531515, 39.6715624481]}, "type": "Feature", "properties": {"collection_times": [{"days": "Mon-Fri", "time": "3:15pm"}, {"days": "Sat", "time": "10:15am"}, {"days": "Sun", "time": "Closed"}], "id": "4612800001", "name": "USPS COLLECTION BOX - BLUE BOX", "address": {"city": "FILLMORE", "state": "IN", "street": "10 N MAIN ST", "postcode": "46128"}}},
{"geometry": {"type": "Point", "coordinates": [-86.7532531515, 39.6715624481]}, "type": "Feature", "properties": {"collection_times": [{"days": "Mon-Fri", "time": "2:00pm"}, {"days": "Sat", "time": "10:15am"}, {"days": "Sun", "time": "Closed"}], "id": "4612800002", "name": "USPS COLLECTION BOX - PO LOBBY", "address": {"city": "FILLMORE", "state": "IN", "street": "10 N MAIN ST", "postcode": "46128"}}},
{"geometry": {"type": "Point", "coordinates": [-85.7832011891, 39.6945854512]}, "type": "Feature", "properties": {"collection_times": [{"days": "Mon-Fri", "time": "4:00pm"}, {"days": "Sat", "time": "10:30am"}, {"days": "Sun", "time": "Closed"}], "id": "4613000001", "name": "USPS COLLECTION BOX - BLUE BOX", "address": {"city": "FOUNTAINTOWN", "state": "IN", "street": "11675 N DIVISION RD", "postcode": "46130"}}},
{"geometry": {"type": "Point", "coordinates": [-85.7832011891, 39.6945854512]}, "type": "Feature", "properties": {"collection_times": [{"days": "Mon-Fri", "time": "2:15pm"}, {"days": "Sat", "time": "10:15am"}, {"days": "Sun", "time": "Closed"}], "id": "4613000003", "name": "USPS COLLECTION BOX - PO LOBBY", "address": {"city": "FOUNTAINTOWN", "state": "IN", "street": "11675 N DIVISION RD", "postcode": "46130"}}},
{"geometry": {"type": "Point", "coordinates": [-86.0621819222, 39.4927694631]}, "type": "Feature", "properties": {"collection_times": [{"days": "Mon-Fri", "time": "5:15pm"}, {"days": "Sat", "time": "4:45pm"}, {"days": "Sun", "time": "Closed"}], "id": "4613100001", "name": "USPS COLLECTION BOX - BLUE BOX", "address": {"city": "FRANKLIN", "state": "IN", "street": "1265 N MAIN ST", "postcode": "46131"}}},
{"geometry": {"type": "Point", "coordinates": [-86.0834495343, 39.538462369]}, "type": "Feature", "properties": {"collection_times": [{"days": "Mon-Sat", "time": "1:00pm"}, {"days": "Sun", "time": "Closed"}], "id": "4613100006", "name": "USPS COLLECTION BOX - BLUE BOX", "address": {"city": "FRANKLIN", "state": "IN", "street": "1435 CHRISTIAN BLVD", "postcode": "46131"}}},
{"geometry": {"type": "Point", "coordinates": [-86.055706114, 39.48012903]}, "type": "Feature", "properties": {"collection_times": [{"days": "Mon-Sat", "time": "9:00am"}, {"days": "Sun", "time": "Closed"}], "id": "4613100014", "name": "USPS COLLECTION BOX - BLUE BOX", "address": {"city": "FRANKLIN", "state": "IN", "street": "86 W COURT ST", "postcode": "46131"}}},
{"geometry": {"type": "Point", "coordinates": [-86.054059241, 39.4805457022]}, "type": "Feature", "properties": {"collection_times": [{"days": "Mon-Sat", "time": "9:00am"}, {"days": "Sun", "time": "Closed"}], "id": "4613100016", "name": "USPS COLLECTION BOX - BLUE BOX", "address": {"city": "FRANKLIN", "state": "IN", "street": "89 E JEFFERSON ST", "postcode": "46131"}}},
{"geometry": {"type": "Point", "coordinates": [-86.0565196994, 39.4851108093]}, "type": "Feature", "properties": {"collection_times": [{"days": "Mon-Sat", "time": "9:00am"}, {"days": "Sun", "time": "Closed"}], "id": "4613100020", "name": "USPS COLLECTION BOX - BLUE BOX", "address": {"city": "FRANKLIN", "state": "IN", "street": "110 N JACKSON ST", "postcode": "46131"}}},
{"geometry": {"type": "Point", "coordinates": [-86.0680496748, 39.4984084857]}, "type": "Feature", "properties": {"collection_times": [{"days": "Mon-Sat", "time": "9:00am"}, {"days": "Sun", "time": "Closed"}], "id": "4613100026", "name": "USPS COLLECTION BOX - BLUE BOX", "address": {"city": "FRANKLIN", "state": "IN", "street": "2017 CEDAR LN", "postcode": "46131"}}},
{"geometry": {"type": "Point", "coordinates": [-86.0674486642, 39.4962750114]}, "type": "Feature", "properties": {"collection_times": [{"days": "Mon-Sat", "time": "8:30am"}, {"days": "Sun", "time": "Closed"}], "id": "4613100028", "name": "USPS COLLECTION BOX - BLUE BOX", "address": {"city": "FRANKLIN", "state": "IN", "street": "1860 NORTHWOOD PLZ", "postcode": "46131"}}},
{"geometry": {"type": "Point", "coordinates": [-86.0621819222, 39.4927694631]}, "type": "Feature", "properties": {"collection_times": [{"days": "Mon-Fri", "time": "5:15pm"}, {"days": "Sat", "time": "4:45pm"}, {"days": "Sun", "time": "Closed"}], "id": "4613100035", "name": "USPS COLLECTION BOX - BLUE BOX", "address": {"city": "FRANKLIN", "state": "IN", "street": "1265 N MAIN ST", "postcode": "46131"}}},
{"geometry": {"type": "Point", "coordinates": [-86.0226285062, 39.4835908845]}, "type": "Feature", "properties": {"collection_times": [{"days": "Mon-Sat", "time": "9:00am"}, {"days": "Sun", "time": "Closed"}], "id": "4613100036", "name": "USPS COLLECTION BOX - BLUE BOX", "address": {"city": "FRANKLIN", "state": "IN", "street": "1895 LONGEST DR", "postcode": "46131"}}},
{"geometry": {"type": "Point", "coordinates": [-86.0621819222, 39.4927694631]}, "type": "Feature", "properties": {"collection_times": [{"days": "Mon-Fri", "time": "5:15pm"}, {"days": "Sat", "time": "4:45pm"}, {"days": "Sun", "time": "Closed"}], "id": "4613100037", "name": "USPS COLLECTION BOX - PO LOBBY", "address": {"city": "FRANKLIN", "state": "IN", "street": "1265 N MAIN ST", "postcode": "46131"}}},
{"geometry": {"type": "Point", "coordinates": [-86.0313315354, 39.4852292826]}, "type": "Feature", "properties": {"collection_times": [{"days": "Mon-Sat", "time": "9:00am"}, {"days": "Sun", "time": "Closed"}], "id": "4613100038", "name": "USPS COLLECTION BOX - BLUE BOX", "address": {"city": "FRANKLIN", "state": "IN", "street": "1600 TRADITIONS CT", "postcode": "46131"}}},
{"geometry": {"type": "Point", "coordinates": [-86.044351076, 39.472533857]}, "type": "Feature", "properties": {"collection_times": [{"days": "Mon-Sat", "time": "9:00am"}, {"days": "Sun", "time": "Closed"}], "id": "4613100040", "name": "USPS COLLECTION BOX - BLUE BOX", "address": {"city": "FRANKLIN", "state": "IN", "street": "690 S STATE ST", "postcode": "46131"}}},
{"geometry": {"type": "Point", "coordinates": [-85.3000694252, 39.6264604824]}, "type": "Feature", "properties": {"collection_times": [{"days": "Mon-Fri", "time": "3:30pm"}, {"days": "Sat", "time": "10:00am"}, {"days": "Sun", "time": "Closed"}], "id": "4613300001", "name": "USPS COLLECTION BOX - BLUE BOX", "address": {"city": "GLENWOOD", "state": "IN", "street": "214 N MAIN ST", "postcode": "46133"}}},
{"geometry": {"type": "Point", "coordinates": [-85.3000694252, 39.6264604824]}, "type": "Feature", "properties": {"collection_times": [{"days": "Mon-Fri", "time": "11:45am"}, {"days": "Sat", "time": "10:00am"}, {"days": "Sun", "time": "Closed"}], "id": "4613300002", "name": "USPS COLLECTION BOX - PO LOBBY", "address": {"city": "GLENWOOD", "state": "IN", "street": "214 N MAIN ST", "postcode": "46133"}}},
{"geometry": {"type": "Point", "coordinates": [-86.8643505628, 39.6432257333]}, "type": "Feature", "properties": {"collection_times": [{"days": "Mon-Fri", "time": "5:00pm"}, {"days": "Sat", "time": "4:00pm"}, {"days": "Sun", "time": "Closed"}], "id": "4613500005", "name": "USPS COLLECTION BOX - BLUE BOX", "address": {"city": "GREENCASTLE", "state": "IN", "street": "8 E WALNUT ST", "postcode": "46135"}}},
{"geometry": {"type": "Point", "coordinates": [-86.863820836, 39.6432436075]}, "type": "Feature", "properties": {"collection_times": [{"days": "Mon-Fri", "time": "5:00pm"}, {"days": "Sat", "time": "4:00pm"}, {"days": "Sun", "time": "Closed"}], "id": "4613500007", "name": "USPS COLLECTION BOX - BLUE BOX", "address": {"city": "GREENCASTLE", "state": "IN", "street": "8 E WALNUT ST", "postcode": "46135"}}},
{"geometry": {"type": "Point", "coordinates": [-86.8470659968, 39.6336172762]}, "type": "Feature", "properties": {"collection_times": [{"days": "Mon-Sat", "time": "3:15pm"}, {"days": "Sun", "time": "Closed"}], "id": "4613500009", "name": "USPS COLLECTION BOX - BLUE BOX", "address": {"city": "GREENCASTLE", "state": "IN", "street": "1 CENTRAL SQ", "postcode": "46135"}}},
{"geometry": {"type": "Point", "coordinates": [-86.8385012691, 39.6483931837]}, "type": "Feature", "properties": {"collection_times": [{"days": "Mon-Sat", "time": "3:00pm"}, {"days": "Sun", "time": "Closed"}], "id": "4613500010", "name": "USPS COLLECTION BOX - BLUE BOX", "address": {"city": "GREENCASTLE", "state": "IN", "street": "1045 CASTLEBURY DR", "postcode": "46135"}}},
{"geometry": {"type": "Point", "coordinates": [-86.8655491648, 39.6480731081]}, "type": "Feature", "properties": {"collection_times": [{"days": "Mon-Sat", "time": "3:30pm"}, {"days": "Sun", "time": "Closed"}], "id": "4613500014", "name": "USPS COLLECTION BOX - BLUE BOX", "address": {"city": "GREENCASTLE", "state": "IN", "street": "500 N JACKSON ST", "postcode": "46135"}}},
{"geometry": {"type": "Point", "coordinates": [-86.8643772389, 39.6440570472]}, "type": "Feature", "properties": {"collection_times": [{"days": "Mon-Sat", "time": "3:15pm"}, {"days": "Sun", "time": "Closed"}], "id": "4613500015", "name": "USPS COLLECTION BOX - BLUE BOX", "address": {"city": "GREENCASTLE", "state": "IN", "street": "1 N INDIANA ST", "postcode": "46135"}}},
{"geometry": {"type": "Point", "coordinates": [-86.8646993794, 39.6448344788]}, "type": "Feature", "properties": {"collection_times": [{"days": "Mon-Sat", "time": "3:30pm"}, {"days": "Sun", "time": "Closed"}], "id": "4613500016", "name": "USPS COLLECTION BOX - BLUE BOX", "address": {"city": "GREENCASTLE", "state": "IN", "street": "25 W FRANKLIN ST", "postcode": "46135"}}},
{"geometry": {"type": "Point", "coordinates": [-86.8624260307, 39.6390214358]}, "type": "Feature", "properties": {"collection_times": [{"days": "Mon-Sat", "time": "3:30pm"}, {"days": "Sun", "time": "Closed"}], "id": "4613500019", "name": "USPS COLLECTION BOX - BLUE BOX", "address": {"city": "GREENCASTLE", "state": "IN", "street": "202 E HANNA ST", "postcode": "46135"}}},
{"geometry": {"type": "Point", "coordinates": [-86.8313116925, 39.6476242116]}, "type": "Feature", "properties": {"collection_times": [{"days": "Mon-Sat", "time": "3:00pm"}, {"days": "Sun", "time": "Closed"}], "id": "4613500020", "name": "USPS COLLECTION BOX - BLUE BOX", "address": {"city": "GREENCASTLE", "state": "IN", "street": "25 PUTNAM PLZ", "postcode": "46135"}}},
{"geometry": {"type": "Point", "coordinates": [-86.8512118772, 39.6307008115]}, "type": "Feature", "properties": {"collection_times": [{"days": "Mon-Sat", "time": "3:00pm"}, {"days": "Sun", "time": "Closed"}], "id": "4613500021", "name": "USPS COLLECTION BOX - BLUE BOX", "address": {"city": "GREENCASTLE", "state": "IN", "street": "1542 S BLOOMINGTON ST", "postcode": "46135"}}},
{"geometry": {"type": "Point", "coordinates": [-86.8886664866, 39.6588017993]}, "type": "Feature", "properties": {"collection_times": [{"days": "Mon-Sat", "time": "11:00am"}, {"days": "Sun", "time": "Closed"}], "id": "4613500022", "name": "USPS COLLECTION BOX - BLUE BOX", "address": {"city": "GREENCASTLE", "state": "IN", "street": "7002 VAN BIBBER LAKE EST", "postcode": "46135"}}},
{"geometry": {"type": "Point", "coordinates": [-86.8643505628, 39.6432257333]}, "type": "Feature", "properties": {"collection_times": [{"days": "Mon-Fri", "time": "5:00pm"}, {"days": "Sat", "time": "4:00pm"}, {"days": "Sun", "time": "Closed"}], "id": "4613500023", "name": "USPS COLLECTION BOX - PO LOBBY", "address": {"city": "GREENCASTLE", "state": "IN", "street": "8 E WALNUT ST", "postcode": "46135"}}},
{"geometry": {"type": "Point", "coordinates": [-86.849329918, 39.6445569251]}, "type": "Feature", "properties": {"collection_times": [{"days": "Mon-Sat", "time": "3:15pm"}, {"days": "Sun", "time": "Closed"}], "id": "4613500025", "name": "USPS COLLECTION BOX - BLUE BOX", "address": {"city": "GREENCASTLE", "state": "IN", "street": "821 INDIANAPOLIS RD", "postcode": "46135"}}},
{"geometry": {"type": "Point", "coordinates": [-85.7724791098, 39.814076872]}, "type": "Feature", "properties": {"collection_times": [{"days": "Mon-Sat", "time": "3:00pm"}, {"days": "Sun", "time": "Closed"}], "id": "4614000000", "name": "USPS COLLECTION BOX - BLUE BOX", "address": {"city": "GREENFIELD", "state": "IN", "street": "215 W NEW RD", "postcode": "46140"}}},
{"geometry": {"type": "Point", "coordinates": [-85.7665063304, 39.801346318]}, "type": "Feature", "properties": {"collection_times": [{"days": "Mon-Sat", "time": "3:00pm"}, {"days": "Sun", "time": "Closed"}], "id": "4614000031", "name": "USPS COLLECTION BOX - BLUE BOX", "address": {"city": "GREENFIELD", "state": "IN", "street": "1650 GREENFIELD VILLAGE LN", "postcode": "46140"}}},
{"geometry": {"type": "Point", "coordinates": [-85.769584848, 39.794630719]}, "type": "Feature", "properties": {"collection_times": [{"days": "Mon-Sat", "time": "3:00pm"}, {"days": "Sun", "time": "Closed"}], "id": "4614000033", "name": "USPS COLLECTION BOX - BLUE BOX", "address": {"city": "GREENFIELD", "state": "IN", "street": "801 N STATE ST", "postcode": "46140"}}},
{"geometry": {"type": "Point", "coordinates": [-85.7697002023, 39.8102538641]}, "type": "Feature", "properties": {"collection_times": [{"days": "Mon-Sat", "time": "3:00pm"}, {"days": "Sun", "time": "Closed"}], "id": "4614000035", "name": "USPS COLLECTION BOX - BLUE BOX", "address": {"city": "GREENFIELD", "state": "IN", "street": "1571 N STATE ST", "postcode": "46140"}}},
{"geometry": {"type": "Point", "coordinates": [-85.7706890364, 39.8043570883]}, "type": "Feature", "properties": {"collection_times": [{"days": "Mon-Sat", "time": "3:00pm"}, {"days": "Sun", "time": "Closed"}], "id": "4614000038", "name": "USPS COLLECTION BOX - BLUE BOX", "address": {"city": "GREENFIELD", "state": "IN", "street": "77 W GREEN MEADOWS DR", "postcode": "46140"}}},
{"geometry": {"type": "Point", "coordinates": [-85.769787856, 39.805849014]}, "type": "Feature", "properties": {"collection_times": [{"days": "Mon-Sat", "time": "3:00pm"}, {"days": "Sun", "time": "Closed"}], "id": "4614000039", "name": "USPS COLLECTION BOX - BLUE BOX", "address": {"city": "GREENFIELD", "state": "IN", "street": "1240 N STATE ST", "postcode": "46140"}}},
{"geometry": {"type": "Point", "coordinates": [-85.7874245536, 39.7843053554]}, "type": "Feature", "properties": {"collection_times": [{"days": "Mon-Sat", "time": "3:00pm"}, {"days": "Sun", "time": "Closed"}], "id": "4614000041", "name": "USPS COLLECTION BOX - BLUE BOX", "address": {"city": "GREENFIELD", "state": "IN", "street": "1244 W MAIN ST", "postcode": "46140"}}},
{"geometry": {"type": "Point", "coordinates": [-85.768859893, 39.785233128]}, "type": "Feature", "properties": {"collection_times": [{"days": "Mon-Fri", "time": "4:00pm"}, {"days": "Sat", "time": "3:00pm"}, {"days": "Sun", "time": "Closed"}], "id": "4614000044", "name": "USPS COLLECTION BOX - BLUE BOX", "address": {"city": "GREENFIELD", "state": "IN", "street": "9 E MAIN ST", "postcode": "46140"}}},
{"geometry": {"type": "Point", "coordinates": [-85.8596414539, 39.7810994908]}, "type": "Feature", "properties": {"collection_times": [{"days": "Mon-Sat", "time": "9:00am"}, {"days": "Sun", "time": "Closed"}], "id": "4614000049", "name": "USPS COLLECTION BOX - BLUE BOX", "address": {"city": "GREENFIELD", "state": "IN", "street": "3055 W US HIGHWAY 40", "postcode": "46140"}}},
{"geometry": {"type": "Point", "coordinates": [-85.928089699, 39.7784138259]}, "type": "Feature", "properties": {"collection_times": [{"days": "Mon-Sat", "time": "9:30am"}, {"days": "Sun", "time": "Closed"}], "id": "4614000051", "name": "USPS COLLECTION BOX - BLUE BOX", "address": {"city": "GREENFIELD", "state": "IN", "street": "10 MANOR DR", "postcode": "46140"}}},
{"geometry": {"type": "Point", "coordinates": [-85.7694190272, 39.7887787323]}, "type": "Feature", "properties": {"collection_times": [{"days": "Mon-Fri", "time": "5:15pm"}, {"days": "Sat", "time": "4:15pm"}, {"days": "Sun", "time": "Closed"}], "id": "4614000054", "name": "USPS COLLECTION BOX - PO LOBBY", "address": {"city": "GREENFIELD", "state": "IN", "street": "207 N STATE ST", "postcode": "46140"}}},
{"geometry": {"type": "Point", "coordinates": [-85.7694190272, 39.7887787323]}, "type": "Feature", "properties": {"collection_times": [{"days": "Mon-Fri", "time": "5:15pm"}, {"days": "Sat", "time": "4:15pm"}, {"days": "Sun", "time": "Closed"}], "id": "4614000055", "name": "USPS COLLECTION BOX - PO LOBBY", "address": {"city": "GREENFIELD", "state": "IN", "street": "207 N STATE ST", "postcode": "46140"}}},
{"geometry": {"type": "Point", "coordinates": [-85.7694190272, 39.7887787323]}, "type": "Feature", "properties": {"collection_times": [{"days": "Mon-Fri", "time": "5:15pm"}, {"days": "Sat", "time": "4:15pm"}, {"days": "Sun", "time": "Closed"}], "id": "4614000056", "name": "USPS COLLECTION BOX - PO LOBBY", "address": {"city": "GREENFIELD", "state": "IN", "street": "207 N STATE ST", "postcode": "46140"}}},
{"geometry": {"type": "Point", "coordinates": [-85.7694190272, 39.7887787323]}, "type": "Feature", "properties": {"collection_times": [{"days": "Mon-Fri", "time": "5:15pm"}, {"days": "Sat", "time": "4:15pm"}, {"days": "Sun", "time": "Closed"}], "id": "4614000057", "name": "USPS COLLECTION BOX - PO LOBBY", "address": {"city": "GREENFIELD", "state": "IN", "street": "207 N STATE ST", "postcode": "46140"}}},
{"geometry": {"type": "Point", "coordinates": [-85.7694190272, 39.7887787323]}, "type": "Feature", "properties": {"collection_times": [{"days": "Mon-Fri", "time": "5:15pm"}, {"days": "Sat", "time": "4:15pm"}, {"days": "Sun", "time": "Closed"}], "id": "4614000058", "name": "USPS COLLECTION BOX - BLUE BOX", "address": {"city": "GREENFIELD", "state": "IN", "street": "207 N STATE ST", "postcode": "46140"}}},
{"geometry": {"type": "Point", "coordinates": [-85.7694190272, 39.7887787323]}, "type": "Feature", "properties": {"collection_times": [{"days": "Mon-Fri", "time": "5:15pm"}, {"days": "Sat", "time": "4:15pm"}, {"days": "Sun", "time": "Closed"}], "id": "4614000059", "name": "USPS COLLECTION BOX - BLUE BOX", "address": {"city": "GREENFIELD", "state": "IN", "street": "207 N STATE ST", "postcode": "46140"}}},
{"geometry": {"type": "Point", "coordinates": [-85.8834345517, 39.7797545208]}, "type": "Feature", "properties": {"collection_times": [{"days": "Mon-Sat", "time": "9:00am"}, {"days": "Sun", "time": "Closed"}], "id": "4614000060", "name": "USPS COLLECTION BOX - BLUE BOX", "address": {"city": "GREENFIELD", "state": "IN", "street": "4233 W POTOMAC DR", "postcode": "46140"}}},
{"geometry": {"type": "Point", "coordinates": [-85.7697672711, 39.8154132436]}, "type": "Feature", "properties": {"collection_times": [{"days": "Mon-Sat", "time": "3:00pm"}, {"days": "Sun", "time": "Closed"}], "id": "4614000061", "name": "USPS COLLECTION BOX - BLUE BOX", "address": {"city": "GREENFIELD", "state": "IN", "street": "1965 N STATE ST", "postcode": "46140"}}},
{"geometry": {"type": "Point", "coordinates": [-85.7734624632, 39.799320915]}, "type": "Feature", "properties": {"collection_times": [{"days": "Mon-Sat", "time": "3:00pm"}, {"days": "Sun", "time": "Closed"}], "id": "4614000062", "name": "USPS COLLECTION BOX - BLUE BOX", "address": {"city": "GREENFIELD", "state": "IN", "street": "120 W MCKENZIE RD", "postcode": "46140"}}},
{"geometry": {"type": "Point", "coordinates": [-86.1134797948, 39.6062534872]}, "type": "Feature", "properties": {"collection_times": [{"days": "Mon-Fri", "time": "5:30pm"}, {"days": "Sat", "time": "4:00pm"}, {"days": "Sun", "time": "Closed"}], "id": "4614200001", "name": "USPS COLLECTION BOX - BLUE BOX", "address": {"city": "GREENWOOD", "state": "IN", "street": "407 W SMITH VALLEY RD", "postcode": "46142"}}},
{"geometry": {"type": "Point", "coordinates": [-86.1134797948, 39.6062534872]}, "type": "Feature", "properties": {"collection_times": [{"days": "Mon-Fri", "time": "5:30pm"}, {"days": "Sat", "time": "4:00pm"}, {"days": "Sun", "time": "Closed"}], "id": "4614200003", "name": "USPS COLLECTION BOX - BLUE BOX", "address": {"city": "GREENWOOD", "state": "IN", "street": "407 W SMITH VALLEY RD", "postcode": "46142"}}},
{"geometry": {"type": "Point", "coordinates": [-86.1102881315, 39.6154080019]}, "type": "Feature", "properties": {"collection_times": [{"days": "Mon-Fri", "time": "2:00pm"}, {"days": "Sat", "time": "1:00pm"}, {"days": "Sun", "time": "Closed"}], "id": "4614200016", "name": "USPS COLLECTION BOX - BLUE BOX", "address": {"city": "GREENWOOD", "state": "IN", "street": "2 N MADISON AVE", "postcode": "46142"}}},
{"geometry": {"type": "Point", "coordinates": [-86.1596110911, 39.6180376008]}, "type": "Feature", "properties": {"collection_times": [{"days": "Mon-Fri", "time": "2:00pm"}, {"days": "Sat", "time": "12:00pm"}, {"days": "Sun", "time": "Closed"}], "id": "4614200036", "name": "USPS COLLECTION BOX - BLUE BOX", "address": {"city": "GREENWOOD", "state": "IN", "street": "3100 MERIDIAN PARKE DR", "postcode": "46142"}}},
{"geometry": {"type": "Point", "coordinates": [-86.1570682437, 39.6059171222]}, "type": "Feature", "properties": {"collection_times": [{"days": "Mon-Fri", "time": "2:00pm"}, {"days": "Sat", "time": "12:00pm"}, {"days": "Sun", "time": "Closed"}], "id": "4614200037", "name": "USPS COLLECTION BOX - BLUE BOX", "address": {"city": "GREENWOOD", "state": "IN", "street": "1675 W SMITH VALLEY RD", "postcode": "46142"}}},
{"geometry": {"type": "Point", "coordinates": [-86.1583103289, 39.6104529564]}, "type": "Feature", "properties": {"collection_times": [{"days": "Mon-Fri", "time": "2:00pm"}, {"days": "Sat", "time": "12:00pm"}, {"days": "Sun", "time": "Closed"}], "id": "4614200049", "name": "USPS COLLECTION BOX - BLUE BOX", "address": {"city": "GREENWOOD", "state": "IN", "street": "275 S STATE ROAD 135", "postcode": "46142"}}},
{"geometry": {"type": "Point", "coordinates": [-86.1110073705, 39.6136394783]}, "type": "Feature", "properties": {"collection_times": [{"days": "Mon-Fri", "time": "5:00pm"}, {"days": "Sat", "time": "1:00pm"}, {"days": "Sun", "time": "Closed"}], "id": "4614200050", "name": "USPS COLLECTION BOX - BLUE BOX", "address": {"city": "GREENWOOD", "state": "IN", "street": "345 W MAIN ST", "postcode": "46142"}}},
{"geometry": {"type": "Point", "coordinates": [-86.1127844618, 39.6062249245]}, "type": "Feature", "properties": {"collection_times": [{"days": "Mon-Fri", "time": "5:30pm"}, {"days": "Sat", "time": "4:00pm"}, {"days": "Sun", "time": "Closed"}], "id": "4614200051", "name": "USPS COLLECTION BOX - PO LOBBY", "address": {"city": "GREENWOOD", "state": "IN", "street": "407 W SMITH VALLEY RD", "postcode": "46142"}}},
{"geometry": {"type": "Point", "coordinates": [-86.1929568528, 39.6052901539]}, "type": "Feature", "properties": {"collection_times": [{"days": "Mon-Sat", "time": "9:30am"}, {"days": "Sun", "time": "Closed"}], "id": "4614200054", "name": "USPS COLLECTION BOX - BLUE BOX", "address": {"city": "GREENWOOD", "state": "IN", "street": "4800 W SMITH VALLEY RD", "postcode": "46142"}}},
{"geometry": {"type": "Point", "coordinates": [-86.1127844618, 39.6062249245]}, "type": "Feature", "properties": {"collection_times": [{"days": "Mon-Fri", "time": "5:30pm"}, {"days": "Sat", "time": "4:00pm"}, {"days": "Sun", "time": "Closed"}], "id": "4614200056", "name": "USPS COLLECTION BOX - PO LOBBY", "address": {"city": "GREENWOOD", "state": "IN", "street": "407 W SMITH VALLEY RD", "postcode": "46142"}}},
{"geometry": {"type": "Point", "coordinates": [-86.1561375657, 39.6261020255]}, "type": "Feature", "properties": {"collection_times": [{"days": "Mon-Fri", "time": "2:00pm"}, {"days": "Sat", "time": "1:00pm"}, {"days": "Sun", "time": "Closed"}], "id": "4614200057", "name": "USPS COLLECTION BOX - BLUE BOX", "address": {"city": "GREENWOOD", "state": "IN", "street": "1648 FRY RD", "postcode": "46142"}}},
{"geometry": {"type": "Point", "coordinates": [-86.1127844618, 39.6062249245]}, "type": "Feature", "properties": {"collection_times": [{"days": "Mon-Fri", "time": "5:30pm"}, {"days": "Sat", "time": "4:00pm"}, {"days": "Sun", "time": "Closed"}], "id": "4614200059", "name": "USPS COLLECTION BOX - APC", "address": {"city": "GREENWOOD", "state": "IN", "street": "407 W SMITH VALLEY RD", "postcode": "46142"}}},
{"geometry": {"type": "Point", "coordinates": [-86.1110022695, 39.6136155749]}, "type": "Feature", "properties": {"collection_times": [{"days": "Mon-Fri", "time": "4:00pm"}, {"days": "Sat", "time": "12:00pm"}, {"days": "Sun", "time": "Closed"}], "id": "4614200062", "name": "USPS COLLECTION BOX - PO LOBBY", "address": {"city": "GREENWOOD", "state": "IN", "street": "345 W MAIN ST", "postcode": "46142"}}},
{"geometry": {"type": "Point", "coordinates": [-86.1110022695, 39.6136155749]}, "type": "Feature", "properties": {"collection_times": [{"days": "Mon-Fri", "time": "4:00pm"}, {"days": "Sat", "time": "12:00pm"}, {"days": "Sun", "time": "Closed"}], "id": "4614200063", "name": "USPS COLLECTION BOX - PO LOBBY", "address": {"city": "GREENWOOD", "state": "IN", "street": "345 W MAIN ST", "postcode": "46142"}}},
{"geometry": {"type": "Point", "coordinates": [-86.0893308304, 39.6158326842]}, "type": "Feature", "properties": {"collection_times": [{"days": "Mon-Fri", "time": "2:00pm"}, {"days": "Sat-Sun", "time": "Closed"}], "id": "4614300001", "name": "USPS COLLECTION BOX - BLUE BOX", "address": {"city": "GREENWOOD", "state": "IN", "street": "65 AIRPORT PKWY", "postcode": "46143"}}},
{"geometry": {"type": "Point", "coordinates": [-86.1012429958, 39.5844885591]}, "type": "Feature", "properties": {"collection_times": [{"days": "Mon-Fri", "time": "2:00pm"}, {"days": "Sat", "time": "1:00pm"}, {"days": "Sun", "time": "Closed"}], "id": "4614300002", "name": "USPS COLLECTION BOX - BLUE BOX", "address": {"city": "GREENWOOD", "state": "IN", "street": "2200 INDEPENDENCE DR", "postcode": "46143"}}},
{"geometry": {"type": "Point", "coordinates": [-86.0992540953, 39.6138296256]}, "type": "Feature", "properties": {"collection_times": [{"days": "Mon-Fri", "time": "2:00pm"}, {"days": "Sat", "time": "1:00pm"}, {"days": "Sun", "time": "Closed"}], "id": "4614300003", "name": "USPS COLLECTION BOX - BLUE BOX", "address": {"city": "GREENWOOD", "state": "IN", "street": "435 E MAIN ST", "postcode": "46143"}}},
{"geometry": {"type": "Point", "coordinates": [-86.077894292, 39.6172923042]}, "type": "Feature", "properties": {"collection_times": [{"days": "Mon-Fri", "time": "2:00pm"}, {"days": "Sat", "time": "12:15pm"}, {"days": "Sun", "time": "Closed"}], "id": "4614300004", "name": "USPS COLLECTION BOX - BLUE BOX", "address": {"city": "GREENWOOD", "state": "IN", "street": "56 S PARK BLVD", "postcode": "46143"}}},
{"geometry": {"type": "Point", "coordinates": [-86.1086010838, 39.6061259686]}, "type": "Feature", "properties": {"collection_times": [{"days": "Mon-Fri", "time": "2:00pm"}, {"days": "Sat", "time": "1:00pm"}, {"days": "Sun", "time": "Closed"}], "id": "4614300005", "name": "USPS COLLECTION BOX - BLUE BOX", "address": {"city": "GREENWOOD", "state": "IN", "street": "700 US HIGHWAY 31 S", "postcode": "46143"}}},
{"geometry": {"type": "Point", "coordinates": [-86.1030028414, 39.603009739]}, "type": "Feature", "properties": {"collection_times": [{"days": "Mon-Fri", "time": "2:00pm"}, {"days": "Sat", "time": "12:45pm"}, {"days": "Sun", "time": "Closed"}], "id": "4614300007", "name": "USPS COLLECTION BOX - BLUE BOX", "address": {"city": "GREENWOOD", "state": "IN", "street": "295 VILLAGE LN", "postcode": "46143"}}},
{"geometry": {"type": "Point", "coordinates": [-86.0826473594, 39.6179514178]}, "type": "Feature", "properties": {"collection_times": [{"days": "Mon-Fri", "time": "2:00pm"}, {"days": "Sat-Sun", "time": "Closed"}], "id": "4614300008", "name": "USPS COLLECTION BOX - BLUE BOX", "address": {"city": "GREENWOOD", "state": "IN", "street": "1499 WINDHORST WAY", "postcode": "46143"}}},
{"geometry": {"type": "Point", "coordinates": [-85.649290146, 39.66059483]}, "type": "Feature", "properties": {"collection_times": [{"days": "Mon-Fri", "time": "4:00pm"}, {"days": "Sat", "time": "11:00am"}, {"days": "Sun", "time": "Closed"}], "id": "4614400001", "name": "USPS COLLECTION BOX - BLUE BOX", "address": {"city": "GWYNNEVILLE", "state": "IN", "street": "7137 E US HIGHWAY 52", "postcode": "46144"}}},
{"geometry": {"type": "Point", "coordinates": [-85.649290146, 39.66059483]}, "type": "Feature", "properties": {"collection_times": [{"days": "Mon-Fri", "time": "11:45am"}, {"days": "Sat", "time": "11:00am"}, {"days": "Sun", "time": "Closed"}], "id": "4614400002", "name": "USPS COLLECTION BOX - PO LOBBY", "address": {"city": "GWYNNEVILLE", "state": "IN", "street": "7137 E US HIGHWAY 52", "postcode": "46144"}}},
{"geometry": {"type": "Point", "coordinates": [-86.626361247, 39.928690939]}, "type": "Feature", "properties": {"collection_times": [{"days": "Mon-Sat", "time": "12:00pm"}, {"days": "Sun", "time": "Closed"}], "id": "4614700006", "name": "USPS COLLECTION BOX - BLUE BOX", "address": {"city": "JAMESTOWN", "state": "IN", "street": "33 BRUSH ST", "postcode": "46147"}}},
{"geometry": {"type": "Point", "coordinates": [-85.5261899609, 39.7958105278]}, "type": "Feature", "properties": {"collection_times": [{"days": "Mon-Fri", "time": "4:00pm"}, {"days": "Sat", "time": "11:45am"}, {"days": "Sun", "time": "Closed"}], "id": "4614800005", "name": "USPS COLLECTION BOX - BLUE BOX", "address": {"city": "KNIGHTSTOWN", "state": "IN", "street": "37 N JEFFERSON ST", "postcode": "46148"}}},
{"geometry": {"type": "Point", "coordinates": [-85.5261899609, 39.7958105278]}, "type": "Feature", "properties": {"collection_times": [{"days": "Mon-Fri", "time": "4:30pm"}, {"days": "Sat", "time": "11:45am"}, {"days": "Sun", "time": "Closed"}], "id": "4614800011", "name": "USPS COLLECTION BOX - PO LOBBY", "address": {"city": "KNIGHTSTOWN", "state": "IN", "street": "37 N JEFFERSON ST", "postcode": "46148"}}},
{"geometry": {"type": "Point", "coordinates": [-85.5261899609, 39.7958105278]}, "type": "Feature", "properties": {"collection_times": [{"days": "Mon-Fri", "time": "4:30pm"}, {"days": "Sat", "time": "11:45am"}, {"days": "Sun", "time": "Closed"}], "id": "4614800012", "name": "USPS COLLECTION BOX - PO LOBBY", "address": {"city": "KNIGHTSTOWN", "state": "IN", "street": "37 N JEFFERSON ST", "postcode": "46148"}}},
{"geometry": {"type": "Point", "coordinates": [-86.544543962, 39.8871695913]}, "type": "Feature", "properties": {"collection_times": [{"days": "Mon-Fri", "time": "3:15pm"}, {"days": "Sat", "time": "10:30am"}, {"days": "Sun", "time": "Closed"}], "id": "4614900001", "name": "USPS COLLECTION BOX - BLUE BOX", "address": {"city": "LIZTON", "state": "IN", "street": "407 N CHURCH ST", "postcode": "46149"}}},
{"geometry": {"type": "Point", "coordinates": [-86.544543962, 39.8871695913]}, "type": "Feature", "properties": {"collection_times": [{"days": "Mon-Fri", "time": "2:00pm"}, {"days": "Sat", "time": "10:30am"}, {"days": "Sun", "time": "Closed"}], "id": "4614900002", "name": "USPS COLLECTION BOX - PO LOBBY", "address": {"city": "LIZTON", "state": "IN", "street": "407 N CHURCH ST", "postcode": "46149"}}},
{"geometry": {"type": "Point", "coordinates": [-85.6195652984, 39.5750964908]}, "type": "Feature", "properties": {"collection_times": [{"days": "Mon-Fri", "time": "3:45pm"}, {"days": "Sat", "time": "11:00am"}, {"days": "Sun", "time": "Closed"}], "id": "4615000001", "name": "USPS COLLECTION BOX - BLUE BOX", "address": {"city": "MANILLA", "state": "IN", "street": "2971 S CROSS ST", "postcode": "46150"}}},
{"geometry": {"type": "Point", "coordinates": [-85.6195652984, 39.5750964908]}, "type": "Feature", "properties": {"collection_times": [{"days": "Mon-Fri", "time": "11:45am"}, {"days": "Sat", "time": "11:00am"}, {"days": "Sun", "time": "Closed"}], "id": "4615000002", "name": "USPS COLLECTION BOX - PO LOBBY", "address": {"city": "MANILLA", "state": "IN", "street": "2971 S CROSS ST", "postcode": "46150"}}},
{"geometry": {"type": "Point", "coordinates": [-85.603022821, 39.571802754]}, "type": "Feature", "properties": {"collection_times": [{"days": "Mon-Fri", "time": "11:30am"}, {"days": "Sat", "time": "11:00am"}, {"days": "Sun", "time": "Closed"}], "id": "4615000003", "name": "USPS COLLECTION BOX - BLUE BOX", "address": {"city": "MANILLA", "state": "IN", "street": "2777 S 840 W", "postcode": "46150"}}},
{"geometry": {"type": "Point", "coordinates": [-86.4286379337, 39.4267845369]}, "type": "Feature", "properties": {"collection_times": [{"days": "Mon-Sat", "time": "5:00pm"}, {"days": "Sun", "time": "Closed"}], "id": "4615100000", "name": "USPS COLLECTION BOX - PO LOBBY", "address": {"city": "MARTINSVILLE", "state": "IN", "street": "10 S MAIN ST", "postcode": "46151"}}},
{"geometry": {"type": "Point", "coordinates": [-86.4291545475, 39.426836322]}, "type": "Feature", "properties": {"collection_times": [{"days": "Mon-Sat", "time": "5:00pm"}, {"days": "Sun", "time": "Closed"}], "id": "4615100001", "name": "USPS COLLECTION BOX - BLUE BOX", "address": {"city": "MARTINSVILLE", "state": "IN", "street": "49 W WASHINGTON ST", "postcode": "46151"}}},
{"geometry": {"type": "Point", "coordinates": [-86.4285998224, 39.4251750325]}, "type": "Feature", "properties": {"collection_times": [{"days": "Mon-Sat", "time": "2:00pm"}, {"days": "Sun", "time": "Closed"}], "id": "4615100004", "name": "USPS COLLECTION BOX - BLUE BOX", "address": {"city": "MARTINSVILLE", "state": "IN", "street": "180 S MAIN ST", "postcode": "46151"}}},
{"geometry": {"type": "Point", "coordinates": [-86.4340855492, 39.4148163061]}, "type": "Feature", "properties": {"collection_times": [{"days": "Mon-Sat", "time": "11:00am"}, {"days": "Sun", "time": "Closed"}], "id": "4615100007", "name": "USPS COLLECTION BOX - BLUE BOX", "address": {"city": "MARTINSVILLE", "state": "IN", "street": "490 MORTON AVE", "postcode": "46151"}}},
{"geometry": {"type": "Point", "coordinates": [-86.4371868939, 39.4058201176]}, "type": "Feature", "properties": {"collection_times": [{"days": "Mon-Sat", "time": "11:00am"}, {"days": "Sun", "time": "Closed"}], "id": "4615100008", "name": "USPS COLLECTION BOX - BLUE BOX", "address": {"city": "MARTINSVILLE", "state": "IN", "street": "2076 BURTON LN", "postcode": "46151"}}},
{"geometry": {"type": "Point", "coordinates": [-86.423293327, 39.4135701445]}, "type": "Feature", "properties": {"collection_times": [{"days": "Mon-Sat", "time": "10:00am"}, {"days": "Sun", "time": "Closed"}], "id": "4615100009", "name": "USPS COLLECTION BOX - BLUE BOX", "address": {"city": "MARTINSVILLE", "state": "IN", "street": "1600 S OHIO ST", "postcode": "46151"}}},
{"geometry": {"type": "Point", "coordinates": [-86.430609041, 39.4176769178]}, "type": "Feature", "properties": {"collection_times": [{"days": "Mon-Sat", "time": "11:00am"}, {"days": "Sun", "time": "Closed"}], "id": "4615100010", "name": "USPS COLLECTION BOX - BLUE BOX", "address": {"city": "MARTINSVILLE", "state": "IN", "street": "205 MORTON AVE", "postcode": "46151"}}},
{"geometry": {"type": "Point", "coordinates": [-86.4272148209, 39.4263128297]}, "type": "Feature", "properties": {"collection_times": [{"days": "Mon-Sat", "time": "10:30am"}, {"days": "Sun", "time": "Closed"}], "id": "4615100013", "name": "USPS COLLECTION BOX - BLUE BOX", "address": {"city": "MARTINSVILLE", "state": "IN", "street": "59 S JEFFERSON ST", "postcode": "46151"}}},
{"geometry": {"type": "Point", "coordinates": [-86.4131744144, 39.427768308]}, "type": "Feature", "properties": {"collection_times": [{"days": "Mon-Sat", "time": "9:00am"}, {"days": "Sun", "time": "Closed"}], "id": "4615100015", "name": "USPS COLLECTION BOX - BLUE BOX", "address": {"city": "MARTINSVILLE", "state": "IN", "street": "1295 E MORGAN ST", "postcode": "46151"}}},
{"geometry": {"type": "Point", "coordinates": [-86.4271720682, 39.4279091684]}, "type": "Feature", "properties": {"collection_times": [{"days": "Mon-Sat", "time": "10:30am"}, {"days": "Sun", "time": "Closed"}], "id": "4615100017", "name": "USPS COLLECTION BOX - BLUE BOX", "address": {"city": "MARTINSVILLE", "state": "IN", "street": "110 E MORGAN ST", "postcode": "46151"}}},
{"geometry": {"type": "Point", "coordinates": [-86.4172072961, 39.4474700726]}, "type": "Feature", "properties": {"collection_times": [{"days": "Mon-Sat", "time": "10:30am"}, {"days": "Sun", "time": "Closed"}], "id": "4615100028", "name": "USPS COLLECTION BOX - BLUE BOX", "address": {"city": "MARTINSVILLE", "state": "IN", "street": "4172 E LAKEVIEW DR", "postcode": "46151"}}},
{"geometry": {"type": "Point", "coordinates": [-86.4069822635, 39.41666055]}, "type": "Feature", "properties": {"collection_times": [{"days": "Mon-Sat", "time": "2:00pm"}, {"days": "Sun", "time": "Closed"}], "id": "4615100031", "name": "USPS COLLECTION BOX - BLUE BOX", "address": {"city": "MARTINSVILLE", "state": "IN", "street": "410 GRAND VALLEY BLVD", "postcode": "46151"}}},
{"geometry": {"type": "Point", "coordinates": [-86.3877566633, 39.4864025741]}, "type": "Feature", "properties": {"collection_times": [{"days": "Mon-Sat", "time": "10:00am"}, {"days": "Sun", "time": "Closed"}], "id": "4615100032", "name": "USPS COLLECTION BOX - BLUE BOX", "address": {"city": "MARTINSVILLE", "state": "IN", "street": "4041 N FOXCLIFF DR E", "postcode": "46151"}}},
{"geometry": {"type": "Point", "coordinates": [-86.403693082, 39.514563703]}, "type": "Feature", "properties": {"collection_times": [{"days": "Mon-Sat", "time": "12:00pm"}, {"days": "Sun", "time": "Closed"}], "id": "4615100033", "name": "USPS COLLECTION BOX - BLUE BOX", "address": {"city": "MARTINSVILLE", "state": "IN", "street": "77 ROBB HILL RD", "postcode": "46151"}}},
{"geometry": {"type": "Point", "coordinates": [-85.7701122827, 39.8565466573]}, "type": "Feature", "properties": {"collection_times": [{"days": "Mon-Fri", "time": "12:45pm"}, {"days": "Sat", "time": "11:45am"}, {"days": "Sun", "time": "Closed"}], "id": "4615400002", "name": "USPS COLLECTION BOX - PO LOBBY", "address": {"city": "MAXWELL", "state": "IN", "street": "9 S MAIN ST", "postcode": "46154"}}},
{"geometry": {"type": "Point", "coordinates": [-85.7701122827, 39.8565466573]}, "type": "Feature", "properties": {"collection_times": [{"days": "Mon-Fri", "time": "3:30pm"}, {"days": "Sat", "time": "11:45am"}, {"days": "Sun", "time": "Closed"}], "id": "4615400003", "name": "USPS COLLECTION BOX - BLUE BOX", "address": {"city": "MAXWELL", "state": "IN", "street": "9 S MAIN ST", "postcode": "46154"}}},
{"geometry": {"type": "Point", "coordinates": [-85.4689758188, 39.4967422083]}, "type": "Feature", "properties": {"collection_times": [{"days": "Mon-Fri", "time": "3:30pm"}, {"days": "Sat", "time": "10:30am"}, {"days": "Sun", "time": "Closed"}], "id": "4615600000", "name": "USPS COLLECTION BOX - BLUE BOX", "address": {"city": "MILROY", "state": "IN", "street": "201 W MAIN ST", "postcode": "46156"}}},
{"geometry": {"type": "Point", "coordinates": [-85.4689758188, 39.4967422083]}, "type": "Feature", "properties": {"collection_times": [{"days": "Mon-Fri", "time": "11:45am"}, {"days": "Sat", "time": "10:30am"}, {"days": "Sun", "time": "Closed"}], "id": "4615600001", "name": "USPS COLLECTION BOX - PO LOBBY", "address": {"city": "MILROY", "state": "IN", "street": "201 W MAIN ST", "postcode": "46156"}}},
{"geometry": {"type": "Point", "coordinates": [-85.4689758188, 39.4967422083]}, "type": "Feature", "properties": {"collection_times": [{"days": "Mon-Fri", "time": "11:45am"}, {"days": "Sat", "time": "10:30am"}, {"days": "Sun", "time": "Closed"}], "id": "4615600002", "name": "USPS COLLECTION BOX - PO LOBBY", "address": {"city": "MILROY", "state": "IN", "street": "201 W MAIN ST", "postcode": "46156"}}},
{"geometry": {"type": "Point", "coordinates": [-85.4758584802, 39.4977000588]}, "type": "Feature", "properties": {"collection_times": [{"days": "Mon-Sat", "time": "9:00am"}, {"days": "Sun", "time": "Closed"}], "id": "4615600003", "name": "USPS COLLECTION BOX - BLUE BOX", "address": {"city": "MILROY", "state": "IN", "street": "7972 S STATE ROAD 3", "postcode": "46156"}}},
{"geometry": {"type": "Point", "coordinates": [-86.480379347, 39.5777244059]}, "type": "Feature", "properties": {"collection_times": [{"days": "Mon-Fri", "time": "3:00pm"}, {"days": "Sat", "time": "10:45am"}, {"days": "Sun", "time": "Closed"}], "id": "4615700000", "name": "USPS COLLECTION BOX - BLUE BOX", "address": {"city": "MONROVIA", "state": "IN", "street": "55 W WASHINGTON ST", "postcode": "46157"}}},
{"geometry": {"type": "Point", "coordinates": [-86.480379347, 39.5777244059]}, "type": "Feature", "properties": {"collection_times": [{"days": "Mon-Fri", "time": "3:00pm"}, {"days": "Sat", "time": "10:45am"}, {"days": "Sun", "time": "Closed"}], "id": "4615700002", "name": "USPS COLLECTION BOX - PO LOBBY", "address": {"city": "MONROVIA", "state": "IN", "street": "55 W WASHINGTON ST", "postcode": "46157"}}},
{"geometry": {"type": "Point", "coordinates": [-86.3750016179, 39.6061857576]}, "type": "Feature", "properties": {"collection_times": [{"days": "Mon-Sat", "time": "10:00am"}, {"days": "Sun", "time": "Closed"}], "id": "4615800002", "name": "USPS COLLECTION BOX - BLUE BOX", "address": {"city": "MOORESVILLE", "state": "IN", "street": "530 S INDIANA ST", "postcode": "46158"}}},
{"geometry": {"type": "Point", "coordinates": [-86.3535962692, 39.6189780632]}, "type": "Feature", "properties": {"collection_times": [{"days": "Mon-Sat", "time": "10:00am"}, {"days": "Sun", "time": "Closed"}], "id": "4615800003", "name": "USPS COLLECTION BOX - BLUE BOX", "address": {"city": "MOORESVILLE", "state": "IN", "street": "437 TOWN CENTER ST N", "postcode": "46158"}}},
{"geometry": {"type": "Point", "coordinates": [-86.3791821009, 39.6117486574]}, "type": "Feature", "properties": {"collection_times": [{"days": "Mon-Sat", "time": "10:00am"}, {"days": "Sun", "time": "Closed"}], "id": "4615800004", "name": "USPS COLLECTION BOX - BLUE BOX", "address": {"city": "MOORESVILLE", "state": "IN", "street": "220 W HARRISON ST", "postcode": "46158"}}},
{"geometry": {"type": "Point", "coordinates": [-86.3811274217, 39.6174993391]}, "type": "Feature", "properties": {"collection_times": [{"days": "Mon-Fri", "time": "5:00pm"}, {"days": "Sat", "time": "3:00pm"}, {"days": "Sun", "time": "Closed"}], "id": "4615800005", "name": "USPS COLLECTION BOX - BLUE BOX", "address": {"city": "MOORESVILLE", "state": "IN", "street": "345 W CARLISLE ST", "postcode": "46158"}}},
{"geometry": {"type": "Point", "coordinates": [-86.3811274217, 39.6174993391]}, "type": "Feature", "properties": {"collection_times": [{"days": "Mon-Fri", "time": "5:00pm"}, {"days": "Sat", "time": "3:00pm"}, {"days": "Sun", "time": "Closed"}], "id": "4615800012", "name": "USPS COLLECTION BOX - BLUE BOX", "address": {"city": "MOORESVILLE", "state": "IN", "street": "345 W CARLISLE ST", "postcode": "46158"}}},
{"geometry": {"type": "Point", "coordinates": [-86.3691228448, 39.6103390743]}, "type": "Feature", "properties": {"collection_times": [{"days": "Mon-Sat", "time": "10:00am"}, {"days": "Sun", "time": "Closed"}], "id": "4615800014", "name": "USPS COLLECTION BOX - BLUE BOX", "address": {"city": "MOORESVILLE", "state": "IN", "street": "245 HIGH ST", "postcode": "46158"}}},
{"geometry": {"type": "Point", "coordinates": [-86.3491274815, 39.609636206]}, "type": "Feature", "properties": {"collection_times": [{"days": "Mon-Sat", "time": "10:00am"}, {"days": "Sun", "time": "Closed"}], "id": "4615800015", "name": "USPS COLLECTION BOX - BLUE BOX", "address": {"city": "MOORESVILLE", "state": "IN", "street": "1201 HADLEY RD", "postcode": "46158"}}},
{"geometry": {"type": "Point", "coordinates": [-86.3811274217, 39.6174993391]}, "type": "Feature", "properties": {"collection_times": [{"days": "Mon-Fri", "time": "5:00pm"}, {"days": "Sat", "time": "3:00pm"}, {"days": "Sun", "time": "Closed"}], "id": "4615800017", "name": "USPS COLLECTION BOX - PO LOBBY", "address": {"city": "MOORESVILLE", "state": "IN", "street": "345 W CARLISLE ST", "postcode": "46158"}}},
{"geometry": {"type": "Point", "coordinates": [-86.3585545947, 39.6228614511]}, "type": "Feature", "properties": {"collection_times": [{"days": "Mon-Sat", "time": "10:00am"}, {"days": "Sun", "time": "Closed"}], "id": "4615800019", "name": "USPS COLLECTION BOX - BLUE BOX", "address": {"city": "MOORESVILLE", "state": "IN", "street": "523 S STATE ROAD 67", "postcode": "46158"}}},
{"geometry": {"type": "Point", "coordinates": [-86.2817923943, 39.9198050791]}, "type": "Feature", "properties": {"collection_times": [{"days": "Mon-Sat", "time": "10:00am"}, {"days": "Sun", "time": "Closed"}], "id": "4615800020", "name": "USPS COLLECTION BOX - BLUE BOX", "address": {"city": "MOORESVILLE", "state": "IN", "street": "2100 S OLD STATE ROAD 67", "postcode": "46158"}}},
{"geometry": {"type": "Point", "coordinates": [-86.2632775659, 39.3713211203]}, "type": "Feature", "properties": {"collection_times": [{"days": "Mon-Fri", "time": "3:00pm"}, {"days": "Sat", "time": "10:30am"}, {"days": "Sun", "time": "Closed"}], "id": "4616000002", "name": "USPS COLLECTION BOX - BLUE BOX", "address": {"city": "MORGANTOWN", "state": "IN", "street": "300 W WASHINGTON ST", "postcode": "46160"}}},
{"geometry": {"type": "Point", "coordinates": [-86.2632775659, 39.3713211203]}, "type": "Feature", "properties": {"collection_times": [{"days": "Mon-Fri", "time": "3:00pm"}, {"days": "Sat", "time": "10:30am"}, {"days": "Sun", "time": "Closed"}], "id": "4616000004", "name": "USPS COLLECTION BOX - PO LOBBY", "address": {"city": "MORGANTOWN", "state": "IN", "street": "300 W WASHINGTON ST", "postcode": "46160"}}},
{"geometry": {"type": "Point", "coordinates": [-86.2632775659, 39.3713211203]}, "type": "Feature", "properties": {"collection_times": [{"days": "Mon-Fri", "time": "3:00pm"}, {"days": "Sat", "time": "10:30am"}, {"days": "Sun", "time": "Closed"}], "id": "4616000005", "name": "USPS COLLECTION BOX - PO LOBBY", "address": {"city": "MORGANTOWN", "state": "IN", "street": "300 W WASHINGTON ST", "postcode": "46160"}}},
{"geometry": {"type": "Point", "coordinates": [-85.6984616536, 39.6733408678]}, "type": "Feature", "properties": {"collection_times": [{"days": "Mon-Fri", "time": "4:30pm"}, {"days": "Sat", "time": "11:00am"}, {"days": "Sun", "time": "Closed"}], "id": "4616100001", "name": "USPS COLLECTION BOX - BLUE BOX", "address": {"city": "MORRISTOWN", "state": "IN", "street": "105 E MAIN ST", "postcode": "46161"}}},
{"geometry": {"type": "Point", "coordinates": [-85.6984616536, 39.6733408678]}, "type": "Feature", "properties": {"collection_times": [{"days": "Mon-Fri", "time": "4:30pm"}, {"days": "Sat", "time": "11:00am"}, {"days": "Sun", "time": "Closed"}], "id": "4616100002", "name": "USPS COLLECTION BOX - PO LOBBY", "address": {"city": "MORRISTOWN", "state": "IN", "street": "105 E MAIN ST", "postcode": "46161"}}},
{"geometry": {"type": "Point", "coordinates": [-85.6984616536, 39.6733408678]}, "type": "Feature", "properties": {"collection_times": [{"days": "Mon-Fri", "time": "4:30pm"}, {"days": "Sat", "time": "11:00am"}, {"days": "Sun", "time": "Closed"}], "id": "4616100003", "name": "USPS COLLECTION BOX - PO LOBBY", "address": {"city": "MORRISTOWN", "state": "IN", "street": "105 E MAIN ST", "postcode": "46161"}}},
{"geometry": {"type": "Point", "coordinates": [-85.702583992, 39.674497042]}, "type": "Feature", "properties": {"collection_times": [{"days": "Mon-Sat", "time": "10:00am"}, {"days": "Sun", "time": "Closed"}], "id": "4616100004", "name": "USPS COLLECTION BOX - BLUE BOX", "address": {"city": "MORRISTOWN", "state": "IN", "street": "340 W MAIN ST", "postcode": "46161"}}},
{"geometry": {"type": "Point", "coordinates": [-85.8973732581, 39.7222116933]}, "type": "Feature", "properties": {"collection_times": [{"days": "Mon-Fri", "time": "4:30pm"}, {"days": "Sat", "time": "12:00pm"}, {"days": "Sun", "time": "Closed"}], "id": "4616300001", "name": "USPS COLLECTION BOX - BLUE BOX", "address": {"city": "NEW PALESTINE", "state": "IN", "street": "17 S WESTSIDE DR", "postcode": "46163"}}},
{"geometry": {"type": "Point", "coordinates": [-85.8970935507, 39.7226579258]}, "type": "Feature", "properties": {"collection_times": [{"days": "Mon-Fri", "time": "12:00pm"}, {"days": "Sat-Sun", "time": "Closed"}], "id": "4616300002", "name": "USPS COLLECTION BOX - BLUE BOX", "address": {"city": "NEW PALESTINE", "state": "IN", "street": "5026 W US HIGHWAY 52", "postcode": "46163"}}},
{"geometry": {"type": "Point", "coordinates": [-85.8973732581, 39.7222116933]}, "type": "Feature", "properties": {"collection_times": [{"days": "Mon-Fri", "time": "4:30pm"}, {"days": "Sat", "time": "12:00pm"}, {"days": "Sun", "time": "Closed"}], "id": "4616300003", "name": "USPS COLLECTION BOX - PO LOBBY", "address": {"city": "NEW PALESTINE", "state": "IN", "street": "17 S WESTSIDE DR", "postcode": "46163"}}},
{"geometry": {"type": "Point", "coordinates": [-86.0851112158, 39.3632839577]}, "type": "Feature", "properties": {"collection_times": [{"days": "Mon-Fri", "time": "3:45pm"}, {"days": "Sat", "time": "11:30am"}, {"days": "Sun", "time": "Closed"}], "id": "4616400001", "name": "USPS COLLECTION BOX - BLUE BOX", "address": {"city": "NINEVEH", "state": "IN", "street": "7544 S NINEVEH RD", "postcode": "46164"}}},
{"geometry": {"type": "Point", "coordinates": [-86.0851112158, 39.3632839577]}, "type": "Feature", "properties": {"collection_times": [{"days": "Mon-Fri", "time": "3:45pm"}, {"days": "Sat", "time": "11:30am"}, {"days": "Sun", "time": "Closed"}], "id": "4616400002", "name": "USPS COLLECTION BOX - PO LOBBY", "address": {"city": "NINEVEH", "state": "IN", "street": "7544 S NINEVEH RD", "postcode": "46164"}}},
{"geometry": {"type": "Point", "coordinates": [-86.6428386145, 39.8597606051]}, "type": "Feature", "properties": {"collection_times": [{"days": "Mon-Fri", "time": "3:30pm"}, {"days": "Sat", "time": "11:00am"}, {"days": "Sun", "time": "Closed"}], "id": "4616500001", "name": "USPS COLLECTION BOX - BLUE BOX", "address": {"city": "NORTH SALEM", "state": "IN", "street": "14 W PEARL ST", "postcode": "46165"}}},
{"geometry": {"type": "Point", "coordinates": [-86.6428386145, 39.8597606051]}, "type": "Feature", "properties": {"collection_times": [{"days": "Mon-Fri", "time": "11:15am"}, {"days": "Sat", "time": "9:45am"}, {"days": "Sun", "time": "Closed"}], "id": "4616500003", "name": "USPS COLLECTION BOX - PO LOBBY", "address": {"city": "NORTH SALEM", "state": "IN", "street": "14 W PEARL ST", "postcode": "46165"}}},
{"geometry": {"type": "Point", "coordinates": [-86.642655185, 39.859510576]}, "type": "Feature", "properties": {"collection_times": [{"days": "Mon-Sat", "time": "12:30pm"}, {"days": "Sun", "time": "Closed"}], "id": "4616500004", "name": "USPS COLLECTION BOX - BLUE BOX", "address": {"city": "NORTH SALEM", "state": "IN", "street": "3 S MAIN ST", "postcode": "46165"}}},
{"geometry": {"type": "Point", "coordinates": [-86.5629312605, 39.3951532707]}, "type": "Feature", "properties": {"collection_times": [{"days": "Mon-Fri", "time": "3:15pm"}, {"days": "Sat", "time": "10:45am"}, {"days": "Sun", "time": "Closed"}], "id": "4616600001", "name": "USPS COLLECTION BOX - BLUE BOX", "address": {"city": "PARAGON", "state": "IN", "street": "151 W UNION ST", "postcode": "46166"}}},
{"geometry": {"type": "Point", "coordinates": [-86.5875339448, 39.4250883479]}, "type": "Feature", "properties": {"collection_times": [{"days": "Mon-Fri", "time": "2:15pm"}, {"days": "Sat", "time": "10:45am"}, {"days": "Sun", "time": "Closed"}], "id": "4616600002", "name": "USPS COLLECTION BOX - PO LOBBY", "address": {"city": "PARAGON", "state": "IN", "street": "151 W UNION ST", "postcode": "46166"}}},
{"geometry": {"type": "Point", "coordinates": [-86.5875339448, 39.4250883479]}, "type": "Feature", "properties": {"collection_times": [{"days": "Mon-Fri", "time": "2:15pm"}, {"days": "Sat", "time": "10:45am"}, {"days": "Sun", "time": "Closed"}], "id": "4616600003", "name": "USPS COLLECTION BOX - PO LOBBY", "address": {"city": "PARAGON", "state": "IN", "street": "151 W UNION ST", "postcode": "46166"}}},
{"geometry": {"type": "Point", "coordinates": [-86.5942793051, 39.4362338424]}, "type": "Feature", "properties": {"collection_times": [{"days": "Mon-Sat", "time": "9:45am"}, {"days": "Sun", "time": "Closed"}], "id": "4616600004", "name": "USPS COLLECTION BOX - BLUE BOX", "address": {"city": "PARAGON", "state": "IN", "street": "2375 S STATE ROAD 67", "postcode": "46166"}}},
{"geometry": {"type": "Point", "coordinates": [-86.4674056686, 39.863850896]}, "type": "Feature", "properties": {"collection_times": [{"days": "Mon-Fri", "time": "4:15pm"}, {"days": "Sat", "time": "12:00pm"}, {"days": "Sun", "time": "Closed"}], "id": "4616700002", "name": "USPS COLLECTION BOX - PO LOBBY", "address": {"city": "PITTSBORO", "state": "IN", "street": "29 W MAIN ST", "postcode": "46167"}}},
{"geometry": {"type": "Point", "coordinates": [-86.4674056686, 39.863850896]}, "type": "Feature", "properties": {"collection_times": [{"days": "Mon-Fri", "time": "4:15pm"}, {"days": "Sat", "time": "12:00pm"}, {"days": "Sun", "time": "Closed"}], "id": "4616700003", "name": "USPS COLLECTION BOX - PO LOBBY", "address": {"city": "PITTSBORO", "state": "IN", "street": "29 W MAIN ST", "postcode": "46167"}}},
{"geometry": {"type": "Point", "coordinates": [-86.4670325244, 39.864070541]}, "type": "Feature", "properties": {"collection_times": [{"days": "Mon-Fri", "time": "4:15pm"}, {"days": "Sat", "time": "12:00pm"}, {"days": "Sun", "time": "Closed"}], "id": "4616700004", "name": "USPS COLLECTION BOX - BLUE BOX", "address": {"city": "PITTSBORO", "state": "IN", "street": "29 W MAIN ST", "postcode": "46167"}}},
{"geometry": {"type": "Point", "coordinates": [-86.3901701873, 39.7134497184]}, "type": "Feature", "properties": {"collection_times": [{"days": "Mon-Fri", "time": "5:00pm"}, {"days": "Sat", "time": "4:00pm"}, {"days": "Sun", "time": "Closed"}], "id": "4616800000", "name": "USPS COLLECTION BOX - BLUE BOX", "address": {"city": "PLAINFIELD", "state": "IN", "street": "700 N CARR RD", "postcode": "46168"}}},
{"geometry": {"type": "Point", "coordinates": [-86.3765004041, 39.7107094442]}, "type": "Feature", "properties": {"collection_times": [{"days": "Mon-Sat", "time": "10:00am"}, {"days": "Sun", "time": "Closed"}], "id": "4616800008", "name": "USPS COLLECTION BOX - BLUE BOX", "address": {"city": "PLAINFIELD", "state": "IN", "street": "1820 E MAIN ST", "postcode": "46168"}}},
{"geometry": {"type": "Point", "coordinates": [-86.3530415929, 39.7193150017]}, "type": "Feature", "properties": {"collection_times": [{"days": "Mon-Sat", "time": "10:00am"}, {"days": "Sun", "time": "Closed"}], "id": "4616800009", "name": "USPS COLLECTION BOX - BLUE BOX", "address": {"city": "PLAINFIELD", "state": "IN", "street": "2685 E MAIN ST", "postcode": "46168"}}},
{"geometry": {"type": "Point", "coordinates": [-86.3742329625, 39.6944315259]}, "type": "Feature", "properties": {"collection_times": [{"days": "Mon-Sat", "time": "11:00am"}, {"days": "Sun", "time": "Closed"}], "id": "4616800013", "name": "USPS COLLECTION BOX - BLUE BOX", "address": {"city": "PLAINFIELD", "state": "IN", "street": "895 PINEWOOD DR", "postcode": "46168"}}},
{"geometry": {"type": "Point", "coordinates": [-86.37513874, 39.6971890497]}, "type": "Feature", "properties": {"collection_times": [{"days": "Mon-Sat", "time": "1:00pm"}, {"days": "Sun", "time": "Closed"}], "id": "4616800015", "name": "USPS COLLECTION BOX - BLUE BOX", "address": {"city": "PLAINFIELD", "state": "IN", "street": "2002 STAFFORD RD", "postcode": "46168"}}},
{"geometry": {"type": "Point", "coordinates": [-86.4050279702, 39.706370485]}, "type": "Feature", "properties": {"collection_times": [{"days": "Mon-Sat", "time": "11:00am"}, {"days": "Sun", "time": "Closed"}], "id": "4616800016", "name": "USPS COLLECTION BOX - BLUE BOX", "address": {"city": "PLAINFIELD", "state": "IN", "street": "260 N MILL ST", "postcode": "46168"}}},
{"geometry": {"type": "Point", "coordinates": [-86.3901701873, 39.7134497184]}, "type": "Feature", "properties": {"collection_times": [{"days": "Mon-Fri", "time": "5:00pm"}, {"days": "Sat", "time": "4:00pm"}, {"days": "Sun", "time": "Closed"}], "id": "4616800024", "name": "USPS COLLECTION BOX - PO LOBBY", "address": {"city": "PLAINFIELD", "state": "IN", "street": "700 N CARR RD", "postcode": "46168"}}},
{"geometry": {"type": "Point", "coordinates": [-86.3901701873, 39.7134497184]}, "type": "Feature", "properties": {"collection_times": [{"days": "Mon-Fri", "time": "5:00pm"}, {"days": "Sat", "time": "4:00pm"}, {"days": "Sun", "time": "Closed"}], "id": "4616800025", "name": "USPS COLLECTION BOX - APC", "address": {"city": "PLAINFIELD", "state": "IN", "street": "700 N CARR RD", "postcode": "46168"}}},
{"geometry": {"type": "Point", "coordinates": [-86.3901701873, 39.7134497184]}, "type": "Feature", "properties": {"collection_times": [{"days": "Mon-Fri", "time": "5:00pm"}, {"days": "Sat", "time": "4:00pm"}, {"days": "Sun", "time": "Closed"}], "id": "4616800026", "name": "USPS COLLECTION BOX - PO LOBBY", "address": {"city": "PLAINFIELD", "state": "IN", "street": "700 N CARR RD", "postcode": "46168"}}},
{"geometry": {"type": "Point", "coordinates": [-86.3723034986, 39.6936419019]}, "type": "Feature", "properties": {"collection_times": [{"days": "Mon-Sat", "time": "9:00am"}, {"days": "Sun", "time": "Closed"}], "id": "4616800027", "name": "USPS COLLECTION BOX - BLUE BOX", "address": {"city": "PLAINFIELD", "state": "IN", "street": "1100 SOUTHFIELD DR", "postcode": "46168"}}},
{"geometry": {"type": "Point", "coordinates": [-86.9627221608, 39.5515417167]}, "type": "Feature", "properties": {"collection_times": [{"days": "Mon-Fri", "time": "4:00pm"}, {"days": "Sat", "time": "9:00am"}, {"days": "Sun", "time": "Closed"}], "id": "4617100001", "name": "USPS COLLECTION BOX - BLUE BOX", "address": {"city": "REELSVILLE", "state": "IN", "street": "6297 W COUNTY ROAD 750 S", "postcode": "46171"}}},
{"geometry": {"type": "Point", "coordinates": [-86.9627221608, 39.5515417167]}, "type": "Feature", "properties": {"collection_times": [{"days": "Mon-Fri", "time": "11:45am"}, {"days": "Sat", "time": "9:00am"}, {"days": "Sun", "time": "Closed"}], "id": "4617100003", "name": "USPS COLLECTION BOX - PO LOBBY", "address": {"city": "REELSVILLE", "state": "IN", "street": "6297 W COUNTY ROAD 750 S", "postcode": "46171"}}},
{"geometry": {"type": "Point", "coordinates": [-86.8010383908, 39.848274451]}, "type": "Feature", "properties": {"collection_times": [{"days": "Mon-Fri", "time": "3:15pm"}, {"days": "Sat", "time": "10:30am"}, {"days": "Sun", "time": "Closed"}], "id": "4617200001", "name": "USPS COLLECTION BOX - BLUE BOX", "address": {"city": "ROACHDALE", "state": "IN", "street": "104 N MERIDIAN ST", "postcode": "46172"}}},
{"geometry": {"type": "Point", "coordinates": [-86.8010383908, 39.848274451]}, "type": "Feature", "properties": {"collection_times": [{"days": "Mon-Fri", "time": "3:15pm"}, {"days": "Sat", "time": "10:30am"}, {"days": "Sun", "time": "Closed"}], "id": "4617200002", "name": "USPS COLLECTION BOX - BLUE BOX", "address": {"city": "ROACHDALE", "state": "IN", "street": "104 N MERIDIAN ST", "postcode": "46172"}}},
{"geometry": {"type": "Point", "coordinates": [-85.4447058057, 39.6081368493]}, "type": "Feature", "properties": {"collection_times": [{"days": "Mon-Fri", "time": "2:00pm"}, {"days": "Sat", "time": "1:00pm"}, {"days": "Sun", "time": "Closed"}], "id": "4617300001", "name": "USPS COLLECTION BOX - BLUE BOX", "address": {"city": "RUSHVILLE", "state": "IN", "street": "101 E 2ND ST", "postcode": "46173"}}},
{"geometry": {"type": "Point", "coordinates": [-85.4447525692, 39.6250073488]}, "type": "Feature", "properties": {"collection_times": [{"days": "Mon-Fri", "time": "2:00pm"}, {"days": "Sat", "time": "1:00pm"}, {"days": "Sun", "time": "Closed"}], "id": "4617300002", "name": "USPS COLLECTION BOX - BLUE BOX", "address": {"city": "RUSHVILLE", "state": "IN", "street": "1542 N MAIN ST", "postcode": "46173"}}},
{"geometry": {"type": "Point", "coordinates": [-85.4449439747, 39.6347008506]}, "type": "Feature", "properties": {"collection_times": [{"days": "Mon-Fri", "time": "2:00pm"}, {"days": "Sat", "time": "1:00pm"}, {"days": "Sun", "time": "Closed"}], "id": "4617300003", "name": "USPS COLLECTION BOX - BLUE BOX", "address": {"city": "RUSHVILLE", "state": "IN", "street": "1812 N MAIN ST", "postcode": "46173"}}},
{"geometry": {"type": "Point", "coordinates": [-85.4448953116, 39.624982909]}, "type": "Feature", "properties": {"collection_times": [{"days": "Mon-Fri", "time": "2:00pm"}, {"days": "Sat", "time": "1:00pm"}, {"days": "Sun", "time": "Closed"}], "id": "4617300004", "name": "USPS COLLECTION BOX - BLUE BOX", "address": {"city": "RUSHVILLE", "state": "IN", "street": "1541 N MAIN ST", "postcode": "46173"}}},
{"geometry": {"type": "Point", "coordinates": [-85.4443644172, 39.6092806448]}, "type": "Feature", "properties": {"collection_times": [{"days": "Mon-Fri", "time": "2:00pm"}, {"days": "Sat", "time": "1:00pm"}, {"days": "Sun", "time": "Closed"}], "id": "4617300007", "name": "USPS COLLECTION BOX - BLUE BOX", "address": {"city": "RUSHVILLE", "state": "IN", "street": "127 E 3RD ST", "postcode": "46173"}}},
{"geometry": {"type": "Point", "coordinates": [-85.4447264265, 39.6063817382]}, "type": "Feature", "properties": {"collection_times": [{"days": "Mon-Fri", "time": "2:00pm"}, {"days": "Sat", "time": "1:00pm"}, {"days": "Sun", "time": "Closed"}], "id": "4617300008", "name": "USPS COLLECTION BOX - BLUE BOX", "address": {"city": "RUSHVILLE", "state": "IN", "street": "206 S MAIN ST", "postcode": "46173"}}},
{"geometry": {"type": "Point", "coordinates": [-85.4447058057, 39.6081368493]}, "type": "Feature", "properties": {"collection_times": [{"days": "Mon-Fri", "time": "2:00pm"}, {"days": "Sat", "time": "1:00pm"}, {"days": "Sun", "time": "Closed"}], "id": "4617300009", "name": "USPS COLLECTION BOX - BLUE BOX", "address": {"city": "RUSHVILLE", "state": "IN", "street": "101 E 2ND ST", "postcode": "46173"}}},
{"geometry": {"type": "Point", "coordinates": [-85.4477009108, 39.6107671794]}, "type": "Feature", "properties": {"collection_times": [{"days": "Mon-Fri", "time": "2:00pm"}, {"days": "Sat", "time": "1:00pm"}, {"days": "Sun", "time": "Closed"}], "id": "4617300013", "name": "USPS COLLECTION BOX - BLUE BOX", "address": {"city": "RUSHVILLE", "state": "IN", "street": "404 N HARRISON ST", "postcode": "46173"}}},
{"geometry": {"type": "Point", "coordinates": [-85.4467468877, 39.6093662759]}, "type": "Feature", "properties": {"collection_times": [{"days": "Mon-Fri", "time": "4:30pm"}, {"days": "Sat", "time": "2:00pm"}, {"days": "Sun", "time": "Closed"}], "id": "4617300014", "name": "USPS COLLECTION BOX - BLUE BOX", "address": {"city": "RUSHVILLE", "state": "IN", "street": "230 W 3RD ST", "postcode": "46173"}}},
{"geometry": {"type": "Point", "coordinates": [-85.4370429228, 39.6186961148]}, "type": "Feature", "properties": {"collection_times": [{"days": "Mon-Fri", "time": "2:00pm"}, {"days": "Sat", "time": "1:00pm"}, {"days": "Sun", "time": "Closed"}], "id": "4617300018", "name": "USPS COLLECTION BOX - BLUE BOX", "address": {"city": "RUSHVILLE", "state": "IN", "street": "601 E 11TH ST", "postcode": "46173"}}},
{"geometry": {"type": "Point", "coordinates": [-85.4477009108, 39.6107671794]}, "type": "Feature", "properties": {"collection_times": [{"days": "Mon-Fri", "time": "2:00pm"}, {"days": "Sat", "time": "1:00pm"}, {"days": "Sun", "time": "Closed"}], "id": "4617300028", "name": "USPS COLLECTION BOX - BLUE BOX", "address": {"city": "RUSHVILLE", "state": "IN", "street": "404 N HARRISON ST", "postcode": "46173"}}},
{"geometry": {"type": "Point", "coordinates": [-85.4467468877, 39.6093662759]}, "type": "Feature", "properties": {"collection_times": [{"days": "Mon-Fri", "time": "4:30pm"}, {"days": "Sat", "time": "2:00pm"}, {"days": "Sun", "time": "Closed"}], "id": "4617300029", "name": "USPS COLLECTION BOX - BLUE BOX", "address": {"city": "RUSHVILLE", "state": "IN", "street": "230 W 3RD ST", "postcode": "46173"}}},
{"geometry": {"type": "Point", "coordinates": [-85.4441736723, 39.621224698]}, "type": "Feature", "properties": {"collection_times": [{"days": "Mon-Fri", "time": "2:00pm"}, {"days": "Sat", "time": "1:00pm"}, {"days": "Sun", "time": "Closed"}], "id": "4617300030", "name": "USPS COLLECTION BOX - BLUE BOX", "address": {"city": "RUSHVILLE", "state": "IN", "street": "151 E 13TH ST", "postcode": "46173"}}},
{"geometry": {"type": "Point", "coordinates": [-85.4467468877, 39.6093662759]}, "type": "Feature", "properties": {"collection_times": [{"days": "Mon-Fri", "time": "4:30pm"}, {"days": "Sat", "time": "2:00pm"}, {"days": "Sun", "time": "Closed"}], "id": "4617300033", "name": "USPS COLLECTION BOX - PO LOBBY", "address": {"city": "RUSHVILLE", "state": "IN", "street": "230 W 3RD ST", "postcode": "46173"}}},
{"geometry": {"type": "Point", "coordinates": [-85.4467468877, 39.6093662759]}, "type": "Feature", "properties": {"collection_times": [{"days": "Mon-Fri", "time": "4:30pm"}, {"days": "Sat", "time": "2:00pm"}, {"days": "Sun", "time": "Closed"}], "id": "4617300034", "name": "USPS COLLECTION BOX - PO LOBBY", "address": {"city": "RUSHVILLE", "state": "IN", "street": "230 W 3RD ST", "postcode": "46173"}}},
{"geometry": {"type": "Point", "coordinates": [-85.4449974986, 39.6082504585]}, "type": "Feature", "properties": {"collection_times": [{"days": "Mon-Fri", "time": "2:00pm"}, {"days": "Sat", "time": "1:00pm"}, {"days": "Sun", "time": "Closed"}], "id": "4617300036", "name": "USPS COLLECTION BOX - BLUE BOX", "address": {"city": "RUSHVILLE", "state": "IN", "street": "114 W 2ND ST", "postcode": "46173"}}},
{"geometry": {"type": "Point", "coordinates": [-86.9863384979, 39.8557796476]}, "type": "Feature", "properties": {"collection_times": [{"days": "Mon-Fri", "time": "3:15pm"}, {"days": "Sat", "time": "9:00am"}, {"days": "Sun", "time": "Closed"}], "id": "4617500001", "name": "USPS COLLECTION BOX - BLUE BOX", "address": {"city": "RUSSELLVILLE", "state": "IN", "street": "201 E 1ST ST", "postcode": "46175"}}},
{"geometry": {"type": "Point", "coordinates": [-86.9863384979, 39.8557796476]}, "type": "Feature", "properties": {"collection_times": [{"days": "Mon-Fri", "time": "11:45am"}, {"days": "Sat", "time": "9:00am"}, {"days": "Sun", "time": "Closed"}], "id": "4617500003", "name": "USPS COLLECTION BOX - PO LOBBY", "address": {"city": "RUSSELLVILLE", "state": "IN", "street": "201 E 1ST ST", "postcode": "46175"}}},
{"geometry": {"type": "Point", "coordinates": [-85.7538279864, 39.5198930278]}, "type": "Feature", "properties": {"collection_times": [{"days": "Mon-Sat", "time": "2:30pm"}, {"days": "Sun", "time": "Closed"}], "id": "4617600008", "name": "USPS COLLECTION BOX - BLUE BOX", "address": {"city": "SHELBYVILLE", "state": "IN", "street": "1626 E STATE ROAD 44", "postcode": "46176"}}},
{"geometry": {"type": "Point", "coordinates": [-85.7770749682, 39.5236968188]}, "type": "Feature", "properties": {"collection_times": [{"days": "Mon-Sat", "time": "2:30pm"}, {"days": "Sun", "time": "Closed"}], "id": "4617600014", "name": "USPS COLLECTION BOX - BLUE BOX", "address": {"city": "SHELBYVILLE", "state": "IN", "street": "101 S HARRISON ST", "postcode": "46176"}}},
{"geometry": {"type": "Point", "coordinates": [-85.7734773511, 39.521973836]}, "type": "Feature", "properties": {"collection_times": [{"days": "Mon-Sat", "time": "2:30pm"}, {"days": "Sun", "time": "Closed"}], "id": "4617600018", "name": "USPS COLLECTION BOX - BLUE BOX", "address": {"city": "SHELBYVILLE", "state": "IN", "street": "919 LEWIS CREEK LN", "postcode": "46176"}}},
{"geometry": {"type": "Point", "coordinates": [-85.7943946024, 39.5133352389]}, "type": "Feature", "properties": {"collection_times": [{"days": "Mon-Sat", "time": "2:30pm"}, {"days": "Sun", "time": "Closed"}], "id": "4617600029", "name": "USPS COLLECTION BOX - BLUE BOX", "address": {"city": "SHELBYVILLE", "state": "IN", "street": "911 HALE RD", "postcode": "46176"}}},
{"geometry": {"type": "Point", "coordinates": [-85.7770837514, 39.5215164447]}, "type": "Feature", "properties": {"collection_times": [{"days": "Mon-Sat", "time": "2:30pm"}, {"days": "Sun", "time": "Closed"}], "id": "4617600033", "name": "USPS COLLECTION BOX - BLUE BOX", "address": {"city": "SHELBYVILLE", "state": "IN", "street": "407 S HARRISON ST", "postcode": "46176"}}},
{"geometry": {"type": "Point", "coordinates": [-85.7611494794, 39.5211766574]}, "type": "Feature", "properties": {"collection_times": [{"days": "Mon-Sat", "time": "2:30pm"}, {"days": "Sun", "time": "Closed"}], "id": "4617600038", "name": "USPS COLLECTION BOX - BLUE BOX", "address": {"city": "SHELBYVILLE", "state": "IN", "street": "1015 E STATE ROAD 44", "postcode": "46176"}}},
{"geometry": {"type": "Point", "coordinates": [-85.7747291918, 39.5243822635]}, "type": "Feature", "properties": {"collection_times": [{"days": "Mon-Fri", "time": "5:30pm"}, {"days": "Sat", "time": "5:00pm"}, {"days": "Sun", "time": "Closed"}], "id": "4617600041", "name": "USPS COLLECTION BOX - BLUE BOX", "address": {"city": "SHELBYVILLE", "state": "IN", "street": "103 E WASHINGTON ST", "postcode": "46176"}}},
{"geometry": {"type": "Point", "coordinates": [-85.7747291918, 39.5243822635]}, "type": "Feature", "properties": {"collection_times": [{"days": "Mon-Fri", "time": "5:30pm"}, {"days": "Sat", "time": "5:00pm"}, {"days": "Sun", "time": "Closed"}], "id": "4617600042", "name": "USPS COLLECTION BOX - BLUE BOX", "address": {"city": "SHELBYVILLE", "state": "IN", "street": "103 E WASHINGTON ST", "postcode": "46176"}}},
{"geometry": {"type": "Point", "coordinates": [-85.7804799944, 39.547559887]}, "type": "Feature", "properties": {"collection_times": [{"days": "Mon-Sat", "time": "2:30pm"}, {"days": "Sun", "time": "Closed"}], "id": "4617600043", "name": "USPS COLLECTION BOX - BLUE BOX", "address": {"city": "SHELBYVILLE", "state": "IN", "street": "1700 MORNINGSIDE DR", "postcode": "46176"}}},
{"geometry": {"type": "Point", "coordinates": [-85.7747291918, 39.5243822635]}, "type": "Feature", "properties": {"collection_times": [{"days": "Mon-Fri", "time": "5:30pm"}, {"days": "Sat", "time": "5:00pm"}, {"days": "Sun", "time": "Closed"}], "id": "4617600046", "name": "USPS COLLECTION BOX - PO LOBBY", "address": {"city": "SHELBYVILLE", "state": "IN", "street": "103 E WASHINGTON ST", "postcode": "46176"}}},
{"geometry": {"type": "Point", "coordinates": [-85.7747291918, 39.5243822635]}, "type": "Feature", "properties": {"collection_times": [{"days": "Mon-Fri", "time": "5:30pm"}, {"days": "Sat", "time": "5:00pm"}, {"days": "Sun", "time": "Closed"}], "id": "4617600047", "name": "USPS COLLECTION BOX - PO LOBBY", "address": {"city": "SHELBYVILLE", "state": "IN", "street": "103 E WASHINGTON ST", "postcode": "46176"}}},
{"geometry": {"type": "Point", "coordinates": [-85.774620889, 39.54746079]}, "type": "Feature", "properties": {"collection_times": [{"days": "Mon-Sat", "time": "2:30pm"}, {"days": "Sun", "time": "Closed"}], "id": "4617600048", "name": "USPS COLLECTION BOX - BLUE BOX", "address": {"city": "SHELBYVILLE", "state": "IN", "street": "30 E RAMPART ST", "postcode": "46176"}}},
{"geometry": {"type": "Point", "coordinates": [-85.7775628793, 39.526530977]}, "type": "Feature", "properties": {"collection_times": [{"days": "Mon-Sat", "time": "2:30pm"}, {"days": "Sun", "time": "Closed"}], "id": "4617600049", "name": "USPS COLLECTION BOX - BLUE BOX", "address": {"city": "SHELBYVILLE", "state": "IN", "street": "2150 INTELLIPLEX DR", "postcode": "46176"}}},
{"geometry": {"type": "Point", "coordinates": [-85.763747921, 39.521893122]}, "type": "Feature", "properties": {"collection_times": [{"days": "Mon-Sat", "time": "2:30pm"}, {"days": "Sun", "time": "Closed"}], "id": "4617600051", "name": "USPS COLLECTION BOX - BLUE BOX", "address": {"city": "SHELBYVILLE", "state": "IN", "street": "711 E STATE ROAD 44", "postcode": "46176"}}},
{"geometry": {"type": "Point", "coordinates": [-86.6331830745, 39.6386952017]}, "type": "Feature", "properties": {"collection_times": [{"days": "Mon-Fri", "time": "3:45pm"}, {"days": "Sat", "time": "10:30am"}, {"days": "Sun", "time": "Closed"}], "id": "4618000000", "name": "USPS COLLECTION BOX - BLUE BOX", "address": {"city": "STILESVILLE", "state": "IN", "street": "6075 W US HIGHWAY 40", "postcode": "46180"}}},
{"geometry": {"type": "Point", "coordinates": [-86.6319903678, 39.5674353807]}, "type": "Feature", "properties": {"collection_times": [{"days": "Mon-Fri", "time": "10:15am"}, {"days": "Sat-Sun", "time": "Closed"}], "id": "4618000001", "name": "USPS COLLECTION BOX - BLUE BOX", "address": {"city": "STILESVILLE", "state": "IN", "street": "9620 N LITTLE POINT RD", "postcode": "46180"}}},
{"geometry": {"type": "Point", "coordinates": [-86.6331830745, 39.6386952017]}, "type": "Feature", "properties": {"collection_times": [{"days": "Mon-Fri", "time": "12:00pm"}, {"days": "Sat", "time": "10:30am"}, {"days": "Sun", "time": "Closed"}], "id": "4618000004", "name": "USPS COLLECTION BOX - PO LOBBY", "address": {"city": "STILESVILLE", "state": "IN", "street": "6075 W US HIGHWAY 40", "postcode": "46180"}}},
{"geometry": {"type": "Point", "coordinates": [-86.1516562065, 39.4150052896]}, "type": "Feature", "properties": {"collection_times": [{"days": "Mon-Fri", "time": "4:00pm"}, {"days": "Sat", "time": "10:00am"}, {"days": "Sun", "time": "Closed"}], "id": "4618100001", "name": "USPS COLLECTION BOX - BLUE BOX", "address": {"city": "TRAFALGAR", "state": "IN", "street": "105 E OHIO ST", "postcode": "46181"}}},
{"geometry": {"type": "Point", "coordinates": [-86.1599511147, 39.4115013651]}, "type": "Feature", "properties": {"collection_times": [{"days": "Mon-Fri", "time": "11:00am"}, {"days": "Sat-Sun", "time": "Closed"}], "id": "4618100002", "name": "USPS COLLECTION BOX - BLUE BOX", "address": {"city": "TRAFALGAR", "state": "IN", "street": "17 TRAFALGAR SQ", "postcode": "46181"}}},
{"geometry": {"type": "Point", "coordinates": [-86.1516562065, 39.4150052896]}, "type": "Feature", "properties": {"collection_times": [{"days": "Mon-Fri", "time": "4:00pm"}, {"days": "Sat", "time": "10:00am"}, {"days": "Sun", "time": "Closed"}], "id": "4618100003", "name": "USPS COLLECTION BOX - PO LOBBY", "address": {"city": "TRAFALGAR", "state": "IN", "street": "105 E OHIO ST", "postcode": "46181"}}},
{"geometry": {"type": "Point", "coordinates": [-86.1516562065, 39.4150052896]}, "type": "Feature", "properties": {"collection_times": [{"days": "Mon-Fri", "time": "4:00pm"}, {"days": "Sat", "time": "10:00am"}, {"days": "Sun", "time": "Closed"}], "id": "4618100004", "name": "USPS COLLECTION BOX - PO LOBBY", "address": {"city": "TRAFALGAR", "state": "IN", "street": "105 E OHIO ST", "postcode": "46181"}}},
{"geometry": {"type": "Point", "coordinates": [-85.6668521613, 39.4535215521]}, "type": "Feature", "properties": {"collection_times": [{"days": "Mon-Fri", "time": "3:30pm"}, {"days": "Sat", "time": "10:00am"}, {"days": "Sun", "time": "Closed"}], "id": "4618200002", "name": "USPS COLLECTION BOX - PO LOBBY", "address": {"city": "WALDRON", "state": "IN", "street": "108 E WASHINGTON ST", "postcode": "46182"}}},
{"geometry": {"type": "Point", "coordinates": [-85.6668521613, 39.4535215521]}, "type": "Feature", "properties": {"collection_times": [{"days": "Mon-Fri", "time": "3:30pm"}, {"days": "Sat", "time": "10:00am"}, {"days": "Sun", "time": "Closed"}], "id": "4618200003", "name": "USPS COLLECTION BOX - PO LOBBY", "address": {"city": "WALDRON", "state": "IN", "street": "108 E WASHINGTON ST", "postcode": "46182"}}},
{"geometry": {"type": "Point", "coordinates": [-85.6668521613, 39.4535215521]}, "type": "Feature", "properties": {"collection_times": [{"days": "Mon-Fri", "time": "3:30pm"}, {"days": "Sat", "time": "10:00am"}, {"days": "Sun", "time": "Closed"}], "id": "4618200004", "name": "USPS COLLECTION BOX - BLUE BOX", "address": {"city": "WALDRON", "state": "IN", "street": "108 E WASHINGTON ST", "postcode": "46182"}}},
{"geometry": {"type": "Point", "coordinates": [-86.2796739859, 39.653503692]}, "type": "Feature", "properties": {"collection_times": [{"days": "Mon-Fri", "time": "4:00pm"}, {"days": "Sat", "time": "11:00am"}, {"days": "Sun", "time": "Closed"}], "id": "4618300000", "name": "USPS COLLECTION BOX - BLUE BOX", "address": {"city": "WEST NEWTON", "state": "IN", "street": "7636 MOORESVILLE RD", "postcode": "46183"}}},
{"geometry": {"type": "Point", "coordinates": [-86.2796739859, 39.653503692]}, "type": "Feature", "properties": {"collection_times": [{"days": "Mon-Fri", "time": "4:00pm"}, {"days": "Sat", "time": "11:00am"}, {"days": "Sun", "time": "Closed"}], "id": "4618300001", "name": "USPS COLLECTION BOX - PO LOBBY", "address": {"city": "WEST NEWTON", "state": "IN", "street": "7636 MOORESVILLE RD", "postcode": "46183"}}},
{"geometry": {"type": "Point", "coordinates": [-86.0896238337, 39.5646876367]}, "type": "Feature", "properties": {"collection_times": [{"days": "Mon-Sat", "time": "9:00am"}, {"days": "Sun", "time": "Closed"}], "id": "4618400001", "name": "USPS COLLECTION BOX - BLUE BOX", "address": {"city": "WHITELAND", "state": "IN", "street": "400 TRACY RD", "postcode": "46184"}}},
{"geometry": {"type": "Point", "coordinates": [-86.0873398545, 39.5505416288]}, "type": "Feature", "properties": {"collection_times": [{"days": "Mon-Sat", "time": "9:00am"}, {"days": "Sun", "time": "Closed"}], "id": "4618400004", "name": "USPS COLLECTION BOX - BLUE BOX", "address": {"city": "WHITELAND", "state": "IN", "street": "39 N US HIGHWAY 31", "postcode": "46184"}}},
{"geometry": {"type": "Point", "coordinates": [-86.0971806143, 39.5559713387]}, "type": "Feature", "properties": {"collection_times": [{"days": "Mon-Sat", "time": "9:00am"}, {"days": "Sun", "time": "Closed"}], "id": "4618400005", "name": "USPS COLLECTION BOX - BLUE BOX", "address": {"city": "WHITELAND", "state": "IN", "street": "401 MOORELAND DR", "postcode": "46184"}}},
{"geometry": {"type": "Point", "coordinates": [-86.079551598, 39.550088551]}, "type": "Feature", "properties": {"collection_times": [{"days": "Mon-Fri", "time": "4:45pm"}, {"days": "Sat", "time": "12:00pm"}, {"days": "Sun", "time": "Closed"}], "id": "4618400011", "name": "USPS COLLECTION BOX - BLUE BOX", "address": {"city": "WHITELAND", "state": "IN", "street": "510 MAIN ST", "postcode": "46184"}}},
{"geometry": {"type": "Point", "coordinates": [-86.0796199203, 39.550051885]}, "type": "Feature", "properties": {"collection_times": [{"days": "Mon-Fri", "time": "4:45pm"}, {"days": "Sat", "time": "12:00pm"}, {"days": "Sun", "time": "Closed"}], "id": "4618400014", "name": "USPS COLLECTION BOX - PO LOBBY", "address": {"city": "WHITELAND", "state": "IN", "street": "510 MAIN ST", "postcode": "46184"}}},
{"geometry": {"type": "Point", "coordinates": [-86.0741318597, 39.5501529486]}, "type": "Feature", "properties": {"collection_times": [{"days": "Mon-Sat", "time": "9:00am"}, {"days": "Sun", "time": "Closed"}], "id": "4618400015", "name": "USPS COLLECTION BOX - BLUE BOX", "address": {"city": "WHITELAND", "state": "IN", "street": "4982 N 350 E", "postcode": "46184"}}},
{"geometry": {"type": "Point", "coordinates": [-85.6080335951, 39.8855446489]}, "type": "Feature", "properties": {"collection_times": [{"days": "Mon-Fri", "time": "11:30am"}, {"days": "Sat", "time": "11:00am"}, {"days": "Sun", "time": "Closed"}], "id": "4618600003", "name": "USPS COLLECTION BOX - PO LOBBY", "address": {"city": "WILKINSON", "state": "IN", "street": "145 S MAIN ST", "postcode": "46186"}}},
{"geometry": {"type": "Point", "coordinates": [-85.6080335951, 39.8855446489]}, "type": "Feature", "properties": {"collection_times": [{"days": "Mon-Fri", "time": "3:30pm"}, {"days": "Sat", "time": "11:00am"}, {"days": "Sun", "time": "Closed"}], "id": "4618600004", "name": "USPS COLLECTION BOX - BLUE BOX", "address": {"city": "WILKINSON", "state": "IN", "street": "145 S MAIN ST", "postcode": "46186"}}}
]}
