{"type": "FeatureCollection", "features": [
{"geometry": {"type": "Point", "coordinates": [-86.0939942703, 39.781411236]}, "type": "Feature", "properties": {"collection_times": [{"days": "Mon-Fri", "time": "5:00pm"}, {"days": "Sat", "time": "4:30pm"}, {"days": "Sun", "time": "Closed"}], "id": "4620100001", "name": "USPS COLLECTION BOX - BLUE BOX", "address": {"city": "INDIANAPOLIS", "state": "IN", "street": "4401 E 10TH ST", "postcode": "46201"}}},
{"geometry": {"type": "Point", "coordinates": [-86.0885987661, 39.7602107458]}, "type": "Feature", "properties": {"collection_times": [{"days": "Mon-Sat", "time": "1:00pm"}, {"days": "Sun", "time": "Closed"}], "id": "4620100004", "name": "USPS COLLECTION BOX - BLUE BOX", "address": {"city": "INDIANAPOLIS", "state": "IN", "street": "4737 ENGLISH AVE", "postcode": "46201"}}},
{"geometry": {"type": "Point", "coordinates": [-86.0949311112, 39.7640837092]}, "type": "Feature", "properties": {"collection_times": [{"days": "Mon-Sat", "time": "1:00pm"}, {"days": "Sun", "time": "Closed"}], "id": "4620100007", "name": "USPS COLLECTION BOX - BLUE BOX", "address": {"city": "INDIANAPOLIS", "state": "IN", "street": "4212 E PLEASANT RUN PARKWAY SOUTH DR", "postcode": "46201"}}},
{"geometry": {"type": "Point", "coordinates": [-86.1126221095, 39.7718815331]}, "type": "Feature", "properties": {"collection_times": [{"days": "Mon-Fri", "time": "12:00pm"}, {"days": "Sat", "time": "11:00am"}, {"days": "Sun", "time": "Closed"}], "id": "4620100025", "name": "USPS COLLECTION BOX - BLUE BOX", "address": {"city": "INDIANAPOLIS", "state": "IN", "street": "3000 E NEW YORK ST", "postcode": "46201"}}},
{"geometry": {"type": "Point", "coordinates": [-86.1077293912, 39.7813795107]}, "type": "Feature", "properties": {"collection_times": [{"days": "Mon-Fri", "time": "12:00pm"}, {"days": "Sat", "time": "11:00am"}, {"days": "Sun", "time": "Closed"}], "id": "4620100028", "name": "USPS COLLECTION BOX - BLUE BOX", "address": {"city": "INDIANAPOLIS", "state": "IN", "street": "3415 E 10TH ST", "postcode": "46201"}}},
{"geometry": {"type": "Point", "coordinates": [-86.0888339877, 39.7750258381]}, "type": "Feature", "properties": {"collection_times": [{"days": "Mon-Sat", "time": "1:00pm"}, {"days": "Sun", "time": "Closed"}], "id": "4620100041", "name": "USPS COLLECTION BOX - BLUE BOX", "address": {"city": "INDIANAPOLIS", "state": "IN", "street": "502 WALLACE AVE", "postcode": "46201"}}},
{"geometry": {"type": "Point", "coordinates": [-86.0955023274, 39.7814339268]}, "type": "Feature", "properties": {"collection_times": [{"days": "Mon-Fri", "time": "5:00pm"}, {"days": "Sat", "time": "3:00pm"}, {"days": "Sun", "time": "Closed"}], "id": "4620100053", "name": "USPS COLLECTION BOX - PO LOBBY", "address": {"city": "INDIANAPOLIS", "state": "IN", "street": "4401 E 10TH ST", "postcode": "46201"}}},
{"geometry": {"type": "Point", "coordinates": [-86.1267526942, 39.7783088221]}, "type": "Feature", "properties": {"collection_times": [{"days": "Mon-Fri", "time": "12:00pm"}, {"days": "Sat", "time": "11:00am"}, {"days": "Sun", "time": "Closed"}], "id": "4620100054", "name": "USPS COLLECTION BOX - BLUE BOX", "address": {"city": "INDIANAPOLIS", "state": "IN", "street": "771 WOODRUFF PLACE EAST DR", "postcode": "46201"}}},
{"geometry": {"type": "Point", "coordinates": [-86.1370819722, 39.7813945461]}, "type": "Feature", "properties": {"collection_times": [{"days": "Mon-Fri", "time": "4:00pm"}, {"days": "Sat", "time": "12:00pm"}, {"days": "Sun", "time": "Closed"}], "id": "4620200003", "name": "USPS COLLECTION BOX - BLUE BOX", "address": {"city": "INDIANAPOLIS", "state": "IN", "street": "1125 BROOKSIDE AVE", "postcode": "46202"}}},
{"geometry": {"type": "Point", "coordinates": [-86.1614067477, 39.7923564221]}, "type": "Feature", "properties": {"collection_times": [{"days": "Mon-Sat", "time": "11:00am"}, {"days": "Sun", "time": "Closed"}], "id": "4620200010", "name": "USPS COLLECTION BOX - BLUE BOX", "address": {"city": "INDIANAPOLIS", "state": "IN", "street": "1935 N CAPITOL AVE", "postcode": "46202"}}},
{"geometry": {"type": "Point", "coordinates": [-86.1614404601, 39.7895360127]}, "type": "Feature", "properties": {"collection_times": [{"days": "Mon-Sat", "time": "11:00am"}, {"days": "Sun", "time": "Closed"}], "id": "4620200011", "name": "USPS COLLECTION BOX - BLUE BOX", "address": {"city": "INDIANAPOLIS", "state": "IN", "street": "1633 N CAPITOL AVE", "postcode": "46202"}}},
{"geometry": {"type": "Point", "coordinates": [-86.1494234363, 39.7958666255]}, "type": "Feature", "properties": {"collection_times": [{"days": "Mon-Fri", "time": "1:00pm"}, {"days": "Sat", "time": "2:00pm"}, {"days": "Sun", "time": "Closed"}], "id": "4620200014", "name": "USPS COLLECTION BOX - BLUE BOX", "address": {"city": "INDIANAPOLIS", "state": "IN", "street": "2101 CENTRAL AVE", "postcode": "46202"}}},
{"geometry": {"type": "Point", "coordinates": [-86.1620989882, 39.781077789]}, "type": "Feature", "properties": {"collection_times": [{"days": "Mon-Sat", "time": "11:00am"}, {"days": "Sun", "time": "Closed"}], "id": "4620200015", "name": "USPS COLLECTION BOX - BLUE BOX", "address": {"city": "INDIANAPOLIS", "state": "IN", "street": "720 ESKENAZI AVE", "postcode": "46202"}}},
{"geometry": {"type": "Point", "coordinates": [-86.1455008846, 39.7709937525]}, "type": "Feature", "properties": {"collection_times": [{"days": "Mon-Fri", "time": "2:45pm"}, {"days": "Sat", "time": "12:00pm"}, {"days": "Sun", "time": "Closed"}], "id": "4620200019", "name": "USPS COLLECTION BOX - BLUE BOX", "address": {"city": "INDIANAPOLIS", "state": "IN", "street": "699 E NEW YORK ST", "postcode": "46202"}}},
{"geometry": {"type": "Point", "coordinates": [-86.1446223325, 39.7630259023]}, "type": "Feature", "properties": {"collection_times": [{"days": "Mon-Fri", "time": "3:00pm"}, {"days": "Sat", "time": "2:00pm"}, {"days": "Sun", "time": "Closed"}], "id": "4620200023", "name": "USPS COLLECTION BOX - BLUE BOX", "address": {"city": "INDIANAPOLIS", "state": "IN", "street": "748 BATES ST", "postcode": "46202"}}},
{"geometry": {"type": "Point", "coordinates": [-86.1539582446, 39.780390557]}, "type": "Feature", "properties": {"collection_times": [{"days": "Mon-Sat", "time": "11:00am"}, {"days": "Sun", "time": "Closed"}], "id": "4620200024", "name": "USPS COLLECTION BOX - BLUE BOX", "address": {"city": "INDIANAPOLIS", "state": "IN", "street": "951 N DELAWARE ST", "postcode": "46202"}}},
{"geometry": {"type": "Point", "coordinates": [-86.1678811377, 39.7820673176]}, "type": "Feature", "properties": {"collection_times": [{"days": "Mon-Sat", "time": "11:00am"}, {"days": "Sun", "time": "Closed"}], "id": "4620200031", "name": "USPS COLLECTION BOX - BLUE BOX", "address": {"city": "INDIANAPOLIS", "state": "IN", "street": "553 W 11TH ST", "postcode": "46202"}}},
{"geometry": {"type": "Point", "coordinates": [-86.1591159457, 39.7927666736]}, "type": "Feature", "properties": {"collection_times": [{"days": "Mon-Sat", "time": "11:00am"}, {"days": "Sun", "time": "Closed"}], "id": "4620200037", "name": "USPS COLLECTION BOX - BLUE BOX", "address": {"city": "INDIANAPOLIS", "state": "IN", "street": "1934 N ILLINOIS ST", "postcode": "46202"}}},
{"geometry": {"type": "Point", "coordinates": [-86.1785510658, 39.7759613451]}, "type": "Feature", "properties": {"collection_times": [{"days": "Mon-Fri", "time": "11:00am"}, {"days": "Sat", "time": "3:30pm"}, {"days": "Sun", "time": "Closed"}], "id": "4620200041", "name": "USPS COLLECTION BOX - BLUE BOX", "address": {"city": "INDIANAPOLIS", "state": "IN", "street": "545 BARNHILL DR", "postcode": "46202"}}},
{"geometry": {"type": "Point", "coordinates": [-86.1730630319, 39.7794548364]}, "type": "Feature", "properties": {"collection_times": [{"days": "Mon-Sat", "time": "11:00am"}, {"days": "Sun", "time": "Closed"}], "id": "4620200044", "name": "USPS COLLECTION BOX - BLUE BOX", "address": {"city": "INDIANAPOLIS", "state": "IN", "street": "901 INDIANA AVE", "postcode": "46202"}}},
{"geometry": {"type": "Point", "coordinates": [-86.1572953719, 39.7909378192]}, "type": "Feature", "properties": {"collection_times": [{"days": "Mon-Sat", "time": "11:00am"}, {"days": "Sun", "time": "Closed"}], "id": "4620200046", "name": "USPS COLLECTION BOX - BLUE BOX", "address": {"city": "INDIANAPOLIS", "state": "IN", "street": "1800 N MERIDIAN ST", "postcode": "46202"}}},
{"geometry": {"type": "Point", "coordinates": [-86.1573072015, 39.79186171]}, "type": "Feature", "properties": {"collection_times": [{"days": "Mon-Sat", "time": "11:00am"}, {"days": "Sun", "time": "Closed"}], "id": "4620200047", "name": "USPS COLLECTION BOX - BLUE BOX", "address": {"city": "INDIANAPOLIS", "state": "IN", "street": "1840 N MERIDIAN ST", "postcode": "46202"}}},
{"geometry": {"type": "Point", "coordinates": [-86.1573963317, 39.793267855]}, "type": "Feature", "properties": {"collection_times": [{"days": "Mon-Sat", "time": "11:00am"}, {"days": "Sun", "time": "Closed"}], "id": "4620200048", "name": "USPS COLLECTION BOX - BLUE BOX", "address": {"city": "INDIANAPOLIS", "state": "IN", "street": "1998 N MERIDIAN ST", "postcode": "46202"}}},
{"geometry": {"type": "Point", "coordinates": [-86.1573024696, 39.7872978544]}, "type": "Feature", "properties": {"collection_times": [{"days": "Mon-Sat", "time": "11:00am"}, {"days": "Sun", "time": "Closed"}], "id": "4620200051", "name": "USPS COLLECTION BOX - BLUE BOX", "address": {"city": "INDIANAPOLIS", "state": "IN", "street": "1433 N MERIDIAN ST", "postcode": "46202"}}},
{"geometry": {"type": "Point", "coordinates": [-86.1572278451, 39.7913128805]}, "type": "Feature", "properties": {"collection_times": [{"days": "Mon-Sat", "time": "11:00am"}, {"days": "Sun", "time": "Closed"}], "id": "4620200055", "name": "USPS COLLECTION BOX - BLUE BOX", "address": {"city": "INDIANAPOLIS", "state": "IN", "street": "1843 N MERIDIAN ST", "postcode": "46202"}}},
{"geometry": {"type": "Point", "coordinates": [-86.1807794732, 39.7852974707]}, "type": "Feature", "properties": {"collection_times": [{"days": "Mon-Sat", "time": "11:00am"}, {"days": "Sun", "time": "Closed"}], "id": "4620200058", "name": "USPS COLLECTION BOX - BLUE BOX", "address": {"city": "INDIANAPOLIS", "state": "IN", "street": "1302 STADIUM DR", "postcode": "46202"}}},
{"geometry": {"type": "Point", "coordinates": [-86.1756546918, 39.7734561022]}, "type": "Feature", "properties": {"collection_times": [{"days": "Mon-Sat", "time": "11:00am"}, {"days": "Sun", "time": "Closed"}], "id": "4620200063", "name": "USPS COLLECTION BOX - BLUE BOX", "address": {"city": "INDIANAPOLIS", "state": "IN", "street": "420 UNIVERSITY BLVD", "postcode": "46202"}}},
{"geometry": {"type": "Point", "coordinates": [-86.1557551593, 39.7844764972]}, "type": "Feature", "properties": {"collection_times": [{"days": "Mon-Sat", "time": "11:00am"}, {"days": "Sun", "time": "Closed"}], "id": "4620200064", "name": "USPS COLLECTION BOX - BLUE BOX", "address": {"city": "INDIANAPOLIS", "state": "IN", "street": "1300 N PENNSYLVANIA ST", "postcode": "46202"}}},
{"geometry": {"type": "Point", "coordinates": [-86.1910464678, 39.7891422334]}, "type": "Feature", "properties": {"collection_times": [{"days": "Mon-Sat", "time": "11:00am"}, {"days": "Sun", "time": "Closed"}], "id": "4620200068", "name": "USPS COLLECTION BOX - BLUE BOX", "address": {"city": "INDIANAPOLIS", "state": "IN", "street": "1598 E RIVERSIDE DR", "postcode": "46202"}}},
{"geometry": {"type": "Point", "coordinates": [-86.1910682281, 39.7910869214]}, "type": "Feature", "properties": {"collection_times": [{"days": "Mon-Sat", "time": "11:00am"}, {"days": "Sun", "time": "Closed"}], "id": "4620200069", "name": "USPS COLLECTION BOX - BLUE BOX", "address": {"city": "INDIANAPOLIS", "state": "IN", "street": "1798 E RIVERSIDE DR", "postcode": "46202"}}},
{"geometry": {"type": "Point", "coordinates": [-86.1630595525, 39.7810837038]}, "type": "Feature", "properties": {"collection_times": [{"days": "Mon-Sat", "time": "11:00am"}, {"days": "Sun", "time": "Closed"}], "id": "4620200072", "name": "USPS COLLECTION BOX - BLUE BOX", "address": {"city": "INDIANAPOLIS", "state": "IN", "street": "1002 N SENATE AVE", "postcode": "46202"}}},
{"geometry": {"type": "Point", "coordinates": [-86.1647001156, 39.7914363171]}, "type": "Feature", "properties": {"collection_times": [{"days": "Mon-Fri", "time": "4:00pm"}, {"days": "Sat", "time": "3:00pm"}, {"days": "Sun", "time": "Closed"}], "id": "4620200074", "name": "USPS COLLECTION BOX - BLUE BOX", "address": {"city": "INDIANAPOLIS", "state": "IN", "street": "1801 SENATE BLVD", "postcode": "46202"}}},
{"geometry": {"type": "Point", "coordinates": [-86.17341, 39.774483]}, "type": "Feature", "properties": {"collection_times": [{"days": "Mon-Sat", "time": "11:00am"}, {"days": "Sun", "time": "Closed"}], "id": "4620200081", "name": "USPS COLLECTION BOX - BLUE BOX", "address": {"city": "INDIANAPOLIS", "state": "IN", "street": "850 W MICHIGAN ST", "postcode": "46202"}}},
{"geometry": {"type": "Point", "coordinates": [-86.1538743314, 39.7854429402]}, "type": "Feature", "properties": {"collection_times": [{"days": "Mon-Sat", "time": "11:00am"}, {"days": "Sun", "time": "Closed"}], "id": "4620200087", "name": "USPS COLLECTION BOX - BLUE BOX", "address": {"city": "INDIANAPOLIS", "state": "IN", "street": "1399 N DELAWARE ST", "postcode": "46202"}}},
{"geometry": {"type": "Point", "coordinates": [-86.1539118801, 39.7875138525]}, "type": "Feature", "properties": {"collection_times": [{"days": "Mon-Sat", "time": "11:00am"}, {"days": "Sun", "time": "Closed"}], "id": "4620200088", "name": "USPS COLLECTION BOX - BLUE BOX", "address": {"city": "INDIANAPOLIS", "state": "IN", "street": "1501 N DELAWARE ST", "postcode": "46202"}}},
{"geometry": {"type": "Point", "coordinates": [-86.1675618628, 39.7715749988]}, "type": "Feature", "properties": {"collection_times": [{"days": "Mon-Fri", "time": "11:00am"}, {"days": "Sat-Sun", "time": "Closed"}], "id": "4620200092", "name": "USPS COLLECTION BOX - BLUE BOX", "address": {"city": "INDIANAPOLIS", "state": "IN", "street": "530 W NEW YORK ST", "postcode": "46202"}}},
{"geometry": {"type": "Point", "coordinates": [-86.1653235343, 39.7714176527]}, "type": "Feature", "properties": {"collection_times": [{"days": "Mon-Fri", "time": "4:00pm"}, {"days": "Sat", "time": "12:00pm"}, {"days": "Sun", "time": "Closed"}], "id": "4620200111", "name": "USPS COLLECTION BOX - BLUE BOX", "address": {"city": "INDIANAPOLIS", "state": "IN", "street": "401 E NEW YORK ST", "postcode": "46202"}}},
{"geometry": {"type": "Point", "coordinates": [-86.1312052119, 39.7388722462]}, "type": "Feature", "properties": {"collection_times": [{"days": "Mon-Fri", "time": "5:00pm"}, {"days": "Sat", "time": "4:00pm"}, {"days": "Sun", "time": "Closed"}], "id": "4620300001", "name": "USPS COLLECTION BOX - BLUE BOX", "address": {"city": "INDIANAPOLIS", "state": "IN", "street": "1636 E LEGRANDE AVE", "postcode": "46203"}}},
{"geometry": {"type": "Point", "coordinates": [-86.1443916555, 39.7264689214]}, "type": "Feature", "properties": {"collection_times": [{"days": "Mon-Sat", "time": "11:00am"}, {"days": "Sun", "time": "Closed"}], "id": "4620300003", "name": "USPS COLLECTION BOX - BLUE BOX", "address": {"city": "INDIANAPOLIS", "state": "IN", "street": "2757 ALLEN AVE", "postcode": "46203"}}},
{"geometry": {"type": "Point", "coordinates": [-86.0699129338, 39.7058761723]}, "type": "Feature", "properties": {"collection_times": [{"days": "Mon-Fri", "time": "3:30pm"}, {"days": "Sat", "time": "2:00pm"}, {"days": "Sun", "time": "Closed"}], "id": "4620300009", "name": "USPS COLLECTION BOX - BLUE BOX", "address": {"city": "INDIANAPOLIS", "state": "IN", "street": "5602 ELMWOOD AVE", "postcode": "46203"}}},
{"geometry": {"type": "Point", "coordinates": [-86.0832184815, 39.7913695991]}, "type": "Feature", "properties": {"collection_times": [{"days": "Mon-Fri", "time": "5:00pm"}, {"days": "Sat", "time": "2:00pm"}, {"days": "Sun", "time": "Closed"}], "id": "4620300010", "name": "USPS COLLECTION BOX - BLUE BOX", "address": {"city": "INDIANAPOLIS", "state": "IN", "street": "1801 S EMERSON AVE", "postcode": "46203"}}},
{"geometry": {"type": "Point", "coordinates": [-86.0779294719, 39.7017107732]}, "type": "Feature", "properties": {"collection_times": [{"days": "Mon-Fri", "time": "3:30pm"}, {"days": "Sat", "time": "12:00pm"}, {"days": "Sun", "time": "Closed"}], "id": "4620300013", "name": "USPS COLLECTION BOX - BLUE BOX", "address": {"city": "INDIANAPOLIS", "state": "IN", "street": "4521 INDEPENDENCE SQ", "postcode": "46203"}}},
{"geometry": {"type": "Point", "coordinates": [-86.1406418732, 39.7522549309]}, "type": "Feature", "properties": {"collection_times": [{"days": "Mon-Fri", "time": "3:00pm"}, {"days": "Sat", "time": "2:00pm"}, {"days": "Sun", "time": "Closed"}], "id": "4620300020", "name": "USPS COLLECTION BOX - BLUE BOX", "address": {"city": "INDIANAPOLIS", "state": "IN", "street": "1050 PROSPECT ST", "postcode": "46203"}}},
{"geometry": {"type": "Point", "coordinates": [-86.1019920402, 39.758075219]}, "type": "Feature", "properties": {"collection_times": [{"days": "Mon-Fri", "time": "5:00pm"}, {"days": "Sat", "time": "2:00pm"}, {"days": "Sun", "time": "Closed"}], "id": "4620300030", "name": "USPS COLLECTION BOX - BLUE BOX", "address": {"city": "INDIANAPOLIS", "state": "IN", "street": "701 S SHERMAN DR", "postcode": "46203"}}},
{"geometry": {"type": "Point", "coordinates": [-86.1128659551, 39.7593043605]}, "type": "Feature", "properties": {"collection_times": [{"days": "Mon-Fri", "time": "5:00pm"}, {"days": "Sat", "time": "2:00pm"}, {"days": "Sun", "time": "Closed"}], "id": "4620300031", "name": "USPS COLLECTION BOX - BLUE BOX", "address": {"city": "INDIANAPOLIS", "state": "IN", "street": "3000 SOUTHEASTERN AVE", "postcode": "46203"}}},
{"geometry": {"type": "Point", "coordinates": [-86.1233750867, 39.7231711584]}, "type": "Feature", "properties": {"collection_times": [{"days": "Mon-Sat", "time": "11:00am"}, {"days": "Sun", "time": "Closed"}], "id": "4620300039", "name": "USPS COLLECTION BOX - BLUE BOX", "address": {"city": "INDIANAPOLIS", "state": "IN", "street": "2202 E TROY AVE", "postcode": "46203"}}},
{"geometry": {"type": "Point", "coordinates": [-86.1472851731, 39.7592723735]}, "type": "Feature", "properties": {"collection_times": [{"days": "Mon-Sat", "time": "11:00am"}, {"days": "Sun", "time": "Closed"}], "id": "4620300041", "name": "USPS COLLECTION BOX - BLUE BOX", "address": {"city": "INDIANAPOLIS", "state": "IN", "street": "520 VIRGINIA AVE", "postcode": "46203"}}},
{"geometry": {"type": "Point", "coordinates": [-86.1312052119, 39.7388722462]}, "type": "Feature", "properties": {"collection_times": [{"days": "Mon-Fri", "time": "5:00pm"}, {"days": "Sat", "time": "3:00pm"}, {"days": "Sun", "time": "Closed"}], "id": "4620300048", "name": "USPS COLLECTION BOX - PO LOBBY", "address": {"city": "INDIANAPOLIS", "state": "IN", "street": "1636 E LEGRANDE AVE", "postcode": "46203"}}},
{"geometry": {"type": "Point", "coordinates": [-86.079196421, 39.7077627913]}, "type": "Feature", "properties": {"collection_times": [{"days": "Mon-Fri", "time": "3:30pm"}, {"days": "Sat", "time": "2:00pm"}, {"days": "Sun", "time": "Closed"}], "id": "4620300049", "name": "USPS COLLECTION BOX - BLUE BOX", "address": {"city": "INDIANAPOLIS", "state": "IN", "street": "5230 PARK EMERSON DR", "postcode": "46203"}}},
{"geometry": {"type": "Point", "coordinates": [-86.152372403, 39.7725176014]}, "type": "Feature", "properties": {"collection_times": [{"days": "Mon-Fri", "time": "4:00pm"}, {"days": "Sat", "time": "12:00pm"}, {"days": "Sun", "time": "Closed"}], "id": "4620400006", "name": "USPS COLLECTION BOX - BLUE BOX", "address": {"city": "INDIANAPOLIS", "state": "IN", "street": "301 E VERMONT ST", "postcode": "46204"}}},
{"geometry": {"type": "Point", "coordinates": [-86.1523435308, 39.7767039915]}, "type": "Feature", "properties": {"collection_times": [{"days": "Mon-Fri", "time": "12:30pm"}, {"days": "Sat", "time": "12:00pm"}, {"days": "Sun", "time": "Closed"}], "id": "4620400007", "name": "USPS COLLECTION BOX - BLUE BOX", "address": {"city": "INDIANAPOLIS", "state": "IN", "street": "700 N ALABAMA ST", "postcode": "46204"}}},
{"geometry": {"type": "Point", "coordinates": [-86.1578886214, 39.7737233581]}, "type": "Feature", "properties": {"collection_times": [{"days": "Mon-Fri", "time": "5:00pm"}, {"days": "Sat", "time": "1:00pm"}, {"days": "Sun", "time": "Closed"}], "id": "4620400011", "name": "USPS COLLECTION BOX - PO LOBBY", "address": {"city": "INDIANAPOLIS", "state": "IN", "street": "456 N MERIDIAN ST", "postcode": "46204"}}},
{"geometry": {"type": "Point", "coordinates": [-86.1613824951, 39.775864556]}, "type": "Feature", "properties": {"collection_times": [{"days": "Mon-Sat", "time": "11:00am"}, {"days": "Sun", "time": "Closed"}], "id": "4620400013", "name": "USPS COLLECTION BOX - BLUE BOX", "address": {"city": "INDIANAPOLIS", "state": "IN", "street": "602 N CAPITOL AVE", "postcode": "46204"}}},
{"geometry": {"type": "Point", "coordinates": [-86.1613067857, 39.7778365486]}, "type": "Feature", "properties": {"collection_times": [{"days": "Mon-Sat", "time": "11:00am"}, {"days": "Sun", "time": "Closed"}], "id": "4620400014", "name": "USPS COLLECTION BOX - BLUE BOX", "address": {"city": "INDIANAPOLIS", "state": "IN", "street": "732 N CAPITOL AVE", "postcode": "46204"}}},
{"geometry": {"type": "Point", "coordinates": [-86.1612310763, 39.7797150874]}, "type": "Feature", "properties": {"collection_times": [{"days": "Mon-Sat", "time": "11:00am"}, {"days": "Sun", "time": "Closed"}], "id": "4620400015", "name": "USPS COLLECTION BOX - BLUE BOX", "address": {"city": "INDIANAPOLIS", "state": "IN", "street": "902 N CAPITOL AVE", "postcode": "46204"}}},
{"geometry": {"type": "Point", "coordinates": [-86.1541601662, 39.7725997791]}, "type": "Feature", "properties": {"collection_times": [{"days": "Mon-Sat", "time": "11:00am"}, {"days": "Sun", "time": "Closed"}], "id": "4620400027", "name": "USPS COLLECTION BOX - BLUE BOX", "address": {"city": "INDIANAPOLIS", "state": "IN", "street": "399 N DELAWARE ST", "postcode": "46204"}}},
{"geometry": {"type": "Point", "coordinates": [-86.1543569018, 39.7693452691]}, "type": "Feature", "properties": {"collection_times": [{"days": "Mon-Fri", "time": "11:30am"}, {"days": "Sat", "time": "12:00pm"}, {"days": "Sun", "time": "Closed"}], "id": "4620400028", "name": "USPS COLLECTION BOX - BLUE BOX", "address": {"city": "INDIANAPOLIS", "state": "IN", "street": "136 N DELAWARE ST", "postcode": "46204"}}},
{"geometry": {"type": "Point", "coordinates": [-86.1487152098, 39.7753288737]}, "type": "Feature", "properties": {"collection_times": [{"days": "Mon-Fri", "time": "4:00pm"}, {"days": "Sat", "time": "12:00pm"}, {"days": "Sun", "time": "Closed"}], "id": "4620400030", "name": "USPS COLLECTION BOX - BLUE BOX", "address": {"city": "INDIANAPOLIS", "state": "IN", "street": "600 MASSACHUSETTS AVE", "postcode": "46204"}}},
{"geometry": {"type": "Point", "coordinates": [-86.1597400212, 39.7685260275]}, "type": "Feature", "properties": {"collection_times": [{"days": "Mon-Sat", "time": "11:00am"}, {"days": "Sun", "time": "Closed"}], "id": "4620400037", "name": "USPS COLLECTION BOX - BLUE BOX", "address": {"city": "INDIANAPOLIS", "state": "IN", "street": "99 N ILLINOIS ST", "postcode": "46204"}}},
{"geometry": {"type": "Point", "coordinates": [-86.1596828255, 39.7741951483]}, "type": "Feature", "properties": {"collection_times": [{"days": "Mon-Sat", "time": "11:00am"}, {"days": "Sun", "time": "Closed"}], "id": "4620400038", "name": "USPS COLLECTION BOX - BLUE BOX", "address": {"city": "INDIANAPOLIS", "state": "IN", "street": "500 N ILLINOIS ST", "postcode": "46204"}}},
{"geometry": {"type": "Point", "coordinates": [-86.159336717, 39.7811933956]}, "type": "Feature", "properties": {"collection_times": [{"days": "Mon-Sat", "time": "11:00am"}, {"days": "Sun", "time": "Closed"}], "id": "4620400041", "name": "USPS COLLECTION BOX - BLUE BOX", "address": {"city": "INDIANAPOLIS", "state": "IN", "street": "951 N ILLINOIS ST", "postcode": "46204"}}},
{"geometry": {"type": "Point", "coordinates": [-86.1551492364, 39.7684878083]}, "type": "Feature", "properties": {"collection_times": [{"days": "Mon-Fri", "time": "3:15pm"}, {"days": "Sat", "time": "11:00am"}, {"days": "Sun", "time": "Closed"}], "id": "4620400054", "name": "USPS COLLECTION BOX - BLUE BOX", "address": {"city": "INDIANAPOLIS", "state": "IN", "street": "136 E MARKET ST", "postcode": "46204"}}},
{"geometry": {"type": "Point", "coordinates": [-86.1578886214, 39.7737233581]}, "type": "Feature", "properties": {"collection_times": [{"days": "Mon-Fri", "time": "5:00pm"}, {"days": "Sat", "time": "4:30pm"}, {"days": "Sun", "time": "Closed"}], "id": "4620400066", "name": "USPS COLLECTION BOX - BLUE BOX", "address": {"city": "INDIANAPOLIS", "state": "IN", "street": "456 N MERIDIAN ST", "postcode": "46204"}}},
{"geometry": {"type": "Point", "coordinates": [-86.1579551689, 39.7679305971]}, "type": "Feature", "properties": {"collection_times": [{"days": "Mon-Fri", "time": "1:30pm"}, {"days": "Sat", "time": "12:00pm"}, {"days": "Sun", "time": "Closed"}], "id": "4620400071", "name": "USPS COLLECTION BOX - BLUE BOX", "address": {"city": "INDIANAPOLIS", "state": "IN", "street": "7 N MERIDIAN ST", "postcode": "46204"}}},
{"geometry": {"type": "Point", "coordinates": [-86.1579389015, 39.7715656831]}, "type": "Feature", "properties": {"collection_times": [{"days": "Mon-Fri", "time": "5:00pm"}, {"days": "Sat-Sun", "time": "Closed"}], "id": "4620400073", "name": "USPS COLLECTION BOX - BLUE BOX", "address": {"city": "INDIANAPOLIS", "state": "IN", "street": "300 N MERIDIAN ST", "postcode": "46204"}}},
{"geometry": {"type": "Point", "coordinates": [-86.1577023097, 39.7767813492]}, "type": "Feature", "properties": {"collection_times": [{"days": "Mon-Fri", "time": "4:45pm"}, {"days": "Sat", "time": "1:00pm"}, {"days": "Sun", "time": "Closed"}], "id": "4620400075", "name": "USPS COLLECTION BOX - BLUE BOX", "address": {"city": "INDIANAPOLIS", "state": "IN", "street": "777 N MERIDIAN ST", "postcode": "46204"}}},
{"geometry": {"type": "Point", "coordinates": [-86.1585126366, 39.7689028424]}, "type": "Feature", "properties": {"collection_times": [{"days": "Mon-Sat", "time": "11:00am"}, {"days": "Sun", "time": "Closed"}], "id": "4620400081", "name": "USPS COLLECTION BOX - BLUE BOX", "address": {"city": "INDIANAPOLIS", "state": "IN", "street": "120 MONUMENT CIR", "postcode": "46204"}}},
{"geometry": {"type": "Point", "coordinates": [-86.150203791, 39.7742850518]}, "type": "Feature", "properties": {"collection_times": [{"days": "Mon-Fri", "time": "4:00pm"}, {"days": "Sat", "time": "12:00pm"}, {"days": "Sun", "time": "Closed"}], "id": "4620400082", "name": "USPS COLLECTION BOX - BLUE BOX", "address": {"city": "INDIANAPOLIS", "state": "IN", "street": "502 MASSACHUSETTS AVE", "postcode": "46204"}}},
{"geometry": {"type": "Point", "coordinates": [-86.1561695698, 39.7677718785]}, "type": "Feature", "properties": {"collection_times": [{"days": "Mon-Sat", "time": "11:00am"}, {"days": "Sun", "time": "Closed"}], "id": "4620400089", "name": "USPS COLLECTION BOX - BLUE BOX", "address": {"city": "INDIANAPOLIS", "state": "IN", "street": "45 N PENNSYLVANIA ST", "postcode": "46204"}}},
{"geometry": {"type": "Point", "coordinates": [-86.1561767456, 39.7705907057]}, "type": "Feature", "properties": {"collection_times": [{"days": "Mon-Sat", "time": "11:00am"}, {"days": "Sun", "time": "Closed"}], "id": "4620400091", "name": "USPS COLLECTION BOX - BLUE BOX", "address": {"city": "INDIANAPOLIS", "state": "IN", "street": "102 S PENNSYLVANIA ST", "postcode": "46204"}}},
{"geometry": {"type": "Point", "coordinates": [-86.1565276315, 39.7608468919]}, "type": "Feature", "properties": {"collection_times": [{"days": "Mon-Sat", "time": "11:00am"}, {"days": "Sun", "time": "Closed"}], "id": "4620400092", "name": "USPS COLLECTION BOX - BLUE BOX", "address": {"city": "INDIANAPOLIS", "state": "IN", "street": "401 N PENNSYLVANIA ST", "postcode": "46204"}}},
{"geometry": {"type": "Point", "coordinates": [-86.1563401072, 39.7670022302]}, "type": "Feature", "properties": {"collection_times": [{"days": "Mon-Sat", "time": "11:00am"}, {"days": "Sun", "time": "Closed"}], "id": "4620400093", "name": "USPS COLLECTION BOX - BLUE BOX", "address": {"city": "INDIANAPOLIS", "state": "IN", "street": "2 S PENNSYLVANIA ST", "postcode": "46204"}}},
{"geometry": {"type": "Point", "coordinates": [-86.1558628086, 39.7773314251]}, "type": "Feature", "properties": {"collection_times": [{"days": "Mon-Sat", "time": "11:00am"}, {"days": "Sun", "time": "Closed"}], "id": "4620400104", "name": "USPS COLLECTION BOX - BLUE BOX", "address": {"city": "INDIANAPOLIS", "state": "IN", "street": "700 N PENNSYLVANIA ST", "postcode": "46204"}}},
{"geometry": {"type": "Point", "coordinates": [-86.1563182478, 39.7658803823]}, "type": "Feature", "properties": {"collection_times": [{"days": "Mon-Fri", "time": "1:15pm"}, {"days": "Sat", "time": "11:00am"}, {"days": "Sun", "time": "Closed"}], "id": "4620400105", "name": "USPS COLLECTION BOX - BLUE BOX", "address": {"city": "INDIANAPOLIS", "state": "IN", "street": "47 S PENNSYLVANIA ST", "postcode": "46204"}}},
{"geometry": {"type": "Point", "coordinates": [-86.1547685715, 39.7669817171]}, "type": "Feature", "properties": {"collection_times": [{"days": "Mon-Sat", "time": "11:00am"}, {"days": "Sun", "time": "Closed"}], "id": "4620400110", "name": "USPS COLLECTION BOX - BLUE BOX", "address": {"city": "INDIANAPOLIS", "state": "IN", "street": "141 E WASHINGTON ST", "postcode": "46204"}}},
{"geometry": {"type": "Point", "coordinates": [-86.16042085, 39.767188039]}, "type": "Feature", "properties": {"collection_times": [{"days": "Mon-Fri", "time": "3:00pm"}, {"days": "Sat", "time": "12:00pm"}, {"days": "Sun", "time": "Closed"}], "id": "4620400112", "name": "USPS COLLECTION BOX - BLUE BOX", "address": {"city": "INDIANAPOLIS", "state": "IN", "street": "110 W WASHINGTON ST", "postcode": "46204"}}},
{"geometry": {"type": "Point", "coordinates": [-86.1578778339, 39.7670050466]}, "type": "Feature", "properties": {"collection_times": [{"days": "Mon-Fri", "time": "3:00pm"}, {"days": "Sat", "time": "12:00pm"}, {"days": "Sun", "time": "Closed"}], "id": "4620400115", "name": "USPS COLLECTION BOX - BLUE BOX", "address": {"city": "INDIANAPOLIS", "state": "IN", "street": "22 E WASHINGTON ST", "postcode": "46204"}}},
{"geometry": {"type": "Point", "coordinates": [-86.1469203456, 39.7751916672]}, "type": "Feature", "properties": {"collection_times": [{"days": "Mon-Fri", "time": "12:30pm"}, {"days": "Sat", "time": "12:00pm"}, {"days": "Sun", "time": "Closed"}], "id": "4620400126", "name": "USPS COLLECTION BOX - BLUE BOX", "address": {"city": "INDIANAPOLIS", "state": "IN", "street": "601 N PARK AVE", "postcode": "46204"}}},
{"geometry": {"type": "Point", "coordinates": [-86.148728383, 39.7745349101]}, "type": "Feature", "properties": {"collection_times": [{"days": "Mon-Fri", "time": "3:00pm"}, {"days": "Sat", "time": "12:00pm"}, {"days": "Sun", "time": "Closed"}], "id": "4620400143", "name": "USPS COLLECTION BOX - BLUE BOX", "address": {"city": "INDIANAPOLIS", "state": "IN", "street": "501 N EAST ST", "postcode": "46204"}}},
{"geometry": {"type": "Point", "coordinates": [-86.1578886214, 39.7737233581]}, "type": "Feature", "properties": {"collection_times": [{"days": "Mon-Fri", "time": "5:00pm"}, {"days": "Sat", "time": "4:30pm"}, {"days": "Sun", "time": "Closed"}], "id": "4620400147", "name": "USPS COLLECTION BOX - BLUE BOX", "address": {"city": "INDIANAPOLIS", "state": "IN", "street": "456 N MERIDIAN ST", "postcode": "46204"}}},
{"geometry": {"type": "Point", "coordinates": [-86.1533102879, 39.7698384713]}, "type": "Feature", "properties": {"collection_times": [{"days": "Mon-Sat", "time": "11:00am"}, {"days": "Sun", "time": "Closed"}], "id": "4620400169", "name": "USPS COLLECTION BOX - BLUE BOX", "address": {"city": "INDIANAPOLIS", "state": "IN", "street": "230 E OHIO ST", "postcode": "46204"}}},
{"geometry": {"type": "Point", "coordinates": [-86.1547685715, 39.7669817171]}, "type": "Feature", "properties": {"collection_times": [{"days": "Mon-Fri", "time": "12:30pm"}, {"days": "Sat", "time": "12:00pm"}, {"days": "Sun", "time": "Closed"}], "id": "4620400175", "name": "USPS COLLECTION BOX - BLUE BOX", "address": {"city": "INDIANAPOLIS", "state": "IN", "street": "148 E WASHINGTON ST", "postcode": "46204"}}},
{"geometry": {"type": "Point", "coordinates": [-86.1551492364, 39.7684878083]}, "type": "Feature", "properties": {"collection_times": [{"days": "Mon-Fri", "time": "3:15pm"}, {"days": "Sat", "time": "11:00am"}, {"days": "Sun", "time": "Closed"}], "id": "4620400187", "name": "USPS COLLECTION BOX - BLUE BOX", "address": {"city": "INDIANAPOLIS", "state": "IN", "street": "136 E MARKET ST", "postcode": "46204"}}},
{"geometry": {"type": "Point", "coordinates": [-86.156959293, 39.76557669]}, "type": "Feature", "properties": {"collection_times": [{"days": "Mon-Sat", "time": "11:00am"}, {"days": "Sun", "time": "Closed"}], "id": "4620400191", "name": "USPS COLLECTION BOX - BLUE BOX", "address": {"city": "INDIANAPOLIS", "state": "IN", "street": "49 W MARYLAND ST", "postcode": "46204"}}},
{"geometry": {"type": "Point", "coordinates": [-86.1492441531, 39.7697190841]}, "type": "Feature", "properties": {"collection_times": [{"days": "Mon-Fri", "time": "4:00pm"}, {"days": "Sat", "time": "12:00pm"}, {"days": "Sun", "time": "Closed"}], "id": "4620400204", "name": "USPS COLLECTION BOX - BLUE BOX", "address": {"city": "INDIANAPOLIS", "state": "IN", "street": "441 E OHIO ST", "postcode": "46204"}}},
{"geometry": {"type": "Point", "coordinates": [-86.1477063065, 39.7668539575]}, "type": "Feature", "properties": {"collection_times": [{"days": "Mon-Fri", "time": "5:00pm"}, {"days": "Sat", "time": "11:00am"}, {"days": "Sun", "time": "Closed"}], "id": "4620400205", "name": "USPS COLLECTION BOX - BLUE BOX", "address": {"city": "INDIANAPOLIS", "state": "IN", "street": "603 E WASHINGTON ST", "postcode": "46204"}}},
{"geometry": {"type": "Point", "coordinates": [-86.1626099749, 39.7672176796]}, "type": "Feature", "properties": {"collection_times": [{"days": "Mon-Fri", "time": "5:00pm"}, {"days": "Sat-Sun", "time": "Closed"}], "id": "4620400206", "name": "USPS COLLECTION BOX - BLUE BOX", "address": {"city": "INDIANAPOLIS", "state": "IN", "street": "200 W WASHINGTON ST", "postcode": "46204"}}},
{"geometry": {"type": "Point", "coordinates": [-86.1561767456, 39.7705907057]}, "type": "Feature", "properties": {"collection_times": [{"days": "Mon-Fri", "time": "11:00am"}, {"days": "Sat-Sun", "time": "Closed"}], "id": "4620400225", "name": "USPS COLLECTION BOX - BLUE BOX", "address": {"city": "INDIANAPOLIS", "state": "IN", "street": "143 W MARKET ST", "postcode": "46204"}}},
{"geometry": {"type": "Point", "coordinates": [-86.1546952281, 39.7684225611]}, "type": "Feature", "properties": {"collection_times": [{"days": "Mon-Fri", "time": "5:00pm"}, {"days": "Sat-Sun", "time": "Closed"}], "id": "4620400226", "name": "USPS COLLECTION BOX - BLUE BOX", "address": {"city": "INDIANAPOLIS", "state": "IN", "street": "155 E MARKET ST", "postcode": "46204"}}},
{"geometry": {"type": "Point", "coordinates": [-86.1559152255, 39.774859996]}, "type": "Feature", "properties": {"collection_times": [{"days": "Mon-Fri", "time": "4:30pm"}, {"days": "Sat-Sun", "time": "Closed"}], "id": "4620400229", "name": "USPS COLLECTION BOX - BLUE BOX", "address": {"city": "INDIANAPOLIS", "state": "IN", "street": "575 N PENNSYLVANIA ST", "postcode": "46204"}}},
{"geometry": {"type": "Point", "coordinates": [-86.1579199742, 39.7719312174]}, "type": "Feature", "properties": {"collection_times": [{"days": "Mon-Fri", "time": "5:00pm"}, {"days": "Sat-Sun", "time": "Closed"}], "id": "4620400234", "name": "USPS COLLECTION BOX - BLUE BOX", "address": {"city": "INDIANAPOLIS", "state": "IN", "street": "320 N MERIDIAN ST", "postcode": "46204"}}},
{"geometry": {"type": "Point", "coordinates": [-86.1592194759, 39.7685580273]}, "type": "Feature", "properties": {"collection_times": [{"days": "Mon-Fri", "time": "5:00pm"}, {"days": "Sat-Sun", "time": "Closed"}], "id": "4620400235", "name": "USPS COLLECTION BOX - BLUE BOX", "address": {"city": "INDIANAPOLIS", "state": "IN", "street": "10 W MARKET ST", "postcode": "46204"}}},
{"geometry": {"type": "Point", "coordinates": [-86.159770122, 39.7703992855]}, "type": "Feature", "properties": {"collection_times": [{"days": "Mon-Fri", "time": "5:00pm"}, {"days": "Sat-Sun", "time": "Closed"}], "id": "4620400238", "name": "USPS COLLECTION BOX - BLUE BOX", "address": {"city": "INDIANAPOLIS", "state": "IN", "street": "201 N ILLINOIS ST", "postcode": "46204"}}},
{"geometry": {"type": "Point", "coordinates": [-86.1597476458, 39.7709493615]}, "type": "Feature", "properties": {"collection_times": [{"days": "Mon-Fri", "time": "5:00pm"}, {"days": "Sat-Sun", "time": "Closed"}], "id": "4620400240", "name": "USPS COLLECTION BOX - BLUE BOX", "address": {"city": "INDIANAPOLIS", "state": "IN", "street": "251 N ILLINOIS ST", "postcode": "46204"}}},
{"geometry": {"type": "Point", "coordinates": [-86.1562602828, 39.7673922039]}, "type": "Feature", "properties": {"collection_times": [{"days": "Mon-Fri", "time": "12:30pm"}, {"days": "Sat-Sun", "time": "Closed"}], "id": "4620400264", "name": "USPS COLLECTION BOX - BLUE BOX", "address": {"city": "INDIANAPOLIS", "state": "IN", "street": "1 N PENNSYLVANIA ST", "postcode": "46204"}}},
{"geometry": {"type": "Point", "coordinates": [-86.1535503853, 39.7670183754]}, "type": "Feature", "properties": {"collection_times": [{"days": "Mon-Fri", "time": "5:00pm"}, {"days": "Sat-Sun", "time": "Closed"}], "id": "4620400279", "name": "USPS COLLECTION BOX - BLUE BOX", "address": {"city": "INDIANAPOLIS", "state": "IN", "street": "200 E WASHINGTON ST", "postcode": "46204"}}},
{"geometry": {"type": "Point", "coordinates": [-86.1640701779, 39.7672088452]}, "type": "Feature", "properties": {"collection_times": [{"days": "Mon-Fri", "time": "12:30pm"}, {"days": "Sat-Sun", "time": "Closed"}], "id": "4620400287", "name": "USPS COLLECTION BOX - BLUE BOX", "address": {"city": "INDIANAPOLIS", "state": "IN", "street": "311 W WASHINGTON ST", "postcode": "46204"}}},
{"geometry": {"type": "Point", "coordinates": [-86.1581658455, 39.7660719729]}, "type": "Feature", "properties": {"collection_times": [{"days": "Mon-Fri", "time": "2:30pm"}, {"days": "Sat-Sun", "time": "Closed"}], "id": "4620400292", "name": "USPS COLLECTION BOX - BLUE BOX", "address": {"city": "INDIANAPOLIS", "state": "IN", "street": "30 S MERIDIAN ST", "postcode": "46204"}}},
{"geometry": {"type": "Point", "coordinates": [-86.1634476961, 39.7689243284]}, "type": "Feature", "properties": {"collection_times": [{"days": "Mon-Fri", "time": "5:00pm"}, {"days": "Sat-Sun", "time": "Closed"}], "id": "4620400300", "name": "USPS COLLECTION BOX - BLUE BOX", "address": {"city": "INDIANAPOLIS", "state": "IN", "street": "100 N SENATE AVE", "postcode": "46204"}}},
{"geometry": {"type": "Point", "coordinates": [-86.1477063065, 39.7668539575]}, "type": "Feature", "properties": {"collection_times": [{"days": "Mon-Fri", "time": "5:00pm"}, {"days": "Sat", "time": "11:00am"}, {"days": "Sun", "time": "Closed"}], "id": "4620400306", "name": "USPS COLLECTION BOX - BLUE BOX", "address": {"city": "INDIANAPOLIS", "state": "IN", "street": "603 E WASHINGTON ST", "postcode": "46204"}}},
{"geometry": {"type": "Point", "coordinates": [-86.156071358, 39.7701694261]}, "type": "Feature", "properties": {"collection_times": [{"days": "Mon-Sat", "time": "11:00am"}, {"days": "Sun", "time": "Closed"}], "id": "4620400310", "name": "USPS COLLECTION BOX - BLUE BOX", "address": {"city": "INDIANAPOLIS", "state": "IN", "street": "221 N PENNSYLVANIA ST", "postcode": "46204"}}},
{"geometry": {"type": "Point", "coordinates": [-86.1613813121, 39.7685739799]}, "type": "Feature", "properties": {"collection_times": [{"days": "Mon-Sat", "time": "11:00am"}, {"days": "Sun", "time": "Closed"}], "id": "4620400311", "name": "USPS COLLECTION BOX - BLUE BOX", "address": {"city": "INDIANAPOLIS", "state": "IN", "street": "150 W MARKET ST", "postcode": "46204"}}},
{"geometry": {"type": "Point", "coordinates": [-86.1488423659, 39.7729481991]}, "type": "Feature", "properties": {"collection_times": [{"days": "Mon-Fri", "time": "3:00pm"}, {"days": "Sat", "time": "11:00am"}, {"days": "Sun", "time": "Closed"}], "id": "4620400313", "name": "USPS COLLECTION BOX - BLUE BOX", "address": {"city": "INDIANAPOLIS", "state": "IN", "street": "402 N EAST ST", "postcode": "46204"}}},
{"geometry": {"type": "Point", "coordinates": [-86.1387942653, 39.8475179086]}, "type": "Feature", "properties": {"collection_times": [{"days": "Mon-Fri", "time": "12:00pm"}, {"days": "Sat", "time": "1:00pm"}, {"days": "Sun", "time": "Closed"}], "id": "4620500017", "name": "USPS COLLECTION BOX - BLUE BOX", "address": {"city": "INDIANAPOLIS", "state": "IN", "street": "1235 E 52ND ST", "postcode": "46205"}}},
{"geometry": {"type": "Point", "coordinates": [-86.1218560876, 39.8476042468]}, "type": "Feature", "properties": {"collection_times": [{"days": "Mon-Fri", "time": "12:00pm"}, {"days": "Sat", "time": "1:00pm"}, {"days": "Sun", "time": "Closed"}], "id": "4620500020", "name": "USPS COLLECTION BOX - BLUE BOX", "address": {"city": "INDIANAPOLIS", "state": "IN", "street": "5199 N KEYSTONE AVE", "postcode": "46205"}}},
{"geometry": {"type": "Point", "coordinates": [-86.1205242754, 39.844417028]}, "type": "Feature", "properties": {"collection_times": [{"days": "Mon-Fri", "time": "12:00pm"}, {"days": "Sat", "time": "1:00pm"}, {"days": "Sun", "time": "Closed"}], "id": "4620500021", "name": "USPS COLLECTION BOX - BLUE BOX", "address": {"city": "INDIANAPOLIS", "state": "IN", "street": "4755 KINGSWAY DR", "postcode": "46205"}}},
{"geometry": {"type": "Point", "coordinates": [-86.1546751178, 39.8430932969]}, "type": "Feature", "properties": {"collection_times": [{"days": "Mon-Fri", "time": "12:00pm"}, {"days": "Sat", "time": "1:00pm"}, {"days": "Sun", "time": "Closed"}], "id": "4620500030", "name": "USPS COLLECTION BOX - BLUE BOX", "address": {"city": "INDIANAPOLIS", "state": "IN", "street": "4901 N PENNSYLVANIA ST", "postcode": "46205"}}},
{"geometry": {"type": "Point", "coordinates": [-86.141147982, 39.8427242137]}, "type": "Feature", "properties": {"collection_times": [{"days": "Mon-Fri", "time": "12:00pm"}, {"days": "Sat", "time": "1:00pm"}, {"days": "Sun", "time": "Closed"}], "id": "4620500041", "name": "USPS COLLECTION BOX - BLUE BOX", "address": {"city": "INDIANAPOLIS", "state": "IN", "street": "4850 WINTHROP AVE", "postcode": "46205"}}},
{"geometry": {"type": "Point", "coordinates": [-86.1518700428, 39.8061745118]}, "type": "Feature", "properties": {"collection_times": [{"days": "Mon-Fri", "time": "3:30pm"}, {"days": "Sat", "time": "3:00pm"}, {"days": "Sun", "time": "Closed"}], "id": "4620500050", "name": "USPS COLLECTION BOX - BLUE BOX", "address": {"city": "INDIANAPOLIS", "state": "IN", "street": "300 E FALL CREEK PARKWAY NORTH DR", "postcode": "46205"}}},
{"geometry": {"type": "Point", "coordinates": [-86.119871282, 39.8402553783]}, "type": "Feature", "properties": {"collection_times": [{"days": "Mon-Fri", "time": "12:00pm"}, {"days": "Sat", "time": "1:00pm"}, {"days": "Sun", "time": "Closed"}], "id": "4620500053", "name": "USPS COLLECTION BOX - BLUE BOX", "address": {"city": "INDIANAPOLIS", "state": "IN", "street": "4492 ALLISONVILLE RD", "postcode": "46205"}}},
{"geometry": {"type": "Point", "coordinates": [-86.1520962672, 39.8232763683]}, "type": "Feature", "properties": {"collection_times": [{"days": "Mon-Fri", "time": "2:00pm"}, {"days": "Sat", "time": "1:00pm"}, {"days": "Sun", "time": "Closed"}], "id": "4620500054", "name": "USPS COLLECTION BOX - BLUE BOX", "address": {"city": "INDIANAPOLIS", "state": "IN", "street": "3676 WASHINGTON BLVD", "postcode": "46205"}}},
{"geometry": {"type": "Point", "coordinates": [-86.16103163, 39.761492772]}, "type": "Feature", "properties": {"collection_times": [{"days": "Mon-Fri", "time": "7:00pm"}, {"days": "Sat", "time": "6:00pm"}, {"days": "Sun", "time": "Closed"}], "id": "4620600004", "name": "USPS COLLECTION BOX - PO LOBBY", "address": {"city": "INDIANAPOLIS", "state": "IN", "street": "125 W SOUTH ST", "postcode": "46206"}}},
{"geometry": {"type": "Point", "coordinates": [-86.16103163, 39.761492772]}, "type": "Feature", "properties": {"collection_times": [{"days": "Mon-Fri", "time": "7:00pm"}, {"days": "Sat", "time": "6:00pm"}, {"days": "Sun", "time": "Closed"}], "id": "4620600005", "name": "USPS COLLECTION BOX - PO LOBBY", "address": {"city": "INDIANAPOLIS", "state": "IN", "street": "125 W SOUTH ST", "postcode": "46206"}}},
{"geometry": {"type": "Point", "coordinates": [-86.16103163, 39.761492772]}, "type": "Feature", "properties": {"collection_times": [{"days": "Mon-Fri", "time": "7:00pm"}, {"days": "Sat", "time": "6:00pm"}, {"days": "Sun", "time": "Closed"}], "id": "4620600008", "name": "USPS COLLECTION BOX - PO LOBBY", "address": {"city": "INDIANAPOLIS", "state": "IN", "street": "125 W SOUTH ST", "postcode": "46206"}}},
{"geometry": {"type": "Point", "coordinates": [-86.16103163, 39.761492772]}, "type": "Feature", "properties": {"collection_times": [{"days": "Mon-Fri", "time": "7:00pm"}, {"days": "Sat", "time": "6:00pm"}, {"days": "Sun", "time": "Closed"}], "id": "4620600009", "name": "USPS COLLECTION BOX - PO LOBBY", "address": {"city": "INDIANAPOLIS", "state": "IN", "street": "125 W SOUTH ST", "postcode": "46206"}}},
{"geometry": {"type": "Point", "coordinates": [-86.16103163, 39.761492772]}, "type": "Feature", "properties": {"collection_times": [{"days": "Mon-Fri", "time": "7:00pm"}, {"days": "Sat", "time": "6:00pm"}, {"days": "Sun", "time": "Closed"}], "id": "4620600013", "name": "USPS COLLECTION BOX - APC", "address": {"city": "INDIANAPOLIS", "state": "IN", "street": "125 W SOUTH ST", "postcode": "46206"}}},
{"geometry": {"type": "Point", "coordinates": [-86.16103163, 39.761492772]}, "type": "Feature", "properties": {"collection_times": [{"days": "Mon-Fri", "time": "7:00pm"}, {"days": "Sat", "time": "6:00pm"}, {"days": "Sun", "time": "Closed"}], "id": "4620600014", "name": "USPS COLLECTION BOX - PO LOBBY", "address": {"city": "INDIANAPOLIS", "state": "IN", "street": "125 W SOUTH ST", "postcode": "46206"}}},
{"geometry": {"type": "Point", "coordinates": [-86.16103163, 39.761492772]}, "type": "Feature", "properties": {"collection_times": [{"days": "Mon-Fri", "time": "7:00pm"}, {"days": "Sat", "time": "6:00pm"}, {"days": "Sun", "time": "Closed"}], "id": "4620600015", "name": "USPS COLLECTION BOX - PO LOBBY", "address": {"city": "INDIANAPOLIS", "state": "IN", "street": "125 W SOUTH ST", "postcode": "46206"}}},
{"geometry": {"type": "Point", "coordinates": [-86.1715117603, 39.8051189798]}, "type": "Feature", "properties": {"collection_times": [{"days": "Mon-Fri", "time": "5:00pm"}, {"days": "Sat", "time": "4:30pm"}, {"days": "Sun", "time": "Closed"}], "id": "4620800001", "name": "USPS COLLECTION BOX - BLUE BOX", "address": {"city": "INDIANAPOLIS", "state": "IN", "street": "2650 MARTIN LUTHER KING JR ST", "postcode": "46208"}}},
{"geometry": {"type": "Point", "coordinates": [-86.1690310055, 39.8394014716]}, "type": "Feature", "properties": {"collection_times": [{"days": "Mon-Fri", "time": "4:00pm"}, {"days": "Sat", "time": "2:00pm"}, {"days": "Sun", "time": "Closed"}], "id": "4620800004", "name": "USPS COLLECTION BOX - BLUE BOX", "address": {"city": "INDIANAPOLIS", "state": "IN", "street": "4600 SUNSET AVE", "postcode": "46208"}}},
{"geometry": {"type": "Point", "coordinates": [-86.1615040859, 39.8283287981]}, "type": "Feature", "properties": {"collection_times": [{"days": "Mon-Sat", "time": "2:00pm"}, {"days": "Sun", "time": "Closed"}], "id": "4620800009", "name": "USPS COLLECTION BOX - BLUE BOX", "address": {"city": "INDIANAPOLIS", "state": "IN", "street": "4001 N CAPITOL AVE", "postcode": "46208"}}},
{"geometry": {"type": "Point", "coordinates": [-86.1613706655, 39.8394178434]}, "type": "Feature", "properties": {"collection_times": [{"days": "Mon-Sat", "time": "2:00pm"}, {"days": "Sun", "time": "Closed"}], "id": "4620800010", "name": "USPS COLLECTION BOX - BLUE BOX", "address": {"city": "INDIANAPOLIS", "state": "IN", "street": "153 W 46TH ST", "postcode": "46208"}}},
{"geometry": {"type": "Point", "coordinates": [-86.1618733136, 39.8470271298]}, "type": "Feature", "properties": {"collection_times": [{"days": "Mon-Sat", "time": "2:00pm"}, {"days": "Sun", "time": "Closed"}], "id": "4620800011", "name": "USPS COLLECTION BOX - BLUE BOX", "address": {"city": "INDIANAPOLIS", "state": "IN", "street": "5212 N CAPITOL AVE", "postcode": "46208"}}},
{"geometry": {"type": "Point", "coordinates": [-86.1808294108, 39.8305664011]}, "type": "Feature", "properties": {"collection_times": [{"days": "Mon-Fri", "time": "4:00pm"}, {"days": "Sat", "time": "2:00pm"}, {"days": "Sun", "time": "Closed"}], "id": "4620800017", "name": "USPS COLLECTION BOX - BLUE BOX", "address": {"city": "INDIANAPOLIS", "state": "IN", "street": "1100 W 42ND ST", "postcode": "46208"}}},
{"geometry": {"type": "Point", "coordinates": [-86.1728715725, 39.8366471418]}, "type": "Feature", "properties": {"collection_times": [{"days": "Mon-Fri", "time": "4:00pm"}, {"days": "Sat", "time": "2:00pm"}, {"days": "Sun", "time": "Closed"}], "id": "4620800019", "name": "USPS COLLECTION BOX - BLUE BOX", "address": {"city": "INDIANAPOLIS", "state": "IN", "street": "750 W HAMPTON DR", "postcode": "46208"}}},
{"geometry": {"type": "Point", "coordinates": [-86.1594339802, 39.8542495426]}, "type": "Feature", "properties": {"collection_times": [{"days": "Mon-Fri", "time": "12:00pm"}, {"days": "Sat", "time": "11:00am"}, {"days": "Sun", "time": "Closed"}], "id": "4620800027", "name": "USPS COLLECTION BOX - BLUE BOX", "address": {"city": "INDIANAPOLIS", "state": "IN", "street": "5605 N ILLINOIS ST", "postcode": "46208"}}},
{"geometry": {"type": "Point", "coordinates": [-86.1587208374, 39.720716192]}, "type": "Feature", "properties": {"collection_times": [{"days": "Mon-Fri", "time": "2:00pm"}, {"days": "Sat", "time": "1:30pm"}, {"days": "Sun", "time": "Closed"}], "id": "4620800040", "name": "USPS COLLECTION BOX - BLUE BOX", "address": {"city": "INDIANAPOLIS", "state": "IN", "street": "3101 N MERIDIAN ST", "postcode": "46208"}}},
{"geometry": {"type": "Point", "coordinates": [-86.1568198224, 39.8233982131]}, "type": "Feature", "properties": {"collection_times": [{"days": "Mon-Fri", "time": "2:00pm"}, {"days": "Sat", "time": "1:30pm"}, {"days": "Sun", "time": "Closed"}], "id": "4620800044", "name": "USPS COLLECTION BOX - BLUE BOX", "address": {"city": "INDIANAPOLIS", "state": "IN", "street": "3737 N MERIDIAN ST", "postcode": "46208"}}},
{"geometry": {"type": "Point", "coordinates": [-86.1715117603, 39.8051189798]}, "type": "Feature", "properties": {"collection_times": [{"days": "Mon-Fri", "time": "4:45pm"}, {"days": "Sat", "time": "2:00pm"}, {"days": "Sun", "time": "Closed"}], "id": "4620800057", "name": "USPS COLLECTION BOX - PO LOBBY", "address": {"city": "INDIANAPOLIS", "state": "IN", "street": "2650 MARTIN LUTHER KING JR ST", "postcode": "46208"}}},
{"geometry": {"type": "Point", "coordinates": [-86.1568612259, 39.8266407036]}, "type": "Feature", "properties": {"collection_times": [{"days": "Mon-Fri", "time": "2:00pm"}, {"days": "Sat", "time": "1:30pm"}, {"days": "Sun", "time": "Closed"}], "id": "4620800065", "name": "USPS COLLECTION BOX - BLUE BOX", "address": {"city": "INDIANAPOLIS", "state": "IN", "street": "3901 N MERIDIAN ST", "postcode": "46208"}}},
{"geometry": {"type": "Point", "coordinates": [-86.1808294108, 39.8305664011]}, "type": "Feature", "properties": {"collection_times": [{"days": "Mon-Fri", "time": "4:00pm"}, {"days": "Sat", "time": "2:00pm"}, {"days": "Sun", "time": "Closed"}], "id": "4620800069", "name": "USPS COLLECTION BOX - BLUE BOX", "address": {"city": "INDIANAPOLIS", "state": "IN", "street": "1100 W 42ND ST", "postcode": "46208"}}},
{"geometry": {"type": "Point", "coordinates": [-86.1567571255, 39.8152594554]}, "type": "Feature", "properties": {"collection_times": [{"days": "Mon-Fri", "time": "2:00pm"}, {"days": "Sat", "time": "1:30pm"}, {"days": "Sun", "time": "Closed"}], "id": "4620800071", "name": "USPS COLLECTION BOX - BLUE BOX", "address": {"city": "INDIANAPOLIS", "state": "IN", "street": "3266 N MERIDIAN ST", "postcode": "46208"}}},
{"geometry": {"type": "Point", "coordinates": [-86.1715117603, 39.8051189798]}, "type": "Feature", "properties": {"collection_times": [{"days": "Mon-Fri", "time": "4:45pm"}, {"days": "Sat", "time": "2:00pm"}, {"days": "Sun", "time": "Closed"}], "id": "4620800072", "name": "USPS COLLECTION BOX - PO LOBBY", "address": {"city": "INDIANAPOLIS", "state": "IN", "street": "2650 MARTIN LUTHER KING JR ST", "postcode": "46208"}}},
{"geometry": {"type": "Point", "coordinates": [-86.1568612259, 39.8266407036]}, "type": "Feature", "properties": {"collection_times": [{"days": "Mon-Fri", "time": "2:00pm"}, {"days": "Sat", "time": "1:30pm"}, {"days": "Sun", "time": "Closed"}], "id": "4620800073", "name": "USPS COLLECTION BOX - BLUE BOX", "address": {"city": "INDIANAPOLIS", "state": "IN", "street": "3901 N MERIDIAN ST", "postcode": "46208"}}},
{"geometry": {"type": "Point", "coordinates": [-86.2874369362, 39.8231451912]}, "type": "Feature", "properties": {"collection_times": [{"days": "Mon-Fri", "time": "2:00pm"}, {"days": "Sat", "time": "1:30pm"}, {"days": "Sun", "time": "Closed"}], "id": "4621400001", "name": "USPS COLLECTION BOX - BLUE BOX", "address": {"city": "INDIANAPOLIS", "state": "IN", "street": "3799 BAY HEAD DR", "postcode": "46214"}}},
{"geometry": {"type": "Point", "coordinates": [-86.2916100196, 39.7664053764]}, "type": "Feature", "properties": {"collection_times": [{"days": "Mon-Sat", "time": "12:00pm"}, {"days": "Sun", "time": "Closed"}], "id": "4621400009", "name": "USPS COLLECTION BOX - BLUE BOX", "address": {"city": "INDIANAPOLIS", "state": "IN", "street": "7420 ROCKLEIGH AVE", "postcode": "46214"}}},
{"geometry": {"type": "Point", "coordinates": [-86.2784282459, 39.8053858176]}, "type": "Feature", "properties": {"collection_times": [{"days": "Mon-Fri", "time": "3:45pm"}, {"days": "Sat", "time": "2:30pm"}, {"days": "Sun", "time": "Closed"}], "id": "4621400010", "name": "USPS COLLECTION BOX - BLUE BOX", "address": {"city": "INDIANAPOLIS", "state": "IN", "street": "2780 WATERFRONT PARKWAY EAST DR", "postcode": "46214"}}},
{"geometry": {"type": "Point", "coordinates": [-86.3060548276, 39.7641816532]}, "type": "Feature", "properties": {"collection_times": [{"days": "Mon-Fri", "time": "4:00pm"}, {"days": "Sat", "time": "3:00pm"}, {"days": "Sun", "time": "Closed"}], "id": "4621400013", "name": "USPS COLLECTION BOX - BLUE BOX", "address": {"city": "INDIANAPOLIS", "state": "IN", "street": "8150 ROCKVILLE RD", "postcode": "46214"}}},
{"geometry": {"type": "Point", "coordinates": [-86.2897583849, 39.7791602796]}, "type": "Feature", "properties": {"collection_times": [{"days": "Mon-Fri", "time": "4:00pm"}, {"days": "Sat", "time": "3:00pm"}, {"days": "Sun", "time": "Closed"}], "id": "4621400014", "name": "USPS COLLECTION BOX - BLUE BOX", "address": {"city": "INDIANAPOLIS", "state": "IN", "street": "7301 W 10TH ST", "postcode": "46214"}}},
{"geometry": {"type": "Point", "coordinates": [-86.2897583849, 39.7791602796]}, "type": "Feature", "properties": {"collection_times": [{"days": "Mon-Fri", "time": "4:00pm"}, {"days": "Sat", "time": "3:00pm"}, {"days": "Sun", "time": "Closed"}], "id": "4621400019", "name": "USPS COLLECTION BOX - BLUE BOX", "address": {"city": "INDIANAPOLIS", "state": "IN", "street": "7301 W 10TH ST", "postcode": "46214"}}},
{"geometry": {"type": "Point", "coordinates": [-86.0043115696, 39.8627623556]}, "type": "Feature", "properties": {"collection_times": [{"days": "Mon-Sat", "time": "3:00pm"}, {"days": "Sun", "time": "Closed"}], "id": "4621600005", "name": "USPS COLLECTION BOX - BLUE BOX", "address": {"city": "INDIANAPOLIS", "state": "IN", "street": "9301 E 59TH ST", "postcode": "46216"}}},
{"geometry": {"type": "Point", "coordinates": [-86.1583960528, 39.7084793011]}, "type": "Feature", "properties": {"collection_times": [{"days": "Mon-Sat", "time": "11:00am"}, {"days": "Sun", "time": "Closed"}], "id": "4621700001", "name": "USPS COLLECTION BOX - BLUE BOX", "address": {"city": "INDIANAPOLIS", "state": "IN", "street": "3967 S MERIDIAN ST", "postcode": "46217"}}},
{"geometry": {"type": "Point", "coordinates": [-86.1567050753, 39.8104128725]}, "type": "Feature", "properties": {"collection_times": [{"days": "Mon-Sat", "time": "11:00am"}, {"days": "Sun", "time": "Closed"}], "id": "4621700002", "name": "USPS COLLECTION BOX - BLUE BOX", "address": {"city": "INDIANAPOLIS", "state": "IN", "street": "3001 S MERIDIAN ST", "postcode": "46217"}}},
{"geometry": {"type": "Point", "coordinates": [-86.1584940024, 39.6373989695]}, "type": "Feature", "properties": {"collection_times": [{"days": "Mon-Fri", "time": "11:30am"}, {"days": "Sat", "time": "11:00am"}, {"days": "Sun", "time": "Closed"}], "id": "4621700003", "name": "USPS COLLECTION BOX - BLUE BOX", "address": {"city": "INDIANAPOLIS", "state": "IN", "street": "8904 S MERIDIAN ST", "postcode": "46217"}}},
{"geometry": {"type": "Point", "coordinates": [-86.1582811392, 39.6503852439]}, "type": "Feature", "properties": {"collection_times": [{"days": "Mon-Fri", "time": "11:30am"}, {"days": "Sat", "time": "11:00am"}, {"days": "Sun", "time": "Closed"}], "id": "4621700004", "name": "USPS COLLECTION BOX - BLUE BOX", "address": {"city": "INDIANAPOLIS", "state": "IN", "street": "8039 S MERIDIAN ST", "postcode": "46217"}}},
{"geometry": {"type": "Point", "coordinates": [-86.1833666045, 39.6638513545]}, "type": "Feature", "properties": {"collection_times": [{"days": "Mon-Fri", "time": "11:30am"}, {"days": "Sat", "time": "11:00am"}, {"days": "Sun", "time": "Closed"}], "id": "4621700007", "name": "USPS COLLECTION BOX - BLUE BOX", "address": {"city": "INDIANAPOLIS", "state": "IN", "street": "1330 W SOUTHPORT RD", "postcode": "46217"}}},
{"geometry": {"type": "Point", "coordinates": [-86.1025279207, 39.8078375709]}, "type": "Feature", "properties": {"collection_times": [{"days": "Mon-Fri", "time": "5:00pm"}, {"days": "Sat", "time": "4:30pm"}, {"days": "Sun", "time": "Closed"}], "id": "4621800001", "name": "USPS COLLECTION BOX - BLUE BOX", "address": {"city": "INDIANAPOLIS", "state": "IN", "street": "2830 N SHERMAN DR", "postcode": "46218"}}},
{"geometry": {"type": "Point", "coordinates": [-86.1260534256, 39.810745284]}, "type": "Feature", "properties": {"collection_times": [{"days": "Mon-Sat", "time": "12:00pm"}, {"days": "Sun", "time": "Closed"}], "id": "4621800007", "name": "USPS COLLECTION BOX - BLUE BOX", "address": {"city": "INDIANAPOLIS", "state": "IN", "street": "2009 E 30TH ST", "postcode": "46218"}}},
{"geometry": {"type": "Point", "coordinates": [-86.0774397269, 39.788893666]}, "type": "Feature", "properties": {"collection_times": [{"days": "Mon-Fri", "time": "1:00pm"}, {"days": "Sat", "time": "12:00pm"}, {"days": "Sun", "time": "Closed"}], "id": "4621800011", "name": "USPS COLLECTION BOX - BLUE BOX", "address": {"city": "INDIANAPOLIS", "state": "IN", "street": "5317 E 16TH ST", "postcode": "46218"}}},
{"geometry": {"type": "Point", "coordinates": [-86.0835828328, 39.8166754573]}, "type": "Feature", "properties": {"collection_times": [{"days": "Mon-Sat", "time": "12:00pm"}, {"days": "Sun", "time": "Closed"}], "id": "4621800014", "name": "USPS COLLECTION BOX - BLUE BOX", "address": {"city": "INDIANAPOLIS", "state": "IN", "street": "3300 N EMERSON AVE", "postcode": "46218"}}},
{"geometry": {"type": "Point", "coordinates": [-86.0846726559, 39.8254528308]}, "type": "Feature", "properties": {"collection_times": [{"days": "Mon-Sat", "time": "12:00pm"}, {"days": "Sun", "time": "Closed"}], "id": "4621800015", "name": "USPS COLLECTION BOX - BLUE BOX", "address": {"city": "INDIANAPOLIS", "state": "IN", "street": "5065 E 38TH ST", "postcode": "46218"}}},
{"geometry": {"type": "Point", "coordinates": [-86.1215191439, 39.8023746664]}, "type": "Feature", "properties": {"collection_times": [{"days": "Mon-Sat", "time": "12:00pm"}, {"days": "Sun", "time": "Closed"}], "id": "4621800021", "name": "USPS COLLECTION BOX - BLUE BOX", "address": {"city": "INDIANAPOLIS", "state": "IN", "street": "2451 N KEYSTONE AVE", "postcode": "46218"}}},
{"geometry": {"type": "Point", "coordinates": [-86.1216681967, 39.8185338858]}, "type": "Feature", "properties": {"collection_times": [{"days": "Mon-Sat", "time": "12:00pm"}, {"days": "Sun", "time": "Closed"}], "id": "4621800023", "name": "USPS COLLECTION BOX - BLUE BOX", "address": {"city": "INDIANAPOLIS", "state": "IN", "street": "3402 N KEYSTONE AVE", "postcode": "46218"}}},
{"geometry": {"type": "Point", "coordinates": [-86.0718363873, 39.788972418]}, "type": "Feature", "properties": {"collection_times": [{"days": "Mon-Fri", "time": "1:00pm"}, {"days": "Sat", "time": "12:00pm"}, {"days": "Sun", "time": "Closed"}], "id": "4621800026", "name": "USPS COLLECTION BOX - BLUE BOX", "address": {"city": "INDIANAPOLIS", "state": "IN", "street": "5600 E 16TH ST", "postcode": "46218"}}},
{"geometry": {"type": "Point", "coordinates": [-86.0718451374, 39.825131307]}, "type": "Feature", "properties": {"collection_times": [{"days": "Mon-Sat", "time": "12:00pm"}, {"days": "Sun", "time": "Closed"}], "id": "4621800027", "name": "USPS COLLECTION BOX - BLUE BOX", "address": {"city": "INDIANAPOLIS", "state": "IN", "street": "3749 N LESLEY AVE", "postcode": "46218"}}},
{"geometry": {"type": "Point", "coordinates": [-86.1022112131, 39.7905290872]}, "type": "Feature", "properties": {"collection_times": [{"days": "Mon-Sat", "time": "12:00pm"}, {"days": "Sun", "time": "Closed"}], "id": "4621800037", "name": "USPS COLLECTION BOX - BLUE BOX", "address": {"city": "INDIANAPOLIS", "state": "IN", "street": "1775 N SHERMAN DR", "postcode": "46218"}}},
{"geometry": {"type": "Point", "coordinates": [-86.1035038618, 39.8252944963]}, "type": "Feature", "properties": {"collection_times": [{"days": "Mon-Sat", "time": "12:00pm"}, {"days": "Sun", "time": "Closed"}], "id": "4621800040", "name": "USPS COLLECTION BOX - BLUE BOX", "address": {"city": "INDIANAPOLIS", "state": "IN", "street": "3735 E 38TH ST", "postcode": "46218"}}},
{"geometry": {"type": "Point", "coordinates": [-86.074582881, 39.7889066785]}, "type": "Feature", "properties": {"collection_times": [{"days": "Mon-Fri", "time": "1:00pm"}, {"days": "Sat", "time": "12:00pm"}, {"days": "Sun", "time": "Closed"}], "id": "4621800045", "name": "USPS COLLECTION BOX - BLUE BOX", "address": {"city": "INDIANAPOLIS", "state": "IN", "street": "5470 E 16TH ST", "postcode": "46218"}}},
{"geometry": {"type": "Point", "coordinates": [-86.1025279207, 39.8078375709]}, "type": "Feature", "properties": {"collection_times": [{"days": "Mon-Fri", "time": "5:00pm"}, {"days": "Sat", "time": "3:00pm"}, {"days": "Sun", "time": "Closed"}], "id": "4621800048", "name": "USPS COLLECTION BOX - PO LOBBY", "address": {"city": "INDIANAPOLIS", "state": "IN", "street": "2830 N SHERMAN DR", "postcode": "46218"}}},
{"geometry": {"type": "Point", "coordinates": [-86.0406579838, 39.7801740755]}, "type": "Feature", "properties": {"collection_times": [{"days": "Mon-Fri", "time": "5:00pm"}, {"days": "Sat", "time": "4:30pm"}, {"days": "Sun", "time": "Closed"}], "id": "4621900001", "name": "USPS COLLECTION BOX - BLUE BOX", "address": {"city": "INDIANAPOLIS", "state": "IN", "street": "740 N SHORTRIDGE RD", "postcode": "46219"}}},
{"geometry": {"type": "Point", "coordinates": [-86.0640131427, 39.7644880396]}, "type": "Feature", "properties": {"collection_times": [{"days": "Mon-Fri", "time": "11:30am"}, {"days": "Sat", "time": "12:00pm"}, {"days": "Sun", "time": "Closed"}], "id": "4621900002", "name": "USPS COLLECTION BOX - BLUE BOX", "address": {"city": "INDIANAPOLIS", "state": "IN", "street": "350 S ARLINGTON AVE", "postcode": "46219"}}},
{"geometry": {"type": "Point", "coordinates": [-86.0701956076, 39.7677755911]}, "type": "Feature", "properties": {"collection_times": [{"days": "Mon-Fri", "time": "11:30am"}, {"days": "Sat", "time": "12:00pm"}, {"days": "Sun", "time": "Closed"}], "id": "4621900005", "name": "USPS COLLECTION BOX - BLUE BOX", "address": {"city": "INDIANAPOLIS", "state": "IN", "street": "201 S AUDUBON RD", "postcode": "46219"}}},
{"geometry": {"type": "Point", "coordinates": [-86.0698368497, 39.7782032658]}, "type": "Feature", "properties": {"collection_times": [{"days": "Mon-Sat", "time": "1:00pm"}, {"days": "Sun", "time": "Closed"}], "id": "4621900006", "name": "USPS COLLECTION BOX - BLUE BOX", "address": {"city": "INDIANAPOLIS", "state": "IN", "street": "804 N AUDUBON RD", "postcode": "46219"}}},
{"geometry": {"type": "Point", "coordinates": [-86.0669323964, 39.776252758]}, "type": "Feature", "properties": {"collection_times": [{"days": "Mon-Sat", "time": "1:00pm"}, {"days": "Sun", "time": "Closed"}], "id": "4621900008", "name": "USPS COLLECTION BOX - BLUE BOX", "address": {"city": "INDIANAPOLIS", "state": "IN", "street": "5802 E PLEASANT RUN PARKWAY NORTH DR", "postcode": "46219"}}},
{"geometry": {"type": "Point", "coordinates": [-86.0804988588, 39.7847059913]}, "type": "Feature", "properties": {"collection_times": [{"days": "Mon-Sat", "time": "1:00pm"}, {"days": "Sun", "time": "Closed"}], "id": "4621900009", "name": "USPS COLLECTION BOX - BLUE BOX", "address": {"city": "INDIANAPOLIS", "state": "IN", "street": "1302 N BUTLER AVE", "postcode": "46219"}}},
{"geometry": {"type": "Point", "coordinates": [-86.0606819302, 39.8099042002]}, "type": "Feature", "properties": {"collection_times": [{"days": "Mon-Sat", "time": "1:00pm"}, {"days": "Sun", "time": "Closed"}], "id": "4621900010", "name": "USPS COLLECTION BOX - BLUE BOX", "address": {"city": "INDIANAPOLIS", "state": "IN", "street": "2900 N CATHERWOOD AVE", "postcode": "46219"}}},
{"geometry": {"type": "Point", "coordinates": [-86.0830197444, 39.7659549087]}, "type": "Feature", "properties": {"collection_times": [{"days": "Mon-Fri", "time": "11:00am"}, {"days": "Sat", "time": "12:00pm"}, {"days": "Sun", "time": "Closed"}], "id": "4621900014", "name": "USPS COLLECTION BOX - BLUE BOX", "address": {"city": "INDIANAPOLIS", "state": "IN", "street": "240 S EMERSON AVE", "postcode": "46219"}}},
{"geometry": {"type": "Point", "coordinates": [-86.0268398546, 39.80825948]}, "type": "Feature", "properties": {"collection_times": [{"days": "Mon-Sat", "time": "1:00pm"}, {"days": "Sun", "time": "Closed"}], "id": "4621900018", "name": "USPS COLLECTION BOX - BLUE BOX", "address": {"city": "INDIANAPOLIS", "state": "IN", "street": "2805 N FRANKLIN RD", "postcode": "46219"}}},
{"geometry": {"type": "Point", "coordinates": [-86.0642426367, 39.7822288752]}, "type": "Feature", "properties": {"collection_times": [{"days": "Mon-Sat", "time": "1:30pm"}, {"days": "Sun", "time": "Closed"}], "id": "4621900019", "name": "USPS COLLECTION BOX - BLUE BOX", "address": {"city": "INDIANAPOLIS", "state": "IN", "street": "1030 N ARLINGTON AVE", "postcode": "46219"}}},
{"geometry": {"type": "Point", "coordinates": [-86.0793052532, 39.781541576]}, "type": "Feature", "properties": {"collection_times": [{"days": "Mon-Sat", "time": "1:00pm"}, {"days": "Sun", "time": "Closed"}], "id": "4621900020", "name": "USPS COLLECTION BOX - BLUE BOX", "address": {"city": "INDIANAPOLIS", "state": "IN", "street": "5265 E 10TH ST", "postcode": "46219"}}},
{"geometry": {"type": "Point", "coordinates": [-86.0738582313, 39.7865321736]}, "type": "Feature", "properties": {"collection_times": [{"days": "Mon-Sat", "time": "1:30pm"}, {"days": "Sun", "time": "Closed"}], "id": "4621900025", "name": "USPS COLLECTION BOX - BLUE BOX", "address": {"city": "INDIANAPOLIS", "state": "IN", "street": "1400 N RITTER AVE", "postcode": "46219"}}},
{"geometry": {"type": "Point", "coordinates": [-86.0092892474, 39.7971594549]}, "type": "Feature", "properties": {"collection_times": [{"days": "Mon-Fri", "time": "1:30pm"}, {"days": "Sat", "time": "2:00pm"}, {"days": "Sun", "time": "Closed"}], "id": "4621900028", "name": "USPS COLLECTION BOX - BLUE BOX", "address": {"city": "INDIANAPOLIS", "state": "IN", "street": "2129 N POST RD", "postcode": "46219"}}},
{"geometry": {"type": "Point", "coordinates": [-86.0112212329, 39.8113071895]}, "type": "Feature", "properties": {"collection_times": [{"days": "Mon-Sat", "time": "2:00pm"}, {"days": "Sun", "time": "Closed"}], "id": "4621900029", "name": "USPS COLLECTION BOX - BLUE BOX", "address": {"city": "INDIANAPOLIS", "state": "IN", "street": "8931 E 30TH ST", "postcode": "46219"}}},
{"geometry": {"type": "Point", "coordinates": [-86.0807333763, 39.761600361]}, "type": "Feature", "properties": {"collection_times": [{"days": "Mon-Fri", "time": "11:00am"}, {"days": "Sat", "time": "12:00pm"}, {"days": "Sun", "time": "Closed"}], "id": "4621900037", "name": "USPS COLLECTION BOX - BLUE BOX", "address": {"city": "INDIANAPOLIS", "state": "IN", "street": "5220 BROOKVILLE RD", "postcode": "46219"}}},
{"geometry": {"type": "Point", "coordinates": [-86.0467241974, 39.7817308495]}, "type": "Feature", "properties": {"collection_times": [{"days": "Mon-Fri", "time": "11:30am"}, {"days": "Sat", "time": "12:00pm"}, {"days": "Sun", "time": "Closed"}], "id": "4621900039", "name": "USPS COLLECTION BOX - BLUE BOX", "address": {"city": "INDIANAPOLIS", "state": "IN", "street": "6919 E 10TH ST", "postcode": "46219"}}},
{"geometry": {"type": "Point", "coordinates": [-86.0181427259, 39.8098994683]}, "type": "Feature", "properties": {"collection_times": [{"days": "Mon-Sat", "time": "2:00pm"}, {"days": "Sun", "time": "Closed"}], "id": "4621900040", "name": "USPS COLLECTION BOX - BLUE BOX", "address": {"city": "INDIANAPOLIS", "state": "IN", "street": "2915 TOBEY DR", "postcode": "46219"}}},
{"geometry": {"type": "Point", "coordinates": [-86.0235558203, 39.7966275242]}, "type": "Feature", "properties": {"collection_times": [{"days": "Mon-Fri", "time": "1:30pm"}, {"days": "Sat", "time": "2:00pm"}, {"days": "Sun", "time": "Closed"}], "id": "4621900041", "name": "USPS COLLECTION BOX - BLUE BOX", "address": {"city": "INDIANAPOLIS", "state": "IN", "street": "8148 E 21ST ST", "postcode": "46219"}}},
{"geometry": {"type": "Point", "coordinates": [-86.0712575796, 39.7708054186]}, "type": "Feature", "properties": {"collection_times": [{"days": "Mon-Fri", "time": "11:30am"}, {"days": "Sat", "time": "12:00pm"}, {"days": "Sun", "time": "Closed"}], "id": "4621900043", "name": "USPS COLLECTION BOX - BLUE BOX", "address": {"city": "INDIANAPOLIS", "state": "IN", "street": "5648 E WASHINGTON ST", "postcode": "46219"}}},
{"geometry": {"type": "Point", "coordinates": [-86.0260008245, 39.7729634919]}, "type": "Feature", "properties": {"collection_times": [{"days": "Mon-Fri", "time": "5:00pm"}, {"days": "Sat", "time": "4:30pm"}, {"days": "Sun", "time": "Closed"}], "id": "4621900048", "name": "USPS COLLECTION BOX - BLUE BOX", "address": {"city": "INDIANAPOLIS", "state": "IN", "street": "8015 E WASHINGTON ST", "postcode": "46219"}}},
{"geometry": {"type": "Point", "coordinates": [-86.0406579838, 39.7801740755]}, "type": "Feature", "properties": {"collection_times": [{"days": "Mon-Fri", "time": "5:00pm"}, {"days": "Sat", "time": "2:15pm"}, {"days": "Sun", "time": "Closed"}], "id": "4621900053", "name": "USPS COLLECTION BOX - PO LOBBY", "address": {"city": "INDIANAPOLIS", "state": "IN", "street": "740 N SHORTRIDGE RD", "postcode": "46219"}}},
{"geometry": {"type": "Point", "coordinates": [-86.0406579838, 39.7801740755]}, "type": "Feature", "properties": {"collection_times": [{"days": "Mon-Fri", "time": "5:00pm"}, {"days": "Sat", "time": "4:30pm"}, {"days": "Sun", "time": "Closed"}], "id": "4621900057", "name": "USPS COLLECTION BOX - BLUE BOX", "address": {"city": "INDIANAPOLIS", "state": "IN", "street": "740 N SHORTRIDGE RD", "postcode": "46219"}}},
{"geometry": {"type": "Point", "coordinates": [-86.0406579838, 39.7801740755]}, "type": "Feature", "properties": {"collection_times": [{"days": "Mon-Fri", "time": "5:00pm"}, {"days": "Sat", "time": "4:30pm"}, {"days": "Sun", "time": "Closed"}], "id": "4621900058", "name": "USPS COLLECTION BOX - BLUE BOX", "address": {"city": "INDIANAPOLIS", "state": "IN", "street": "740 N SHORTRIDGE RD", "postcode": "46219"}}},
{"geometry": {"type": "Point", "coordinates": [-86.0573189056, 39.7714088069]}, "type": "Feature", "properties": {"collection_times": [{"days": "Mon-Fri", "time": "11:30am"}, {"days": "Sat", "time": "12:00pm"}, {"days": "Sun", "time": "Closed"}], "id": "4621900059", "name": "USPS COLLECTION BOX - BLUE BOX", "address": {"city": "INDIANAPOLIS", "state": "IN", "street": "6411 E WASHINGTON ST", "postcode": "46219"}}},
{"geometry": {"type": "Point", "coordinates": [-86.0738582313, 39.7865321736]}, "type": "Feature", "properties": {"collection_times": [{"days": "Mon-Sat", "time": "1:30pm"}, {"days": "Sun", "time": "Closed"}], "id": "4621900060", "name": "USPS COLLECTION BOX - BLUE BOX", "address": {"city": "INDIANAPOLIS", "state": "IN", "street": "1400 N RITTER AVE", "postcode": "46219"}}},
{"geometry": {"type": "Point", "coordinates": [-86.0541117761, 39.8109960713]}, "type": "Feature", "properties": {"collection_times": [{"days": "Mon-Fri", "time": "1:00pm"}, {"days": "Sat-Sun", "time": "Closed"}], "id": "4621900064", "name": "USPS COLLECTION BOX - BLUE BOX", "address": {"city": "INDIANAPOLIS", "state": "IN", "street": "6575 E 30TH ST", "postcode": "46219"}}},
{"geometry": {"type": "Point", "coordinates": [-86.0642840403, 39.7848645078]}, "type": "Feature", "properties": {"collection_times": [{"days": "Mon-Sat", "time": "1:30pm"}, {"days": "Sun", "time": "Closed"}], "id": "4621900073", "name": "USPS COLLECTION BOX - BLUE BOX", "address": {"city": "INDIANAPOLIS", "state": "IN", "street": "1213 N ARLINGTON AVE", "postcode": "46219"}}},
{"geometry": {"type": "Point", "coordinates": [-86.0099909556, 39.7819804538]}, "type": "Feature", "properties": {"collection_times": [{"days": "Mon-Sat", "time": "3:30pm"}, {"days": "Sun", "time": "Closed"}], "id": "4621900074", "name": "USPS COLLECTION BOX - BLUE BOX", "address": {"city": "INDIANAPOLIS", "state": "IN", "street": "8905 E 10TH ST", "postcode": "46219"}}},
{"geometry": {"type": "Point", "coordinates": [-86.1126180654, 39.8668412675]}, "type": "Feature", "properties": {"collection_times": [{"days": "Mon-Fri", "time": "5:00pm"}, {"days": "Sat", "time": "4:00pm"}, {"days": "Sun", "time": "Closed"}], "id": "4622000001", "name": "USPS COLLECTION BOX - BLUE BOX", "address": {"city": "INDIANAPOLIS", "state": "IN", "street": "2727 E 55TH ST", "postcode": "46220"}}},
{"geometry": {"type": "Point", "coordinates": [-86.096641579, 39.8691996812]}, "type": "Feature", "properties": {"collection_times": [{"days": "Mon-Sat", "time": "3:00pm"}, {"days": "Sun", "time": "Closed"}], "id": "4622000003", "name": "USPS COLLECTION BOX - BLUE BOX", "address": {"city": "INDIANAPOLIS", "state": "IN", "street": "6219 ALLISONVILLE RD", "postcode": "46220"}}},
{"geometry": {"type": "Point", "coordinates": [-86.1401424669, 39.8511598941]}, "type": "Feature", "properties": {"collection_times": [{"days": "Mon-Fri", "time": "12:00pm"}, {"days": "Sat", "time": "1:00pm"}, {"days": "Sun", "time": "Closed"}], "id": "4622000006", "name": "USPS COLLECTION BOX - BLUE BOX", "address": {"city": "INDIANAPOLIS", "state": "IN", "street": "1050 E 54TH ST", "postcode": "46220"}}},
{"geometry": {"type": "Point", "coordinates": [-86.145818304, 39.8512817389]}, "type": "Feature", "properties": {"collection_times": [{"days": "Mon-Sat", "time": "3:30pm"}, {"days": "Sun", "time": "Closed"}], "id": "4622000012", "name": "USPS COLLECTION BOX - BLUE BOX", "address": {"city": "INDIANAPOLIS", "state": "IN", "street": "5402 N COLLEGE AVE", "postcode": "46220"}}},
{"geometry": {"type": "Point", "coordinates": [-86.1432454884, 39.8656547174]}, "type": "Feature", "properties": {"collection_times": [{"days": "Mon-Fri", "time": "12:00pm"}, {"days": "Sat", "time": "11:00am"}, {"days": "Sun", "time": "Closed"}], "id": "4622000032", "name": "USPS COLLECTION BOX - BLUE BOX", "address": {"city": "INDIANAPOLIS", "state": "IN", "street": "6103 GUILFORD AVE", "postcode": "46220"}}},
{"geometry": {"type": "Point", "coordinates": [-86.0735962933, 39.880911312]}, "type": "Feature", "properties": {"collection_times": [{"days": "Mon-Sat", "time": "3:00pm"}, {"days": "Sun", "time": "Closed"}], "id": "4622000034", "name": "USPS COLLECTION BOX - BLUE BOX", "address": {"city": "INDIANAPOLIS", "state": "IN", "street": "6901 HAWTHORN PARK DR", "postcode": "46220"}}},
{"geometry": {"type": "Point", "coordinates": [-86.14476, 39.86911]}, "type": "Feature", "properties": {"collection_times": [{"days": "Mon-Fri", "time": "5:00pm"}, {"days": "Sat", "time": "4:00pm"}, {"days": "Sun", "time": "Closed"}], "id": "4622000036", "name": "USPS COLLECTION BOX - BLUE BOX", "address": {"city": "INDIANAPOLIS", "state": "IN", "street": "6255 CARROLLTON AVE", "postcode": "46220"}}},
{"geometry": {"type": "Point", "coordinates": [-86.1220183526, 39.8829732095]}, "type": "Feature", "properties": {"collection_times": [{"days": "Mon-Fri", "time": "12:00pm"}, {"days": "Sat", "time": "1:00pm"}, {"days": "Sun", "time": "Closed"}], "id": "4622000037", "name": "USPS COLLECTION BOX - BLUE BOX", "address": {"city": "INDIANAPOLIS", "state": "IN", "street": "7069 N KEYSTONE AVE", "postcode": "46220"}}},
{"geometry": {"type": "Point", "coordinates": [-86.0665565045, 39.8833363779]}, "type": "Feature", "properties": {"collection_times": [{"days": "Mon-Sat", "time": "3:00pm"}, {"days": "Sun", "time": "Closed"}], "id": "4622000039", "name": "USPS COLLECTION BOX - BLUE BOX", "address": {"city": "INDIANAPOLIS", "state": "IN", "street": "5987 E 71ST ST", "postcode": "46220"}}},
{"geometry": {"type": "Point", "coordinates": [-86.1096812438, 39.8622876846]}, "type": "Feature", "properties": {"collection_times": [{"days": "Mon-Fri", "time": "12:00pm"}, {"days": "Sat", "time": "1:00pm"}, {"days": "Sun", "time": "Closed"}], "id": "4622000040", "name": "USPS COLLECTION BOX - BLUE BOX", "address": {"city": "INDIANAPOLIS", "state": "IN", "street": "3401 KESSLER BOULEVARD EAST DR", "postcode": "46220"}}},
{"geometry": {"type": "Point", "coordinates": [-86.1340715215, 39.8656558732]}, "type": "Feature", "properties": {"collection_times": [{"days": "Mon-Fri", "time": "12:00pm"}, {"days": "Sat", "time": "11:00am"}, {"days": "Sun", "time": "Closed"}], "id": "4622000048", "name": "USPS COLLECTION BOX - BLUE BOX", "address": {"city": "INDIANAPOLIS", "state": "IN", "street": "6101 ROSSLYN AVE", "postcode": "46220"}}},
{"geometry": {"type": "Point", "coordinates": [-86.079422037, 39.8700695691]}, "type": "Feature", "properties": {"collection_times": [{"days": "Mon-Sat", "time": "3:00pm"}, {"days": "Sun", "time": "Closed"}], "id": "4622000049", "name": "USPS COLLECTION BOX - BLUE BOX", "address": {"city": "INDIANAPOLIS", "state": "IN", "street": "6284 RUCKER RD", "postcode": "46220"}}},
{"geometry": {"type": "Point", "coordinates": [-86.1216118986, 39.8759209475]}, "type": "Feature", "properties": {"collection_times": [{"days": "Mon-Fri", "time": "12:00pm"}, {"days": "Sat", "time": "1:00pm"}, {"days": "Sun", "time": "Closed"}], "id": "4622000052", "name": "USPS COLLECTION BOX - BLUE BOX", "address": {"city": "INDIANAPOLIS", "state": "IN", "street": "2445 E 65TH ST", "postcode": "46220"}}},
{"geometry": {"type": "Point", "coordinates": [-86.12046409, 39.8500994897]}, "type": "Feature", "properties": {"collection_times": [{"days": "Mon-Fri", "time": "12:00pm"}, {"days": "Sat", "time": "1:00pm"}, {"days": "Sun", "time": "Closed"}], "id": "4622000056", "name": "USPS COLLECTION BOX - BLUE BOX", "address": {"city": "INDIANAPOLIS", "state": "IN", "street": "5335 N TACOMA AVE", "postcode": "46220"}}},
{"geometry": {"type": "Point", "coordinates": [-86.1228823724, 39.8687703752]}, "type": "Feature", "properties": {"collection_times": [{"days": "Mon-Fri", "time": "12:00pm"}, {"days": "Sat", "time": "11:00am"}, {"days": "Sun", "time": "Closed"}], "id": "4622000064", "name": "USPS COLLECTION BOX - BLUE BOX", "address": {"city": "INDIANAPOLIS", "state": "IN", "street": "2350 BROAD RIPPLE AVE", "postcode": "46220"}}},
{"geometry": {"type": "Point", "coordinates": [-86.1126180654, 39.8668412675]}, "type": "Feature", "properties": {"collection_times": [{"days": "Mon-Fri", "time": "5:00pm"}, {"days": "Sat", "time": "1:00pm"}, {"days": "Sun", "time": "Closed"}], "id": "4622000065", "name": "USPS COLLECTION BOX - PO LOBBY", "address": {"city": "INDIANAPOLIS", "state": "IN", "street": "2727 E 55TH ST", "postcode": "46220"}}},
{"geometry": {"type": "Point", "coordinates": [-86.14476, 39.86911]}, "type": "Feature", "properties": {"collection_times": [{"days": "Mon-Fri", "time": "5:00pm"}, {"days": "Sat", "time": "4:00pm"}, {"days": "Sun", "time": "Closed"}], "id": "4622000067", "name": "USPS COLLECTION BOX - BLUE BOX", "address": {"city": "INDIANAPOLIS", "state": "IN", "street": "6255 CARROLLTON AVE", "postcode": "46220"}}},
{"geometry": {"type": "Point", "coordinates": [-86.1223318367, 39.8659090265]}, "type": "Feature", "properties": {"collection_times": [{"days": "Mon-Fri", "time": "3:00pm"}, {"days": "Sat", "time": "1:00pm"}, {"days": "Sun", "time": "Closed"}], "id": "4622000079", "name": "USPS COLLECTION BOX - BLUE BOX", "address": {"city": "INDIANAPOLIS", "state": "IN", "street": "6100 N KEYSTONE AVE", "postcode": "46220"}}},
{"geometry": {"type": "Point", "coordinates": [-86.0665565045, 39.8833363779]}, "type": "Feature", "properties": {"collection_times": [{"days": "Mon-Sat", "time": "2:00pm"}, {"days": "Sun", "time": "Closed"}], "id": "4622000082", "name": "USPS COLLECTION BOX - BLUE BOX", "address": {"city": "INDIANAPOLIS", "state": "IN", "street": "5987 E 71ST ST", "postcode": "46220"}}},
{"geometry": {"type": "Point", "coordinates": [-86.1126180654, 39.8668412675]}, "type": "Feature", "properties": {"collection_times": [{"days": "Mon-Fri", "time": "5:00pm"}, {"days": "Sat", "time": "1:00pm"}, {"days": "Sun", "time": "Closed"}], "id": "4622000089", "name": "USPS COLLECTION BOX - APC", "address": {"city": "INDIANAPOLIS", "state": "IN", "street": "2727 E 55TH ST", "postcode": "46220"}}},
{"geometry": {"type": "Point", "coordinates": [-86.1126180654, 39.8668412675]}, "type": "Feature", "properties": {"collection_times": [{"days": "Mon-Fri", "time": "5:00pm"}, {"days": "Sat", "time": "1:00pm"}, {"days": "Sun", "time": "Closed"}], "id": "4622000090", "name": "USPS COLLECTION BOX - PO LOBBY", "address": {"city": "INDIANAPOLIS", "state": "IN", "street": "2727 E 55TH ST", "postcode": "46220"}}},
{"geometry": {"type": "Point", "coordinates": [-86.0678033359, 39.8834369887]}, "type": "Feature", "properties": {"collection_times": [{"days": "Mon-Sat", "time": "3:00pm"}, {"days": "Sun", "time": "Closed"}], "id": "4622000091", "name": "USPS COLLECTION BOX - BLUE BOX", "address": {"city": "INDIANAPOLIS", "state": "IN", "street": "5868 E 71ST ST", "postcode": "46220"}}},
{"geometry": {"type": "Point", "coordinates": [-86.1126180654, 39.8668412675]}, "type": "Feature", "properties": {"collection_times": [{"days": "Mon-Fri", "time": "5:00pm"}, {"days": "Sat", "time": "4:00pm"}, {"days": "Sun", "time": "Closed"}], "id": "4622000092", "name": "USPS COLLECTION BOX - BLUE BOX", "address": {"city": "INDIANAPOLIS", "state": "IN", "street": "2727 E 55TH ST", "postcode": "46220"}}},
{"geometry": {"type": "Point", "coordinates": [-86.2408430317, 39.7130518008]}, "type": "Feature", "properties": {"collection_times": [{"days": "Mon-Fri", "time": "12:00pm"}, {"days": "Sat", "time": "1:00pm"}, {"days": "Sun", "time": "Closed"}], "id": "4622100006", "name": "USPS COLLECTION BOX - BLUE BOX", "address": {"city": "INDIANAPOLIS", "state": "IN", "street": "3633 KENTUCKY AVE", "postcode": "46221"}}},
{"geometry": {"type": "Point", "coordinates": [-86.2690983216, 39.6944848437]}, "type": "Feature", "properties": {"collection_times": [{"days": "Mon-Fri", "time": "12:00pm"}, {"days": "Sat", "time": "1:00pm"}, {"days": "Sun", "time": "Closed"}], "id": "4622100015", "name": "USPS COLLECTION BOX - BLUE BOX", "address": {"city": "INDIANAPOLIS", "state": "IN", "street": "4899 KENTUCKY AVE", "postcode": "46221"}}},
{"geometry": {"type": "Point", "coordinates": [-86.2334961184, 39.7053417581]}, "type": "Feature", "properties": {"collection_times": [{"days": "Mon-Fri", "time": "1:00pm"}, {"days": "Sat", "time": "11:00am"}, {"days": "Sun", "time": "Closed"}], "id": "4622100016", "name": "USPS COLLECTION BOX - BLUE BOX", "address": {"city": "INDIANAPOLIS", "state": "IN", "street": "1920 W MORRIS ST", "postcode": "46221"}}},
{"geometry": {"type": "Point", "coordinates": [-86.2344733123, 39.7160075996]}, "type": "Feature", "properties": {"collection_times": [{"days": "Mon-Fri", "time": "2:00pm"}, {"days": "Sat", "time": "1:00pm"}, {"days": "Sun", "time": "Closed"}], "id": "4622100019", "name": "USPS COLLECTION BOX - BLUE BOX", "address": {"city": "INDIANAPOLIS", "state": "IN", "street": "3345 KENTUCKY AVE", "postcode": "46221"}}},
{"geometry": {"type": "Point", "coordinates": [-86.1813726725, 39.751485751]}, "type": "Feature", "properties": {"collection_times": [{"days": "Mon-Fri", "time": "12:00pm"}, {"days": "Sat", "time": "11:00am"}, {"days": "Sun", "time": "Closed"}], "id": "4622100022", "name": "USPS COLLECTION BOX - BLUE BOX", "address": {"city": "INDIANAPOLIS", "state": "IN", "street": "1230 W MORRIS ST", "postcode": "46221"}}},
{"geometry": {"type": "Point", "coordinates": [-86.2145347957, 39.7878846188]}, "type": "Feature", "properties": {"collection_times": [{"days": "Mon-Fri", "time": "5:00pm"}, {"days": "Sat", "time": "4:00pm"}, {"days": "Sun", "time": "Closed"}], "id": "4622200001", "name": "USPS COLLECTION BOX - BLUE BOX", "address": {"city": "INDIANAPOLIS", "state": "IN", "street": "3322 W 16TH ST", "postcode": "46222"}}},
{"geometry": {"type": "Point", "coordinates": [-86.2322689451, 39.8146289383]}, "type": "Feature", "properties": {"collection_times": [{"days": "Mon-Sat", "time": "12:00pm"}, {"days": "Sun", "time": "Closed"}], "id": "4622200004", "name": "USPS COLLECTION BOX - BLUE BOX", "address": {"city": "INDIANAPOLIS", "state": "IN", "street": "3248 FALCON DR", "postcode": "46222"}}},
{"geometry": {"type": "Point", "coordinates": [-86.2221227061, 39.8223087079]}, "type": "Feature", "properties": {"collection_times": [{"days": "Mon-Fri", "time": "2:00pm"}, {"days": "Sat", "time": "12:00pm"}, {"days": "Sun", "time": "Closed"}], "id": "4622200005", "name": "USPS COLLECTION BOX - BLUE BOX", "address": {"city": "INDIANAPOLIS", "state": "IN", "street": "3750 GUION RD", "postcode": "46222"}}},
{"geometry": {"type": "Point", "coordinates": [-86.2112620296, 39.8155257797]}, "type": "Feature", "properties": {"collection_times": [{"days": "Mon-Fri", "time": "2:00pm"}, {"days": "Sat", "time": "12:00pm"}, {"days": "Sun", "time": "Closed"}], "id": "4622200008", "name": "USPS COLLECTION BOX - BLUE BOX", "address": {"city": "INDIANAPOLIS", "state": "IN", "street": "3360 KESSLER BLVD NORTH DR", "postcode": "46222"}}},
{"geometry": {"type": "Point", "coordinates": [-86.2029849832, 39.7746852914]}, "type": "Feature", "properties": {"collection_times": [{"days": "Mon-Sat", "time": "12:00pm"}, {"days": "Sun", "time": "Closed"}], "id": "4622200009", "name": "USPS COLLECTION BOX - BLUE BOX", "address": {"city": "INDIANAPOLIS", "state": "IN", "street": "2540 W MICHIGAN ST", "postcode": "46222"}}},
{"geometry": {"type": "Point", "coordinates": [-86.216962365, 39.8059009428]}, "type": "Feature", "properties": {"collection_times": [{"days": "Mon-Sat", "time": "12:00pm"}, {"days": "Sun", "time": "Closed"}], "id": "4622200011", "name": "USPS COLLECTION BOX - BLUE BOX", "address": {"city": "INDIANAPOLIS", "state": "IN", "street": "2762 LAFAYETTE RD", "postcode": "46222"}}},
{"geometry": {"type": "Point", "coordinates": [-86.2294333925, 39.8183801012]}, "type": "Feature", "properties": {"collection_times": [{"days": "Mon-Sat", "time": "12:00pm"}, {"days": "Sun", "time": "Closed"}], "id": "4622200012", "name": "USPS COLLECTION BOX - BLUE BOX", "address": {"city": "INDIANAPOLIS", "state": "IN", "street": "3400 LAFAYETTE RD", "postcode": "46222"}}},
{"geometry": {"type": "Point", "coordinates": [-86.1906524488, 39.7747040732]}, "type": "Feature", "properties": {"collection_times": [{"days": "Mon-Sat", "time": "12:00pm"}, {"days": "Sun", "time": "Closed"}], "id": "4622200015", "name": "USPS COLLECTION BOX - BLUE BOX", "address": {"city": "INDIANAPOLIS", "state": "IN", "street": "1635 W MICHIGAN ST", "postcode": "46222"}}},
{"geometry": {"type": "Point", "coordinates": [-86.2252513873, 39.7737140672]}, "type": "Feature", "properties": {"collection_times": [{"days": "Mon-Sat", "time": "12:00pm"}, {"days": "Sun", "time": "Closed"}], "id": "4622200016", "name": "USPS COLLECTION BOX - BLUE BOX", "address": {"city": "INDIANAPOLIS", "state": "IN", "street": "3801 W MICHIGAN ST", "postcode": "46222"}}},
{"geometry": {"type": "Point", "coordinates": [-86.2385161514, 39.8093718686]}, "type": "Feature", "properties": {"collection_times": [{"days": "Mon-Sat", "time": "12:00pm"}, {"days": "Sun", "time": "Closed"}], "id": "4622200038", "name": "USPS COLLECTION BOX - BLUE BOX", "address": {"city": "INDIANAPOLIS", "state": "IN", "street": "4711 W 30TH ST", "postcode": "46222"}}},
{"geometry": {"type": "Point", "coordinates": [-86.2111662264, 39.8092425161]}, "type": "Feature", "properties": {"collection_times": [{"days": "Mon-Fri", "time": "2:00pm"}, {"days": "Sat", "time": "12:00pm"}, {"days": "Sun", "time": "Closed"}], "id": "4622200039", "name": "USPS COLLECTION BOX - BLUE BOX", "address": {"city": "INDIANAPOLIS", "state": "IN", "street": "2970 KESSLER BLVD NORTH DR", "postcode": "46222"}}},
{"geometry": {"type": "Point", "coordinates": [-86.1955972172, 39.7663819569]}, "type": "Feature", "properties": {"collection_times": [{"days": "Mon-Sat", "time": "12:00pm"}, {"days": "Sun", "time": "Closed"}], "id": "4622200041", "name": "USPS COLLECTION BOX - BLUE BOX", "address": {"city": "INDIANAPOLIS", "state": "IN", "street": "2001 W WASHINGTON ST", "postcode": "46222"}}},
{"geometry": {"type": "Point", "coordinates": [-86.2145347957, 39.7878846188]}, "type": "Feature", "properties": {"collection_times": [{"days": "Mon-Fri", "time": "4:00pm"}, {"days": "Sat", "time": "3:00pm"}, {"days": "Sun", "time": "Closed"}], "id": "4622200042", "name": "USPS COLLECTION BOX - PO LOBBY", "address": {"city": "INDIANAPOLIS", "state": "IN", "street": "3322 W 16TH ST", "postcode": "46222"}}},
{"geometry": {"type": "Point", "coordinates": [-86.2221227061, 39.8223087079]}, "type": "Feature", "properties": {"collection_times": [{"days": "Mon-Fri", "time": "2:00pm"}, {"days": "Sat", "time": "12:00pm"}, {"days": "Sun", "time": "Closed"}], "id": "4622200045", "name": "USPS COLLECTION BOX - BLUE BOX", "address": {"city": "INDIANAPOLIS", "state": "IN", "street": "3750 GUION RD", "postcode": "46222"}}},
{"geometry": {"type": "Point", "coordinates": [-86.2677198594, 39.8018932021]}, "type": "Feature", "properties": {"collection_times": [{"days": "Mon-Fri", "time": "5:00pm"}, {"days": "Sat", "time": "4:00pm"}, {"days": "Sun", "time": "Closed"}], "id": "4622400001", "name": "USPS COLLECTION BOX - BLUE BOX", "address": {"city": "INDIANAPOLIS", "state": "IN", "street": "6110 W 25TH ST", "postcode": "46224"}}},
{"geometry": {"type": "Point", "coordinates": [-86.2611219074, 39.7653152876]}, "type": "Feature", "properties": {"collection_times": [{"days": "Mon-Fri", "time": "2:00pm"}, {"days": "Sat", "time": "2:30pm"}, {"days": "Sun", "time": "Closed"}], "id": "4622400002", "name": "USPS COLLECTION BOX - BLUE BOX", "address": {"city": "INDIANAPOLIS", "state": "IN", "street": "9 BEACHWAY DR", "postcode": "46224"}}},
{"geometry": {"type": "Point", "coordinates": [-86.2588843389, 39.7883613345]}, "type": "Feature", "properties": {"collection_times": [{"days": "Mon-Sat", "time": "12:00pm"}, {"days": "Sun", "time": "Closed"}], "id": "4622400005", "name": "USPS COLLECTION BOX - BLUE BOX", "address": {"city": "INDIANAPOLIS", "state": "IN", "street": "1640 CUNNINGHAM RD", "postcode": "46224"}}},
{"geometry": {"type": "Point", "coordinates": [-86.2399640932, 39.8169475379]}, "type": "Feature", "properties": {"collection_times": [{"days": "Mon-Sat", "time": "2:00pm"}, {"days": "Sun", "time": "Closed"}], "id": "4622400007", "name": "USPS COLLECTION BOX - BLUE BOX", "address": {"city": "INDIANAPOLIS", "state": "IN", "street": "3401 GEORGETOWN RD", "postcode": "46224"}}},
{"geometry": {"type": "Point", "coordinates": [-86.2679868867, 39.773377201]}, "type": "Feature", "properties": {"collection_times": [{"days": "Mon-Sat", "time": "11:00am"}, {"days": "Sun", "time": "Closed"}], "id": "4622400009", "name": "USPS COLLECTION BOX - BLUE BOX", "address": {"city": "INDIANAPOLIS", "state": "IN", "street": "6202 W LAKE NORTH DR", "postcode": "46224"}}},
{"geometry": {"type": "Point", "coordinates": [-86.2699360869, 39.8093156348]}, "type": "Feature", "properties": {"collection_times": [{"days": "Mon-Fri", "time": "12:00pm"}, {"days": "Sat", "time": "12:30pm"}, {"days": "Sun", "time": "Closed"}], "id": "4622400010", "name": "USPS COLLECTION BOX - BLUE BOX", "address": {"city": "INDIANAPOLIS", "state": "IN", "street": "3001 N HIGH SCHOOL RD", "postcode": "46224"}}},
{"geometry": {"type": "Point", "coordinates": [-86.2501672727, 39.7661455554]}, "type": "Feature", "properties": {"collection_times": [{"days": "Mon-Fri", "time": "2:00pm"}, {"days": "Sat", "time": "2:30pm"}, {"days": "Sun", "time": "Closed"}], "id": "4622400014", "name": "USPS COLLECTION BOX - BLUE BOX", "address": {"city": "INDIANAPOLIS", "state": "IN", "street": "35 N LYNHURST DR", "postcode": "46224"}}},
{"geometry": {"type": "Point", "coordinates": [-86.0774574713, 39.7815498567]}, "type": "Feature", "properties": {"collection_times": [{"days": "Mon-Sat", "time": "11:00am"}, {"days": "Sun", "time": "Closed"}], "id": "4622400015", "name": "USPS COLLECTION BOX - BLUE BOX", "address": {"city": "INDIANAPOLIS", "state": "IN", "street": "5325 W 10TH ST", "postcode": "46224"}}},
{"geometry": {"type": "Point", "coordinates": [-86.2560738683, 39.8036864471]}, "type": "Feature", "properties": {"collection_times": [{"days": "Mon-Sat", "time": "12:00pm"}, {"days": "Sun", "time": "Closed"}], "id": "4622400020", "name": "USPS COLLECTION BOX - BLUE BOX", "address": {"city": "INDIANAPOLIS", "state": "IN", "street": "5504 MEADOWOOD DR", "postcode": "46224"}}},
{"geometry": {"type": "Point", "coordinates": [-86.2599111473, 39.7943317284]}, "type": "Feature", "properties": {"collection_times": [{"days": "Mon-Sat", "time": "12:00pm"}, {"days": "Sun", "time": "Closed"}], "id": "4622400023", "name": "USPS COLLECTION BOX - BLUE BOX", "address": {"city": "INDIANAPOLIS", "state": "IN", "street": "1980 PATTON DR", "postcode": "46224"}}},
{"geometry": {"type": "Point", "coordinates": [-86.2626094767, 39.8166707255]}, "type": "Feature", "properties": {"collection_times": [{"days": "Mon-Fri", "time": "12:00pm"}, {"days": "Sat", "time": "12:30pm"}, {"days": "Sun", "time": "Closed"}], "id": "4622400024", "name": "USPS COLLECTION BOX - BLUE BOX", "address": {"city": "INDIANAPOLIS", "state": "IN", "street": "3401 PATTON DR", "postcode": "46224"}}},
{"geometry": {"type": "Point", "coordinates": [-86.2672112778, 39.7998925818]}, "type": "Feature", "properties": {"collection_times": [{"days": "Mon-Sat", "time": "12:00pm"}, {"days": "Sun", "time": "Closed"}], "id": "4622400026", "name": "USPS COLLECTION BOX - BLUE BOX", "address": {"city": "INDIANAPOLIS", "state": "IN", "street": "6129 CRAWFORDSVILLE RD", "postcode": "46224"}}},
{"geometry": {"type": "Point", "coordinates": [-86.0794708675, 39.7888747387]}, "type": "Feature", "properties": {"collection_times": [{"days": "Mon-Sat", "time": "12:00pm"}, {"days": "Sun", "time": "Closed"}], "id": "4622400027", "name": "USPS COLLECTION BOX - BLUE BOX", "address": {"city": "INDIANAPOLIS", "state": "IN", "street": "5233 W 16TH ST", "postcode": "46224"}}},
{"geometry": {"type": "Point", "coordinates": [-86.2625026517, 39.7972319264]}, "type": "Feature", "properties": {"collection_times": [{"days": "Mon-Sat", "time": "12:00pm"}, {"days": "Sun", "time": "Closed"}], "id": "4622400028", "name": "USPS COLLECTION BOX - BLUE BOX", "address": {"city": "INDIANAPOLIS", "state": "IN", "street": "5816 CRAWFORDSVILLE RD", "postcode": "46224"}}},
{"geometry": {"type": "Point", "coordinates": [-86.2469433161, 39.7850974039]}, "type": "Feature", "properties": {"collection_times": [{"days": "Mon-Sat", "time": "12:00pm"}, {"days": "Sun", "time": "Closed"}], "id": "4622400029", "name": "USPS COLLECTION BOX - BLUE BOX", "address": {"city": "INDIANAPOLIS", "state": "IN", "street": "5111 W 14TH ST", "postcode": "46224"}}},
{"geometry": {"type": "Point", "coordinates": [-86.2469601125, 39.7963865281]}, "type": "Feature", "properties": {"collection_times": [{"days": "Mon-Sat", "time": "12:00pm"}, {"days": "Sun", "time": "Closed"}], "id": "4622400030", "name": "USPS COLLECTION BOX - BLUE BOX", "address": {"city": "INDIANAPOLIS", "state": "IN", "street": "2137 WINTON AVE", "postcode": "46224"}}},
{"geometry": {"type": "Point", "coordinates": [-86.2650629336, 39.7795908767]}, "type": "Feature", "properties": {"collection_times": [{"days": "Mon-Fri", "time": "3:30pm"}, {"days": "Sat", "time": "2:30pm"}, {"days": "Sun", "time": "Closed"}], "id": "4622400031", "name": "USPS COLLECTION BOX - BLUE BOX", "address": {"city": "INDIANAPOLIS", "state": "IN", "street": "6029 W 10TH ST", "postcode": "46224"}}},
{"geometry": {"type": "Point", "coordinates": [-86.2677198594, 39.8018932021]}, "type": "Feature", "properties": {"collection_times": [{"days": "Mon-Fri", "time": "5:00pm"}, {"days": "Sat", "time": "1:00pm"}, {"days": "Sun", "time": "Closed"}], "id": "4622400035", "name": "USPS COLLECTION BOX - PO LOBBY", "address": {"city": "INDIANAPOLIS", "state": "IN", "street": "6110 W 25TH ST", "postcode": "46224"}}},
{"geometry": {"type": "Point", "coordinates": [-86.2677198594, 39.8018932021]}, "type": "Feature", "properties": {"collection_times": [{"days": "Mon-Fri", "time": "5:00pm"}, {"days": "Sat", "time": "4:00pm"}, {"days": "Sun", "time": "Closed"}], "id": "4622400038", "name": "USPS COLLECTION BOX - BLUE BOX", "address": {"city": "INDIANAPOLIS", "state": "IN", "street": "6110 W 25TH ST", "postcode": "46224"}}},
{"geometry": {"type": "Point", "coordinates": [-86.253140653, 39.7725003649]}, "type": "Feature", "properties": {"collection_times": [{"days": "Mon-Fri", "time": "2:00pm"}, {"days": "Sat", "time": "2:30pm"}, {"days": "Sun", "time": "Closed"}], "id": "4622400040", "name": "USPS COLLECTION BOX - BLUE BOX", "address": {"city": "INDIANAPOLIS", "state": "IN", "street": "5342 W VERMONT ST", "postcode": "46224"}}},
{"geometry": {"type": "Point", "coordinates": [-86.2688484023, 39.7777844984]}, "type": "Feature", "properties": {"collection_times": [{"days": "Mon-Fri", "time": "3:30pm"}, {"days": "Sat", "time": "2:30pm"}, {"days": "Sun", "time": "Closed"}], "id": "4622400043", "name": "USPS COLLECTION BOX - BLUE BOX", "address": {"city": "INDIANAPOLIS", "state": "IN", "street": "805 BEACHWAY DR", "postcode": "46224"}}},
{"geometry": {"type": "Point", "coordinates": [-86.15293, 39.75893]}, "type": "Feature", "properties": {"collection_times": [{"days": "Mon-Fri", "time": "10:45am"}, {"days": "Sat", "time": "11:00am"}, {"days": "Sun", "time": "Closed"}], "id": "4622500003", "name": "USPS COLLECTION BOX - BLUE BOX", "address": {"city": "INDIANAPOLIS", "state": "IN", "street": "599 S ALABAMA ST", "postcode": "46225"}}},
{"geometry": {"type": "Point", "coordinates": [-86.1495439317, 39.7482208242]}, "type": "Feature", "properties": {"collection_times": [{"days": "Mon-Sat", "time": "11:00am"}, {"days": "Sun", "time": "Closed"}], "id": "4622500012", "name": "USPS COLLECTION BOX - BLUE BOX", "address": {"city": "INDIANAPOLIS", "state": "IN", "street": "1398 S EAST ST", "postcode": "46225"}}},
{"geometry": {"type": "Point", "coordinates": [-86.1539800617, 39.7481945128]}, "type": "Feature", "properties": {"collection_times": [{"days": "Mon-Sat", "time": "10:45am"}, {"days": "Sun", "time": "Closed"}], "id": "4622500014", "name": "USPS COLLECTION BOX - BLUE BOX", "address": {"city": "INDIANAPOLIS", "state": "IN", "street": "202 TERRACE AVE", "postcode": "46225"}}},
{"geometry": {"type": "Point", "coordinates": [-86.158145035, 39.764489376]}, "type": "Feature", "properties": {"collection_times": [{"days": "Mon-Sat", "time": "11:00am"}, {"days": "Sun", "time": "Closed"}], "id": "4622500016", "name": "USPS COLLECTION BOX - BLUE BOX", "address": {"city": "INDIANAPOLIS", "state": "IN", "street": "141 S MERIDIAN ST", "postcode": "46225"}}},
{"geometry": {"type": "Point", "coordinates": [-86.15829305, 39.763354667]}, "type": "Feature", "properties": {"collection_times": [{"days": "Mon-Fri", "time": "2:00pm"}, {"days": "Sat", "time": "11:00am"}, {"days": "Sun", "time": "Closed"}], "id": "4622500022", "name": "USPS COLLECTION BOX - BLUE BOX", "address": {"city": "INDIANAPOLIS", "state": "IN", "street": "238 S MERIDIAN ST", "postcode": "46225"}}},
{"geometry": {"type": "Point", "coordinates": [-86.1532390056, 39.7298462693]}, "type": "Feature", "properties": {"collection_times": [{"days": "Mon-Fri", "time": "10:45am"}, {"days": "Sat", "time": "11:00am"}, {"days": "Sun", "time": "Closed"}], "id": "4622500027", "name": "USPS COLLECTION BOX - BLUE BOX", "address": {"city": "INDIANAPOLIS", "state": "IN", "street": "234 E SOUTHERN AVE", "postcode": "46225"}}},
{"geometry": {"type": "Point", "coordinates": [-86.161886493, 39.764332384]}, "type": "Feature", "properties": {"collection_times": [{"days": "Mon-Fri", "time": "2:00pm"}, {"days": "Sat-Sun", "time": "Closed"}], "id": "4622500034", "name": "USPS COLLECTION BOX - BLUE BOX", "address": {"city": "INDIANAPOLIS", "state": "IN", "street": "100 S CAPITOL AVE", "postcode": "46225"}}},
{"geometry": {"type": "Point", "coordinates": [-86.159105788, 39.763771419]}, "type": "Feature", "properties": {"collection_times": [{"days": "Mon-Fri", "time": "2:00pm"}, {"days": "Sat-Sun", "time": "Closed"}], "id": "4622500040", "name": "USPS COLLECTION BOX - BLUE BOX", "address": {"city": "INDIANAPOLIS", "state": "IN", "street": "233 S MCCREA ST", "postcode": "46225"}}},
{"geometry": {"type": "Point", "coordinates": [-86.154840053, 39.756398299]}, "type": "Feature", "properties": {"collection_times": [{"days": "Mon-Sat", "time": "11:00am"}, {"days": "Sun", "time": "Closed"}], "id": "4622500046", "name": "USPS COLLECTION BOX - BLUE BOX", "address": {"city": "INDIANAPOLIS", "state": "IN", "street": "307 E MCCARTY ST", "postcode": "46225"}}},
{"geometry": {"type": "Point", "coordinates": [-86.161997807, 39.761544341]}, "type": "Feature", "properties": {"collection_times": [{"days": "Mon-Fri", "time": "7:00pm"}, {"days": "Sat", "time": "6:00pm"}, {"days": "Sun", "time": "Closed"}], "id": "4622500047", "name": "USPS COLLECTION BOX - BLUE BOX", "address": {"city": "INDIANAPOLIS", "state": "IN", "street": "400 S CAPITOL AVE", "postcode": "46225"}}},
{"geometry": {"type": "Point", "coordinates": [-86.16017888, 39.761455142]}, "type": "Feature", "properties": {"collection_times": [{"days": "Mon-Fri", "time": "7:00pm"}, {"days": "Sat", "time": "6:00pm"}, {"days": "Sun", "time": "Closed"}], "id": "4622500048", "name": "USPS COLLECTION BOX - BLUE BOX", "address": {"city": "INDIANAPOLIS", "state": "IN", "street": "400 S ILLINOIS ST", "postcode": "46225"}}},
{"geometry": {"type": "Point", "coordinates": [-86.0250417425, 39.838622895]}, "type": "Feature", "properties": {"collection_times": [{"days": "Mon-Sat", "time": "5:00pm"}, {"days": "Sun", "time": "Closed"}], "id": "4622600001", "name": "USPS COLLECTION BOX - BLUE BOX", "address": {"city": "INDIANAPOLIS", "state": "IN", "street": "4430 MCCOY ST", "postcode": "46226"}}},
{"geometry": {"type": "Point", "coordinates": [-86.2648902216, 39.8237152461]}, "type": "Feature", "properties": {"collection_times": [{"days": "Mon-Fri", "time": "2:00pm"}, {"days": "Sat", "time": "3:00pm"}, {"days": "Sun", "time": "Closed"}], "id": "4622600004", "name": "USPS COLLECTION BOX - BLUE BOX", "address": {"city": "INDIANAPOLIS", "state": "IN", "street": "6002 E 38TH ST", "postcode": "46226"}}},
{"geometry": {"type": "Point", "coordinates": [-86.0907515642, 39.825966417]}, "type": "Feature", "properties": {"collection_times": [{"days": "Mon-Fri", "time": "1:30pm"}, {"days": "Sat", "time": "3:00pm"}, {"days": "Sun", "time": "Closed"}], "id": "4622600005", "name": "USPS COLLECTION BOX - BLUE BOX", "address": {"city": "INDIANAPOLIS", "state": "IN", "street": "3805 ARTHINGTON BLVD", "postcode": "46226"}}},
{"geometry": {"type": "Point", "coordinates": [-86.0417876272, 39.8567237357]}, "type": "Feature", "properties": {"collection_times": [{"days": "Mon-Fri", "time": "1:30pm"}, {"days": "Sat", "time": "12:00pm"}, {"days": "Sun", "time": "Closed"}], "id": "4622600007", "name": "USPS COLLECTION BOX - BLUE BOX", "address": {"city": "INDIANAPOLIS", "state": "IN", "street": "5680 CAITO DR", "postcode": "46226"}}},
{"geometry": {"type": "Point", "coordinates": [-86.0640817543, 39.8404186267]}, "type": "Feature", "properties": {"collection_times": [{"days": "Mon-Fri", "time": "2:00pm"}, {"days": "Sat", "time": "3:00pm"}, {"days": "Sun", "time": "Closed"}], "id": "4622600009", "name": "USPS COLLECTION BOX - BLUE BOX", "address": {"city": "INDIANAPOLIS", "state": "IN", "street": "6012 E 46TH ST", "postcode": "46226"}}},
{"geometry": {"type": "Point", "coordinates": [-86.0871181495, 39.8531042949]}, "type": "Feature", "properties": {"collection_times": [{"days": "Mon-Fri", "time": "1:30pm"}, {"days": "Sat", "time": "12:00pm"}, {"days": "Sun", "time": "Closed"}], "id": "4622600011", "name": "USPS COLLECTION BOX - BLUE BOX", "address": {"city": "INDIANAPOLIS", "state": "IN", "street": "5500 EMERSON WAY", "postcode": "46226"}}},
{"geometry": {"type": "Point", "coordinates": [-86.0541234942, 39.8551613001]}, "type": "Feature", "properties": {"collection_times": [{"days": "Mon-Fri", "time": "1:30pm"}, {"days": "Sat", "time": "12:00pm"}, {"days": "Sun", "time": "Closed"}], "id": "4622600013", "name": "USPS COLLECTION BOX - BLUE BOX", "address": {"city": "INDIANAPOLIS", "state": "IN", "street": "6630 E 56TH ST", "postcode": "46226"}}},
{"geometry": {"type": "Point", "coordinates": [-86.0272834683, 39.846719108]}, "type": "Feature", "properties": {"collection_times": [{"days": "Mon-Fri", "time": "3:30pm"}, {"days": "Sat", "time": "3:00pm"}, {"days": "Sun", "time": "Closed"}], "id": "4622600014", "name": "USPS COLLECTION BOX - BLUE BOX", "address": {"city": "INDIANAPOLIS", "state": "IN", "street": "5118 N FRANKLIN RD", "postcode": "46226"}}},
{"geometry": {"type": "Point", "coordinates": [-86.0163590971, 39.8166397439]}, "type": "Feature", "properties": {"collection_times": [{"days": "Mon-Fri", "time": "2:00pm"}, {"days": "Sat", "time": "3:30pm"}, {"days": "Sun", "time": "Closed"}], "id": "4622600021", "name": "USPS COLLECTION BOX - BLUE BOX", "address": {"city": "INDIANAPOLIS", "state": "IN", "street": "8630 E 33 RD ST", "postcode": "46226"}}},
{"geometry": {"type": "Point", "coordinates": [-86.0372109975, 39.8310619953]}, "type": "Feature", "properties": {"collection_times": [{"days": "Mon-Fri", "time": "2:00pm"}, {"days": "Sat", "time": "3:00pm"}, {"days": "Sun", "time": "Closed"}], "id": "4622600026", "name": "USPS COLLECTION BOX - BLUE BOX", "address": {"city": "INDIANAPOLIS", "state": "IN", "street": "4060 PENDLETON WAY", "postcode": "46226"}}},
{"geometry": {"type": "Point", "coordinates": [-86.0101636676, 39.8336473696]}, "type": "Feature", "properties": {"collection_times": [{"days": "Mon-Sat", "time": "11:00am"}, {"days": "Sun", "time": "Closed"}], "id": "4622600027", "name": "USPS COLLECTION BOX - BLUE BOX", "address": {"city": "INDIANAPOLIS", "state": "IN", "street": "4208 N POST RD", "postcode": "46226"}}},
{"geometry": {"type": "Point", "coordinates": [-86.0370653375, 39.8456319268]}, "type": "Feature", "properties": {"collection_times": [{"days": "Mon-Fri", "time": "2:00pm"}, {"days": "Sat", "time": "3:00pm"}, {"days": "Sun", "time": "Closed"}], "id": "4622600028", "name": "USPS COLLECTION BOX - BLUE BOX", "address": {"city": "INDIANAPOLIS", "state": "IN", "street": "7460 E 50TH ST", "postcode": "46226"}}},
{"geometry": {"type": "Point", "coordinates": [-86.0457186823, 39.811983842]}, "type": "Feature", "properties": {"collection_times": [{"days": "Mon-Fri", "time": "2:00pm"}, {"days": "Sat", "time": "2:30pm"}, {"days": "Sun", "time": "Closed"}], "id": "4622600029", "name": "USPS COLLECTION BOX - BLUE BOX", "address": {"city": "INDIANAPOLIS", "state": "IN", "street": "3030 N SHADELAND AVE", "postcode": "46226"}}},
{"geometry": {"type": "Point", "coordinates": [-86.046183325, 39.8398402644]}, "type": "Feature", "properties": {"collection_times": [{"days": "Mon-Fri", "time": "1:30pm"}, {"days": "Sat", "time": "2:30pm"}, {"days": "Sun", "time": "Closed"}], "id": "4622600030", "name": "USPS COLLECTION BOX - BLUE BOX", "address": {"city": "INDIANAPOLIS", "state": "IN", "street": "4550 N SHADELAND AVE", "postcode": "46226"}}},
{"geometry": {"type": "Point", "coordinates": [-86.0484004503, 39.8158462031]}, "type": "Feature", "properties": {"collection_times": [{"days": "Mon-Sat", "time": "11:00am"}, {"days": "Sun", "time": "Closed"}], "id": "4622600031", "name": "USPS COLLECTION BOX - BLUE BOX", "address": {"city": "INDIANAPOLIS", "state": "IN", "street": "6905 E 32ND ST", "postcode": "46226"}}},
{"geometry": {"type": "Point", "coordinates": [-86.0257343173, 39.8257524731]}, "type": "Feature", "properties": {"collection_times": [{"days": "Mon-Fri", "time": "2:00pm"}, {"days": "Sat", "time": "3:30pm"}, {"days": "Sun", "time": "Closed"}], "id": "4622600033", "name": "USPS COLLECTION BOX - BLUE BOX", "address": {"city": "INDIANAPOLIS", "state": "IN", "street": "8059 E 38TH ST", "postcode": "46226"}}},
{"geometry": {"type": "Point", "coordinates": [-86.0429192798, 39.8224836313]}, "type": "Feature", "properties": {"collection_times": [{"days": "Mon-Fri", "time": "1:30pm"}, {"days": "Sat", "time": "2:30pm"}, {"days": "Sun", "time": "Closed"}], "id": "4622600035", "name": "USPS COLLECTION BOX - BLUE BOX", "address": {"city": "INDIANAPOLIS", "state": "IN", "street": "7138 TWIN OAKS DR", "postcode": "46226"}}},
{"geometry": {"type": "Point", "coordinates": [-86.0482163939, 39.8367434144]}, "type": "Feature", "properties": {"collection_times": [{"days": "Mon-Fri", "time": "5:00pm"}, {"days": "Sat", "time": "4:45pm"}, {"days": "Sun", "time": "Closed"}], "id": "4622600039", "name": "USPS COLLECTION BOX - PO LOBBY", "address": {"city": "INDIANAPOLIS", "state": "IN", "street": "4430 MCCOY ST", "postcode": "46226"}}},
{"geometry": {"type": "Point", "coordinates": [-86.0250417425, 39.838622895]}, "type": "Feature", "properties": {"collection_times": [{"days": "Mon-Sat", "time": "5:00pm"}, {"days": "Sun", "time": "Closed"}], "id": "4622600047", "name": "USPS COLLECTION BOX - BLUE BOX", "address": {"city": "INDIANAPOLIS", "state": "IN", "street": "4430 MCCOY ST", "postcode": "46226"}}},
{"geometry": {"type": "Point", "coordinates": [-86.148960243, 39.7119339046]}, "type": "Feature", "properties": {"collection_times": [{"days": "Mon-Sat", "time": "11:00am"}, {"days": "Sun", "time": "Closed"}], "id": "4622700004", "name": "USPS COLLECTION BOX - BLUE BOX", "address": {"city": "INDIANAPOLIS", "state": "IN", "street": "3721 S EAST ST", "postcode": "46227"}}},
{"geometry": {"type": "Point", "coordinates": [-86.1487177364, 39.6897333137]}, "type": "Feature", "properties": {"collection_times": [{"days": "Mon-Fri", "time": "1:15pm"}, {"days": "Sat", "time": "11:00am"}, {"days": "Sun", "time": "Closed"}], "id": "4622700005", "name": "USPS COLLECTION BOX - BLUE BOX", "address": {"city": "INDIANAPOLIS", "state": "IN", "street": "5301 S EAST ST", "postcode": "46227"}}},
{"geometry": {"type": "Point", "coordinates": [-86.1345444975, 39.7083797183]}, "type": "Feature", "properties": {"collection_times": [{"days": "Mon-Sat", "time": "11:00am"}, {"days": "Sun", "time": "Closed"}], "id": "4622700009", "name": "USPS COLLECTION BOX - BLUE BOX", "address": {"city": "INDIANAPOLIS", "state": "IN", "street": "1400 E HANNA AVE", "postcode": "46227"}}},
{"geometry": {"type": "Point", "coordinates": [-86.125515399, 39.6383656179]}, "type": "Feature", "properties": {"collection_times": [{"days": "Mon-Fri", "time": "12:30pm"}, {"days": "Sat", "time": "11:00am"}, {"days": "Sun", "time": "Closed"}], "id": "4622700010", "name": "USPS COLLECTION BOX - BLUE BOX", "address": {"city": "INDIANAPOLIS", "state": "IN", "street": "8811 HARDEGAN ST", "postcode": "46227"}}},
{"geometry": {"type": "Point", "coordinates": [-86.148902278, 39.6904217958]}, "type": "Feature", "properties": {"collection_times": [{"days": "Mon-Sat", "time": "11:00am"}, {"days": "Sun", "time": "Closed"}], "id": "4622700011", "name": "USPS COLLECTION BOX - BLUE BOX", "address": {"city": "INDIANAPOLIS", "state": "IN", "street": "5226 S EAST ST", "postcode": "46227"}}},
{"geometry": {"type": "Point", "coordinates": [-86.1434353059, 39.7094936811]}, "type": "Feature", "properties": {"collection_times": [{"days": "Mon-Fri", "time": "1:00pm"}, {"days": "Sat", "time": "11:00am"}, {"days": "Sun", "time": "Closed"}], "id": "4622700012", "name": "USPS COLLECTION BOX - BLUE BOX", "address": {"city": "INDIANAPOLIS", "state": "IN", "street": "3906 MADISON AVE", "postcode": "46227"}}},
{"geometry": {"type": "Point", "coordinates": [-86.1490157554, 39.7044101979]}, "type": "Feature", "properties": {"collection_times": [{"days": "Mon-Fri", "time": "4:00pm"}, {"days": "Sat", "time": "11:00am"}, {"days": "Sun", "time": "Closed"}], "id": "4622700027", "name": "USPS COLLECTION BOX - BLUE BOX", "address": {"city": "INDIANAPOLIS", "state": "IN", "street": "4200 S EAST ST", "postcode": "46227"}}},
{"geometry": {"type": "Point", "coordinates": [-86.1116505856, 39.6939527266]}, "type": "Feature", "properties": {"collection_times": [{"days": "Mon-Fri", "time": "3:30pm"}, {"days": "Sat", "time": "11:00am"}, {"days": "Sun", "time": "Closed"}], "id": "4622700029", "name": "USPS COLLECTION BOX - BLUE BOX", "address": {"city": "INDIANAPOLIS", "state": "IN", "street": "3143 E THOMPSON RD", "postcode": "46227"}}},
{"geometry": {"type": "Point", "coordinates": [-86.1377559398, 39.6512175652]}, "type": "Feature", "properties": {"collection_times": [{"days": "Mon-Fri", "time": "12:30pm"}, {"days": "Sat", "time": "11:00am"}, {"days": "Sun", "time": "Closed"}], "id": "4622700030", "name": "USPS COLLECTION BOX - BLUE BOX", "address": {"city": "INDIANAPOLIS", "state": "IN", "street": "7901 US 31 S", "postcode": "46227"}}},
{"geometry": {"type": "Point", "coordinates": [-86.1215924873, 39.6488963873]}, "type": "Feature", "properties": {"collection_times": [{"days": "Mon-Fri", "time": "5:00pm"}, {"days": "Sat", "time": "11:00am"}, {"days": "Sun", "time": "Closed"}], "id": "4622700031", "name": "USPS COLLECTION BOX - BLUE BOX", "address": {"city": "INDIANAPOLIS", "state": "IN", "street": "8031 MADISON AVE", "postcode": "46227"}}},
{"geometry": {"type": "Point", "coordinates": [-86.1394362404, 39.6418341223]}, "type": "Feature", "properties": {"collection_times": [{"days": "Mon-Fri", "time": "11:30am"}, {"days": "Sat", "time": "11:00am"}, {"days": "Sun", "time": "Closed"}], "id": "4622700032", "name": "USPS COLLECTION BOX - BLUE BOX", "address": {"city": "INDIANAPOLIS", "state": "IN", "street": "8560 SHELBY ST", "postcode": "46227"}}},
{"geometry": {"type": "Point", "coordinates": [-86.1273899544, 39.666052801]}, "type": "Feature", "properties": {"collection_times": [{"days": "Mon-Fri", "time": "12:30pm"}, {"days": "Sat", "time": "11:00am"}, {"days": "Sun", "time": "Closed"}], "id": "4622700037", "name": "USPS COLLECTION BOX - BLUE BOX", "address": {"city": "INDIANAPOLIS", "state": "IN", "street": "6961 MADISON AVE", "postcode": "46227"}}},
{"geometry": {"type": "Point", "coordinates": [-86.1287411084, 39.6795882576]}, "type": "Feature", "properties": {"collection_times": [{"days": "Mon-Fri", "time": "5:30pm"}, {"days": "Sat", "time": "4:30pm"}, {"days": "Sun", "time": "Closed"}], "id": "4622700042", "name": "USPS COLLECTION BOX - BLUE BOX", "address": {"city": "INDIANAPOLIS", "state": "IN", "street": "1701 E EDGEWOOD AVE", "postcode": "46227"}}},
{"geometry": {"type": "Point", "coordinates": [-86.1287411084, 39.6795882576]}, "type": "Feature", "properties": {"collection_times": [{"days": "Mon-Fri", "time": "5:30pm"}, {"days": "Sat", "time": "4:30pm"}, {"days": "Sun", "time": "Closed"}], "id": "4622700045", "name": "USPS COLLECTION BOX - PO LOBBY", "address": {"city": "INDIANAPOLIS", "state": "IN", "street": "1701 E EDGEWOOD AVE", "postcode": "46227"}}},
{"geometry": {"type": "Point", "coordinates": [-86.1328784898, 39.6356011679]}, "type": "Feature", "properties": {"collection_times": [{"days": "Mon-Fri", "time": "12:30pm"}, {"days": "Sat", "time": "11:00am"}, {"days": "Sun", "time": "Closed"}], "id": "4622700047", "name": "USPS COLLECTION BOX - BLUE BOX", "address": {"city": "INDIANAPOLIS", "state": "IN", "street": "1550 E COUNTY LINE RD", "postcode": "46227"}}},
{"geometry": {"type": "Point", "coordinates": [-86.1287411084, 39.6795882576]}, "type": "Feature", "properties": {"collection_times": [{"days": "Mon-Fri", "time": "5:30pm"}, {"days": "Sat", "time": "4:30pm"}, {"days": "Sun", "time": "Closed"}], "id": "4622700056", "name": "USPS COLLECTION BOX - APC", "address": {"city": "INDIANAPOLIS", "state": "IN", "street": "1701 E EDGEWOOD AVE", "postcode": "46227"}}},
{"geometry": {"type": "Point", "coordinates": [-86.1490288546, 39.6756667487]}, "type": "Feature", "properties": {"collection_times": [{"days": "Mon-Fri", "time": "12:30pm"}, {"days": "Sat", "time": "11:00am"}, {"days": "Sun", "time": "Closed"}], "id": "4622700059", "name": "USPS COLLECTION BOX - BLUE BOX", "address": {"city": "INDIANAPOLIS", "state": "IN", "street": "6249 S EAST ST", "postcode": "46227"}}},
{"geometry": {"type": "Point", "coordinates": [-86.1377559398, 39.6512175652]}, "type": "Feature", "properties": {"collection_times": [{"days": "Mon-Fri", "time": "12:30pm"}, {"days": "Sat", "time": "11:00am"}, {"days": "Sun", "time": "Closed"}], "id": "4622700061", "name": "USPS COLLECTION BOX - BLUE BOX", "address": {"city": "INDIANAPOLIS", "state": "IN", "street": "7901 US 31 S", "postcode": "46227"}}},
{"geometry": {"type": "Point", "coordinates": [-86.2008069685, 39.86180061]}, "type": "Feature", "properties": {"collection_times": [{"days": "Mon-Fri", "time": "4:30pm"}, {"days": "Sat", "time": "2:00pm"}, {"days": "Sun", "time": "Closed"}], "id": "4622800002", "name": "USPS COLLECTION BOX - BLUE BOX", "address": {"city": "INDIANAPOLIS", "state": "IN", "street": "2216 W 60TH ST", "postcode": "46228"}}},
{"geometry": {"type": "Point", "coordinates": [-86.1975408188, 39.8407049027]}, "type": "Feature", "properties": {"collection_times": [{"days": "Mon-Fri", "time": "4:00pm"}, {"days": "Sat", "time": "2:00pm"}, {"days": "Sun", "time": "Closed"}], "id": "4622800003", "name": "USPS COLLECTION BOX - BLUE BOX", "address": {"city": "INDIANAPOLIS", "state": "IN", "street": "4901 KNOLLTON RD", "postcode": "46228"}}},
{"geometry": {"type": "Point", "coordinates": [-86.2003089351, 39.8486129938]}, "type": "Feature", "properties": {"collection_times": [{"days": "Mon-Fri", "time": "2:00pm"}, {"days": "Sat", "time": "11:00am"}, {"days": "Sun", "time": "Closed"}], "id": "4622800004", "name": "USPS COLLECTION BOX - BLUE BOX", "address": {"city": "INDIANAPOLIS", "state": "IN", "street": "4602 KESSLER BOULEVARD NORTH DR", "postcode": "46228"}}},
{"geometry": {"type": "Point", "coordinates": [-85.9599160438, 39.7763707878]}, "type": "Feature", "properties": {"collection_times": [{"days": "Mon-Fri", "time": "5:00pm"}, {"days": "Sat", "time": "4:30pm"}, {"days": "Sun", "time": "Closed"}], "id": "4622900001", "name": "USPS COLLECTION BOX - BLUE BOX", "address": {"city": "INDIANAPOLIS", "state": "IN", "street": "11600 E WASHINGTON ST", "postcode": "46229"}}},
{"geometry": {"type": "Point", "coordinates": [-85.9905664366, 39.7970746649]}, "type": "Feature", "properties": {"collection_times": [{"days": "Mon-Fri", "time": "1:30pm"}, {"days": "Sat", "time": "2:00pm"}, {"days": "Sun", "time": "Closed"}], "id": "4622900002", "name": "USPS COLLECTION BOX - BLUE BOX", "address": {"city": "INDIANAPOLIS", "state": "IN", "street": "2102 N MITTHOEFFER RD", "postcode": "46229"}}},
{"geometry": {"type": "Point", "coordinates": [-85.9897954802, 39.7748625897]}, "type": "Feature", "properties": {"collection_times": [{"days": "Mon-Sat", "time": "3:30pm"}, {"days": "Sun", "time": "Closed"}], "id": "4622900003", "name": "USPS COLLECTION BOX - BLUE BOX", "address": {"city": "INDIANAPOLIS", "state": "IN", "street": "10001 E WASHINGTON ST", "postcode": "46229"}}},
{"geometry": {"type": "Point", "coordinates": [-85.9995058874, 39.7743384181]}, "type": "Feature", "properties": {"collection_times": [{"days": "Mon-Sat", "time": "3:30pm"}, {"days": "Sun", "time": "Closed"}], "id": "4622900004", "name": "USPS COLLECTION BOX - BLUE BOX", "address": {"city": "INDIANAPOLIS", "state": "IN", "street": "9455 E WASHINGTON ST", "postcode": "46229"}}},
{"geometry": {"type": "Point", "coordinates": [-85.9858776931, 39.7752102854]}, "type": "Feature", "properties": {"collection_times": [{"days": "Mon-Fri", "time": "1:30pm"}, {"days": "Sat", "time": "2:00pm"}, {"days": "Sun", "time": "Closed"}], "id": "4622900006", "name": "USPS COLLECTION BOX - BLUE BOX", "address": {"city": "INDIANAPOLIS", "state": "IN", "street": "10202 E WASHINGTON ST", "postcode": "46229"}}},
{"geometry": {"type": "Point", "coordinates": [-85.9874685999, 39.7823554518]}, "type": "Feature", "properties": {"collection_times": [{"days": "Mon-Fri", "time": "1:30pm"}, {"days": "Sat", "time": "2:00pm"}, {"days": "Sun", "time": "Closed"}], "id": "4622900011", "name": "USPS COLLECTION BOX - BLUE BOX", "address": {"city": "INDIANAPOLIS", "state": "IN", "street": "10122 E 10TH ST", "postcode": "46229"}}},
{"geometry": {"type": "Point", "coordinates": [-85.9599160438, 39.7763707878]}, "type": "Feature", "properties": {"collection_times": [{"days": "Mon-Fri", "time": "4:45pm"}, {"days": "Sat", "time": "3:00pm"}, {"days": "Sun", "time": "Closed"}], "id": "4622900012", "name": "USPS COLLECTION BOX - PO LOBBY", "address": {"city": "INDIANAPOLIS", "state": "IN", "street": "11600 E WASHINGTON ST", "postcode": "46229"}}},
{"geometry": {"type": "Point", "coordinates": [-86.2941986543, 39.7393370117]}, "type": "Feature", "properties": {"collection_times": [{"days": "Mon-Fri", "time": "4:00pm"}, {"days": "Sat", "time": "12:00pm"}, {"days": "Sun", "time": "Closed"}], "id": "4623100001", "name": "USPS COLLECTION BOX - BLUE BOX", "address": {"city": "INDIANAPOLIS", "state": "IN", "street": "7610 W WASHINGTON ST", "postcode": "46231"}}},
{"geometry": {"type": "Point", "coordinates": [-86.322302769, 39.8121979576]}, "type": "Feature", "properties": {"collection_times": [{"days": "Mon-Fri", "time": "4:30pm"}, {"days": "Sat", "time": "4:00pm"}, {"days": "Sun", "time": "Closed"}], "id": "4623400001", "name": "USPS COLLECTION BOX - BLUE BOX", "address": {"city": "INDIANAPOLIS", "state": "IN", "street": "3239 TANSEL RD", "postcode": "46234"}}},
{"geometry": {"type": "Point", "coordinates": [-86.326395807, 39.7786575221]}, "type": "Feature", "properties": {"collection_times": [{"days": "Mon-Fri", "time": "4:00pm"}, {"days": "Sat", "time": "3:00pm"}, {"days": "Sun", "time": "Closed"}], "id": "4623400008", "name": "USPS COLLECTION BOX - BLUE BOX", "address": {"city": "INDIANAPOLIS", "state": "IN", "street": "9255 W 10TH ST", "postcode": "46234"}}},
{"geometry": {"type": "Point", "coordinates": [-86.3075485116, 39.7888477387]}, "type": "Feature", "properties": {"collection_times": [{"days": "Mon-Fri", "time": "4:00pm"}, {"days": "Sat", "time": "3:00pm"}, {"days": "Sun", "time": "Closed"}], "id": "4623400009", "name": "USPS COLLECTION BOX - BLUE BOX", "address": {"city": "INDIANAPOLIS", "state": "IN", "street": "1755 COUNTRY CLUB RD", "postcode": "46234"}}},
{"geometry": {"type": "Point", "coordinates": [-86.322302769, 39.8121979576]}, "type": "Feature", "properties": {"collection_times": [{"days": "Mon-Fri", "time": "4:15pm"}, {"days": "Sat", "time": "2:00pm"}, {"days": "Sun", "time": "Closed"}], "id": "4623400010", "name": "USPS COLLECTION BOX - PO LOBBY", "address": {"city": "INDIANAPOLIS", "state": "IN", "street": "3239 TANSEL RD", "postcode": "46234"}}},
{"geometry": {"type": "Point", "coordinates": [-86.322302769, 39.8121979576]}, "type": "Feature", "properties": {"collection_times": [{"days": "Mon-Fri", "time": "4:15pm"}, {"days": "Sat", "time": "2:00pm"}, {"days": "Sun", "time": "Closed"}], "id": "4623400011", "name": "USPS COLLECTION BOX - PO LOBBY", "address": {"city": "INDIANAPOLIS", "state": "IN", "street": "3239 TANSEL RD", "postcode": "46234"}}},
{"geometry": {"type": "Point", "coordinates": [-85.9916834827, 39.8336379059]}, "type": "Feature", "properties": {"collection_times": [{"days": "Mon-Fri", "time": "2:00pm"}, {"days": "Sat", "time": "4:00pm"}, {"days": "Sun", "time": "Closed"}], "id": "4623500001", "name": "USPS COLLECTION BOX - BLUE BOX", "address": {"city": "INDIANAPOLIS", "state": "IN", "street": "9950 E 42ND ST", "postcode": "46235"}}},
{"geometry": {"type": "Point", "coordinates": [-86.0075942808, 39.816597382]}, "type": "Feature", "properties": {"collection_times": [{"days": "Mon-Sat", "time": "10:00am"}, {"days": "Sun", "time": "Closed"}], "id": "4623500002", "name": "USPS COLLECTION BOX - BLUE BOX", "address": {"city": "INDIANAPOLIS", "state": "IN", "street": "9150 E 33RD ST", "postcode": "46235"}}},
{"geometry": {"type": "Point", "coordinates": [-85.9929102111, 39.8204230713]}, "type": "Feature", "properties": {"collection_times": [{"days": "Mon-Sat", "time": "11:00am"}, {"days": "Sun", "time": "Closed"}], "id": "4623500003", "name": "USPS COLLECTION BOX - BLUE BOX", "address": {"city": "INDIANAPOLIS", "state": "IN", "street": "9949 PARK DAVIS DR", "postcode": "46235"}}},
{"geometry": {"type": "Point", "coordinates": [-85.9811137443, 39.8620963497]}, "type": "Feature", "properties": {"collection_times": [{"days": "Mon-Sat", "time": "1:15pm"}, {"days": "Sun", "time": "Closed"}], "id": "4623600005", "name": "USPS COLLECTION BOX - BLUE BOX", "address": {"city": "INDIANAPOLIS", "state": "IN", "street": "5841 THUNDERBIRD RD", "postcode": "46236"}}},
{"geometry": {"type": "Point", "coordinates": [-85.951265439, 39.8768205564]}, "type": "Feature", "properties": {"collection_times": [{"days": "Mon-Fri", "time": "5:00pm"}, {"days": "Sat", "time": "4:00pm"}, {"days": "Sun", "time": "Closed"}], "id": "4623600011", "name": "USPS COLLECTION BOX - BLUE BOX", "address": {"city": "INDIANAPOLIS", "state": "IN", "street": "12125 E 65TH ST", "postcode": "46236"}}},
{"geometry": {"type": "Point", "coordinates": [-85.9593354698, 39.9022921124]}, "type": "Feature", "properties": {"collection_times": [{"days": "Mon-Sat", "time": "1:00pm"}, {"days": "Sun", "time": "Closed"}], "id": "4623600012", "name": "USPS COLLECTION BOX - BLUE BOX", "address": {"city": "INDIANAPOLIS", "state": "IN", "street": "11715 FOX RD", "postcode": "46236"}}},
{"geometry": {"type": "Point", "coordinates": [-85.9712620621, 39.8631231581]}, "type": "Feature", "properties": {"collection_times": [{"days": "Mon-Sat", "time": "1:15pm"}, {"days": "Sun", "time": "Closed"}], "id": "4623600016", "name": "USPS COLLECTION BOX - BLUE BOX", "address": {"city": "INDIANAPOLIS", "state": "IN", "street": "11101 PENDLETON PIKE", "postcode": "46236"}}},
{"geometry": {"type": "Point", "coordinates": [-85.951265439, 39.8768205564]}, "type": "Feature", "properties": {"collection_times": [{"days": "Mon-Fri", "time": "5:00pm"}, {"days": "Sat", "time": "1:00pm"}, {"days": "Sun", "time": "Closed"}], "id": "4623600017", "name": "USPS COLLECTION BOX - PO LOBBY", "address": {"city": "INDIANAPOLIS", "state": "IN", "street": "12125 E 65TH ST", "postcode": "46236"}}},
{"geometry": {"type": "Point", "coordinates": [-85.951265439, 39.8768205564]}, "type": "Feature", "properties": {"collection_times": [{"days": "Mon-Fri", "time": "5:00pm"}, {"days": "Sat", "time": "1:00pm"}, {"days": "Sun", "time": "Closed"}], "id": "4623600018", "name": "USPS COLLECTION BOX - PO LOBBY", "address": {"city": "INDIANAPOLIS", "state": "IN", "street": "12125 E 65TH ST", "postcode": "46236"}}},
{"geometry": {"type": "Point", "coordinates": [-85.9593354698, 39.9022921124]}, "type": "Feature", "properties": {"collection_times": [{"days": "Mon-Sat", "time": "1:00pm"}, {"days": "Sun", "time": "Closed"}], "id": "4623600019", "name": "USPS COLLECTION BOX - BLUE BOX", "address": {"city": "INDIANAPOLIS", "state": "IN", "street": "11715 FOX RD", "postcode": "46236"}}},
{"geometry": {"type": "Point", "coordinates": [-86.0819195925, 39.6537891056]}, "type": "Feature", "properties": {"collection_times": [{"days": "Mon-Fri", "time": "2:30pm"}, {"days": "Sat", "time": "11:00am"}, {"days": "Sun", "time": "Closed"}], "id": "4623700003", "name": "USPS COLLECTION BOX - BLUE BOX", "address": {"city": "INDIANAPOLIS", "state": "IN", "street": "5110 COMMERCE SQUARE DR", "postcode": "46237"}}},
{"geometry": {"type": "Point", "coordinates": [-86.0999171302, 39.6653560783]}, "type": "Feature", "properties": {"collection_times": [{"days": "Mon-Fri", "time": "2:30pm"}, {"days": "Sat", "time": "11:00am"}, {"days": "Sun", "time": "Closed"}], "id": "4623700006", "name": "USPS COLLECTION BOX - BLUE BOX", "address": {"city": "INDIANAPOLIS", "state": "IN", "street": "3830 E SOUTHPORT RD", "postcode": "46237"}}},
{"geometry": {"type": "Point", "coordinates": [-86.096752715, 39.6669400604]}, "type": "Feature", "properties": {"collection_times": [{"days": "Mon-Fri", "time": "2:30pm"}, {"days": "Sat", "time": "11:00am"}, {"days": "Sun", "time": "Closed"}], "id": "4623700008", "name": "USPS COLLECTION BOX - BLUE BOX", "address": {"city": "INDIANAPOLIS", "state": "IN", "street": "6900 GRAY RD", "postcode": "46237"}}},
{"geometry": {"type": "Point", "coordinates": [-86.081502008, 39.6945763477]}, "type": "Feature", "properties": {"collection_times": [{"days": "Mon-Fri", "time": "3:30pm"}, {"days": "Sat", "time": "11:00am"}, {"days": "Sun", "time": "Closed"}], "id": "4623700010", "name": "USPS COLLECTION BOX - BLUE BOX", "address": {"city": "INDIANAPOLIS", "state": "IN", "street": "5101 E THOMPSON RD", "postcode": "46237"}}},
{"geometry": {"type": "Point", "coordinates": [-86.0785517084, 39.651239829]}, "type": "Feature", "properties": {"collection_times": [{"days": "Mon-Fri", "time": "2:30pm"}, {"days": "Sat", "time": "11:00am"}, {"days": "Sun", "time": "Closed"}], "id": "4623700013", "name": "USPS COLLECTION BOX - BLUE BOX", "address": {"city": "INDIANAPOLIS", "state": "IN", "street": "5255 E STOP 11 RD", "postcode": "46237"}}},
{"geometry": {"type": "Point", "coordinates": [-86.0262045912, 39.7140052658]}, "type": "Feature", "properties": {"collection_times": [{"days": "Mon-Fri", "time": "5:00pm"}, {"days": "Sat", "time": "4:00pm"}, {"days": "Sun", "time": "Closed"}], "id": "4623900001", "name": "USPS COLLECTION BOX - BLUE BOX", "address": {"city": "INDIANAPOLIS", "state": "IN", "street": "7950 SOUTHEASTERN AVE", "postcode": "46239"}}},
{"geometry": {"type": "Point", "coordinates": [-86.0445487359, 39.749283468]}, "type": "Feature", "properties": {"collection_times": [{"days": "Mon-Fri", "time": "11:00am"}, {"days": "Sat", "time": "12:00pm"}, {"days": "Sun", "time": "Closed"}], "id": "4623900003", "name": "USPS COLLECTION BOX - BLUE BOX", "address": {"city": "INDIANAPOLIS", "state": "IN", "street": "1350 BROOKVILLE WAY", "postcode": "46239"}}},
{"geometry": {"type": "Point", "coordinates": [-86.0098702938, 39.7045546066]}, "type": "Feature", "properties": {"collection_times": [{"days": "Mon-Fri", "time": "11:30am"}, {"days": "Sat", "time": "12:00pm"}, {"days": "Sun", "time": "Closed"}], "id": "4623900004", "name": "USPS COLLECTION BOX - BLUE BOX", "address": {"city": "INDIANAPOLIS", "state": "IN", "street": "8858 SOUTHEASTERN AVE", "postcode": "46239"}}},
{"geometry": {"type": "Point", "coordinates": [-86.0262045912, 39.7140052658]}, "type": "Feature", "properties": {"collection_times": [{"days": "Mon-Fri", "time": "4:45pm"}, {"days": "Sat", "time": "4:00pm"}, {"days": "Sun", "time": "Closed"}], "id": "4623900005", "name": "USPS COLLECTION BOX - PO LOBBY", "address": {"city": "INDIANAPOLIS", "state": "IN", "street": "7950 SOUTHEASTERN AVE", "postcode": "46239"}}},
{"geometry": {"type": "Point", "coordinates": [-86.0363438429, 39.7521495153]}, "type": "Feature", "properties": {"collection_times": [{"days": "Mon-Fri", "time": "11:00am"}, {"days": "Sat", "time": "12:00pm"}, {"days": "Sun", "time": "Closed"}], "id": "4623900009", "name": "USPS COLLECTION BOX - BLUE BOX", "address": {"city": "INDIANAPOLIS", "state": "IN", "street": "7402 BROOKVILLE RD", "postcode": "46239"}}},
{"geometry": {"type": "Point", "coordinates": [-86.0262045912, 39.7140052658]}, "type": "Feature", "properties": {"collection_times": [{"days": "Mon-Fri", "time": "4:45pm"}, {"days": "Sat", "time": "4:00pm"}, {"days": "Sun", "time": "Closed"}], "id": "4623900010", "name": "USPS COLLECTION BOX - PO LOBBY", "address": {"city": "INDIANAPOLIS", "state": "IN", "street": "7950 SOUTHEASTERN AVE", "postcode": "46239"}}},
{"geometry": {"type": "Point", "coordinates": [-86.0082921833, 39.7180674711]}, "type": "Feature", "properties": {"collection_times": [{"days": "Mon-Fri", "time": "11:00am"}, {"days": "Sat", "time": "12:00pm"}, {"days": "Sun", "time": "Closed"}], "id": "4623900011", "name": "USPS COLLECTION BOX - BLUE BOX", "address": {"city": "INDIANAPOLIS", "state": "IN", "street": "3511 S POST RD", "postcode": "46239"}}},
{"geometry": {"type": "Point", "coordinates": [-86.1383090188, 39.9126309274]}, "type": "Feature", "properties": {"collection_times": [{"days": "Mon-Fri", "time": "5:00pm"}, {"days": "Sat", "time": "4:00pm"}, {"days": "Sun", "time": "Closed"}], "id": "4624000001", "name": "USPS COLLECTION BOX - BLUE BOX", "address": {"city": "INDIANAPOLIS", "state": "IN", "street": "1300 E 86TH ST", "postcode": "46240"}}},
{"geometry": {"type": "Point", "coordinates": [-86.1020983363, 39.9089339193]}, "type": "Feature", "properties": {"collection_times": [{"days": "Mon-Fri", "time": "1:00pm"}, {"days": "Sat", "time": "3:00pm"}, {"days": "Sun", "time": "Closed"}], "id": "4624000002", "name": "USPS COLLECTION BOX - BLUE BOX", "address": {"city": "INDIANAPOLIS", "state": "IN", "street": "3755 E 82ND ST", "postcode": "46240"}}},
{"geometry": {"type": "Point", "coordinates": [-86.1424374073, 39.9124904016]}, "type": "Feature", "properties": {"collection_times": [{"days": "Mon-Fri", "time": "4:00pm"}, {"days": "Sat", "time": "1:00pm"}, {"days": "Sun", "time": "Closed"}], "id": "4624000005", "name": "USPS COLLECTION BOX - BLUE BOX", "address": {"city": "INDIANAPOLIS", "state": "IN", "street": "911 E 86TH ST", "postcode": "46240"}}},
{"geometry": {"type": "Point", "coordinates": [-86.1143444978, 39.9103042935]}, "type": "Feature", "properties": {"collection_times": [{"days": "Mon-Fri", "time": "4:00pm"}, {"days": "Sat", "time": "1:00pm"}, {"days": "Sun", "time": "Closed"}], "id": "4624000012", "name": "USPS COLLECTION BOX - BLUE BOX", "address": {"city": "INDIANAPOLIS", "state": "IN", "street": "8445 KEYSTONE XING", "postcode": "46240"}}},
{"geometry": {"type": "Point", "coordinates": [-86.1114770052, 39.9106816574]}, "type": "Feature", "properties": {"collection_times": [{"days": "Mon-Fri", "time": "4:00pm"}, {"days": "Sat-Sun", "time": "Closed"}], "id": "4624000013", "name": "USPS COLLECTION BOX - BLUE BOX", "address": {"city": "INDIANAPOLIS", "state": "IN", "street": "8500 KEYSTONE XING", "postcode": "46240"}}},
{"geometry": {"type": "Point", "coordinates": [-86.1094328521, 39.9171169541]}, "type": "Feature", "properties": {"collection_times": [{"days": "Mon-Fri", "time": "4:00pm"}, {"days": "Sat-Sun", "time": "Closed"}], "id": "4624000015", "name": "USPS COLLECTION BOX - BLUE BOX", "address": {"city": "INDIANAPOLIS", "state": "IN", "street": "8888 KEYSTONE XING", "postcode": "46240"}}},
{"geometry": {"type": "Point", "coordinates": [-86.1095830879, 39.9171855658]}, "type": "Feature", "properties": {"collection_times": [{"days": "Mon-Fri", "time": "4:00pm"}, {"days": "Sat-Sun", "time": "Closed"}], "id": "4624000016", "name": "USPS COLLECTION BOX - BLUE BOX", "address": {"city": "INDIANAPOLIS", "state": "IN", "street": "8900 KEYSTONE XING", "postcode": "46240"}}},
{"geometry": {"type": "Point", "coordinates": [-86.1094025177, 39.9175190657]}, "type": "Feature", "properties": {"collection_times": [{"days": "Mon-Fri", "time": "4:00pm"}, {"days": "Sat-Sun", "time": "Closed"}], "id": "4624000019", "name": "USPS COLLECTION BOX - BLUE BOX", "address": {"city": "INDIANAPOLIS", "state": "IN", "street": "9200 KEYSTONE XING", "postcode": "46240"}}},
{"geometry": {"type": "Point", "coordinates": [-86.1045232994, 39.9234939972]}, "type": "Feature", "properties": {"collection_times": [{"days": "Mon-Fri", "time": "4:30pm"}, {"days": "Sat", "time": "3:00pm"}, {"days": "Sun", "time": "Closed"}], "id": "4624000021", "name": "USPS COLLECTION BOX - BLUE BOX", "address": {"city": "INDIANAPOLIS", "state": "IN", "street": "9265 COUNSELORS ROW", "postcode": "46240"}}},
{"geometry": {"type": "Point", "coordinates": [-86.1047052684, 39.9122153246]}, "type": "Feature", "properties": {"collection_times": [{"days": "Mon-Fri", "time": "1:00pm"}, {"days": "Sat-Sun", "time": "Closed"}], "id": "4624000022", "name": "USPS COLLECTION BOX - BLUE BOX", "address": {"city": "INDIANAPOLIS", "state": "IN", "street": "8555 RIVER RD", "postcode": "46240"}}},
{"geometry": {"type": "Point", "coordinates": [-86.1005157075, 39.9253136768]}, "type": "Feature", "properties": {"collection_times": [{"days": "Mon-Fri", "time": "4:30pm"}, {"days": "Sat", "time": "3:00pm"}, {"days": "Sun", "time": "Closed"}], "id": "4624000028", "name": "USPS COLLECTION BOX - BLUE BOX", "address": {"city": "INDIANAPOLIS", "state": "IN", "street": "9465 COUNSELORS ROW", "postcode": "46240"}}},
{"geometry": {"type": "Point", "coordinates": [-86.1245060005, 39.9126028654]}, "type": "Feature", "properties": {"collection_times": [{"days": "Mon-Fri", "time": "4:00pm"}, {"days": "Sat-Sun", "time": "Closed"}], "id": "4624000036", "name": "USPS COLLECTION BOX - BLUE BOX", "address": {"city": "INDIANAPOLIS", "state": "IN", "street": "8888 KEYSTONE XING", "postcode": "46240"}}},
{"geometry": {"type": "Point", "coordinates": [-86.1383090188, 39.9126309274]}, "type": "Feature", "properties": {"collection_times": [{"days": "Mon-Fri", "time": "5:00pm"}, {"days": "Sat", "time": "3:00pm"}, {"days": "Sun", "time": "Closed"}], "id": "4624000046", "name": "USPS COLLECTION BOX - PO LOBBY", "address": {"city": "INDIANAPOLIS", "state": "IN", "street": "1300 E 86TH ST", "postcode": "46240"}}},
{"geometry": {"type": "Point", "coordinates": [-86.0875589533, 39.9268016886]}, "type": "Feature", "properties": {"collection_times": [{"days": "Mon-Fri", "time": "2:00pm"}, {"days": "Sat", "time": "3:00pm"}, {"days": "Sun", "time": "Closed"}], "id": "4624000051", "name": "USPS COLLECTION BOX - BLUE BOX", "address": {"city": "INDIANAPOLIS", "state": "IN", "street": "4825 E 96TH ST", "postcode": "46240"}}},
{"geometry": {"type": "Point", "coordinates": [-86.1045232994, 39.9234939972]}, "type": "Feature", "properties": {"collection_times": [{"days": "Mon-Fri", "time": "4:30pm"}, {"days": "Sat", "time": "3:00pm"}, {"days": "Sun", "time": "Closed"}], "id": "4624000055", "name": "USPS COLLECTION BOX - BLUE BOX", "address": {"city": "INDIANAPOLIS", "state": "IN", "street": "9265 COUNSELORS ROW", "postcode": "46240"}}},
{"geometry": {"type": "Point", "coordinates": [-86.1383090188, 39.9126309274]}, "type": "Feature", "properties": {"collection_times": [{"days": "Mon-Fri", "time": "5:00pm"}, {"days": "Sat", "time": "3:00pm"}, {"days": "Sun", "time": "Closed"}], "id": "4624000059", "name": "USPS COLLECTION BOX - APC", "address": {"city": "INDIANAPOLIS", "state": "IN", "street": "1300 E 86TH ST", "postcode": "46240"}}},
{"geometry": {"type": "Point", "coordinates": [-86.1245060005, 39.9126028654]}, "type": "Feature", "properties": {"collection_times": [{"days": "Mon-Fri", "time": "4:00pm"}, {"days": "Sat-Sun", "time": "Closed"}], "id": "4624000061", "name": "USPS COLLECTION BOX - BLUE BOX", "address": {"city": "INDIANAPOLIS", "state": "IN", "street": "9000 KEYSTONE XING", "postcode": "46240"}}},
{"geometry": {"type": "Point", "coordinates": [-86.1383090188, 39.9126309274]}, "type": "Feature", "properties": {"collection_times": [{"days": "Mon-Fri", "time": "5:00pm"}, {"days": "Sat", "time": "4:00pm"}, {"days": "Sun", "time": "Closed"}], "id": "4624000062", "name": "USPS COLLECTION BOX - BLUE BOX", "address": {"city": "INDIANAPOLIS", "state": "IN", "street": "1300 E 86TH ST", "postcode": "46240"}}},
{"geometry": {"type": "Point", "coordinates": [-86.1432855888, 39.9271366166]}, "type": "Feature", "properties": {"collection_times": [{"days": "Mon-Fri", "time": "2:30pm"}, {"days": "Sat-Sun", "time": "Closed"}], "id": "4624000063", "name": "USPS COLLECTION BOX - BLUE BOX", "address": {"city": "INDIANAPOLIS", "state": "IN", "street": "800 E 96TH ST", "postcode": "46240"}}},
{"geometry": {"type": "Point", "coordinates": [-86.255076394, 39.7248317062]}, "type": "Feature", "properties": {"collection_times": [{"days": "Mon-Fri", "time": "5:00pm"}, {"days": "Sat", "time": "4:30pm"}, {"days": "Sun", "time": "Closed"}], "id": "4624100001", "name": "USPS COLLECTION BOX - BLUE BOX", "address": {"city": "INDIANAPOLIS", "state": "IN", "street": "2760 FORTUNE CIR E", "postcode": "46241"}}},
{"geometry": {"type": "Point", "coordinates": [-86.2326261988, 39.7417208114]}, "type": "Feature", "properties": {"collection_times": [{"days": "Mon-Sat", "time": "11:00am"}, {"days": "Sun", "time": "Closed"}], "id": "4624100017", "name": "USPS COLLECTION BOX - BLUE BOX", "address": {"city": "INDIANAPOLIS", "state": "IN", "street": "1712 STOUT FIELD TER", "postcode": "46241"}}},
{"geometry": {"type": "Point", "coordinates": [-86.2158199007, 39.7275986472]}, "type": "Feature", "properties": {"collection_times": [{"days": "Mon-Sat", "time": "11:00am"}, {"days": "Sun", "time": "Closed"}], "id": "4624100018", "name": "USPS COLLECTION BOX - BLUE BOX", "address": {"city": "INDIANAPOLIS", "state": "IN", "street": "2701 S TIBBS AVE", "postcode": "46241"}}},
{"geometry": {"type": "Point", "coordinates": [-86.2354902696, 39.7573044595]}, "type": "Feature", "properties": {"collection_times": [{"days": "Mon-Fri", "time": "12:00pm"}, {"days": "Sat", "time": "11:00am"}, {"days": "Sun", "time": "Closed"}], "id": "4624100019", "name": "USPS COLLECTION BOX - BLUE BOX", "address": {"city": "INDIANAPOLIS", "state": "IN", "street": "4301 W WASHINGTON ST", "postcode": "46241"}}},
{"geometry": {"type": "Point", "coordinates": [-86.2465824149, 39.7539011478]}, "type": "Feature", "properties": {"collection_times": [{"days": "Mon-Fri", "time": "12:00pm"}, {"days": "Sat", "time": "11:00am"}, {"days": "Sun", "time": "Closed"}], "id": "4624100020", "name": "USPS COLLECTION BOX - BLUE BOX", "address": {"city": "INDIANAPOLIS", "state": "IN", "street": "5143 W WASHINGTON ST", "postcode": "46241"}}},
{"geometry": {"type": "Point", "coordinates": [-86.2512752998, 39.7524389971]}, "type": "Feature", "properties": {"collection_times": [{"days": "Mon-Fri", "time": "12:00pm"}, {"days": "Sat", "time": "11:00am"}, {"days": "Sun", "time": "Closed"}], "id": "4624100021", "name": "USPS COLLECTION BOX - BLUE BOX", "address": {"city": "INDIANAPOLIS", "state": "IN", "street": "5331 W WASHINGTON ST", "postcode": "46241"}}},
{"geometry": {"type": "Point", "coordinates": [-86.255076394, 39.7248317062]}, "type": "Feature", "properties": {"collection_times": [{"days": "Mon-Fri", "time": "5:00pm"}, {"days": "Sat", "time": "2:00pm"}, {"days": "Sun", "time": "Closed"}], "id": "4624100038", "name": "USPS COLLECTION BOX - PO LOBBY", "address": {"city": "INDIANAPOLIS", "state": "IN", "street": "2760 FORTUNE CIR E", "postcode": "46241"}}},
{"geometry": {"type": "Point", "coordinates": [-86.255076394, 39.7248317062]}, "type": "Feature", "properties": {"collection_times": [{"days": "Mon-Fri", "time": "5:00pm"}, {"days": "Sat", "time": "2:00pm"}, {"days": "Sun", "time": "Closed"}], "id": "4624100041", "name": "USPS COLLECTION BOX - APC", "address": {"city": "INDIANAPOLIS", "state": "IN", "street": "2760 FORTUNE CIR E", "postcode": "46241"}}},
{"geometry": {"type": "Point", "coordinates": [-86.2942725563, 39.6792653098]}, "type": "Feature", "properties": {"collection_times": [{"days": "Mon-Fri", "time": "1:00pm"}, {"days": "Sat", "time": "12:00pm"}, {"days": "Sun", "time": "Closed"}], "id": "4624100047", "name": "USPS COLLECTION BOX - BLUE BOX", "address": {"city": "INDIANAPOLIS", "state": "IN", "street": "5757 DECATUR BLVD", "postcode": "46241"}}},
{"geometry": {"type": "Point", "coordinates": [-86.01205821, 39.855163924]}, "type": "Feature", "properties": {"collection_times": [{"days": "Mon-Sat", "time": "3:00pm"}, {"days": "Sun", "time": "Closed"}], "id": "4624900001", "name": "USPS COLLECTION BOX - BLUE BOX", "address": {"city": "INDIANAPOLIS", "state": "IN", "street": "8899 E 56TH ST", "postcode": "46249"}}},
{"geometry": {"type": "Point", "coordinates": [-86.074689687, 39.9128060625]}, "type": "Feature", "properties": {"collection_times": [{"days": "Mon-Sat", "time": "1:00pm"}, {"days": "Sun", "time": "Closed"}], "id": "4625000002", "name": "USPS COLLECTION BOX - BLUE BOX", "address": {"city": "INDIANAPOLIS", "state": "IN", "street": "8605 ALLISONVILLE RD", "postcode": "46250"}}},
{"geometry": {"type": "Point", "coordinates": [-86.0749472324, 39.9128618507]}, "type": "Feature", "properties": {"collection_times": [{"days": "Mon-Fri", "time": "3:30pm"}, {"days": "Sat", "time": "2:00pm"}, {"days": "Sun", "time": "Closed"}], "id": "4625000003", "name": "USPS COLLECTION BOX - BLUE BOX", "address": {"city": "INDIANAPOLIS", "state": "IN", "street": "8604 ALLISONVILLE RD", "postcode": "46250"}}},
{"geometry": {"type": "Point", "coordinates": [-86.0461043269, 39.886852132]}, "type": "Feature", "properties": {"collection_times": [{"days": "Mon-Fri", "time": "1:30pm"}, {"days": "Sat", "time": "12:00pm"}, {"days": "Sun", "time": "Closed"}], "id": "4625000005", "name": "USPS COLLECTION BOX - BLUE BOX", "address": {"city": "INDIANAPOLIS", "state": "IN", "street": "7222 N SHADELAND AVE", "postcode": "46250"}}},
{"geometry": {"type": "Point", "coordinates": [-86.0690307611, 39.9139134558]}, "type": "Feature", "properties": {"collection_times": [{"days": "Mon-Fri", "time": "3:30pm"}, {"days": "Sat", "time": "2:00pm"}, {"days": "Sun", "time": "Closed"}], "id": "4625000006", "name": "USPS COLLECTION BOX - BLUE BOX", "address": {"city": "INDIANAPOLIS", "state": "IN", "street": "8720 CASTLE CREEK PARKWAY EAST DR", "postcode": "46250"}}},
{"geometry": {"type": "Point", "coordinates": [-86.0547740495, 39.9051939087]}, "type": "Feature", "properties": {"collection_times": [{"days": "Mon-Fri", "time": "12:00pm"}, {"days": "Sat", "time": "2:00pm"}, {"days": "Sun", "time": "Closed"}], "id": "4625000007", "name": "USPS COLLECTION BOX - BLUE BOX", "address": {"city": "INDIANAPOLIS", "state": "IN", "street": "6525 E 82ND ST", "postcode": "46250"}}},
{"geometry": {"type": "Point", "coordinates": [-86.0643592912, 39.9053931729]}, "type": "Feature", "properties": {"collection_times": [{"days": "Mon-Fri", "time": "12:00pm"}, {"days": "Sat", "time": "2:00pm"}, {"days": "Sun", "time": "Closed"}], "id": "4625000010", "name": "USPS COLLECTION BOX - BLUE BOX", "address": {"city": "INDIANAPOLIS", "state": "IN", "street": "6020 E 82ND ST", "postcode": "46250"}}},
{"geometry": {"type": "Point", "coordinates": [-86.0616419215, 39.9003293997]}, "type": "Feature", "properties": {"collection_times": [{"days": "Mon-Fri", "time": "12:00pm"}, {"days": "Sat", "time": "2:00pm"}, {"days": "Sun", "time": "Closed"}], "id": "4625000011", "name": "USPS COLLECTION BOX - BLUE BOX", "address": {"city": "INDIANAPOLIS", "state": "IN", "street": "6220 CASTLEWAY WEST DR", "postcode": "46250"}}},
{"geometry": {"type": "Point", "coordinates": [-86.059344752, 39.890695947]}, "type": "Feature", "properties": {"collection_times": [{"days": "Mon-Sat", "time": "2:00pm"}, {"days": "Sun", "time": "Closed"}], "id": "4625000012", "name": "USPS COLLECTION BOX - BLUE BOX", "address": {"city": "INDIANAPOLIS", "state": "IN", "street": "6330 E 75TH ST", "postcode": "46250"}}},
{"geometry": {"type": "Point", "coordinates": [-86.0596657685, 39.9052601564]}, "type": "Feature", "properties": {"collection_times": [{"days": "Mon-Fri", "time": "12:00pm"}, {"days": "Sat", "time": "2:00pm"}, {"days": "Sun", "time": "Closed"}], "id": "4625000013", "name": "USPS COLLECTION BOX - BLUE BOX", "address": {"city": "INDIANAPOLIS", "state": "IN", "street": "6303 E 82ND ST", "postcode": "46250"}}},
{"geometry": {"type": "Point", "coordinates": [-86.0461055099, 39.887888404]}, "type": "Feature", "properties": {"collection_times": [{"days": "Mon-Fri", "time": "1:30pm"}, {"days": "Sat", "time": "12:00pm"}, {"days": "Sun", "time": "Closed"}], "id": "4625000014", "name": "USPS COLLECTION BOX - BLUE BOX", "address": {"city": "INDIANAPOLIS", "state": "IN", "street": "7400 N SHADELAND AVE", "postcode": "46250"}}},
{"geometry": {"type": "Point", "coordinates": [-86.0461469934, 39.8962587269]}, "type": "Feature", "properties": {"collection_times": [{"days": "Mon-Fri", "time": "2:00pm"}, {"days": "Sat", "time": "12:00pm"}, {"days": "Sun", "time": "Closed"}], "id": "4625000016", "name": "USPS COLLECTION BOX - BLUE BOX", "address": {"city": "INDIANAPOLIS", "state": "IN", "street": "6994 HILLSDALE CT", "postcode": "46250"}}},
{"geometry": {"type": "Point", "coordinates": [-86.0460253368, 39.8896822113]}, "type": "Feature", "properties": {"collection_times": [{"days": "Mon-Sat", "time": "12:00pm"}, {"days": "Sun", "time": "Closed"}], "id": "4625000025", "name": "USPS COLLECTION BOX - BLUE BOX", "address": {"city": "INDIANAPOLIS", "state": "IN", "street": "7437 N SHADELAND AVE", "postcode": "46250"}}},
{"geometry": {"type": "Point", "coordinates": [-86.0461055099, 39.887888404]}, "type": "Feature", "properties": {"collection_times": [{"days": "Mon-Fri", "time": "1:30pm"}, {"days": "Sat", "time": "12:00pm"}, {"days": "Sun", "time": "Closed"}], "id": "4625000031", "name": "USPS COLLECTION BOX - BLUE BOX", "address": {"city": "INDIANAPOLIS", "state": "IN", "street": "7400 N SHADELAND AVE", "postcode": "46250"}}},
{"geometry": {"type": "Point", "coordinates": [-86.0684597745, 39.9053510513]}, "type": "Feature", "properties": {"collection_times": [{"days": "Mon-Fri", "time": "12:00pm"}, {"days": "Sat", "time": "2:00pm"}, {"days": "Sun", "time": "Closed"}], "id": "4625000033", "name": "USPS COLLECTION BOX - BLUE BOX", "address": {"city": "INDIANAPOLIS", "state": "IN", "street": "6220 CASTLEWAY WEST DR", "postcode": "46250"}}},
{"geometry": {"type": "Point", "coordinates": [-86.0749472324, 39.9128618507]}, "type": "Feature", "properties": {"collection_times": [{"days": "Mon-Fri", "time": "3:30pm"}, {"days": "Sat", "time": "2:00pm"}, {"days": "Sun", "time": "Closed"}], "id": "4625000034", "name": "USPS COLLECTION BOX - BLUE BOX", "address": {"city": "INDIANAPOLIS", "state": "IN", "street": "8604 ALLISONVILLE RD", "postcode": "46250"}}},
{"geometry": {"type": "Point", "coordinates": [-86.0806230695, 39.9066181933]}, "type": "Feature", "properties": {"collection_times": [{"days": "Mon-Sat", "time": "2:00pm"}, {"days": "Sun", "time": "Closed"}], "id": "4625000038", "name": "USPS COLLECTION BOX - BLUE BOX", "address": {"city": "INDIANAPOLIS", "state": "IN", "street": "8275 ALLISON POINTE TRL", "postcode": "46250"}}},
{"geometry": {"type": "Point", "coordinates": [-86.0530763583, 39.8907092132]}, "type": "Feature", "properties": {"collection_times": [{"days": "Mon-Sat", "time": "2:00pm"}, {"days": "Sun", "time": "Closed"}], "id": "4625000040", "name": "USPS COLLECTION BOX - BLUE BOX", "address": {"city": "INDIANAPOLIS", "state": "IN", "street": "6626 E 75TH ST", "postcode": "46250"}}},
{"geometry": {"type": "Point", "coordinates": [-86.083090229, 39.9049675594]}, "type": "Feature", "properties": {"collection_times": [{"days": "Mon-Fri", "time": "4:00pm"}, {"days": "Sat", "time": "2:00pm"}, {"days": "Sun", "time": "Closed"}], "id": "4625000041", "name": "USPS COLLECTION BOX - BLUE BOX", "address": {"city": "INDIANAPOLIS", "state": "IN", "street": "5151 E 82ND ST", "postcode": "46250"}}},
{"geometry": {"type": "Point", "coordinates": [-86.0665529556, 39.9156595487]}, "type": "Feature", "properties": {"collection_times": [{"days": "Mon-Fri", "time": "3:30pm"}, {"days": "Sat", "time": "2:00pm"}, {"days": "Sun", "time": "Closed"}], "id": "4625000044", "name": "USPS COLLECTION BOX - BLUE BOX", "address": {"city": "INDIANAPOLIS", "state": "IN", "street": "5975 CASTLE CREEK PARKWAY NORTH DR", "postcode": "46250"}}},
{"geometry": {"type": "Point", "coordinates": [-86.0665529556, 39.9156595487]}, "type": "Feature", "properties": {"collection_times": [{"days": "Mon-Fri", "time": "3:30pm"}, {"days": "Sat", "time": "2:00pm"}, {"days": "Sun", "time": "Closed"}], "id": "4625000051", "name": "USPS COLLECTION BOX - BLUE BOX", "address": {"city": "INDIANAPOLIS", "state": "IN", "street": "5975 CASTLE CREEK PARKWAY NORTH DR", "postcode": "46250"}}},
{"geometry": {"type": "Point", "coordinates": [-86.2727829238, 39.8285937689]}, "type": "Feature", "properties": {"collection_times": [{"days": "Mon-Fri", "time": "5:00pm"}, {"days": "Sat", "time": "4:00pm"}, {"days": "Sun", "time": "Closed"}], "id": "4625400001", "name": "USPS COLLECTION BOX - BLUE BOX", "address": {"city": "INDIANAPOLIS", "state": "IN", "street": "6401 GATEWAY DR", "postcode": "46254"}}},
{"geometry": {"type": "Point", "coordinates": [-86.2818966553, 39.8262718466]}, "type": "Feature", "properties": {"collection_times": [{"days": "Mon-Fri", "time": "1:30pm"}, {"days": "Sat", "time": "1:00pm"}, {"days": "Sun", "time": "Closed"}], "id": "4625400002", "name": "USPS COLLECTION BOX - BLUE BOX", "address": {"city": "INDIANAPOLIS", "state": "IN", "street": "6920 PARKDALE PL", "postcode": "46254"}}},
{"geometry": {"type": "Point", "coordinates": [-86.240072094, 39.853939836]}, "type": "Feature", "properties": {"collection_times": [{"days": "Mon-Fri", "time": "1:00pm"}, {"days": "Sat", "time": "1:30pm"}, {"days": "Sun", "time": "Closed"}], "id": "4625400003", "name": "USPS COLLECTION BOX - BLUE BOX", "address": {"city": "INDIANAPOLIS", "state": "IN", "street": "5626 GEORGETOWN RD", "postcode": "46254"}}},
{"geometry": {"type": "Point", "coordinates": [-86.240072094, 39.853939836]}, "type": "Feature", "properties": {"collection_times": [{"days": "Mon-Fri", "time": "1:00pm"}, {"days": "Sat", "time": "1:30pm"}, {"days": "Sun", "time": "Closed"}], "id": "4625400004", "name": "USPS COLLECTION BOX - BLUE BOX", "address": {"city": "INDIANAPOLIS", "state": "IN", "street": "5626 GEORGETOWN RD", "postcode": "46254"}}},
{"geometry": {"type": "Point", "coordinates": [-86.2279736211, 39.826398197]}, "type": "Feature", "properties": {"collection_times": [{"days": "Mon-Fri", "time": "1:00pm"}, {"days": "Sat", "time": "11:00am"}, {"days": "Sun", "time": "Closed"}], "id": "4625400006", "name": "USPS COLLECTION BOX - BLUE BOX", "address": {"city": "INDIANAPOLIS", "state": "IN", "street": "3901 INDUSTRIAL BLVD", "postcode": "46254"}}},
{"geometry": {"type": "Point", "coordinates": [-86.2807680183, 39.8499618791]}, "type": "Feature", "properties": {"collection_times": [{"days": "Mon-Sat", "time": "2:00pm"}, {"days": "Sun", "time": "Closed"}], "id": "4625400008", "name": "USPS COLLECTION BOX - BLUE BOX", "address": {"city": "INDIANAPOLIS", "state": "IN", "street": "5483 HOLLY SPRINGS DR W", "postcode": "46254"}}},
{"geometry": {"type": "Point", "coordinates": [-86.2794749226, 39.8258481211]}, "type": "Feature", "properties": {"collection_times": [{"days": "Mon-Fri", "time": "1:30pm"}, {"days": "Sat", "time": "1:00pm"}, {"days": "Sun", "time": "Closed"}], "id": "4625400010", "name": "USPS COLLECTION BOX - BLUE BOX", "address": {"city": "INDIANAPOLIS", "state": "IN", "street": "6720 PARKDALE PL", "postcode": "46254"}}},
{"geometry": {"type": "Point", "coordinates": [-86.2399274215, 39.8417908591]}, "type": "Feature", "properties": {"collection_times": [{"days": "Mon-Fri", "time": "1:00pm"}, {"days": "Sat", "time": "1:30pm"}, {"days": "Sun", "time": "Closed"}], "id": "4625400011", "name": "USPS COLLECTION BOX - BLUE BOX", "address": {"city": "INDIANAPOLIS", "state": "IN", "street": "4708 RYDAL CT", "postcode": "46254"}}},
{"geometry": {"type": "Point", "coordinates": [-86.2534581061, 39.8280578885]}, "type": "Feature", "properties": {"collection_times": [{"days": "Mon-Fri", "time": "1:00pm"}, {"days": "Sat", "time": "1:30pm"}, {"days": "Sun", "time": "Closed"}], "id": "4625400012", "name": "USPS COLLECTION BOX - BLUE BOX", "address": {"city": "INDIANAPOLIS", "state": "IN", "street": "5349 W PIKE PLAZA RD", "postcode": "46254"}}},
{"geometry": {"type": "Point", "coordinates": [-86.2596579941, 39.8236915869]}, "type": "Feature", "properties": {"collection_times": [{"days": "Mon-Sat", "time": "1:30pm"}, {"days": "Sun", "time": "Closed"}], "id": "4625400013", "name": "USPS COLLECTION BOX - BLUE BOX", "address": {"city": "INDIANAPOLIS", "state": "IN", "street": "5615 W 38TH ST", "postcode": "46254"}}},
{"geometry": {"type": "Point", "coordinates": [-86.2814197072, 39.8232751854]}, "type": "Feature", "properties": {"collection_times": [{"days": "Mon-Fri", "time": "2:00pm"}, {"days": "Sat", "time": "1:30pm"}, {"days": "Sun", "time": "Closed"}], "id": "4625400016", "name": "USPS COLLECTION BOX - BLUE BOX", "address": {"city": "INDIANAPOLIS", "state": "IN", "street": "6965 W 38TH ST", "postcode": "46254"}}},
{"geometry": {"type": "Point", "coordinates": [-86.2369962146, 39.8262802545]}, "type": "Feature", "properties": {"collection_times": [{"days": "Mon-Fri", "time": "12:00pm"}, {"days": "Sat", "time": "11:00am"}, {"days": "Sun", "time": "Closed"}], "id": "4625400017", "name": "USPS COLLECTION BOX - BLUE BOX", "address": {"city": "INDIANAPOLIS", "state": "IN", "street": "3919 LAFAYETTE RD", "postcode": "46254"}}},
{"geometry": {"type": "Point", "coordinates": [-86.2727829238, 39.8285937689]}, "type": "Feature", "properties": {"collection_times": [{"days": "Mon-Fri", "time": "5:00pm"}, {"days": "Sat", "time": "4:00pm"}, {"days": "Sun", "time": "Closed"}], "id": "4625400019", "name": "USPS COLLECTION BOX - PO LOBBY", "address": {"city": "INDIANAPOLIS", "state": "IN", "street": "6401 GATEWAY DR", "postcode": "46254"}}},
{"geometry": {"type": "Point", "coordinates": [-86.2727829238, 39.8285937689]}, "type": "Feature", "properties": {"collection_times": [{"days": "Mon-Fri", "time": "4:30pm"}, {"days": "Sat", "time": "4:00pm"}, {"days": "Sun", "time": "Closed"}], "id": "4625400021", "name": "USPS COLLECTION BOX - BLUE BOX", "address": {"city": "INDIANAPOLIS", "state": "IN", "street": "6401 GATEWAY DR", "postcode": "46254"}}},
{"geometry": {"type": "Point", "coordinates": [-86.2727829238, 39.8285937689]}, "type": "Feature", "properties": {"collection_times": [{"days": "Mon-Fri", "time": "4:30pm"}, {"days": "Sat", "time": "1:00pm"}, {"days": "Sun", "time": "Closed"}], "id": "4625400024", "name": "USPS COLLECTION BOX - APC", "address": {"city": "INDIANAPOLIS", "state": "IN", "street": "6401 GATEWAY DR", "postcode": "46254"}}},
{"geometry": {"type": "Point", "coordinates": [-86.2621351101, 39.8517253485]}, "type": "Feature", "properties": {"collection_times": [{"days": "Mon-Fri", "time": "1:00pm"}, {"days": "Sat", "time": "2:00pm"}, {"days": "Sun", "time": "Closed"}], "id": "4625400027", "name": "USPS COLLECTION BOX - BLUE BOX", "address": {"city": "INDIANAPOLIS", "state": "IN", "street": "5510 LAFAYETTE RD", "postcode": "46254"}}},
{"geometry": {"type": "Point", "coordinates": [-86.0431895882, 39.913910554]}, "type": "Feature", "properties": {"collection_times": [{"days": "Mon-Fri", "time": "5:00pm"}, {"days": "Sat", "time": "2:00pm"}, {"days": "Sun", "time": "Closed"}], "id": "4625600001", "name": "USPS COLLECTION BOX - BLUE BOX", "address": {"city": "INDIANAPOLIS", "state": "IN", "street": "8710 BASH ST", "postcode": "46256"}}},
{"geometry": {"type": "Point", "coordinates": [-86.0266354875, 39.9234071846]}, "type": "Feature", "properties": {"collection_times": [{"days": "Mon-Fri", "time": "12:00pm"}, {"days": "Sat", "time": "1:00pm"}, {"days": "Sun", "time": "Closed"}], "id": "4625600002", "name": "USPS COLLECTION BOX - BLUE BOX", "address": {"city": "INDIANAPOLIS", "state": "IN", "street": "9339 CASTLEGATE DR", "postcode": "46256"}}},
{"geometry": {"type": "Point", "coordinates": [-85.9957361112, 39.8983244396]}, "type": "Feature", "properties": {"collection_times": [{"days": "Mon-Fri", "time": "12:00pm"}, {"days": "Sat", "time": "1:00pm"}, {"days": "Sun", "time": "Closed"}], "id": "4625600005", "name": "USPS COLLECTION BOX - BLUE BOX", "address": {"city": "INDIANAPOLIS", "state": "IN", "street": "9771 FALL CREEK RD", "postcode": "46256"}}},
{"geometry": {"type": "Point", "coordinates": [-86.0423681075, 39.8853466509]}, "type": "Feature", "properties": {"collection_times": [{"days": "Mon-Fri", "time": "1:30pm"}, {"days": "Sat", "time": "12:00pm"}, {"days": "Sun", "time": "Closed"}], "id": "4625600007", "name": "USPS COLLECTION BOX - BLUE BOX", "address": {"city": "INDIANAPOLIS", "state": "IN", "street": "7205 SHADELAND STA", "postcode": "46256"}}},
{"geometry": {"type": "Point", "coordinates": [-86.0431895882, 39.913910554]}, "type": "Feature", "properties": {"collection_times": [{"days": "Mon-Fri", "time": "5:00pm"}, {"days": "Sat", "time": "4:30pm"}, {"days": "Sun", "time": "Closed"}], "id": "4625600017", "name": "USPS COLLECTION BOX - PO LOBBY", "address": {"city": "INDIANAPOLIS", "state": "IN", "street": "8710 BASH ST", "postcode": "46256"}}},
{"geometry": {"type": "Point", "coordinates": [-86.0289691663, 39.9350080255]}, "type": "Feature", "properties": {"collection_times": [{"days": "Mon-Fri", "time": "12:00pm"}, {"days": "Sat", "time": "1:00pm"}, {"days": "Sun", "time": "Closed"}], "id": "4625600021", "name": "USPS COLLECTION BOX - BLUE BOX", "address": {"city": "INDIANAPOLIS", "state": "IN", "street": "9955 WESTPOINT DR", "postcode": "46256"}}},
{"geometry": {"type": "Point", "coordinates": [-86.0314900519, 39.916112622]}, "type": "Feature", "properties": {"collection_times": [{"days": "Mon-Fri", "time": "12:00pm"}, {"days": "Sat", "time": "1:00pm"}, {"days": "Sun", "time": "Closed"}], "id": "4625600023", "name": "USPS COLLECTION BOX - BLUE BOX", "address": {"city": "INDIANAPOLIS", "state": "IN", "street": "7770 E 88TH ST", "postcode": "46256"}}},
{"geometry": {"type": "Point", "coordinates": [-86.0431895882, 39.913910554]}, "type": "Feature", "properties": {"collection_times": [{"days": "Mon-Fri", "time": "5:00pm"}, {"days": "Sat", "time": "4:30pm"}, {"days": "Sun", "time": "Closed"}], "id": "4625600029", "name": "USPS COLLECTION BOX - APC", "address": {"city": "INDIANAPOLIS", "state": "IN", "street": "8710 BASH ST", "postcode": "46256"}}},
{"geometry": {"type": "Point", "coordinates": [-86.0423681075, 39.8853466509]}, "type": "Feature", "properties": {"collection_times": [{"days": "Mon-Fri", "time": "1:30pm"}, {"days": "Sat", "time": "12:00pm"}, {"days": "Sun", "time": "Closed"}], "id": "4625600030", "name": "USPS COLLECTION BOX - BLUE BOX", "address": {"city": "INDIANAPOLIS", "state": "IN", "street": "7205 SHADELAND STA", "postcode": "46256"}}},
{"geometry": {"type": "Point", "coordinates": [-85.9679950598, 39.6556813689]}, "type": "Feature", "properties": {"collection_times": [{"days": "Mon-Fri", "time": "11:30am"}, {"days": "Sat-Sun", "time": "Closed"}], "id": "4625900001", "name": "USPS COLLECTION BOX - BLUE BOX", "address": {"city": "INDIANAPOLIS", "state": "IN", "street": "11149 EXCHANGE ST", "postcode": "46259"}}},
{"geometry": {"type": "Point", "coordinates": [-86.1959417746, 39.9119434482]}, "type": "Feature", "properties": {"collection_times": [{"days": "Mon-Fri", "time": "12:00pm"}, {"days": "Sat", "time": "11:00am"}, {"days": "Sun", "time": "Closed"}], "id": "4626000004", "name": "USPS COLLECTION BOX - BLUE BOX", "address": {"city": "INDIANAPOLIS", "state": "IN", "street": "2001 W 86TH ST", "postcode": "46260"}}},
{"geometry": {"type": "Point", "coordinates": [-86.1939512572, 39.9085932848]}, "type": "Feature", "properties": {"collection_times": [{"days": "Mon-Fri", "time": "12:00pm"}, {"days": "Sat", "time": "11:00am"}, {"days": "Sun", "time": "Closed"}], "id": "4626000008", "name": "USPS COLLECTION BOX - BLUE BOX", "address": {"city": "INDIANAPOLIS", "state": "IN", "street": "8402 HARCOURT RD", "postcode": "46260"}}},
{"geometry": {"type": "Point", "coordinates": [-86.1745876804, 39.8731166486]}, "type": "Feature", "properties": {"collection_times": [{"days": "Mon-Sat", "time": "11:00am"}, {"days": "Sun", "time": "Closed"}], "id": "4626000009", "name": "USPS COLLECTION BOX - BLUE BOX", "address": {"city": "INDIANAPOLIS", "state": "IN", "street": "6426 HOOVER RD", "postcode": "46260"}}},
{"geometry": {"type": "Point", "coordinates": [-86.158011062, 39.9174434508]}, "type": "Feature", "properties": {"collection_times": [{"days": "Mon-Fri", "time": "3:30pm"}, {"days": "Sat-Sun", "time": "Closed"}], "id": "4626000011", "name": "USPS COLLECTION BOX - BLUE BOX", "address": {"city": "INDIANAPOLIS", "state": "IN", "street": "8902 N MERIDIAN ST", "postcode": "46260"}}},
{"geometry": {"type": "Point", "coordinates": [-86.1580763685, 39.9184948125]}, "type": "Feature", "properties": {"collection_times": [{"days": "Mon-Fri", "time": "3:30pm"}, {"days": "Sat-Sun", "time": "Closed"}], "id": "4626000012", "name": "USPS COLLECTION BOX - BLUE BOX", "address": {"city": "INDIANAPOLIS", "state": "IN", "street": "9002 N MERIDIAN ST", "postcode": "46260"}}},
{"geometry": {"type": "Point", "coordinates": [-86.1579992324, 39.9225834075]}, "type": "Feature", "properties": {"collection_times": [{"days": "Mon-Fri", "time": "3:30pm"}, {"days": "Sat", "time": "1:00pm"}, {"days": "Sun", "time": "Closed"}], "id": "4626000014", "name": "USPS COLLECTION BOX - BLUE BOX", "address": {"city": "INDIANAPOLIS", "state": "IN", "street": "9240 N MERIDIAN ST", "postcode": "46260"}}},
{"geometry": {"type": "Point", "coordinates": [-86.1578241545, 39.9230388467]}, "type": "Feature", "properties": {"collection_times": [{"days": "Mon-Fri", "time": "2:30pm"}, {"days": "Sat", "time": "11:00am"}, {"days": "Sun", "time": "Closed"}], "id": "4626000015", "name": "USPS COLLECTION BOX - BLUE BOX", "address": {"city": "INDIANAPOLIS", "state": "IN", "street": "9277 N MERIDIAN ST", "postcode": "46260"}}},
{"geometry": {"type": "Point", "coordinates": [-86.1983251206, 39.9095637611]}, "type": "Feature", "properties": {"collection_times": [{"days": "Mon-Fri", "time": "11:00am"}, {"days": "Sat-Sun", "time": "Closed"}], "id": "4626000022", "name": "USPS COLLECTION BOX - BLUE BOX", "address": {"city": "INDIANAPOLIS", "state": "IN", "street": "8333 NAAB RD", "postcode": "46260"}}},
{"geometry": {"type": "Point", "coordinates": [-86.1819187832, 39.9121461775]}, "type": "Feature", "properties": {"collection_times": [{"days": "Mon-Fri", "time": "4:00pm"}, {"days": "Sat", "time": "11:00am"}, {"days": "Sun", "time": "Closed"}], "id": "4626000024", "name": "USPS COLLECTION BOX - BLUE BOX", "address": {"city": "INDIANAPOLIS", "state": "IN", "street": "1315 W 86TH ST", "postcode": "46260"}}},
{"geometry": {"type": "Point", "coordinates": [-86.1819187832, 39.9121461775]}, "type": "Feature", "properties": {"collection_times": [{"days": "Mon-Fri", "time": "4:00pm"}, {"days": "Sat", "time": "11:00am"}, {"days": "Sun", "time": "Closed"}], "id": "4626000025", "name": "USPS COLLECTION BOX - BLUE BOX", "address": {"city": "INDIANAPOLIS", "state": "IN", "street": "1315 W 86TH ST", "postcode": "46260"}}},
{"geometry": {"type": "Point", "coordinates": [-86.2566166066, 39.9077656635]}, "type": "Feature", "properties": {"collection_times": [{"days": "Mon-Fri", "time": "5:00pm"}, {"days": "Sat", "time": "4:00pm"}, {"days": "Sun", "time": "Closed"}], "id": "4626800001", "name": "USPS COLLECTION BOX - BLUE BOX", "address": {"city": "INDIANAPOLIS", "state": "IN", "street": "8401 MOLLER RD", "postcode": "46268"}}},
{"geometry": {"type": "Point", "coordinates": [-86.2513548051, 39.896421087]}, "type": "Feature", "properties": {"collection_times": [{"days": "Mon-Fri", "time": "1:00pm"}, {"days": "Sat", "time": "11:00am"}, {"days": "Sun", "time": "Closed"}], "id": "4626800002", "name": "USPS COLLECTION BOX - BLUE BOX", "address": {"city": "INDIANAPOLIS", "state": "IN", "street": "5214 W 79TH ST", "postcode": "46268"}}},
{"geometry": {"type": "Point", "coordinates": [-86.2048546671, 39.919220909]}, "type": "Feature", "properties": {"collection_times": [{"days": "Mon-Fri", "time": "12:00pm"}, {"days": "Sat", "time": "11:00am"}, {"days": "Sun", "time": "Closed"}], "id": "4626800003", "name": "USPS COLLECTION BOX - BLUE BOX", "address": {"city": "INDIANAPOLIS", "state": "IN", "street": "2500 TULANE RD", "postcode": "46268"}}},
{"geometry": {"type": "Point", "coordinates": [-86.2224385598, 39.9204023895]}, "type": "Feature", "properties": {"collection_times": [{"days": "Mon-Fri", "time": "12:00pm"}, {"days": "Sat-Sun", "time": "Closed"}], "id": "4626800006", "name": "USPS COLLECTION BOX - BLUE BOX", "address": {"city": "INDIANAPOLIS", "state": "IN", "street": "3500 DEPAUW BLVD", "postcode": "46268"}}},
{"geometry": {"type": "Point", "coordinates": [-86.2301489062, 39.9153166327]}, "type": "Feature", "properties": {"collection_times": [{"days": "Mon-Fri", "time": "4:00pm"}, {"days": "Sat", "time": "11:00am"}, {"days": "Sun", "time": "Closed"}], "id": "4626800010", "name": "USPS COLLECTION BOX - BLUE BOX", "address": {"city": "INDIANAPOLIS", "state": "IN", "street": "4030 VINCENNES RD", "postcode": "46268"}}},
{"geometry": {"type": "Point", "coordinates": [-86.2066375069, 39.9123652972]}, "type": "Feature", "properties": {"collection_times": [{"days": "Mon-Fri", "time": "12:00pm"}, {"days": "Sat", "time": "11:00am"}, {"days": "Sun", "time": "Closed"}], "id": "4626800011", "name": "USPS COLLECTION BOX - BLUE BOX", "address": {"city": "INDIANAPOLIS", "state": "IN", "street": "2550 LAKE CIRCLE DR", "postcode": "46268"}}},
{"geometry": {"type": "Point", "coordinates": [-86.2338032429, 39.9261334674]}, "type": "Feature", "properties": {"collection_times": [{"days": "Mon-Fri", "time": "2:00pm"}, {"days": "Sat-Sun", "time": "Closed"}], "id": "4626800014", "name": "USPS COLLECTION BOX - BLUE BOX", "address": {"city": "INDIANAPOLIS", "state": "IN", "street": "4305 W 96TH ST", "postcode": "46268"}}},
{"geometry": {"type": "Point", "coordinates": [-86.2236648543, 39.9250256245]}, "type": "Feature", "properties": {"collection_times": [{"days": "Mon-Fri", "time": "2:00pm"}, {"days": "Sat", "time": "11:00am"}, {"days": "Sun", "time": "Closed"}], "id": "4626800015", "name": "USPS COLLECTION BOX - BLUE BOX", "address": {"city": "INDIANAPOLIS", "state": "IN", "street": "9507 ANGOLA CT", "postcode": "46268"}}},
{"geometry": {"type": "Point", "coordinates": [-86.2094472167, 39.8843496271]}, "type": "Feature", "properties": {"collection_times": [{"days": "Mon-Fri", "time": "2:00pm"}, {"days": "Sat", "time": "11:00am"}, {"days": "Sun", "time": "Closed"}], "id": "4626800017", "name": "USPS COLLECTION BOX - BLUE BOX", "address": {"city": "INDIANAPOLIS", "state": "IN", "street": "7167 MICHIGAN RD", "postcode": "46268"}}},
{"geometry": {"type": "Point", "coordinates": [-86.254125295, 39.912536537]}, "type": "Feature", "properties": {"collection_times": [{"days": "Mon-Sat", "time": "4:00pm"}, {"days": "Sun", "time": "Closed"}], "id": "4626800020", "name": "USPS COLLECTION BOX - BLUE BOX", "address": {"city": "INDIANAPOLIS", "state": "IN", "street": "8651 ROBBINS RD", "postcode": "46268"}}},
{"geometry": {"type": "Point", "coordinates": [-86.2251286601, 39.9208450153]}, "type": "Feature", "properties": {"collection_times": [{"days": "Mon-Fri", "time": "4:00pm"}, {"days": "Sat", "time": "11:00am"}, {"days": "Sun", "time": "Closed"}], "id": "4626800024", "name": "USPS COLLECTION BOX - BLUE BOX", "address": {"city": "INDIANAPOLIS", "state": "IN", "street": "9201 WESLEYAN RD", "postcode": "46268"}}},
{"geometry": {"type": "Point", "coordinates": [-86.2152134046, 39.8958495916]}, "type": "Feature", "properties": {"collection_times": [{"days": "Mon-Sat", "time": "11:00am"}, {"days": "Sun", "time": "Closed"}], "id": "4626800028", "name": "USPS COLLECTION BOX - BLUE BOX", "address": {"city": "INDIANAPOLIS", "state": "IN", "street": "7840 MICHIGAN RD", "postcode": "46268"}}},
{"geometry": {"type": "Point", "coordinates": [-86.2191340753, 39.911605379]}, "type": "Feature", "properties": {"collection_times": [{"days": "Mon-Fri", "time": "12:00pm"}, {"days": "Sat", "time": "11:00am"}, {"days": "Sun", "time": "Closed"}], "id": "4626800037", "name": "USPS COLLECTION BOX - BLUE BOX", "address": {"city": "INDIANAPOLIS", "state": "IN", "street": "3475 W 86TH ST", "postcode": "46268"}}},
{"geometry": {"type": "Point", "coordinates": [-86.2409577787, 39.8974088578]}, "type": "Feature", "properties": {"collection_times": [{"days": "Mon-Fri", "time": "12:00pm"}, {"days": "Sat", "time": "11:00am"}, {"days": "Sun", "time": "Closed"}], "id": "4626800038", "name": "USPS COLLECTION BOX - BLUE BOX", "address": {"city": "INDIANAPOLIS", "state": "IN", "street": "7920 GEORGETOWN RD", "postcode": "46268"}}},
{"geometry": {"type": "Point", "coordinates": [-86.2566166066, 39.9077656635]}, "type": "Feature", "properties": {"collection_times": [{"days": "Mon-Fri", "time": "5:00pm"}, {"days": "Sat", "time": "1:00pm"}, {"days": "Sun", "time": "Closed"}], "id": "4626800048", "name": "USPS COLLECTION BOX - PO LOBBY", "address": {"city": "INDIANAPOLIS", "state": "IN", "street": "8401 MOLLER RD", "postcode": "46268"}}},
{"geometry": {"type": "Point", "coordinates": [-86.2566166066, 39.9077656635]}, "type": "Feature", "properties": {"collection_times": [{"days": "Mon-Fri", "time": "5:00pm"}, {"days": "Sat", "time": "1:00pm"}, {"days": "Sun", "time": "Closed"}], "id": "4626800049", "name": "USPS COLLECTION BOX - PO LOBBY", "address": {"city": "INDIANAPOLIS", "state": "IN", "street": "8401 MOLLER RD", "postcode": "46268"}}},
{"geometry": {"type": "Point", "coordinates": [-86.2473942585, 39.8819523159]}, "type": "Feature", "properties": {"collection_times": [{"days": "Mon-Fri", "time": "12:00pm"}, {"days": "Sat", "time": "11:00am"}, {"days": "Sun", "time": "Closed"}], "id": "4626800050", "name": "USPS COLLECTION BOX - BLUE BOX", "address": {"city": "INDIANAPOLIS", "state": "IN", "street": "5035 W 71ST ST", "postcode": "46268"}}},
{"geometry": {"type": "Point", "coordinates": [-86.2566166066, 39.9077656635]}, "type": "Feature", "properties": {"collection_times": [{"days": "Mon-Fri", "time": "5:00pm"}, {"days": "Sat", "time": "4:00pm"}, {"days": "Sun", "time": "Closed"}], "id": "4626800051", "name": "USPS COLLECTION BOX - BLUE BOX", "address": {"city": "INDIANAPOLIS", "state": "IN", "street": "8401 MOLLER RD", "postcode": "46268"}}},
{"geometry": {"type": "Point", "coordinates": [-86.2328358361, 39.9117001606]}, "type": "Feature", "properties": {"collection_times": [{"days": "Mon-Fri", "time": "1:00pm"}, {"days": "Sat", "time": "11:00am"}, {"days": "Sun", "time": "Closed"}], "id": "4626800055", "name": "USPS COLLECTION BOX - BLUE BOX", "address": {"city": "INDIANAPOLIS", "state": "IN", "street": "4250 W 86TH ST", "postcode": "46268"}}},
{"geometry": {"type": "Point", "coordinates": [-86.2187716608, 39.9131932569]}, "type": "Feature", "properties": {"collection_times": [{"days": "Mon-Fri", "time": "3:30pm"}, {"days": "Sat", "time": "11:00am"}, {"days": "Sun", "time": "Closed"}], "id": "4626800056", "name": "USPS COLLECTION BOX - BLUE BOX", "address": {"city": "INDIANAPOLIS", "state": "IN", "street": "3351 FOUNDERS RD", "postcode": "46268"}}},
{"geometry": {"type": "Point", "coordinates": [-86.2391479258, 39.8676238503]}, "type": "Feature", "properties": {"collection_times": [{"days": "Mon-Fri", "time": "3:00pm"}, {"days": "Sat", "time": "11:00am"}, {"days": "Sun", "time": "Closed"}], "id": "4626800061", "name": "USPS COLLECTION BOX - BLUE BOX", "address": {"city": "INDIANAPOLIS", "state": "IN", "street": "6210 LA PAS TRL", "postcode": "46268"}}},
{"geometry": {"type": "Point", "coordinates": [-86.2094472167, 39.8843496271]}, "type": "Feature", "properties": {"collection_times": [{"days": "Mon-Fri", "time": "2:00pm"}, {"days": "Sat", "time": "11:00am"}, {"days": "Sun", "time": "Closed"}], "id": "4626800062", "name": "USPS COLLECTION BOX - BLUE BOX", "address": {"city": "INDIANAPOLIS", "state": "IN", "street": "7167 MICHIGAN RD", "postcode": "46268"}}},
{"geometry": {"type": "Point", "coordinates": [-86.2566166066, 39.9077656635]}, "type": "Feature", "properties": {"collection_times": [{"days": "Mon-Fri", "time": "5:00pm"}, {"days": "Sat", "time": "3:00pm"}, {"days": "Sun", "time": "Closed"}], "id": "4626800072", "name": "USPS COLLECTION BOX - APC", "address": {"city": "INDIANAPOLIS", "state": "IN", "street": "8401 MOLLER RD", "postcode": "46268"}}},
{"geometry": {"type": "Point", "coordinates": [-86.2656053081, 39.8805109732]}, "type": "Feature", "properties": {"collection_times": [{"days": "Mon-Fri", "time": "3:00pm"}, {"days": "Sat", "time": "11:00am"}, {"days": "Sun", "time": "Closed"}], "id": "4627800001", "name": "USPS COLLECTION BOX - BLUE BOX", "address": {"city": "INDIANAPOLIS", "state": "IN", "street": "7000 CORPORATE DR", "postcode": "46278"}}},
{"geometry": {"type": "Point", "coordinates": [-86.2647211393, 39.8817651769]}, "type": "Feature", "properties": {"collection_times": [{"days": "Mon-Fri", "time": "12:00pm"}, {"days": "Sat", "time": "11:00am"}, {"days": "Sun", "time": "Closed"}], "id": "4627800002", "name": "USPS COLLECTION BOX - BLUE BOX", "address": {"city": "INDIANAPOLIS", "state": "IN", "street": "5958 W 71ST ST", "postcode": "46278"}}},
{"geometry": {"type": "Point", "coordinates": [-86.2620357416, 39.89610642]}, "type": "Feature", "properties": {"collection_times": [{"days": "Mon-Fri", "time": "12:00pm"}, {"days": "Sat", "time": "11:00am"}, {"days": "Sun", "time": "Closed"}], "id": "4627800003", "name": "USPS COLLECTION BOX - BLUE BOX", "address": {"city": "INDIANAPOLIS", "state": "IN", "street": "5636 W 79TH ST", "postcode": "46278"}}},
{"geometry": {"type": "Point", "coordinates": [-86.2713627906, 39.8785452847]}, "type": "Feature", "properties": {"collection_times": [{"days": "Mon-Fri", "time": "12:00pm"}, {"days": "Sat-Sun", "time": "Closed"}], "id": "4627800007", "name": "USPS COLLECTION BOX - BLUE BOX", "address": {"city": "INDIANAPOLIS", "state": "IN", "street": "6326 DIGITAL WAY", "postcode": "46278"}}},
{"geometry": {"type": "Point", "coordinates": [-86.1110522328, 39.9309160778]}, "type": "Feature", "properties": {"collection_times": [{"days": "Mon-Fri", "time": "2:00pm"}, {"days": "Sat", "time": "3:00pm"}, {"days": "Sun", "time": "Closed"}], "id": "4628000005", "name": "USPS COLLECTION BOX - BLUE BOX", "address": {"city": "INDIANAPOLIS", "state": "IN", "street": "3021 E 98TH ST", "postcode": "46280"}}},
{"geometry": {"type": "Point", "coordinates": [-86.1597512061, 39.770444244]}, "type": "Feature", "properties": {"collection_times": [{"days": "Mon-Fri", "time": "5:00pm"}, {"days": "Sat-Sun", "time": "Closed"}], "id": "4628200001", "name": "USPS COLLECTION BOX - BLUE BOX", "address": {"city": "INDIANAPOLIS", "state": "IN", "street": "1 AMERICAN SQ", "postcode": "46282"}}},
{"geometry": {"type": "Point", "coordinates": [-86.1576842915, 39.9372176817]}, "type": "Feature", "properties": {"collection_times": [{"days": "Mon-Sat", "time": "12:00pm"}, {"days": "Sun", "time": "Closed"}], "id": "4629000004", "name": "USPS COLLECTION BOX - BLUE BOX", "address": {"city": "INDIANAPOLIS", "state": "IN", "street": "10333 N MERIDIAN ST", "postcode": "46290"}}},
{"geometry": {"type": "Point", "coordinates": [-86.1577352251, 39.9349628186]}, "type": "Feature", "properties": {"collection_times": [{"days": "Mon-Sat", "time": "12:00pm"}, {"days": "Sun", "time": "Closed"}], "id": "4629000008", "name": "USPS COLLECTION BOX - BLUE BOX", "address": {"city": "INDIANAPOLIS", "state": "IN", "street": "10293 N MERIDIAN ST", "postcode": "46290"}}},
{"geometry": {"type": "Point", "coordinates": [-86.1575551132, 39.9406890709]}, "type": "Feature", "properties": {"collection_times": [{"days": "Mon-Sat", "time": "12:00pm"}, {"days": "Sun", "time": "Closed"}], "id": "4629000009", "name": "USPS COLLECTION BOX - BLUE BOX", "address": {"city": "INDIANAPOLIS", "state": "IN", "street": "10585 N MERIDIAN ST", "postcode": "46290"}}},
{"geometry": {"type": "Point", "coordinates": [-86.1606796579, 39.936045338]}, "type": "Feature", "properties": {"collection_times": [{"days": "Mon-Fri", "time": "12:00pm"}, {"days": "Sat-Sun", "time": "Closed"}], "id": "4629000010", "name": "USPS COLLECTION BOX - BLUE BOX", "address": {"city": "INDIANAPOLIS", "state": "IN", "street": "201 W 103RD ST", "postcode": "46290"}}}
]}
