{"type": "FeatureCollection", "features": [
{"geometry": {"type": "Point", "coordinates": [-87.0332995593, 41.6538951088]}, "type": "Feature", "properties": {"collection_times": [{"days": "Mon-Fri", "time": "4:30pm"}, {"days": "Sat", "time": "12:00pm"}, {"days": "Sun", "time": "Closed"}], "id": "4630100001", "name": "USPS COLLECTION BOX - BLUE BOX", "address": {"city": "BEVERLY SHORES", "state": "IN", "street": "165 E US HIGHWAY 12", "postcode": "46301"}}},
{"geometry": {"type": "Point", "coordinates": [-87.0332995593, 41.6538951088]}, "type": "Feature", "properties": {"collection_times": [{"days": "Mon-Fri", "time": "4:30pm"}, {"days": "Sat", "time": "12:00pm"}, {"days": "Sun", "time": "Closed"}], "id": "4630100002", "name": "USPS COLLECTION BOX - PO LOBBY", "address": {"city": "BEVERLY SHORES", "state": "IN", "street": "165 E US HIGHWAY 12", "postcode": "46301"}}},
{"geometry": {"type": "Point", "coordinates": [-87.13239221, 41.3546905722]}, "type": "Feature", "properties": {"collection_times": [{"days": "Mon-Fri", "time": "4:00pm"}, {"days": "Sat", "time": "10:30am"}, {"days": "Sun", "time": "Closed"}], "id": "4630200001", "name": "USPS COLLECTION BOX - BLUE BOX", "address": {"city": "BOONE GROVE", "state": "IN", "street": "348 W 550 S", "postcode": "46302"}}},
{"geometry": {"type": "Point", "coordinates": [-87.13239221, 41.3546905722]}, "type": "Feature", "properties": {"collection_times": [{"days": "Mon-Fri", "time": "10:15am"}, {"days": "Sat", "time": "10:30am"}, {"days": "Sun", "time": "Closed"}], "id": "4630200002", "name": "USPS COLLECTION BOX - PO LOBBY", "address": {"city": "BOONE GROVE", "state": "IN", "street": "348 W 550 S", "postcode": "46302"}}},
{"geometry": {"type": "Point", "coordinates": [-87.4515471205, 41.3772109578]}, "type": "Feature", "properties": {"collection_times": [{"days": "Mon-Fri", "time": "4:00pm"}, {"days": "Sat", "time": "11:00am"}, {"days": "Sun", "time": "Closed"}], "id": "4630300003", "name": "USPS COLLECTION BOX - BLUE BOX", "address": {"city": "CEDAR LAKE", "state": "IN", "street": "9715 W 133RD AVE", "postcode": "46303"}}},
{"geometry": {"type": "Point", "coordinates": [-87.4212911789, 41.379467425]}, "type": "Feature", "properties": {"collection_times": [{"days": "Mon-Fri", "time": "10:00am"}, {"days": "Sat-Sun", "time": "Closed"}], "id": "4630300004", "name": "USPS COLLECTION BOX - BLUE BOX", "address": {"city": "CEDAR LAKE", "state": "IN", "street": "7212 W 132ND AVE", "postcode": "46303"}}},
{"geometry": {"type": "Point", "coordinates": [-87.4515471205, 41.3772109578]}, "type": "Feature", "properties": {"collection_times": [{"days": "Mon-Fri", "time": "4:00pm"}, {"days": "Sat", "time": "11:00am"}, {"days": "Sun", "time": "Closed"}], "id": "4630300006", "name": "USPS COLLECTION BOX - PO LOBBY", "address": {"city": "CEDAR LAKE", "state": "IN", "street": "9715 W 133RD AVE", "postcode": "46303"}}},
{"geometry": {"type": "Point", "coordinates": [-87.0729842749, 41.6152072259]}, "type": "Feature", "properties": {"collection_times": [{"days": "Mon-Sat", "time": "10:00am"}, {"days": "Sun", "time": "Closed"}], "id": "4630400006", "name": "USPS COLLECTION BOX - BLUE BOX", "address": {"city": "CHESTERTON", "state": "IN", "street": "230 LINCOLN ST", "postcode": "46304"}}},
{"geometry": {"type": "Point", "coordinates": [-87.0991465567, 41.6114931897]}, "type": "Feature", "properties": {"collection_times": [{"days": "Mon-Sat", "time": "10:00am"}, {"days": "Sun", "time": "Closed"}], "id": "4630400009", "name": "USPS COLLECTION BOX - BLUE BOX", "address": {"city": "CHESTERTON", "state": "IN", "street": "1600 W US HIGHWAY 20", "postcode": "46304"}}},
{"geometry": {"type": "Point", "coordinates": [-87.0425018695, 41.6169387955]}, "type": "Feature", "properties": {"collection_times": [{"days": "Mon-Sat", "time": "10:00am"}, {"days": "Sun", "time": "Closed"}], "id": "4630400011", "name": "USPS COLLECTION BOX - BLUE BOX", "address": {"city": "CHESTERTON", "state": "IN", "street": "540 INDIAN BOUNDARY RD", "postcode": "46304"}}},
{"geometry": {"type": "Point", "coordinates": [-87.0432215585, 41.5947325021]}, "type": "Feature", "properties": {"collection_times": [{"days": "Mon-Sat", "time": "10:00am"}, {"days": "Sun", "time": "Closed"}], "id": "4630400013", "name": "USPS COLLECTION BOX - BLUE BOX", "address": {"city": "CHESTERTON", "state": "IN", "street": "1600 PIONEER TRL", "postcode": "46304"}}},
{"geometry": {"type": "Point", "coordinates": [-87.0535886728, 41.6109045165]}, "type": "Feature", "properties": {"collection_times": [{"days": "Mon-Sat", "time": "10:00am"}, {"days": "Sun", "time": "Closed"}], "id": "4630400014", "name": "USPS COLLECTION BOX - BLUE BOX", "address": {"city": "CHESTERTON", "state": "IN", "street": "220 BROADWAY", "postcode": "46304"}}},
{"geometry": {"type": "Point", "coordinates": [-87.0492610784, 41.6005553656]}, "type": "Feature", "properties": {"collection_times": [{"days": "Mon-Fri", "time": "5:00pm"}, {"days": "Sat", "time": "4:00pm"}, {"days": "Sun", "time": "Closed"}], "id": "4630400019", "name": "USPS COLLECTION BOX - BLUE BOX", "address": {"city": "CHESTERTON", "state": "IN", "street": "1070 S CALUMET RD", "postcode": "46304"}}},
{"geometry": {"type": "Point", "coordinates": [-87.0492610784, 41.6005553656]}, "type": "Feature", "properties": {"collection_times": [{"days": "Mon-Fri", "time": "5:00pm"}, {"days": "Sat", "time": "4:00pm"}, {"days": "Sun", "time": "Closed"}], "id": "4630400026", "name": "USPS COLLECTION BOX - PO LOBBY", "address": {"city": "CHESTERTON", "state": "IN", "street": "1070 S CALUMET RD", "postcode": "46304"}}},
{"geometry": {"type": "Point", "coordinates": [-87.0399167559, 41.6168570692]}, "type": "Feature", "properties": {"collection_times": [{"days": "Mon-Sat", "time": "10:00am"}, {"days": "Sun", "time": "Closed"}], "id": "4630400027", "name": "USPS COLLECTION BOX - BLUE BOX", "address": {"city": "CHESTERTON", "state": "IN", "street": "747 INDIAN BOUNDARY RD", "postcode": "46304"}}},
{"geometry": {"type": "Point", "coordinates": [-87.0492610784, 41.6005553656]}, "type": "Feature", "properties": {"collection_times": [{"days": "Mon-Fri", "time": "5:00pm"}, {"days": "Sat", "time": "4:00pm"}, {"days": "Sun", "time": "Closed"}], "id": "4630400028", "name": "USPS COLLECTION BOX - APC", "address": {"city": "CHESTERTON", "state": "IN", "street": "1070 S CALUMET RD", "postcode": "46304"}}},
{"geometry": {"type": "Point", "coordinates": [-87.3643967612, 41.4337533387]}, "type": "Feature", "properties": {"collection_times": [{"days": "Mon-Sat", "time": "9:00am"}, {"days": "Sun", "time": "Closed"}], "id": "4630700008", "name": "USPS COLLECTION BOX - BLUE BOX", "address": {"city": "CROWN POINT", "state": "IN", "street": "1276 N MAIN ST", "postcode": "46307"}}},
{"geometry": {"type": "Point", "coordinates": [-87.4037260961, 41.4734622779]}, "type": "Feature", "properties": {"collection_times": [{"days": "Mon-Sat", "time": "10:45am"}, {"days": "Sun", "time": "Closed"}], "id": "4630700011", "name": "USPS COLLECTION BOX - BLUE BOX", "address": {"city": "CROWN POINT", "state": "IN", "street": "1950 COTTONWOOD CT", "postcode": "46307"}}},
{"geometry": {"type": "Point", "coordinates": [-87.3662916622, 41.4045015801]}, "type": "Feature", "properties": {"collection_times": [{"days": "Mon-Fri", "time": "10:30am"}, {"days": "Sat", "time": "11:00am"}, {"days": "Sun", "time": "Closed"}], "id": "4630700015", "name": "USPS COLLECTION BOX - BLUE BOX", "address": {"city": "CROWN POINT", "state": "IN", "street": "725 W ELIZABETH DR", "postcode": "46307"}}},
{"geometry": {"type": "Point", "coordinates": [-87.3655202576, 41.4174258035]}, "type": "Feature", "properties": {"collection_times": [{"days": "Mon-Fri", "time": "9:30am"}, {"days": "Sat-Sun", "time": "Closed"}], "id": "4630700019", "name": "USPS COLLECTION BOX - BLUE BOX", "address": {"city": "CROWN POINT", "state": "IN", "street": "17 N COURT ST", "postcode": "46307"}}},
{"geometry": {"type": "Point", "coordinates": [-87.3692139964, 41.3904547542]}, "type": "Feature", "properties": {"collection_times": [{"days": "Mon-Fri", "time": "1:00pm"}, {"days": "Sat", "time": "9:45am"}, {"days": "Sun", "time": "Closed"}], "id": "4630700020", "name": "USPS COLLECTION BOX - BLUE BOX", "address": {"city": "CROWN POINT", "state": "IN", "street": "1520 S COURT ST", "postcode": "46307"}}},
{"geometry": {"type": "Point", "coordinates": [-87.3646997718, 41.4452829131]}, "type": "Feature", "properties": {"collection_times": [{"days": "Mon-Fri", "time": "9:30am"}, {"days": "Sat", "time": "10:30am"}, {"days": "Sun", "time": "Closed"}], "id": "4630700025", "name": "USPS COLLECTION BOX - BLUE BOX", "address": {"city": "CROWN POINT", "state": "IN", "street": "2100 N MAIN ST", "postcode": "46307"}}},
{"geometry": {"type": "Point", "coordinates": [-87.3978213622, 41.4740470915]}, "type": "Feature", "properties": {"collection_times": [{"days": "Mon-Sat", "time": "10:00am"}, {"days": "Sun", "time": "Closed"}], "id": "4630700030", "name": "USPS COLLECTION BOX - BLUE BOX", "address": {"city": "CROWN POINT", "state": "IN", "street": "5191 W LINCOLN HWY", "postcode": "46307"}}},
{"geometry": {"type": "Point", "coordinates": [-87.3675823858, 41.3983820643]}, "type": "Feature", "properties": {"collection_times": [{"days": "Mon-Fri", "time": "2:00pm"}, {"days": "Sat", "time": "9:45am"}, {"days": "Sun", "time": "Closed"}], "id": "4630700031", "name": "USPS COLLECTION BOX - BLUE BOX", "address": {"city": "CROWN POINT", "state": "IN", "street": "297 W FRANCISCAN DR", "postcode": "46307"}}},
{"geometry": {"type": "Point", "coordinates": [-87.2223511496, 41.4201402832]}, "type": "Feature", "properties": {"collection_times": [{"days": "Mon-Sat", "time": "10:30am"}, {"days": "Sun", "time": "Closed"}], "id": "4630700034", "name": "USPS COLLECTION BOX - BLUE BOX", "address": {"city": "CROWN POINT", "state": "IN", "street": "9101 E 109TH AVE", "postcode": "46307"}}},
{"geometry": {"type": "Point", "coordinates": [-87.3645077346, 41.3964725715]}, "type": "Feature", "properties": {"collection_times": [{"days": "Mon-Fri", "time": "2:00pm"}, {"days": "Sat", "time": "9:45am"}, {"days": "Sun", "time": "Closed"}], "id": "4630700035", "name": "USPS COLLECTION BOX - BLUE BOX", "address": {"city": "CROWN POINT", "state": "IN", "street": "1201 S MAIN ST", "postcode": "46307"}}},
{"geometry": {"type": "Point", "coordinates": [-87.3632410596, 41.4176012658]}, "type": "Feature", "properties": {"collection_times": [{"days": "Mon-Fri", "time": "6:00pm"}, {"days": "Sat", "time": "2:00pm"}, {"days": "Sun", "time": "Closed"}], "id": "4630700036", "name": "USPS COLLECTION BOX - BLUE BOX", "address": {"city": "CROWN POINT", "state": "IN", "street": "128 S EAST ST", "postcode": "46307"}}},
{"geometry": {"type": "Point", "coordinates": [-87.3632410596, 41.4176012658]}, "type": "Feature", "properties": {"collection_times": [{"days": "Mon-Fri", "time": "6:00pm"}, {"days": "Sat", "time": "2:00pm"}, {"days": "Sun", "time": "Closed"}], "id": "4630700038", "name": "USPS COLLECTION BOX - BLUE BOX", "address": {"city": "CROWN POINT", "state": "IN", "street": "128 S EAST ST", "postcode": "46307"}}},
{"geometry": {"type": "Point", "coordinates": [-87.3632410596, 41.4176012658]}, "type": "Feature", "properties": {"collection_times": [{"days": "Mon-Fri", "time": "6:00pm"}, {"days": "Sat", "time": "2:00pm"}, {"days": "Sun", "time": "Closed"}], "id": "4630700040", "name": "USPS COLLECTION BOX - BLUE BOX", "address": {"city": "CROWN POINT", "state": "IN", "street": "128 S EAST ST", "postcode": "46307"}}},
{"geometry": {"type": "Point", "coordinates": [-87.3632410596, 41.4176012658]}, "type": "Feature", "properties": {"collection_times": [{"days": "Mon-Fri", "time": "6:00pm"}, {"days": "Sat", "time": "2:00pm"}, {"days": "Sun", "time": "Closed"}], "id": "4630700042", "name": "USPS COLLECTION BOX - PO LOBBY", "address": {"city": "CROWN POINT", "state": "IN", "street": "128 S EAST ST", "postcode": "46307"}}},
{"geometry": {"type": "Point", "coordinates": [-87.3543842205, 41.4347778399]}, "type": "Feature", "properties": {"collection_times": [{"days": "Mon-Sat", "time": "11:00am"}, {"days": "Sun", "time": "Closed"}], "id": "4630700045", "name": "USPS COLLECTION BOX - BLUE BOX", "address": {"city": "CROWN POINT", "state": "IN", "street": "1386 LEHMAN DR", "postcode": "46307"}}},
{"geometry": {"type": "Point", "coordinates": [-87.2389451653, 41.4208689001]}, "type": "Feature", "properties": {"collection_times": [{"days": "Mon-Fri", "time": "3:00pm"}, {"days": "Sat", "time": "12:00pm"}, {"days": "Sun", "time": "Closed"}], "id": "4630700046", "name": "USPS COLLECTION BOX - BLUE BOX", "address": {"city": "CROWN POINT", "state": "IN", "street": "10809 RANDOLPH ST", "postcode": "46307"}}},
{"geometry": {"type": "Point", "coordinates": [-87.2389219472, 41.4232965614]}, "type": "Feature", "properties": {"collection_times": [{"days": "Mon-Sat", "time": "10:30am"}, {"days": "Sun", "time": "Closed"}], "id": "4630700050", "name": "USPS COLLECTION BOX - BLUE BOX", "address": {"city": "CROWN POINT", "state": "IN", "street": "10645 RANDOLPH ST", "postcode": "46307"}}},
{"geometry": {"type": "Point", "coordinates": [-87.3353026779, 41.4166196762]}, "type": "Feature", "properties": {"collection_times": [{"days": "Mon-Fri", "time": "2:30pm"}, {"days": "Sat", "time": "11:30am"}, {"days": "Sun", "time": "Closed"}], "id": "4630700051", "name": "USPS COLLECTION BOX - BLUE BOX", "address": {"city": "CROWN POINT", "state": "IN", "street": "11055 BROADWAY", "postcode": "46307"}}},
{"geometry": {"type": "Point", "coordinates": [-87.3632410596, 41.4176012658]}, "type": "Feature", "properties": {"collection_times": [{"days": "Mon-Fri", "time": "6:00pm"}, {"days": "Sat", "time": "2:00pm"}, {"days": "Sun", "time": "Closed"}], "id": "4630700053", "name": "USPS COLLECTION BOX - APC", "address": {"city": "CROWN POINT", "state": "IN", "street": "128 S EAST ST", "postcode": "46307"}}},
{"geometry": {"type": "Point", "coordinates": [-87.198593018, 41.1950797793]}, "type": "Feature", "properties": {"collection_times": [{"days": "Mon-Fri", "time": "4:00pm"}, {"days": "Sat", "time": "2:30pm"}, {"days": "Sun", "time": "Closed"}], "id": "4631000002", "name": "USPS COLLECTION BOX - BLUE BOX", "address": {"city": "DEMOTTE", "state": "IN", "street": "825 S HALLECK ST", "postcode": "46310"}}},
{"geometry": {"type": "Point", "coordinates": [-87.1986955701, 41.2047261381]}, "type": "Feature", "properties": {"collection_times": [{"days": "Mon-Sat", "time": "10:30am"}, {"days": "Sun", "time": "Closed"}], "id": "4631000003", "name": "USPS COLLECTION BOX - BLUE BOX", "address": {"city": "DEMOTTE", "state": "IN", "street": "325 N HALLECK ST", "postcode": "46310"}}},
{"geometry": {"type": "Point", "coordinates": [-87.198593018, 41.1950797793]}, "type": "Feature", "properties": {"collection_times": [{"days": "Mon-Fri", "time": "4:00pm"}, {"days": "Sat", "time": "2:30pm"}, {"days": "Sun", "time": "Closed"}], "id": "4631000004", "name": "USPS COLLECTION BOX - PO LOBBY", "address": {"city": "DEMOTTE", "state": "IN", "street": "825 S HALLECK ST", "postcode": "46310"}}},
{"geometry": {"type": "Point", "coordinates": [-87.1599712617, 41.1872740604]}, "type": "Feature", "properties": {"collection_times": [{"days": "Mon-Sat", "time": "10:00am"}, {"days": "Sun", "time": "Closed"}], "id": "4631000007", "name": "USPS COLLECTION BOX - BLUE BOX", "address": {"city": "DEMOTTE", "state": "IN", "street": "11978 N 600 W", "postcode": "46310"}}},
{"geometry": {"type": "Point", "coordinates": [-87.5201660562, 41.5009202564]}, "type": "Feature", "properties": {"collection_times": [{"days": "Mon-Sat", "time": "10:00am"}, {"days": "Sun", "time": "Closed"}], "id": "4631100000", "name": "USPS COLLECTION BOX - BLUE BOX", "address": {"city": "DYER", "state": "IN", "street": "233 CARNATION ST", "postcode": "46311"}}},
{"geometry": {"type": "Point", "coordinates": [-87.5188441665, 41.5099367973]}, "type": "Feature", "properties": {"collection_times": [{"days": "Mon-Sat", "time": "11:00am"}, {"days": "Sun", "time": "Closed"}], "id": "4631100008", "name": "USPS COLLECTION BOX - BLUE BOX", "address": {"city": "DYER", "state": "IN", "street": "1200 SHEFFIELD AVE", "postcode": "46311"}}},
{"geometry": {"type": "Point", "coordinates": [-87.5162120024, 41.5191553573]}, "type": "Feature", "properties": {"collection_times": [{"days": "Mon-Sat", "time": "12:00pm"}, {"days": "Sun", "time": "Closed"}], "id": "4631100009", "name": "USPS COLLECTION BOX - BLUE BOX", "address": {"city": "DYER", "state": "IN", "street": "447 NORTHGATE DR", "postcode": "46311"}}},
{"geometry": {"type": "Point", "coordinates": [-87.5019009519, 41.4918606819]}, "type": "Feature", "properties": {"collection_times": [{"days": "Mon-Fri", "time": "5:00pm"}, {"days": "Sat", "time": "1:00pm"}, {"days": "Sun", "time": "Closed"}], "id": "4631100010", "name": "USPS COLLECTION BOX - BLUE BOX", "address": {"city": "DYER", "state": "IN", "street": "2225 GREAT LAKES DR", "postcode": "46311"}}},
{"geometry": {"type": "Point", "coordinates": [-87.5207091395, 41.4937984291]}, "type": "Feature", "properties": {"collection_times": [{"days": "Mon-Sat", "time": "10:30am"}, {"days": "Sun", "time": "Closed"}], "id": "4631100013", "name": "USPS COLLECTION BOX - BLUE BOX", "address": {"city": "DYER", "state": "IN", "street": "1 TOWN SQ", "postcode": "46311"}}},
{"geometry": {"type": "Point", "coordinates": [-87.5019009519, 41.4918606819]}, "type": "Feature", "properties": {"collection_times": [{"days": "Mon-Fri", "time": "5:00pm"}, {"days": "Sat", "time": "1:00pm"}, {"days": "Sun", "time": "Closed"}], "id": "4631100014", "name": "USPS COLLECTION BOX - PO LOBBY", "address": {"city": "DYER", "state": "IN", "street": "2225 GREAT LAKES DR", "postcode": "46311"}}},
{"geometry": {"type": "Point", "coordinates": [-87.4615194604, 41.6292300256]}, "type": "Feature", "properties": {"collection_times": [{"days": "Mon-Sat", "time": "5:00pm"}, {"days": "Sun", "time": "Closed"}], "id": "4631200001", "name": "USPS COLLECTION BOX - PO LOBBY", "address": {"city": "EAST CHICAGO", "state": "IN", "street": "901 E CHICAGO AVE", "postcode": "46312"}}},
{"geometry": {"type": "Point", "coordinates": [-87.4449899747, 41.6436739546]}, "type": "Feature", "properties": {"collection_times": [{"days": "Mon-Fri", "time": "4:30pm"}, {"days": "Sat", "time": "12:00pm"}, {"days": "Sun", "time": "Closed"}], "id": "4631200004", "name": "USPS COLLECTION BOX - PO LOBBY", "address": {"city": "EAST CHICAGO", "state": "IN", "street": "3813 MAIN ST", "postcode": "46312"}}},
{"geometry": {"type": "Point", "coordinates": [-87.4449236567, 41.6435108505]}, "type": "Feature", "properties": {"collection_times": [{"days": "Mon-Fri", "time": "4:30pm"}, {"days": "Sat", "time": "12:00pm"}, {"days": "Sun", "time": "Closed"}], "id": "4631200005", "name": "USPS COLLECTION BOX - BLUE BOX", "address": {"city": "EAST CHICAGO", "state": "IN", "street": "3813 MAIN ST", "postcode": "46312"}}},
{"geometry": {"type": "Point", "coordinates": [-87.4879053601, 41.6126898934]}, "type": "Feature", "properties": {"collection_times": [{"days": "Mon-Sat", "time": "12:00pm"}, {"days": "Sun", "time": "Closed"}], "id": "4631200015", "name": "USPS COLLECTION BOX - BLUE BOX", "address": {"city": "EAST CHICAGO", "state": "IN", "street": "5536 READING AVE", "postcode": "46312"}}},
{"geometry": {"type": "Point", "coordinates": [-87.4904877595, 41.62705693]}, "type": "Feature", "properties": {"collection_times": [{"days": "Mon-Sat", "time": "12:00pm"}, {"days": "Sun", "time": "Closed"}], "id": "4631200026", "name": "USPS COLLECTION BOX - BLUE BOX", "address": {"city": "EAST CHICAGO", "state": "IN", "street": "4801 WHITE OAK AVE", "postcode": "46312"}}},
{"geometry": {"type": "Point", "coordinates": [-87.4541070395, 41.6390710612]}, "type": "Feature", "properties": {"collection_times": [{"days": "Mon-Sat", "time": "12:00pm"}, {"days": "Sun", "time": "Closed"}], "id": "4631200045", "name": "USPS COLLECTION BOX - BLUE BOX", "address": {"city": "EAST CHICAGO", "state": "IN", "street": "1405 E COLUMBUS DR", "postcode": "46312"}}},
{"geometry": {"type": "Point", "coordinates": [-87.4808419121, 41.6314445248]}, "type": "Feature", "properties": {"collection_times": [{"days": "Mon-Sat", "time": "12:00pm"}, {"days": "Sun", "time": "Closed"}], "id": "4631200050", "name": "USPS COLLECTION BOX - BLUE BOX", "address": {"city": "EAST CHICAGO", "state": "IN", "street": "4518 INDIANAPOLIS BLVD", "postcode": "46312"}}},
{"geometry": {"type": "Point", "coordinates": [-87.4615194604, 41.6292300256]}, "type": "Feature", "properties": {"collection_times": [{"days": "Mon-Sat", "time": "5:00pm"}, {"days": "Sun", "time": "Closed"}], "id": "4631200069", "name": "USPS COLLECTION BOX - BLUE BOX", "address": {"city": "EAST CHICAGO", "state": "IN", "street": "901 E CHICAGO AVE", "postcode": "46312"}}},
{"geometry": {"type": "Point", "coordinates": [-87.42773552, 41.5374313168]}, "type": "Feature", "properties": {"collection_times": [{"days": "Mon-Fri", "time": "4:45pm"}, {"days": "Sat", "time": "3:00pm"}, {"days": "Sun", "time": "Closed"}], "id": "4631900000", "name": "USPS COLLECTION BOX - PO LOBBY", "address": {"city": "GRIFFITH", "state": "IN", "street": "900 N BROAD ST", "postcode": "46319"}}},
{"geometry": {"type": "Point", "coordinates": [-87.42773552, 41.5374313168]}, "type": "Feature", "properties": {"collection_times": [{"days": "Mon-Fri", "time": "5:00pm"}, {"days": "Sat", "time": "3:00pm"}, {"days": "Sun", "time": "Closed"}], "id": "4631900001", "name": "USPS COLLECTION BOX - BLUE BOX", "address": {"city": "GRIFFITH", "state": "IN", "street": "900 N BROAD ST", "postcode": "46319"}}},
{"geometry": {"type": "Point", "coordinates": [-87.42773552, 41.5374313168]}, "type": "Feature", "properties": {"collection_times": [{"days": "Mon-Fri", "time": "5:00pm"}, {"days": "Sat", "time": "3:00pm"}, {"days": "Sun", "time": "Closed"}], "id": "4631900003", "name": "USPS COLLECTION BOX - BLUE BOX", "address": {"city": "GRIFFITH", "state": "IN", "street": "900 N BROAD ST", "postcode": "46319"}}},
{"geometry": {"type": "Point", "coordinates": [-87.4307863724, 41.5514222635]}, "type": "Feature", "properties": {"collection_times": [{"days": "Mon-Fri", "time": "9:15am"}, {"days": "Sat", "time": "10:15am"}, {"days": "Sun", "time": "Closed"}], "id": "4631900009", "name": "USPS COLLECTION BOX - BLUE BOX", "address": {"city": "GRIFFITH", "state": "IN", "street": "430 W RIDGE RD", "postcode": "46319"}}},
{"geometry": {"type": "Point", "coordinates": [-87.4442732369, 41.537337797]}, "type": "Feature", "properties": {"collection_times": [{"days": "Mon-Fri", "time": "11:00am"}, {"days": "Sat", "time": "12:00pm"}, {"days": "Sun", "time": "Closed"}], "id": "4631900011", "name": "USPS COLLECTION BOX - BLUE BOX", "address": {"city": "GRIFFITH", "state": "IN", "street": "1319 W GLEN PARK AVE", "postcode": "46319"}}},
{"geometry": {"type": "Point", "coordinates": [-87.4157800367, 41.5538464551]}, "type": "Feature", "properties": {"collection_times": [{"days": "Mon-Sat", "time": "1:00pm"}, {"days": "Sun", "time": "Closed"}], "id": "4631900012", "name": "USPS COLLECTION BOX - BLUE BOX", "address": {"city": "GRIFFITH", "state": "IN", "street": "1818 N MANSARD BLVD", "postcode": "46319"}}},
{"geometry": {"type": "Point", "coordinates": [-87.4276531653, 41.5230203687]}, "type": "Feature", "properties": {"collection_times": [{"days": "Mon-Sat", "time": "2:45pm"}, {"days": "Sun", "time": "Closed"}], "id": "4631900015", "name": "USPS COLLECTION BOX - BLUE BOX", "address": {"city": "GRIFFITH", "state": "IN", "street": "111 N BROAD ST", "postcode": "46319"}}},
{"geometry": {"type": "Point", "coordinates": [-87.4289198595, 41.5476217371]}, "type": "Feature", "properties": {"collection_times": [{"days": "Mon-Sat", "time": "11:00am"}, {"days": "Sun", "time": "Closed"}], "id": "4631900018", "name": "USPS COLLECTION BOX - BLUE BOX", "address": {"city": "GRIFFITH", "state": "IN", "street": "1448 N GRIFFITH BLVD", "postcode": "46319"}}},
{"geometry": {"type": "Point", "coordinates": [-87.4327681372, 41.5213048428]}, "type": "Feature", "properties": {"collection_times": [{"days": "Mon-Fri", "time": "9:00am"}, {"days": "Sat", "time": "9:45am"}, {"days": "Sun", "time": "Closed"}], "id": "4631900025", "name": "USPS COLLECTION BOX - BLUE BOX", "address": {"city": "GRIFFITH", "state": "IN", "street": "501 INDUSTRIAL DR", "postcode": "46319"}}},
{"geometry": {"type": "Point", "coordinates": [-87.513782573, 41.6063167943]}, "type": "Feature", "properties": {"collection_times": [{"days": "Mon-Fri", "time": "5:00pm"}, {"days": "Sat", "time": "3:00pm"}, {"days": "Sun", "time": "Closed"}], "id": "4632000000", "name": "USPS COLLECTION BOX - PO LOBBY", "address": {"city": "HAMMOND", "state": "IN", "street": "5530 SOHL AVE", "postcode": "46320"}}},
{"geometry": {"type": "Point", "coordinates": [-87.513782573, 41.6063167943]}, "type": "Feature", "properties": {"collection_times": [{"days": "Mon-Fri", "time": "5:00pm"}, {"days": "Sat", "time": "3:00pm"}, {"days": "Sun", "time": "Closed"}], "id": "4632000001", "name": "USPS COLLECTION BOX - BLUE BOX", "address": {"city": "HAMMOND", "state": "IN", "street": "5530 SOHL AVE", "postcode": "46320"}}},
{"geometry": {"type": "Point", "coordinates": [-87.513782573, 41.6063167943]}, "type": "Feature", "properties": {"collection_times": [{"days": "Mon-Fri", "time": "5:00pm"}, {"days": "Sat", "time": "3:00pm"}, {"days": "Sun", "time": "Closed"}], "id": "4632000002", "name": "USPS COLLECTION BOX - BLUE BOX", "address": {"city": "HAMMOND", "state": "IN", "street": "5530 SOHL AVE", "postcode": "46320"}}},
{"geometry": {"type": "Point", "coordinates": [-87.521981676, 41.6101074939]}, "type": "Feature", "properties": {"collection_times": [{"days": "Mon-Sat", "time": "9:30am"}, {"days": "Sun", "time": "Closed"}], "id": "4632000005", "name": "USPS COLLECTION BOX - BLUE BOX", "address": {"city": "HAMMOND", "state": "IN", "street": "5706 HOHMAN AVE", "postcode": "46320"}}},
{"geometry": {"type": "Point", "coordinates": [-87.5220534391, 41.6085589817]}, "type": "Feature", "properties": {"collection_times": [{"days": "Mon-Sat", "time": "9:30am"}, {"days": "Sun", "time": "Closed"}], "id": "4632000006", "name": "USPS COLLECTION BOX - BLUE BOX", "address": {"city": "HAMMOND", "state": "IN", "street": "5800 HOHMAN AVE", "postcode": "46320"}}},
{"geometry": {"type": "Point", "coordinates": [-87.5220534683, 41.6067892331]}, "type": "Feature", "properties": {"collection_times": [{"days": "Mon-Sat", "time": "9:30am"}, {"days": "Sun", "time": "Closed"}], "id": "4632000007", "name": "USPS COLLECTION BOX - BLUE BOX", "address": {"city": "HAMMOND", "state": "IN", "street": "5900 HOHMAN AVE", "postcode": "46320"}}},
{"geometry": {"type": "Point", "coordinates": [-87.5205431979, 41.6168267009]}, "type": "Feature", "properties": {"collection_times": [{"days": "Mon-Fri", "time": "3:00pm"}, {"days": "Sat", "time": "9:00am"}, {"days": "Sun", "time": "Closed"}], "id": "4632000011", "name": "USPS COLLECTION BOX - BLUE BOX", "address": {"city": "HAMMOND", "state": "IN", "street": "232 RUSSELL ST", "postcode": "46320"}}},
{"geometry": {"type": "Point", "coordinates": [-87.5220849588, 41.6138344844]}, "type": "Feature", "properties": {"collection_times": [{"days": "Mon-Fri", "time": "3:00pm"}, {"days": "Sat", "time": "9:00am"}, {"days": "Sun", "time": "Closed"}], "id": "4632000014", "name": "USPS COLLECTION BOX - BLUE BOX", "address": {"city": "HAMMOND", "state": "IN", "street": "5500 HOHMAN AVE", "postcode": "46320"}}},
{"geometry": {"type": "Point", "coordinates": [-87.5220301773, 41.6178830832]}, "type": "Feature", "properties": {"collection_times": [{"days": "Mon-Fri", "time": "3:00pm"}, {"days": "Sat", "time": "9:00am"}, {"days": "Sun", "time": "Closed"}], "id": "4632000015", "name": "USPS COLLECTION BOX - BLUE BOX", "address": {"city": "HAMMOND", "state": "IN", "street": "5246 HOHMAN AVE", "postcode": "46320"}}},
{"geometry": {"type": "Point", "coordinates": [-87.5220644832, 41.6170621097]}, "type": "Feature", "properties": {"collection_times": [{"days": "Mon-Fri", "time": "3:00pm"}, {"days": "Sat", "time": "9:00am"}, {"days": "Sun", "time": "Closed"}], "id": "4632000018", "name": "USPS COLLECTION BOX - BLUE BOX", "address": {"city": "HAMMOND", "state": "IN", "street": "5265 HOHMAN AVE", "postcode": "46320"}}},
{"geometry": {"type": "Point", "coordinates": [-87.5220550195, 41.6164280437]}, "type": "Feature", "properties": {"collection_times": [{"days": "Mon-Fri", "time": "3:00pm"}, {"days": "Sat", "time": "9:00am"}, {"days": "Sun", "time": "Closed"}], "id": "4632000021", "name": "USPS COLLECTION BOX - BLUE BOX", "address": {"city": "HAMMOND", "state": "IN", "street": "5311 HOHMAN AVE", "postcode": "46320"}}},
{"geometry": {"type": "Point", "coordinates": [-87.5088502424, 41.6055555228]}, "type": "Feature", "properties": {"collection_times": [{"days": "Mon-Fri", "time": "3:00pm"}, {"days": "Sat-Sun", "time": "Closed"}], "id": "4632000024", "name": "USPS COLLECTION BOX - BLUE BOX", "address": {"city": "HAMMOND", "state": "IN", "street": "5925 CALUMET AVE", "postcode": "46320"}}},
{"geometry": {"type": "Point", "coordinates": [-87.5171970228, 41.6149101387]}, "type": "Feature", "properties": {"collection_times": [{"days": "Mon-Fri", "time": "3:00pm"}, {"days": "Sat-Sun", "time": "Closed"}], "id": "4632000027", "name": "USPS COLLECTION BOX - BLUE BOX", "address": {"city": "HAMMOND", "state": "IN", "street": "509 DOUGLAS ST", "postcode": "46320"}}},
{"geometry": {"type": "Point", "coordinates": [-87.5000472509, 41.6044304739]}, "type": "Feature", "properties": {"collection_times": [{"days": "Mon-Sat", "time": "2:30pm"}, {"days": "Sun", "time": "Closed"}], "id": "4632000032", "name": "USPS COLLECTION BOX - BLUE BOX", "address": {"city": "HAMMOND", "state": "IN", "street": "6008 COLUMBIA AVE", "postcode": "46320"}}},
{"geometry": {"type": "Point", "coordinates": [-87.5220644832, 41.6170621097]}, "type": "Feature", "properties": {"collection_times": [{"days": "Mon-Fri", "time": "3:00pm"}, {"days": "Sat", "time": "9:00am"}, {"days": "Sun", "time": "Closed"}], "id": "4632000036", "name": "USPS COLLECTION BOX - BLUE BOX", "address": {"city": "HAMMOND", "state": "IN", "street": "5265 HOHMAN AVE", "postcode": "46320"}}},
{"geometry": {"type": "Point", "coordinates": [-87.5233544229, 41.6199855209]}, "type": "Feature", "properties": {"collection_times": [{"days": "Mon-Sat", "time": "9:00am"}, {"days": "Sun", "time": "Closed"}], "id": "4632000044", "name": "USPS COLLECTION BOX - BLUE BOX", "address": {"city": "HAMMOND", "state": "IN", "street": "115 SIBLEY ST", "postcode": "46320"}}},
{"geometry": {"type": "Point", "coordinates": [-87.508922992, 41.606414296]}, "type": "Feature", "properties": {"collection_times": [{"days": "Mon-Sat", "time": "9:00am"}, {"days": "Sun", "time": "Closed"}], "id": "4632000049", "name": "USPS COLLECTION BOX - BLUE BOX", "address": {"city": "HAMMOND", "state": "IN", "street": "5903 CALUMET AVE", "postcode": "46320"}}},
{"geometry": {"type": "Point", "coordinates": [-87.5087384504, 41.6373214649]}, "type": "Feature", "properties": {"collection_times": [{"days": "Mon-Sat", "time": "10:30am"}, {"days": "Sun", "time": "Closed"}], "id": "4632000051", "name": "USPS COLLECTION BOX - BLUE BOX", "address": {"city": "HAMMOND", "state": "IN", "street": "4204 CALUMET AVE", "postcode": "46320"}}},
{"geometry": {"type": "Point", "coordinates": [-87.5205431979, 41.6168267009]}, "type": "Feature", "properties": {"collection_times": [{"days": "Mon-Fri", "time": "3:00pm"}, {"days": "Sat", "time": "9:00am"}, {"days": "Sun", "time": "Closed"}], "id": "4632000114", "name": "USPS COLLECTION BOX - BLUE BOX", "address": {"city": "HAMMOND", "state": "IN", "street": "232 RUSSELL ST", "postcode": "46320"}}},
{"geometry": {"type": "Point", "coordinates": [-87.490523514, 41.5513635405]}, "type": "Feature", "properties": {"collection_times": [{"days": "Mon-Sat", "time": "10:00am"}, {"days": "Sun", "time": "Closed"}], "id": "4632100000", "name": "USPS COLLECTION BOX - BLUE BOX", "address": {"city": "HAMMOND", "state": "IN", "street": "8932 WHITE OAK AVE", "postcode": "46321"}}},
{"geometry": {"type": "Point", "coordinates": [-87.5101201465, 41.5614381962]}, "type": "Feature", "properties": {"collection_times": [{"days": "Mon-Sat", "time": "10:00am"}, {"days": "Sun", "time": "Closed"}], "id": "4632100003", "name": "USPS COLLECTION BOX - BLUE BOX", "address": {"city": "HAMMOND", "state": "IN", "street": "716 RIDGE RD", "postcode": "46321"}}},
{"geometry": {"type": "Point", "coordinates": [-87.5249506471, 41.5633741545]}, "type": "Feature", "properties": {"collection_times": [{"days": "Mon-Sat", "time": "10:00am"}, {"days": "Sun", "time": "Closed"}], "id": "4632100006", "name": "USPS COLLECTION BOX - BLUE BOX", "address": {"city": "HAMMOND", "state": "IN", "street": "12 RIDGE RD", "postcode": "46321"}}},
{"geometry": {"type": "Point", "coordinates": [-87.5075591687, 41.5500616053]}, "type": "Feature", "properties": {"collection_times": [{"days": "Mon-Sat", "time": "10:00am"}, {"days": "Sun", "time": "Closed"}], "id": "4632100008", "name": "USPS COLLECTION BOX - BLUE BOX", "address": {"city": "HAMMOND", "state": "IN", "street": "901 MACARTHUR BLVD", "postcode": "46321"}}},
{"geometry": {"type": "Point", "coordinates": [-87.5223796501, 41.5758978705]}, "type": "Feature", "properties": {"collection_times": [{"days": "Mon-Sat", "time": "10:00am"}, {"days": "Sun", "time": "Closed"}], "id": "4632100009", "name": "USPS COLLECTION BOX - BLUE BOX", "address": {"city": "HAMMOND", "state": "IN", "street": "7550 HOHMAN AVE", "postcode": "46321"}}},
{"geometry": {"type": "Point", "coordinates": [-87.5129836699, 41.5561201951]}, "type": "Feature", "properties": {"collection_times": [{"days": "Mon-Sat", "time": "10:30am"}, {"days": "Sun", "time": "Closed"}], "id": "4632100011", "name": "USPS COLLECTION BOX - BLUE BOX", "address": {"city": "HAMMOND", "state": "IN", "street": "8700 MONROE AVE", "postcode": "46321"}}},
{"geometry": {"type": "Point", "coordinates": [-87.4845955045, 41.5375824806]}, "type": "Feature", "properties": {"collection_times": [{"days": "Mon-Sat", "time": "10:00am"}, {"days": "Sun", "time": "Closed"}], "id": "4632100013", "name": "USPS COLLECTION BOX - BLUE BOX", "address": {"city": "HAMMOND", "state": "IN", "street": "1830 45TH AVE", "postcode": "46321"}}},
{"geometry": {"type": "Point", "coordinates": [-87.4854140485, 41.5406689856]}, "type": "Feature", "properties": {"collection_times": [{"days": "Mon-Sat", "time": "8:00am"}, {"days": "Sun", "time": "Closed"}], "id": "4632100014", "name": "USPS COLLECTION BOX - BLUE BOX", "address": {"city": "HAMMOND", "state": "IN", "street": "9529 FRAN LIN PKWY", "postcode": "46321"}}},
{"geometry": {"type": "Point", "coordinates": [-87.5022558353, 41.544233241]}, "type": "Feature", "properties": {"collection_times": [{"days": "Mon-Sat", "time": "11:00am"}, {"days": "Sun", "time": "Closed"}], "id": "4632100017", "name": "USPS COLLECTION BOX - BLUE BOX", "address": {"city": "HAMMOND", "state": "IN", "street": "1100 FRAN LIN PKWY", "postcode": "46321"}}},
{"geometry": {"type": "Point", "coordinates": [-87.4871742073, 41.5375948375]}, "type": "Feature", "properties": {"collection_times": [{"days": "Mon-Sat", "time": "10:00am"}, {"days": "Sun", "time": "Closed"}], "id": "4632100020", "name": "USPS COLLECTION BOX - BLUE BOX", "address": {"city": "HAMMOND", "state": "IN", "street": "1730 45TH AVE", "postcode": "46321"}}},
{"geometry": {"type": "Point", "coordinates": [-87.506486872, 41.5610065078]}, "type": "Feature", "properties": {"collection_times": [{"days": "Mon-Fri", "time": "5:00pm"}, {"days": "Sat", "time": "3:00pm"}, {"days": "Sun", "time": "Closed"}], "id": "4632100021", "name": "USPS COLLECTION BOX - PO LOBBY", "address": {"city": "HAMMOND", "state": "IN", "street": "917 RIDGE RD", "postcode": "46321"}}},
{"geometry": {"type": "Point", "coordinates": [-87.506486872, 41.5610065078]}, "type": "Feature", "properties": {"collection_times": [{"days": "Mon-Fri", "time": "5:00pm"}, {"days": "Sat", "time": "3:00pm"}, {"days": "Sun", "time": "Closed"}], "id": "4632100023", "name": "USPS COLLECTION BOX - BLUE BOX", "address": {"city": "HAMMOND", "state": "IN", "street": "917 RIDGE RD", "postcode": "46321"}}},
{"geometry": {"type": "Point", "coordinates": [-87.506486872, 41.5610065078]}, "type": "Feature", "properties": {"collection_times": [{"days": "Mon-Fri", "time": "5:00pm"}, {"days": "Sat", "time": "3:00pm"}, {"days": "Sun", "time": "Closed"}], "id": "4632100024", "name": "USPS COLLECTION BOX - BLUE BOX", "address": {"city": "HAMMOND", "state": "IN", "street": "917 RIDGE RD", "postcode": "46321"}}},
{"geometry": {"type": "Point", "coordinates": [-87.5221677078, 41.5640738564]}, "type": "Feature", "properties": {"collection_times": [{"days": "Mon-Sat", "time": "10:00am"}, {"days": "Sun", "time": "Closed"}], "id": "4632100025", "name": "USPS COLLECTION BOX - BLUE BOX", "address": {"city": "HAMMOND", "state": "IN", "street": "8241 HOHMAN AVE", "postcode": "46321"}}},
{"geometry": {"type": "Point", "coordinates": [-87.461715126, 41.5592255387]}, "type": "Feature", "properties": {"collection_times": [{"days": "Mon-Fri", "time": "5:00pm"}, {"days": "Sat", "time": "3:00pm"}, {"days": "Sun", "time": "Closed"}], "id": "4632200000", "name": "USPS COLLECTION BOX - PO LOBBY", "address": {"city": "HAMMOND", "state": "IN", "street": "8500 KENNEDY AVE", "postcode": "46322"}}},
{"geometry": {"type": "Point", "coordinates": [-87.461715126, 41.5592255387]}, "type": "Feature", "properties": {"collection_times": [{"days": "Mon-Fri", "time": "5:00pm"}, {"days": "Sat", "time": "3:00pm"}, {"days": "Sun", "time": "Closed"}], "id": "4632200002", "name": "USPS COLLECTION BOX - BLUE BOX", "address": {"city": "HAMMOND", "state": "IN", "street": "8500 KENNEDY AVE", "postcode": "46322"}}},
{"geometry": {"type": "Point", "coordinates": [-87.4325547748, 41.5403899158]}, "type": "Feature", "properties": {"collection_times": [{"days": "Mon-Fri", "time": "1:00pm"}, {"days": "Sat", "time": "9:00am"}, {"days": "Sun", "time": "Closed"}], "id": "4632200009", "name": "USPS COLLECTION BOX - BLUE BOX", "address": {"city": "HAMMOND", "state": "IN", "street": "9626 CLINE AVE", "postcode": "46322"}}},
{"geometry": {"type": "Point", "coordinates": [-87.4684367014, 41.5526930035]}, "type": "Feature", "properties": {"collection_times": [{"days": "Mon-Sat", "time": "9:00am"}, {"days": "Sun", "time": "Closed"}], "id": "4632200011", "name": "USPS COLLECTION BOX - BLUE BOX", "address": {"city": "HAMMOND", "state": "IN", "street": "8845 OSBORNE RD", "postcode": "46322"}}},
{"geometry": {"type": "Point", "coordinates": [-87.4493196046, 41.5564957936]}, "type": "Feature", "properties": {"collection_times": [{"days": "Mon-Sat", "time": "9:00am"}, {"days": "Sun", "time": "Closed"}], "id": "4632200016", "name": "USPS COLLECTION BOX - BLUE BOX", "address": {"city": "HAMMOND", "state": "IN", "street": "3304 CONDIT ST", "postcode": "46322"}}},
{"geometry": {"type": "Point", "coordinates": [-87.4564516642, 41.5321493152]}, "type": "Feature", "properties": {"collection_times": [{"days": "Mon-Sat", "time": "9:00am"}, {"days": "Sun", "time": "Closed"}], "id": "4632200027", "name": "USPS COLLECTION BOX - BLUE BOX", "address": {"city": "HAMMOND", "state": "IN", "street": "3004 100TH ST", "postcode": "46322"}}},
{"geometry": {"type": "Point", "coordinates": [-87.4487049827, 41.553396093]}, "type": "Feature", "properties": {"collection_times": [{"days": "Mon-Fri", "time": "1:00pm"}, {"days": "Sat", "time": "9:00am"}, {"days": "Sun", "time": "Closed"}], "id": "4632200028", "name": "USPS COLLECTION BOX - BLUE BOX", "address": {"city": "HAMMOND", "state": "IN", "street": "3333 RIDGE RD", "postcode": "46322"}}},
{"geometry": {"type": "Point", "coordinates": [-87.4567039438, 41.5583062002]}, "type": "Feature", "properties": {"collection_times": [{"days": "Mon-Sat", "time": "9:00am"}, {"days": "Sun", "time": "Closed"}], "id": "4632200031", "name": "USPS COLLECTION BOX - BLUE BOX", "address": {"city": "HAMMOND", "state": "IN", "street": "8531 5TH ST", "postcode": "46322"}}},
{"geometry": {"type": "Point", "coordinates": [-87.4712836037, 41.5494737492]}, "type": "Feature", "properties": {"collection_times": [{"days": "Mon-Fri", "time": "1:00pm"}, {"days": "Sat", "time": "9:00am"}, {"days": "Sun", "time": "Closed"}], "id": "4632200033", "name": "USPS COLLECTION BOX - BLUE BOX", "address": {"city": "HAMMOND", "state": "IN", "street": "9001 INDIANAPOLIS BLVD", "postcode": "46322"}}},
{"geometry": {"type": "Point", "coordinates": [-87.4767263979, 41.5484847955]}, "type": "Feature", "properties": {"collection_times": [{"days": "Mon-Sat", "time": "9:00am"}, {"days": "Sun", "time": "Closed"}], "id": "4632200036", "name": "USPS COLLECTION BOX - BLUE BOX", "address": {"city": "HAMMOND", "state": "IN", "street": "2140 MARTHA ST", "postcode": "46322"}}},
{"geometry": {"type": "Point", "coordinates": [-87.4712441582, 41.5591610329]}, "type": "Feature", "properties": {"collection_times": [{"days": "Mon-Fri", "time": "1:00pm"}, {"days": "Sat", "time": "9:00am"}, {"days": "Sun", "time": "Closed"}], "id": "4632200039", "name": "USPS COLLECTION BOX - BLUE BOX", "address": {"city": "HAMMOND", "state": "IN", "street": "8401 INDIANAPOLIS BLVD", "postcode": "46322"}}},
{"geometry": {"type": "Point", "coordinates": [-87.4800889213, 41.537655227]}, "type": "Feature", "properties": {"collection_times": [{"days": "Mon-Sat", "time": "9:00am"}, {"days": "Sun", "time": "Closed"}], "id": "4632200042", "name": "USPS COLLECTION BOX - BLUE BOX", "address": {"city": "HAMMOND", "state": "IN", "street": "2033 45TH ST", "postcode": "46322"}}},
{"geometry": {"type": "Point", "coordinates": [-87.4757646522, 41.5261138585]}, "type": "Feature", "properties": {"collection_times": [{"days": "Mon-Sat", "time": "9:00am"}, {"days": "Sun", "time": "Closed"}], "id": "4632200045", "name": "USPS COLLECTION BOX - BLUE BOX", "address": {"city": "HAMMOND", "state": "IN", "street": "10335 PRAIRIE AVE", "postcode": "46322"}}},
{"geometry": {"type": "Point", "coordinates": [-87.461715126, 41.5592255387]}, "type": "Feature", "properties": {"collection_times": [{"days": "Mon-Fri", "time": "5:00pm"}, {"days": "Sat", "time": "3:00pm"}, {"days": "Sun", "time": "Closed"}], "id": "4632200046", "name": "USPS COLLECTION BOX - BLUE BOX", "address": {"city": "HAMMOND", "state": "IN", "street": "8500 KENNEDY AVE", "postcode": "46322"}}},
{"geometry": {"type": "Point", "coordinates": [-87.4610314228, 41.5374259218]}, "type": "Feature", "properties": {"collection_times": [{"days": "Mon-Fri", "time": "1:00pm"}, {"days": "Sat", "time": "9:00am"}, {"days": "Sun", "time": "Closed"}], "id": "4632200048", "name": "USPS COLLECTION BOX - BLUE BOX", "address": {"city": "HAMMOND", "state": "IN", "street": "2842 45TH ST", "postcode": "46322"}}},
{"geometry": {"type": "Point", "coordinates": [-87.4652184718, 41.5554617493]}, "type": "Feature", "properties": {"collection_times": [{"days": "Mon-Fri", "time": "1:00pm"}, {"days": "Sat", "time": "9:00am"}, {"days": "Sun", "time": "Closed"}], "id": "4632200051", "name": "USPS COLLECTION BOX - BLUE BOX", "address": {"city": "HAMMOND", "state": "IN", "street": "2648 HIGHWAY AVE", "postcode": "46322"}}},
{"geometry": {"type": "Point", "coordinates": [-87.4701683021, 41.5884180062]}, "type": "Feature", "properties": {"collection_times": [{"days": "Mon-Sat", "time": "10:30am"}, {"days": "Sun", "time": "Closed"}], "id": "4632300000", "name": "USPS COLLECTION BOX - BLUE BOX", "address": {"city": "HAMMOND", "state": "IN", "street": "2429 169TH ST", "postcode": "46323"}}},
{"geometry": {"type": "Point", "coordinates": [-87.4731984929, 41.5922683878]}, "type": "Feature", "properties": {"collection_times": [{"days": "Mon-Sat", "time": "1:00pm"}, {"days": "Sun", "time": "Closed"}], "id": "4632300001", "name": "USPS COLLECTION BOX - BLUE BOX", "address": {"city": "HAMMOND", "state": "IN", "street": "2217 TANGLEWOOD DR", "postcode": "46323"}}},
{"geometry": {"type": "Point", "coordinates": [-87.4653047454, 41.5811179766]}, "type": "Feature", "properties": {"collection_times": [{"days": "Mon-Sat", "time": "12:00pm"}, {"days": "Sun", "time": "Closed"}], "id": "4632300002", "name": "USPS COLLECTION BOX - BLUE BOX", "address": {"city": "HAMMOND", "state": "IN", "street": "2621 173RD ST", "postcode": "46323"}}},
{"geometry": {"type": "Point", "coordinates": [-87.4656179138, 41.5883769663]}, "type": "Feature", "properties": {"collection_times": [{"days": "Mon-Sat", "time": "10:00am"}, {"days": "Sun", "time": "Closed"}], "id": "4632300003", "name": "USPS COLLECTION BOX - BLUE BOX", "address": {"city": "HAMMOND", "state": "IN", "street": "2635 169TH ST", "postcode": "46323"}}},
{"geometry": {"type": "Point", "coordinates": [-87.4518996381, 41.5916616148]}, "type": "Feature", "properties": {"collection_times": [{"days": "Mon-Sat", "time": "11:00am"}, {"days": "Sun", "time": "Closed"}], "id": "4632300006", "name": "USPS COLLECTION BOX - BLUE BOX", "address": {"city": "HAMMOND", "state": "IN", "street": "6712 PARRISH AVE", "postcode": "46323"}}},
{"geometry": {"type": "Point", "coordinates": [-87.4759586575, 41.5884143924]}, "type": "Feature", "properties": {"collection_times": [{"days": "Mon-Sat", "time": "12:00pm"}, {"days": "Sun", "time": "Closed"}], "id": "4632300010", "name": "USPS COLLECTION BOX - BLUE BOX", "address": {"city": "HAMMOND", "state": "IN", "street": "2205 169TH ST", "postcode": "46323"}}},
{"geometry": {"type": "Point", "coordinates": [-87.4688389774, 41.5846596881]}, "type": "Feature", "properties": {"collection_times": [{"days": "Mon-Sat", "time": "9:30am"}, {"days": "Sun", "time": "Closed"}], "id": "4632300013", "name": "USPS COLLECTION BOX - BLUE BOX", "address": {"city": "HAMMOND", "state": "IN", "street": "2502 171ST ST", "postcode": "46323"}}},
{"geometry": {"type": "Point", "coordinates": [-87.4372618321, 41.5880672111]}, "type": "Feature", "properties": {"collection_times": [{"days": "Mon-Sat", "time": "10:30am"}, {"days": "Sun", "time": "Closed"}], "id": "4632300015", "name": "USPS COLLECTION BOX - BLUE BOX", "address": {"city": "HAMMOND", "state": "IN", "street": "6850 NEW HAMPSHIRE AVE", "postcode": "46323"}}},
{"geometry": {"type": "Point", "coordinates": [-87.4469833864, 41.5954606693]}, "type": "Feature", "properties": {"collection_times": [{"days": "Mon-Sat", "time": "10:00am"}, {"days": "Sun", "time": "Closed"}], "id": "4632300017", "name": "USPS COLLECTION BOX - BLUE BOX", "address": {"city": "HAMMOND", "state": "IN", "street": "3408 165TH ST", "postcode": "46323"}}},
{"geometry": {"type": "Point", "coordinates": [-87.4521646209, 41.5955736601]}, "type": "Feature", "properties": {"collection_times": [{"days": "Mon-Sat", "time": "9:30am"}, {"days": "Sun", "time": "Closed"}], "id": "4632300018", "name": "USPS COLLECTION BOX - BLUE BOX", "address": {"city": "HAMMOND", "state": "IN", "street": "3149 165TH ST", "postcode": "46323"}}},
{"geometry": {"type": "Point", "coordinates": [-87.4447569318, 41.5770899263]}, "type": "Feature", "properties": {"collection_times": [{"days": "Mon-Sat", "time": "1:00pm"}, {"days": "Sun", "time": "Closed"}], "id": "4632300019", "name": "USPS COLLECTION BOX - BLUE BOX", "address": {"city": "HAMMOND", "state": "IN", "street": "7502 MISSOURI AVE", "postcode": "46323"}}},
{"geometry": {"type": "Point", "coordinates": [-87.4361781134, 41.5951773688]}, "type": "Feature", "properties": {"collection_times": [{"days": "Mon-Sat", "time": "1:00pm"}, {"days": "Sun", "time": "Closed"}], "id": "4632300022", "name": "USPS COLLECTION BOX - BLUE BOX", "address": {"city": "HAMMOND", "state": "IN", "street": "6503 OHIO AVE", "postcode": "46323"}}},
{"geometry": {"type": "Point", "coordinates": [-87.4579717664, 41.580354893]}, "type": "Feature", "properties": {"collection_times": [{"days": "Mon-Sat", "time": "1:00pm"}, {"days": "Sun", "time": "Closed"}], "id": "4632300023", "name": "USPS COLLECTION BOX - BLUE BOX", "address": {"city": "HAMMOND", "state": "IN", "street": "7319 ARKANSAS AVE", "postcode": "46323"}}},
{"geometry": {"type": "Point", "coordinates": [-87.4421946427, 41.580644718]}, "type": "Feature", "properties": {"collection_times": [{"days": "Mon-Sat", "time": "10:00am"}, {"days": "Sun", "time": "Closed"}], "id": "4632300027", "name": "USPS COLLECTION BOX - BLUE BOX", "address": {"city": "HAMMOND", "state": "IN", "street": "7303 GRAND AVE", "postcode": "46323"}}},
{"geometry": {"type": "Point", "coordinates": [-87.4388563325, 41.5954104118]}, "type": "Feature", "properties": {"collection_times": [{"days": "Mon-Sat", "time": "10:30am"}, {"days": "Sun", "time": "Closed"}], "id": "4632300031", "name": "USPS COLLECTION BOX - BLUE BOX", "address": {"city": "HAMMOND", "state": "IN", "street": "3721 165TH ST", "postcode": "46323"}}},
{"geometry": {"type": "Point", "coordinates": [-87.4617032069, 41.5856609216]}, "type": "Feature", "properties": {"collection_times": [{"days": "Mon-Sat", "time": "10:00am"}, {"days": "Sun", "time": "Closed"}], "id": "4632300032", "name": "USPS COLLECTION BOX - BLUE BOX", "address": {"city": "HAMMOND", "state": "IN", "street": "7048 KENNEDY AVE", "postcode": "46323"}}},
{"geometry": {"type": "Point", "coordinates": [-87.4479887757, 41.5882333997]}, "type": "Feature", "properties": {"collection_times": [{"days": "Mon-Sat", "time": "10:00am"}, {"days": "Sun", "time": "Closed"}], "id": "4632300034", "name": "USPS COLLECTION BOX - BLUE BOX", "address": {"city": "HAMMOND", "state": "IN", "street": "3333 169TH ST", "postcode": "46323"}}},
{"geometry": {"type": "Point", "coordinates": [-87.461616463, 41.5946284759]}, "type": "Feature", "properties": {"collection_times": [{"days": "Mon-Fri", "time": "5:00pm"}, {"days": "Sat", "time": "3:30pm"}, {"days": "Sun", "time": "Closed"}], "id": "4632300037", "name": "USPS COLLECTION BOX - BLUE BOX", "address": {"city": "HAMMOND", "state": "IN", "street": "6530 KENNEDY AVE", "postcode": "46323"}}},
{"geometry": {"type": "Point", "coordinates": [-87.461616463, 41.5946284759]}, "type": "Feature", "properties": {"collection_times": [{"days": "Mon-Fri", "time": "5:00pm"}, {"days": "Sat", "time": "3:30pm"}, {"days": "Sun", "time": "Closed"}], "id": "4632300039", "name": "USPS COLLECTION BOX - PO LOBBY", "address": {"city": "HAMMOND", "state": "IN", "street": "6530 KENNEDY AVE", "postcode": "46323"}}},
{"geometry": {"type": "Point", "coordinates": [-87.461616463, 41.5946284759]}, "type": "Feature", "properties": {"collection_times": [{"days": "Mon-Fri", "time": "5:00pm"}, {"days": "Sat", "time": "3:30pm"}, {"days": "Sun", "time": "Closed"}], "id": "4632300040", "name": "USPS COLLECTION BOX - BLUE BOX", "address": {"city": "HAMMOND", "state": "IN", "street": "6530 KENNEDY AVE", "postcode": "46323"}}},
{"geometry": {"type": "Point", "coordinates": [-87.5090720448, 41.5832531425]}, "type": "Feature", "properties": {"collection_times": [{"days": "Mon-Fri", "time": "5:00pm"}, {"days": "Sat", "time": "2:45pm"}, {"days": "Sun", "time": "Closed"}], "id": "4632400001", "name": "USPS COLLECTION BOX - BLUE BOX", "address": {"city": "HAMMOND", "state": "IN", "street": "7142 CALUMET AVE", "postcode": "46324"}}},
{"geometry": {"type": "Point", "coordinates": [-87.5090773947, 41.5832623079]}, "type": "Feature", "properties": {"collection_times": [{"days": "Mon-Fri", "time": "5:00pm"}, {"days": "Sat", "time": "2:45pm"}, {"days": "Sun", "time": "Closed"}], "id": "4632400002", "name": "USPS COLLECTION BOX - BLUE BOX", "address": {"city": "HAMMOND", "state": "IN", "street": "7142 CALUMET AVE", "postcode": "46324"}}},
{"geometry": {"type": "Point", "coordinates": [-87.5090720448, 41.5832531425]}, "type": "Feature", "properties": {"collection_times": [{"days": "Mon-Fri", "time": "3:00pm"}, {"days": "Sat", "time": "12:45pm"}, {"days": "Sun", "time": "Closed"}], "id": "4632400003", "name": "USPS COLLECTION BOX - PO LOBBY", "address": {"city": "HAMMOND", "state": "IN", "street": "7142 CALUMET AVE", "postcode": "46324"}}},
{"geometry": {"type": "Point", "coordinates": [-87.4953662823, 41.584909285]}, "type": "Feature", "properties": {"collection_times": [{"days": "Mon-Sat", "time": "9:30am"}, {"days": "Sun", "time": "Closed"}], "id": "4632400004", "name": "USPS COLLECTION BOX - BLUE BOX", "address": {"city": "HAMMOND", "state": "IN", "street": "7048 CHESTNUT AVE", "postcode": "46324"}}},
{"geometry": {"type": "Point", "coordinates": [-87.5220499583, 41.5913067281]}, "type": "Feature", "properties": {"collection_times": [{"days": "Mon-Fri", "time": "3:00pm"}, {"days": "Sat", "time": "10:00am"}, {"days": "Sun", "time": "Closed"}], "id": "4632400005", "name": "USPS COLLECTION BOX - BLUE BOX", "address": {"city": "HAMMOND", "state": "IN", "street": "6720 HOHMAN AVE", "postcode": "46324"}}},
{"geometry": {"type": "Point", "coordinates": [-87.4809377318, 41.5841273491]}, "type": "Feature", "properties": {"collection_times": [{"days": "Mon-Fri", "time": "3:00pm"}, {"days": "Sat", "time": "9:00am"}, {"days": "Sun", "time": "Closed"}], "id": "4632400006", "name": "USPS COLLECTION BOX - BLUE BOX", "address": {"city": "HAMMOND", "state": "IN", "street": "7120 INDIANAPOLIS BLVD", "postcode": "46324"}}},
{"geometry": {"type": "Point", "coordinates": [-87.4857346304, 41.5846738762]}, "type": "Feature", "properties": {"collection_times": [{"days": "Mon-Sat", "time": "10:00am"}, {"days": "Sun", "time": "Closed"}], "id": "4632400007", "name": "USPS COLLECTION BOX - BLUE BOX", "address": {"city": "HAMMOND", "state": "IN", "street": "7103 NORTHCOTE AVE", "postcode": "46324"}}},
{"geometry": {"type": "Point", "coordinates": [-87.5051907565, 41.5883031943]}, "type": "Feature", "properties": {"collection_times": [{"days": "Mon-Sat", "time": "9:30am"}, {"days": "Sun", "time": "Closed"}], "id": "4632400008", "name": "USPS COLLECTION BOX - BLUE BOX", "address": {"city": "HAMMOND", "state": "IN", "street": "939 169TH ST", "postcode": "46324"}}},
{"geometry": {"type": "Point", "coordinates": [-87.4939526463, 41.5811569392]}, "type": "Feature", "properties": {"collection_times": [{"days": "Mon-Sat", "time": "9:30am"}, {"days": "Sun", "time": "Closed"}], "id": "4632400009", "name": "USPS COLLECTION BOX - BLUE BOX", "address": {"city": "HAMMOND", "state": "IN", "street": "1429 173RD ST", "postcode": "46324"}}},
{"geometry": {"type": "Point", "coordinates": [-87.505262917, 41.5774093252]}, "type": "Feature", "properties": {"collection_times": [{"days": "Mon-Sat", "time": "9:00am"}, {"days": "Sun", "time": "Closed"}], "id": "4632400010", "name": "USPS COLLECTION BOX - BLUE BOX", "address": {"city": "HAMMOND", "state": "IN", "street": "939 175TH ST", "postcode": "46324"}}},
{"geometry": {"type": "Point", "coordinates": [-87.5171979537, 41.631089263]}, "type": "Feature", "properties": {"collection_times": [{"days": "Mon-Sat", "time": "9:15am"}, {"days": "Sun", "time": "Closed"}], "id": "4632700001", "name": "USPS COLLECTION BOX - BLUE BOX", "address": {"city": "HAMMOND", "state": "IN", "street": "4531 HOHMAN AVE", "postcode": "46327"}}},
{"geometry": {"type": "Point", "coordinates": [-86.7793003739, 41.4140316559]}, "type": "Feature", "properties": {"collection_times": [{"days": "Mon-Fri", "time": "4:30pm"}, {"days": "Sat", "time": "10:45am"}, {"days": "Sun", "time": "Closed"}], "id": "4634000001", "name": "USPS COLLECTION BOX - BLUE BOX", "address": {"city": "HANNA", "state": "IN", "street": "5 W YOUNG ST", "postcode": "46340"}}},
{"geometry": {"type": "Point", "coordinates": [-86.7793003739, 41.4140316559]}, "type": "Feature", "properties": {"collection_times": [{"days": "Mon-Fri", "time": "4:30pm"}, {"days": "Sat", "time": "10:45am"}, {"days": "Sun", "time": "Closed"}], "id": "4634000002", "name": "USPS COLLECTION BOX - PO LOBBY", "address": {"city": "HANNA", "state": "IN", "street": "5 W YOUNG ST", "postcode": "46340"}}},
{"geometry": {"type": "Point", "coordinates": [-86.780614835, 41.412378766]}, "type": "Feature", "properties": {"collection_times": [{"days": "Mon-Sat", "time": "11:30am"}, {"days": "Sun", "time": "Closed"}], "id": "4634000004", "name": "USPS COLLECTION BOX - BLUE BOX", "address": {"city": "HANNA", "state": "IN", "street": "6 N THOMPSON ST", "postcode": "46340"}}},
{"geometry": {"type": "Point", "coordinates": [-87.2013855514, 41.318771332]}, "type": "Feature", "properties": {"collection_times": [{"days": "Mon-Fri", "time": "4:15pm"}, {"days": "Sat", "time": "12:00pm"}, {"days": "Sun", "time": "Closed"}], "id": "4634100001", "name": "USPS COLLECTION BOX - BLUE BOX", "address": {"city": "HEBRON", "state": "IN", "street": "107 N WASHINGTON ST", "postcode": "46341"}}},
{"geometry": {"type": "Point", "coordinates": [-87.2055781289, 41.3321118173]}, "type": "Feature", "properties": {"collection_times": [{"days": "Mon-Sat", "time": "10:00am"}, {"days": "Sun", "time": "Closed"}], "id": "4634100003", "name": "USPS COLLECTION BOX - BLUE BOX", "address": {"city": "HEBRON", "state": "IN", "street": "800 COUNTRY SQUARE PLZ", "postcode": "46341"}}},
{"geometry": {"type": "Point", "coordinates": [-87.3085156227, 41.2923472362]}, "type": "Feature", "properties": {"collection_times": [{"days": "Mon-Sat", "time": "10:00am"}, {"days": "Sun", "time": "Closed"}], "id": "4634100004", "name": "USPS COLLECTION BOX - BLUE BOX", "address": {"city": "HEBRON", "state": "IN", "street": "108 MCINTOSH BLVD", "postcode": "46341"}}},
{"geometry": {"type": "Point", "coordinates": [-87.2951677158, 41.2893685072]}, "type": "Feature", "properties": {"collection_times": [{"days": "Mon-Sat", "time": "11:00am"}, {"days": "Sun", "time": "Closed"}], "id": "4634100006", "name": "USPS COLLECTION BOX - BLUE BOX", "address": {"city": "HEBRON", "state": "IN", "street": "3231 E 181ST AVE", "postcode": "46341"}}},
{"geometry": {"type": "Point", "coordinates": [-87.2013855514, 41.318771332]}, "type": "Feature", "properties": {"collection_times": [{"days": "Mon-Fri", "time": "4:15pm"}, {"days": "Sat", "time": "2:00pm"}, {"days": "Sun", "time": "Closed"}], "id": "4634100008", "name": "USPS COLLECTION BOX - PO LOBBY", "address": {"city": "HEBRON", "state": "IN", "street": "107 N WASHINGTON ST", "postcode": "46341"}}},
{"geometry": {"type": "Point", "coordinates": [-87.2958984338, 41.2910608679]}, "type": "Feature", "properties": {"collection_times": [{"days": "Mon-Sat", "time": "11:00am"}, {"days": "Sun", "time": "Closed"}], "id": "4634100012", "name": "USPS COLLECTION BOX - BLUE BOX", "address": {"city": "HEBRON", "state": "IN", "street": "18011 COLORADO ST", "postcode": "46341"}}},
{"geometry": {"type": "Point", "coordinates": [-87.2013855514, 41.318771332]}, "type": "Feature", "properties": {"collection_times": [{"days": "Mon-Fri", "time": "4:15pm"}, {"days": "Sat", "time": "12:00pm"}, {"days": "Sun", "time": "Closed"}], "id": "4634100013", "name": "USPS COLLECTION BOX - BLUE BOX", "address": {"city": "HEBRON", "state": "IN", "street": "107 N WASHINGTON ST", "postcode": "46341"}}},
{"geometry": {"type": "Point", "coordinates": [-87.2542825532, 41.5332448057]}, "type": "Feature", "properties": {"collection_times": [{"days": "Mon-Fri", "time": "5:00pm"}, {"days": "Sat", "time": "4:00pm"}, {"days": "Sun", "time": "Closed"}], "id": "4634200011", "name": "USPS COLLECTION BOX - BLUE BOX", "address": {"city": "HOBART", "state": "IN", "street": "210 CENTER ST", "postcode": "46342"}}},
{"geometry": {"type": "Point", "coordinates": [-87.2590176015, 41.5152223456]}, "type": "Feature", "properties": {"collection_times": [{"days": "Mon-Sat", "time": "2:00pm"}, {"days": "Sun", "time": "Closed"}], "id": "4634200012", "name": "USPS COLLECTION BOX - BLUE BOX", "address": {"city": "HOBART", "state": "IN", "street": "1350 S LAKE PARK AVE", "postcode": "46342"}}},
{"geometry": {"type": "Point", "coordinates": [-87.2599380485, 41.5428019638]}, "type": "Feature", "properties": {"collection_times": [{"days": "Mon-Sat", "time": "10:30am"}, {"days": "Sun", "time": "Closed"}], "id": "4634200013", "name": "USPS COLLECTION BOX - BLUE BOX", "address": {"city": "HOBART", "state": "IN", "street": "400 N LAKE PARK AVE", "postcode": "46342"}}},
{"geometry": {"type": "Point", "coordinates": [-87.2541428528, 41.5307246541]}, "type": "Feature", "properties": {"collection_times": [{"days": "Mon-Sat", "time": "9:30am"}, {"days": "Sun", "time": "Closed"}], "id": "4634200015", "name": "USPS COLLECTION BOX - BLUE BOX", "address": {"city": "HOBART", "state": "IN", "street": "414 MAIN ST", "postcode": "46342"}}},
{"geometry": {"type": "Point", "coordinates": [-87.2595181825, 41.5217494529]}, "type": "Feature", "properties": {"collection_times": [{"days": "Mon-Sat", "time": "10:30am"}, {"days": "Sun", "time": "Closed"}], "id": "4634200016", "name": "USPS COLLECTION BOX - BLUE BOX", "address": {"city": "HOBART", "state": "IN", "street": "111 W 10TH ST", "postcode": "46342"}}},
{"geometry": {"type": "Point", "coordinates": [-87.2719652324, 41.539818369]}, "type": "Feature", "properties": {"collection_times": [{"days": "Mon-Sat", "time": "10:30am"}, {"days": "Sun", "time": "Closed"}], "id": "4634200018", "name": "USPS COLLECTION BOX - BLUE BOX", "address": {"city": "HOBART", "state": "IN", "street": "999 W OLD RIDGE RD", "postcode": "46342"}}},
{"geometry": {"type": "Point", "coordinates": [-87.2486973316, 41.5507729246]}, "type": "Feature", "properties": {"collection_times": [{"days": "Mon-Sat", "time": "12:00pm"}, {"days": "Sun", "time": "Closed"}], "id": "4634200020", "name": "USPS COLLECTION BOX - BLUE BOX", "address": {"city": "HOBART", "state": "IN", "street": "534 E 37TH AVE", "postcode": "46342"}}},
{"geometry": {"type": "Point", "coordinates": [-87.2269652214, 41.5506717019]}, "type": "Feature", "properties": {"collection_times": [{"days": "Mon-Sat", "time": "10:30am"}, {"days": "Sun", "time": "Closed"}], "id": "4634200021", "name": "USPS COLLECTION BOX - BLUE BOX", "address": {"city": "HOBART", "state": "IN", "street": "7760 E RIDGE RD", "postcode": "46342"}}},
{"geometry": {"type": "Point", "coordinates": [-87.2589732461, 41.5131358889]}, "type": "Feature", "properties": {"collection_times": [{"days": "Mon-Sat", "time": "2:00pm"}, {"days": "Sun", "time": "Closed"}], "id": "4634200026", "name": "USPS COLLECTION BOX - BLUE BOX", "address": {"city": "HOBART", "state": "IN", "street": "1500 S LAKE PARK AVE", "postcode": "46342"}}},
{"geometry": {"type": "Point", "coordinates": [-87.2747243123, 41.5588827781]}, "type": "Feature", "properties": {"collection_times": [{"days": "Mon-Sat", "time": "10:30am"}, {"days": "Sun", "time": "Closed"}], "id": "4634200028", "name": "USPS COLLECTION BOX - BLUE BOX", "address": {"city": "HOBART", "state": "IN", "street": "3250 MICHIGAN ST", "postcode": "46342"}}},
{"geometry": {"type": "Point", "coordinates": [-87.2657613675, 41.5507688379]}, "type": "Feature", "properties": {"collection_times": [{"days": "Mon-Sat", "time": "10:00am"}, {"days": "Sun", "time": "Closed"}], "id": "4634200031", "name": "USPS COLLECTION BOX - BLUE BOX", "address": {"city": "HOBART", "state": "IN", "street": "1861 E 37TH AVE", "postcode": "46342"}}},
{"geometry": {"type": "Point", "coordinates": [-87.2555533138, 41.5114921612]}, "type": "Feature", "properties": {"collection_times": [{"days": "Mon-Sat", "time": "10:00am"}, {"days": "Sun", "time": "Closed"}], "id": "4634200035", "name": "USPS COLLECTION BOX - BLUE BOX", "address": {"city": "HOBART", "state": "IN", "street": "97 BRACKEN PKWY", "postcode": "46342"}}},
{"geometry": {"type": "Point", "coordinates": [-87.2552291443, 41.5328136998]}, "type": "Feature", "properties": {"collection_times": [{"days": "Mon-Fri", "time": "5:00pm"}, {"days": "Sat", "time": "4:00pm"}, {"days": "Sun", "time": "Closed"}], "id": "4634200036", "name": "USPS COLLECTION BOX - PO LOBBY", "address": {"city": "HOBART", "state": "IN", "street": "221 MAIN ST", "postcode": "46342"}}},
{"geometry": {"type": "Point", "coordinates": [-87.2542825532, 41.5332448057]}, "type": "Feature", "properties": {"collection_times": [{"days": "Mon-Fri", "time": "5:00pm"}, {"days": "Sat", "time": "4:00pm"}, {"days": "Sun", "time": "Closed"}], "id": "4634200037", "name": "USPS COLLECTION BOX - BLUE BOX", "address": {"city": "HOBART", "state": "IN", "street": "210 CENTER ST", "postcode": "46342"}}},
{"geometry": {"type": "Point", "coordinates": [-87.2542825532, 41.5332448057]}, "type": "Feature", "properties": {"collection_times": [{"days": "Mon-Fri", "time": "5:00pm"}, {"days": "Sat", "time": "4:00pm"}, {"days": "Sun", "time": "Closed"}], "id": "4634200038", "name": "USPS COLLECTION BOX - BLUE BOX", "address": {"city": "HOBART", "state": "IN", "street": "210 CENTER ST", "postcode": "46342"}}},
{"geometry": {"type": "Point", "coordinates": [-86.6932929187, 41.4796074113]}, "type": "Feature", "properties": {"collection_times": [{"days": "Mon-Fri", "time": "4:00pm"}, {"days": "Sat", "time": "10:00am"}, {"days": "Sun", "time": "Closed"}], "id": "4634600001", "name": "USPS COLLECTION BOX - BLUE BOX", "address": {"city": "KINGSFORD HTS", "state": "IN", "street": "423 PARK RD", "postcode": "46346"}}},
{"geometry": {"type": "Point", "coordinates": [-86.6932929187, 41.4796074113]}, "type": "Feature", "properties": {"collection_times": [{"days": "Mon-Fri", "time": "4:00pm"}, {"days": "Sat", "time": "10:00am"}, {"days": "Sun", "time": "Closed"}], "id": "4634600002", "name": "USPS COLLECTION BOX - PO LOBBY", "address": {"city": "KINGSFORD HTS", "state": "IN", "street": "423 PARK RD", "postcode": "46346"}}},
{"geometry": {"type": "Point", "coordinates": [-87.0257110642, 41.3140035273]}, "type": "Feature", "properties": {"collection_times": [{"days": "Mon-Fri", "time": "4:30pm"}, {"days": "Sat", "time": "11:00am"}, {"days": "Sun", "time": "Closed"}], "id": "4634700001", "name": "USPS COLLECTION BOX - BLUE BOX", "address": {"city": "KOUTS", "state": "IN", "street": "107 E ELIZABETH ST", "postcode": "46347"}}},
{"geometry": {"type": "Point", "coordinates": [-87.0257110642, 41.3140035273]}, "type": "Feature", "properties": {"collection_times": [{"days": "Mon-Fri", "time": "4:30pm"}, {"days": "Sat", "time": "11:00am"}, {"days": "Sun", "time": "Closed"}], "id": "4634700003", "name": "USPS COLLECTION BOX - PO LOBBY", "address": {"city": "KOUTS", "state": "IN", "street": "107 E ELIZABETH ST", "postcode": "46347"}}},
{"geometry": {"type": "Point", "coordinates": [-86.8916025025, 41.3172486586]}, "type": "Feature", "properties": {"collection_times": [{"days": "Mon-Fri", "time": "4:15pm"}, {"days": "Sat", "time": "10:15am"}, {"days": "Sun", "time": "Closed"}], "id": "4634800001", "name": "USPS COLLECTION BOX - BLUE BOX", "address": {"city": "LA CROSSE", "state": "IN", "street": "16 W MAIN ST", "postcode": "46348"}}},
{"geometry": {"type": "Point", "coordinates": [-86.8916025025, 41.3172486586]}, "type": "Feature", "properties": {"collection_times": [{"days": "Mon-Fri", "time": "11:45am"}, {"days": "Sat", "time": "10:15am"}, {"days": "Sun", "time": "Closed"}], "id": "4634800003", "name": "USPS COLLECTION BOX - PO LOBBY", "address": {"city": "LA CROSSE", "state": "IN", "street": "16 W MAIN ST", "postcode": "46348"}}},
{"geometry": {"type": "Point", "coordinates": [-87.4378350901, 41.1447294491]}, "type": "Feature", "properties": {"collection_times": [{"days": "Mon-Sat", "time": "8:30am"}, {"days": "Sun", "time": "Closed"}], "id": "4634900001", "name": "USPS COLLECTION BOX - BLUE BOX", "address": {"city": "LAKE VILLAGE", "state": "IN", "street": "3347 W STATE ROAD 10", "postcode": "46349"}}},
{"geometry": {"type": "Point", "coordinates": [-87.4475625747, 41.1374939696]}, "type": "Feature", "properties": {"collection_times": [{"days": "Mon-Fri", "time": "3:30pm"}, {"days": "Sat", "time": "10:00am"}, {"days": "Sun", "time": "Closed"}], "id": "4634900002", "name": "USPS COLLECTION BOX - BLUE BOX", "address": {"city": "LAKE VILLAGE", "state": "IN", "street": "3041 W 950 N", "postcode": "46349"}}},
{"geometry": {"type": "Point", "coordinates": [-87.4475625747, 41.1374939696]}, "type": "Feature", "properties": {"collection_times": [{"days": "Mon-Fri", "time": "3:30pm"}, {"days": "Sat", "time": "10:00am"}, {"days": "Sun", "time": "Closed"}], "id": "4634900003", "name": "USPS COLLECTION BOX - PO LOBBY", "address": {"city": "LAKE VILLAGE", "state": "IN", "street": "3041 W 950 N", "postcode": "46349"}}},
{"geometry": {"type": "Point", "coordinates": [-86.7270652291, 41.6135426683]}, "type": "Feature", "properties": {"collection_times": [{"days": "Mon-Sat", "time": "8:30am"}, {"days": "Sun", "time": "Closed"}], "id": "4635000045", "name": "USPS COLLECTION BOX - BLUE BOX", "address": {"city": "LAPORTE", "state": "IN", "street": "55 PINE LAKE AVE", "postcode": "46350"}}},
{"geometry": {"type": "Point", "coordinates": [-86.7191279683, 41.6133994544]}, "type": "Feature", "properties": {"collection_times": [{"days": "Mon-Sat", "time": "9:00am"}, {"days": "Sun", "time": "Closed"}], "id": "4635000060", "name": "USPS COLLECTION BOX - BLUE BOX", "address": {"city": "LAPORTE", "state": "IN", "street": "601 JACKSON ST", "postcode": "46350"}}},
{"geometry": {"type": "Point", "coordinates": [-86.7222927647, 41.6123189641]}, "type": "Feature", "properties": {"collection_times": [{"days": "Mon-Fri", "time": "3:00pm"}, {"days": "Sat", "time": "12:00pm"}, {"days": "Sun", "time": "Closed"}], "id": "4635000061", "name": "USPS COLLECTION BOX - BLUE BOX", "address": {"city": "LAPORTE", "state": "IN", "street": "555 MICHIGAN AVE", "postcode": "46350"}}},
{"geometry": {"type": "Point", "coordinates": [-86.7226998227, 41.6126356393]}, "type": "Feature", "properties": {"collection_times": [{"days": "Mon-Fri", "time": "3:00pm"}, {"days": "Sat", "time": "12:00pm"}, {"days": "Sun", "time": "Closed"}], "id": "4635000062", "name": "USPS COLLECTION BOX - BLUE BOX", "address": {"city": "LAPORTE", "state": "IN", "street": "800 WASHINGTON ST", "postcode": "46350"}}},
{"geometry": {"type": "Point", "coordinates": [-86.7224149244, 41.6105189054]}, "type": "Feature", "properties": {"collection_times": [{"days": "Mon-Fri", "time": "3:00pm"}, {"days": "Sat", "time": "12:00pm"}, {"days": "Sun", "time": "Closed"}], "id": "4635000065", "name": "USPS COLLECTION BOX - BLUE BOX", "address": {"city": "LAPORTE", "state": "IN", "street": "902 LINCOLNWAY", "postcode": "46350"}}},
{"geometry": {"type": "Point", "coordinates": [-86.7213193442, 41.6111030041]}, "type": "Feature", "properties": {"collection_times": [{"days": "Mon-Fri", "time": "3:00pm"}, {"days": "Sat", "time": "12:00pm"}, {"days": "Sun", "time": "Closed"}], "id": "4635000068", "name": "USPS COLLECTION BOX - BLUE BOX", "address": {"city": "LAPORTE", "state": "IN", "street": "800 LINCOLNWAY", "postcode": "46350"}}},
{"geometry": {"type": "Point", "coordinates": [-86.7064013271, 41.6180288507]}, "type": "Feature", "properties": {"collection_times": [{"days": "Mon-Sat", "time": "8:30am"}, {"days": "Sun", "time": "Closed"}], "id": "4635000076", "name": "USPS COLLECTION BOX - BLUE BOX", "address": {"city": "LAPORTE", "state": "IN", "street": "702 E LINCOLNWAY", "postcode": "46350"}}},
{"geometry": {"type": "Point", "coordinates": [-86.7482875834, 41.6393700415]}, "type": "Feature", "properties": {"collection_times": [{"days": "Mon-Sat", "time": "9:00am"}, {"days": "Sun", "time": "Closed"}], "id": "4635000083", "name": "USPS COLLECTION BOX - BLUE BOX", "address": {"city": "LAPORTE", "state": "IN", "street": "243 W JOHNSON RD", "postcode": "46350"}}},
{"geometry": {"type": "Point", "coordinates": [-86.7252769512, 41.6091695799]}, "type": "Feature", "properties": {"collection_times": [{"days": "Mon-Sat", "time": "5:00pm"}, {"days": "Sun", "time": "Closed"}], "id": "4635000097", "name": "USPS COLLECTION BOX - PO LOBBY", "address": {"city": "LAPORTE", "state": "IN", "street": "1201 LINCOLNWAY", "postcode": "46350"}}},
{"geometry": {"type": "Point", "coordinates": [-86.7252769512, 41.6091695799]}, "type": "Feature", "properties": {"collection_times": [{"days": "Mon-Sat", "time": "5:00pm"}, {"days": "Sun", "time": "Closed"}], "id": "4635000098", "name": "USPS COLLECTION BOX - PO LOBBY", "address": {"city": "LAPORTE", "state": "IN", "street": "1201 LINCOLNWAY", "postcode": "46350"}}},
{"geometry": {"type": "Point", "coordinates": [-86.7258858055, 41.6098548352]}, "type": "Feature", "properties": {"collection_times": [{"days": "Mon-Fri", "time": "4:45pm"}, {"days": "Sat", "time": "1:00pm"}, {"days": "Sun", "time": "Closed"}], "id": "4635000100", "name": "USPS COLLECTION BOX - BLUE BOX", "address": {"city": "LAPORTE", "state": "IN", "street": "1200 STATE ST", "postcode": "46350"}}},
{"geometry": {"type": "Point", "coordinates": [-86.7258858055, 41.6098548352]}, "type": "Feature", "properties": {"collection_times": [{"days": "Mon-Fri", "time": "4:45pm"}, {"days": "Sat", "time": "1:00pm"}, {"days": "Sun", "time": "Closed"}], "id": "4635000101", "name": "USPS COLLECTION BOX - BLUE BOX", "address": {"city": "LAPORTE", "state": "IN", "street": "1200 STATE ST", "postcode": "46350"}}},
{"geometry": {"type": "Point", "coordinates": [-86.7258858055, 41.6098548352]}, "type": "Feature", "properties": {"collection_times": [{"days": "Mon-Fri", "time": "4:45pm"}, {"days": "Sat", "time": "1:00pm"}, {"days": "Sun", "time": "Closed"}], "id": "4635000107", "name": "USPS COLLECTION BOX - BLUE BOX", "address": {"city": "LAPORTE", "state": "IN", "street": "1200 STATE ST", "postcode": "46350"}}},
{"geometry": {"type": "Point", "coordinates": [-86.7258858055, 41.6098548352]}, "type": "Feature", "properties": {"collection_times": [{"days": "Mon-Fri", "time": "4:45pm"}, {"days": "Sat", "time": "1:00pm"}, {"days": "Sun", "time": "Closed"}], "id": "4635000108", "name": "USPS COLLECTION BOX - BLUE BOX", "address": {"city": "LAPORTE", "state": "IN", "street": "1200 STATE ST", "postcode": "46350"}}},
{"geometry": {"type": "Point", "coordinates": [-86.7258858055, 41.6098548352]}, "type": "Feature", "properties": {"collection_times": [{"days": "Mon-Fri", "time": "4:45pm"}, {"days": "Sat", "time": "1:00pm"}, {"days": "Sun", "time": "Closed"}], "id": "4635000109", "name": "USPS COLLECTION BOX - BLUE BOX", "address": {"city": "LAPORTE", "state": "IN", "street": "1200 STATE ST", "postcode": "46350"}}},
{"geometry": {"type": "Point", "coordinates": [-87.2720283818, 41.3609974369]}, "type": "Feature", "properties": {"collection_times": [{"days": "Mon-Fri", "time": "4:00pm"}, {"days": "Sat", "time": "10:00am"}, {"days": "Sun", "time": "Closed"}], "id": "4635500001", "name": "USPS COLLECTION BOX - BLUE BOX", "address": {"city": "LEROY", "state": "IN", "street": "14120 ELKHART ST", "postcode": "46355"}}},
{"geometry": {"type": "Point", "coordinates": [-87.4210048339, 41.2914172096]}, "type": "Feature", "properties": {"collection_times": [{"days": "Mon-Sat", "time": "2:45pm"}, {"days": "Sun", "time": "Closed"}], "id": "4635600001", "name": "USPS COLLECTION BOX - BLUE BOX", "address": {"city": "LOWELL", "state": "IN", "street": "512 E COMMERCIAL AVE", "postcode": "46356"}}},
{"geometry": {"type": "Point", "coordinates": [-87.3921374793, 41.2898946448]}, "type": "Feature", "properties": {"collection_times": [{"days": "Mon-Sat", "time": "11:00am"}, {"days": "Sun", "time": "Closed"}], "id": "4635600013", "name": "USPS COLLECTION BOX - BLUE BOX", "address": {"city": "LOWELL", "state": "IN", "street": "2052 E COMMERCIAL AVE", "postcode": "46356"}}},
{"geometry": {"type": "Point", "coordinates": [-87.394557143, 41.2899343013]}, "type": "Feature", "properties": {"collection_times": [{"days": "Mon-Sat", "time": "11:00am"}, {"days": "Sun", "time": "Closed"}], "id": "4635600015", "name": "USPS COLLECTION BOX - BLUE BOX", "address": {"city": "LOWELL", "state": "IN", "street": "1914 E COMMERCIAL AVE", "postcode": "46356"}}},
{"geometry": {"type": "Point", "coordinates": [-87.4194218876, 41.2913691574]}, "type": "Feature", "properties": {"collection_times": [{"days": "Mon-Sat", "time": "2:45pm"}, {"days": "Sun", "time": "Closed"}], "id": "4635600016", "name": "USPS COLLECTION BOX - BLUE BOX", "address": {"city": "LOWELL", "state": "IN", "street": "651 E COMMERCIAL AVE", "postcode": "46356"}}},
{"geometry": {"type": "Point", "coordinates": [-87.4121405533, 41.2931101283]}, "type": "Feature", "properties": {"collection_times": [{"days": "Mon-Sat", "time": "11:00am"}, {"days": "Sun", "time": "Closed"}], "id": "4635600018", "name": "USPS COLLECTION BOX - BLUE BOX", "address": {"city": "LOWELL", "state": "IN", "street": "204 PRAIRIE ST", "postcode": "46356"}}},
{"geometry": {"type": "Point", "coordinates": [-87.4262185661, 41.291614911]}, "type": "Feature", "properties": {"collection_times": [{"days": "Mon-Sat", "time": "4:15pm"}, {"days": "Sun", "time": "Closed"}], "id": "4635600019", "name": "USPS COLLECTION BOX - BLUE BOX", "address": {"city": "LOWELL", "state": "IN", "street": "202 WASHINGTON ST", "postcode": "46356"}}},
{"geometry": {"type": "Point", "coordinates": [-87.4262185661, 41.291614911]}, "type": "Feature", "properties": {"collection_times": [{"days": "Mon-Sat", "time": "4:15pm"}, {"days": "Sun", "time": "Closed"}], "id": "4635600020", "name": "USPS COLLECTION BOX - BLUE BOX", "address": {"city": "LOWELL", "state": "IN", "street": "202 WASHINGTON ST", "postcode": "46356"}}},
{"geometry": {"type": "Point", "coordinates": [-87.4262185661, 41.291614911]}, "type": "Feature", "properties": {"collection_times": [{"days": "Mon-Sat", "time": "4:15pm"}, {"days": "Sun", "time": "Closed"}], "id": "4635600021", "name": "USPS COLLECTION BOX - PO LOBBY", "address": {"city": "LOWELL", "state": "IN", "street": "202 WASHINGTON ST", "postcode": "46356"}}},
{"geometry": {"type": "Point", "coordinates": [-87.4262185661, 41.291614911]}, "type": "Feature", "properties": {"collection_times": [{"days": "Mon-Sat", "time": "4:15pm"}, {"days": "Sun", "time": "Closed"}], "id": "4635600022", "name": "USPS COLLECTION BOX - PO LOBBY", "address": {"city": "LOWELL", "state": "IN", "street": "202 WASHINGTON ST", "postcode": "46356"}}},
{"geometry": {"type": "Point", "coordinates": [-86.9044055266, 41.7188986874]}, "type": "Feature", "properties": {"collection_times": [{"days": "Mon-Fri", "time": "5:00pm"}, {"days": "Sat", "time": "3:00pm"}, {"days": "Sun", "time": "Closed"}], "id": "4636000001", "name": "USPS COLLECTION BOX - PO LOBBY", "address": {"city": "MICHIGAN CITY", "state": "IN", "street": "303 WASHINGTON ST", "postcode": "46360"}}},
{"geometry": {"type": "Point", "coordinates": [-86.9044055266, 41.7188986874]}, "type": "Feature", "properties": {"collection_times": [{"days": "Mon-Fri", "time": "5:00pm"}, {"days": "Sat", "time": "3:00pm"}, {"days": "Sun", "time": "Closed"}], "id": "4636000002", "name": "USPS COLLECTION BOX - BLUE BOX", "address": {"city": "MICHIGAN CITY", "state": "IN", "street": "303 WASHINGTON ST", "postcode": "46360"}}},
{"geometry": {"type": "Point", "coordinates": [-86.9044055266, 41.7188986874]}, "type": "Feature", "properties": {"collection_times": [{"days": "Mon-Fri", "time": "5:00pm"}, {"days": "Sat", "time": "3:00pm"}, {"days": "Sun", "time": "Closed"}], "id": "4636000003", "name": "USPS COLLECTION BOX - BLUE BOX", "address": {"city": "MICHIGAN CITY", "state": "IN", "street": "303 WASHINGTON ST", "postcode": "46360"}}},
{"geometry": {"type": "Point", "coordinates": [-86.9044055266, 41.7188986874]}, "type": "Feature", "properties": {"collection_times": [{"days": "Mon-Fri", "time": "5:00pm"}, {"days": "Sat", "time": "3:00pm"}, {"days": "Sun", "time": "Closed"}], "id": "4636000004", "name": "USPS COLLECTION BOX - BLUE BOX", "address": {"city": "MICHIGAN CITY", "state": "IN", "street": "303 WASHINGTON ST", "postcode": "46360"}}},
{"geometry": {"type": "Point", "coordinates": [-86.9044055266, 41.7188986874]}, "type": "Feature", "properties": {"collection_times": [{"days": "Mon-Fri", "time": "5:00pm"}, {"days": "Sat", "time": "3:00pm"}, {"days": "Sun", "time": "Closed"}], "id": "4636000006", "name": "USPS COLLECTION BOX - BLUE BOX", "address": {"city": "MICHIGAN CITY", "state": "IN", "street": "303 WASHINGTON ST", "postcode": "46360"}}},
{"geometry": {"type": "Point", "coordinates": [-86.8556563017, 41.7341666098]}, "type": "Feature", "properties": {"collection_times": [{"days": "Mon-Fri", "time": "3:00pm"}, {"days": "Sat", "time": "10:00am"}, {"days": "Sun", "time": "Closed"}], "id": "4636000009", "name": "USPS COLLECTION BOX - BLUE BOX", "address": {"city": "MICHIGAN CITY", "state": "IN", "street": "1018 N KARWICK RD", "postcode": "46360"}}},
{"geometry": {"type": "Point", "coordinates": [-86.9025695023, 41.7155779529]}, "type": "Feature", "properties": {"collection_times": [{"days": "Mon-Fri", "time": "3:00pm"}, {"days": "Sat", "time": "10:00am"}, {"days": "Sun", "time": "Closed"}], "id": "4636000013", "name": "USPS COLLECTION BOX - BLUE BOX", "address": {"city": "MICHIGAN CITY", "state": "IN", "street": "612 WASHINGTON ST", "postcode": "46360"}}},
{"geometry": {"type": "Point", "coordinates": [-86.9008126401, 41.7187154192]}, "type": "Feature", "properties": {"collection_times": [{"days": "Mon-Fri", "time": "3:00pm"}, {"days": "Sat", "time": "10:00am"}, {"days": "Sun", "time": "Closed"}], "id": "4636000014", "name": "USPS COLLECTION BOX - BLUE BOX", "address": {"city": "MICHIGAN CITY", "state": "IN", "street": "400 PINE ST", "postcode": "46360"}}},
{"geometry": {"type": "Point", "coordinates": [-86.8938624602, 41.6739291804]}, "type": "Feature", "properties": {"collection_times": [{"days": "Mon-Fri", "time": "3:00pm"}, {"days": "Sat", "time": "10:00am"}, {"days": "Sun", "time": "Closed"}], "id": "4636000023", "name": "USPS COLLECTION BOX - BLUE BOX", "address": {"city": "MICHIGAN CITY", "state": "IN", "street": "5150 FRANKLIN ST", "postcode": "46360"}}},
{"geometry": {"type": "Point", "coordinates": [-86.8725746755, 41.6865220158]}, "type": "Feature", "properties": {"collection_times": [{"days": "Mon-Fri", "time": "3:00pm"}, {"days": "Sat", "time": "10:00am"}, {"days": "Sun", "time": "Closed"}], "id": "4636000033", "name": "USPS COLLECTION BOX - BLUE BOX", "address": {"city": "MICHIGAN CITY", "state": "IN", "street": "611 LIGHTHOUSE PL", "postcode": "46360"}}},
{"geometry": {"type": "Point", "coordinates": [-86.8715889537, 41.7090364458]}, "type": "Feature", "properties": {"collection_times": [{"days": "Mon-Fri", "time": "3:00pm"}, {"days": "Sat", "time": "10:00am"}, {"days": "Sun", "time": "Closed"}], "id": "4636000045", "name": "USPS COLLECTION BOX - BLUE BOX", "address": {"city": "MICHIGAN CITY", "state": "IN", "street": "2319 E MICHIGAN BLVD", "postcode": "46360"}}},
{"geometry": {"type": "Point", "coordinates": [-86.8938536826, 41.6927453703]}, "type": "Feature", "properties": {"collection_times": [{"days": "Mon-Fri", "time": "3:00pm"}, {"days": "Sat", "time": "9:00am"}, {"days": "Sun", "time": "Closed"}], "id": "4636000046", "name": "USPS COLLECTION BOX - BLUE BOX", "address": {"city": "MICHIGAN CITY", "state": "IN", "street": "3219 FRANKLIN ST", "postcode": "46360"}}},
{"geometry": {"type": "Point", "coordinates": [-86.8939088456, 41.6895917445]}, "type": "Feature", "properties": {"collection_times": [{"days": "Mon-Fri", "time": "3:00pm"}, {"days": "Sat", "time": "9:00am"}, {"days": "Sun", "time": "Closed"}], "id": "4636000047", "name": "USPS COLLECTION BOX - BLUE BOX", "address": {"city": "MICHIGAN CITY", "state": "IN", "street": "3535 FRANKLIN ST", "postcode": "46360"}}},
{"geometry": {"type": "Point", "coordinates": [-86.8538965257, 41.6874037006]}, "type": "Feature", "properties": {"collection_times": [{"days": "Mon-Fri", "time": "3:00pm"}, {"days": "Sat", "time": "10:00am"}, {"days": "Sun", "time": "Closed"}], "id": "4636000053", "name": "USPS COLLECTION BOX - BLUE BOX", "address": {"city": "MICHIGAN CITY", "state": "IN", "street": "2000 E US HIGHWAY 20", "postcode": "46360"}}},
{"geometry": {"type": "Point", "coordinates": [-86.9022284354, 41.6837987632]}, "type": "Feature", "properties": {"collection_times": [{"days": "Mon-Fri", "time": "4:30pm"}, {"days": "Sat", "time": "10:00am"}, {"days": "Sun", "time": "Closed"}], "id": "4636000056", "name": "USPS COLLECTION BOX - BLUE BOX", "address": {"city": "MICHIGAN CITY", "state": "IN", "street": "450 SAINT JOHN RD", "postcode": "46360"}}},
{"geometry": {"type": "Point", "coordinates": [-86.8937818148, 41.6889196538]}, "type": "Feature", "properties": {"collection_times": [{"days": "Mon-Fri", "time": "3:00pm"}, {"days": "Sat", "time": "10:00am"}, {"days": "Sun", "time": "Closed"}], "id": "4636000063", "name": "USPS COLLECTION BOX - BLUE BOX", "address": {"city": "MICHIGAN CITY", "state": "IN", "street": "3600 FRANKLIN ST", "postcode": "46360"}}},
{"geometry": {"type": "Point", "coordinates": [-86.9044055266, 41.7188986874]}, "type": "Feature", "properties": {"collection_times": [{"days": "Mon-Fri", "time": "5:00pm"}, {"days": "Sat", "time": "3:00pm"}, {"days": "Sun", "time": "Closed"}], "id": "4636000071", "name": "USPS COLLECTION BOX - BLUE BOX", "address": {"city": "MICHIGAN CITY", "state": "IN", "street": "303 WASHINGTON ST", "postcode": "46360"}}},
{"geometry": {"type": "Point", "coordinates": [-86.8957060119, 41.7051670987]}, "type": "Feature", "properties": {"collection_times": [{"days": "Mon-Fri", "time": "3:00pm"}, {"days": "Sat", "time": "10:00am"}, {"days": "Sun", "time": "Closed"}], "id": "4636000078", "name": "USPS COLLECTION BOX - BLUE BOX", "address": {"city": "MICHIGAN CITY", "state": "IN", "street": "1912 FRANKLIN ST", "postcode": "46360"}}},
{"geometry": {"type": "Point", "coordinates": [-86.9146087552, 41.7099396996]}, "type": "Feature", "properties": {"collection_times": [{"days": "Mon-Sat", "time": "10:00am"}, {"days": "Sun", "time": "Closed"}], "id": "4636000080", "name": "USPS COLLECTION BOX - BLUE BOX", "address": {"city": "MICHIGAN CITY", "state": "IN", "street": "301 GRANT AVE", "postcode": "46360"}}},
{"geometry": {"type": "Point", "coordinates": [-86.5376899649, 41.6092114201]}, "type": "Feature", "properties": {"collection_times": [{"days": "Mon-Fri", "time": "4:15pm"}, {"days": "Sat", "time": "10:45am"}, {"days": "Sun", "time": "Closed"}], "id": "4636500001", "name": "USPS COLLECTION BOX - BLUE BOX", "address": {"city": "MILL CREEK", "state": "IN", "street": "1618 S 875 E", "postcode": "46365"}}},
{"geometry": {"type": "Point", "coordinates": [-86.5376899649, 41.6092114201]}, "type": "Feature", "properties": {"collection_times": [{"days": "Mon-Fri", "time": "4:15pm"}, {"days": "Sat", "time": "10:45am"}, {"days": "Sun", "time": "Closed"}], "id": "4636500002", "name": "USPS COLLECTION BOX - PO LOBBY", "address": {"city": "MILL CREEK", "state": "IN", "street": "1618 S 875 E", "postcode": "46365"}}},
{"geometry": {"type": "Point", "coordinates": [-86.7766024827, 41.217163937]}, "type": "Feature", "properties": {"collection_times": [{"days": "Mon-Fri", "time": "4:00pm"}, {"days": "Sat", "time": "11:00am"}, {"days": "Sun", "time": "Closed"}], "id": "4636600001", "name": "USPS COLLECTION BOX - BLUE BOX", "address": {"city": "NORTH JUDSON", "state": "IN", "street": "305 KELLER AVE", "postcode": "46366"}}},
{"geometry": {"type": "Point", "coordinates": [-86.7766024827, 41.217163937]}, "type": "Feature", "properties": {"collection_times": [{"days": "Mon-Fri", "time": "4:00pm"}, {"days": "Sat", "time": "11:00am"}, {"days": "Sun", "time": "Closed"}], "id": "4636600002", "name": "USPS COLLECTION BOX - BLUE BOX", "address": {"city": "NORTH JUDSON", "state": "IN", "street": "305 KELLER AVE", "postcode": "46366"}}},
{"geometry": {"type": "Point", "coordinates": [-86.6982733472, 41.2171969398]}, "type": "Feature", "properties": {"collection_times": [{"days": "Mon-Sat", "time": "10:00am"}, {"days": "Sun", "time": "Closed"}], "id": "4636600003", "name": "USPS COLLECTION BOX - BLUE BOX", "address": {"city": "NORTH JUDSON", "state": "IN", "street": "5900 S RANGE RD", "postcode": "46366"}}},
{"geometry": {"type": "Point", "coordinates": [-86.7740304262, 41.2161637009]}, "type": "Feature", "properties": {"collection_times": [{"days": "Mon-Sat", "time": "12:00pm"}, {"days": "Sun", "time": "Closed"}], "id": "4636600007", "name": "USPS COLLECTION BOX - BLUE BOX", "address": {"city": "NORTH JUDSON", "state": "IN", "street": "199 MAIN ST", "postcode": "46366"}}},
{"geometry": {"type": "Point", "coordinates": [-86.7766024827, 41.217163937]}, "type": "Feature", "properties": {"collection_times": [{"days": "Mon-Fri", "time": "4:00pm"}, {"days": "Sat", "time": "11:00am"}, {"days": "Sun", "time": "Closed"}], "id": "4636600008", "name": "USPS COLLECTION BOX - PO LOBBY", "address": {"city": "NORTH JUDSON", "state": "IN", "street": "305 KELLER AVE", "postcode": "46366"}}},
{"geometry": {"type": "Point", "coordinates": [-86.788627719, 41.2150970729]}, "type": "Feature", "properties": {"collection_times": [{"days": "Mon-Sat", "time": "9:30am"}, {"days": "Sun", "time": "Closed"}], "id": "4636600009", "name": "USPS COLLECTION BOX - BLUE BOX", "address": {"city": "NORTH JUDSON", "state": "IN", "street": "606 W TALMER AVE", "postcode": "46366"}}},
{"geometry": {"type": "Point", "coordinates": [-87.1829704541, 41.5740131516]}, "type": "Feature", "properties": {"collection_times": [{"days": "Mon-Fri", "time": "5:00pm"}, {"days": "Sat", "time": "3:30pm"}, {"days": "Sun", "time": "Closed"}], "id": "4636800001", "name": "USPS COLLECTION BOX - BLUE BOX", "address": {"city": "PORTAGE", "state": "IN", "street": "2701 WILLOWCREEK RD", "postcode": "46368"}}},
{"geometry": {"type": "Point", "coordinates": [-87.1829704541, 41.5740131516]}, "type": "Feature", "properties": {"collection_times": [{"days": "Mon-Fri", "time": "5:00pm"}, {"days": "Sat", "time": "3:30pm"}, {"days": "Sun", "time": "Closed"}], "id": "4636800002", "name": "USPS COLLECTION BOX - BLUE BOX", "address": {"city": "PORTAGE", "state": "IN", "street": "2701 WILLOWCREEK RD", "postcode": "46368"}}},
{"geometry": {"type": "Point", "coordinates": [-87.1831057605, 41.5739722034]}, "type": "Feature", "properties": {"collection_times": [{"days": "Mon-Sat", "time": "9:00am"}, {"days": "Sun", "time": "Closed"}], "id": "4636800004", "name": "USPS COLLECTION BOX - BLUE BOX", "address": {"city": "PORTAGE", "state": "IN", "street": "6050 US HIGHWAY 6", "postcode": "46368"}}},
{"geometry": {"type": "Point", "coordinates": [-87.1834505218, 41.5505179655]}, "type": "Feature", "properties": {"collection_times": [{"days": "Mon-Sat", "time": "9:00am"}, {"days": "Sun", "time": "Closed"}], "id": "4636800005", "name": "USPS COLLECTION BOX - BLUE BOX", "address": {"city": "PORTAGE", "state": "IN", "street": "5970 US HIGHWAY 6", "postcode": "46368"}}},
{"geometry": {"type": "Point", "coordinates": [-87.1760988602, 41.6028640726]}, "type": "Feature", "properties": {"collection_times": [{"days": "Mon-Sat", "time": "9:00am"}, {"days": "Sun", "time": "Closed"}], "id": "4636800010", "name": "USPS COLLECTION BOX - BLUE BOX", "address": {"city": "PORTAGE", "state": "IN", "street": "6100 SOUTHPORT RD", "postcode": "46368"}}},
{"geometry": {"type": "Point", "coordinates": [-87.1898689568, 41.5943131018]}, "type": "Feature", "properties": {"collection_times": [{"days": "Mon-Sat", "time": "1:00pm"}, {"days": "Sun", "time": "Closed"}], "id": "4636800011", "name": "USPS COLLECTION BOX - BLUE BOX", "address": {"city": "PORTAGE", "state": "IN", "street": "5757 MELTON RD", "postcode": "46368"}}},
{"geometry": {"type": "Point", "coordinates": [-87.1753921435, 41.5759441254]}, "type": "Feature", "properties": {"collection_times": [{"days": "Mon-Sat", "time": "1:00pm"}, {"days": "Sun", "time": "Closed"}], "id": "4636800021", "name": "USPS COLLECTION BOX - BLUE BOX", "address": {"city": "PORTAGE", "state": "IN", "street": "6200 CENTRAL AVE", "postcode": "46368"}}},
{"geometry": {"type": "Point", "coordinates": [-87.1826061247, 41.5536759981]}, "type": "Feature", "properties": {"collection_times": [{"days": "Mon-Sat", "time": "1:00pm"}, {"days": "Sun", "time": "Closed"}], "id": "4636800026", "name": "USPS COLLECTION BOX - BLUE BOX", "address": {"city": "PORTAGE", "state": "IN", "street": "3275 WILLOWCREEK RD", "postcode": "46368"}}},
{"geometry": {"type": "Point", "coordinates": [-87.1898441899, 41.6197809975]}, "type": "Feature", "properties": {"collection_times": [{"days": "Mon-Fri", "time": "2:00pm"}, {"days": "Sat", "time": "1:00pm"}, {"days": "Sun", "time": "Closed"}], "id": "4636800027", "name": "USPS COLLECTION BOX - BLUE BOX", "address": {"city": "PORTAGE", "state": "IN", "street": "115 HILLCREST RD", "postcode": "46368"}}},
{"geometry": {"type": "Point", "coordinates": [-87.2140881321, 41.5750060756]}, "type": "Feature", "properties": {"collection_times": [{"days": "Mon-Sat", "time": "9:00am"}, {"days": "Sun", "time": "Closed"}], "id": "4636800028", "name": "USPS COLLECTION BOX - BLUE BOX", "address": {"city": "PORTAGE", "state": "IN", "street": "5200 CENTRAL AVE", "postcode": "46368"}}},
{"geometry": {"type": "Point", "coordinates": [-87.2210205739, 41.5457746563]}, "type": "Feature", "properties": {"collection_times": [{"days": "Mon-Fri", "time": "2:00pm"}, {"days": "Sat", "time": "1:00pm"}, {"days": "Sun", "time": "Closed"}], "id": "4636800030", "name": "USPS COLLECTION BOX - BLUE BOX", "address": {"city": "PORTAGE", "state": "IN", "street": "519 CAMELOT MNR", "postcode": "46368"}}},
{"geometry": {"type": "Point", "coordinates": [-87.1829704541, 41.5740131516]}, "type": "Feature", "properties": {"collection_times": [{"days": "Mon-Fri", "time": "5:00pm"}, {"days": "Sat", "time": "3:30pm"}, {"days": "Sun", "time": "Closed"}], "id": "4636800036", "name": "USPS COLLECTION BOX - PO LOBBY", "address": {"city": "PORTAGE", "state": "IN", "street": "2701 WILLOWCREEK RD", "postcode": "46368"}}},
{"geometry": {"type": "Point", "coordinates": [-87.197590907, 41.5506083858]}, "type": "Feature", "properties": {"collection_times": [{"days": "Mon-Fri", "time": "2:00pm"}, {"days": "Sat", "time": "1:00pm"}, {"days": "Sun", "time": "Closed"}], "id": "4636800041", "name": "USPS COLLECTION BOX - BLUE BOX", "address": {"city": "PORTAGE", "state": "IN", "street": "5620 US HIGHWAY 6", "postcode": "46368"}}},
{"geometry": {"type": "Point", "coordinates": [-87.1829704541, 41.5740131516]}, "type": "Feature", "properties": {"collection_times": [{"days": "Mon-Fri", "time": "5:00pm"}, {"days": "Sat", "time": "3:30pm"}, {"days": "Sun", "time": "Closed"}], "id": "4636800043", "name": "USPS COLLECTION BOX - APC", "address": {"city": "PORTAGE", "state": "IN", "street": "2701 WILLOWCREEK RD", "postcode": "46368"}}},
{"geometry": {"type": "Point", "coordinates": [-86.6173782205, 41.6744639491]}, "type": "Feature", "properties": {"collection_times": [{"days": "Mon-Fri", "time": "4:00pm"}, {"days": "Sat", "time": "11:30am"}, {"days": "Sun", "time": "Closed"}], "id": "4637100001", "name": "USPS COLLECTION BOX - BLUE BOX", "address": {"city": "ROLLING PRAIRIE", "state": "IN", "street": "3 S DEPOT ST", "postcode": "46371"}}},
{"geometry": {"type": "Point", "coordinates": [-86.617650955, 41.7064416187]}, "type": "Feature", "properties": {"collection_times": [{"days": "Mon-Sat", "time": "10:00am"}, {"days": "Sun", "time": "Closed"}], "id": "4637100002", "name": "USPS COLLECTION BOX - BLUE BOX", "address": {"city": "ROLLING PRAIRIE", "state": "IN", "street": "1 S KNUTE ROCKNE PLZ", "postcode": "46371"}}},
{"geometry": {"type": "Point", "coordinates": [-86.6244784047, 41.7067269442]}, "type": "Feature", "properties": {"collection_times": [{"days": "Mon-Sat", "time": "10:00am"}, {"days": "Sun", "time": "Closed"}], "id": "4637100003", "name": "USPS COLLECTION BOX - BLUE BOX", "address": {"city": "ROLLING PRAIRIE", "state": "IN", "street": "1 N WILBUR SHAW PLZ", "postcode": "46371"}}},
{"geometry": {"type": "Point", "coordinates": [-86.6205, 41.671658]}, "type": "Feature", "properties": {"collection_times": [{"days": "Mon-Sat", "time": "9:00am"}, {"days": "Sun", "time": "Closed"}], "id": "4637100005", "name": "USPS COLLECTION BOX - BLUE BOX", "address": {"city": "ROLLING PRAIRIE", "state": "IN", "street": "4093 E US HIGHWAY 20", "postcode": "46371"}}},
{"geometry": {"type": "Point", "coordinates": [-86.6173782205, 41.6744639491]}, "type": "Feature", "properties": {"collection_times": [{"days": "Mon-Fri", "time": "4:00pm"}, {"days": "Sat", "time": "11:30am"}, {"days": "Sun", "time": "Closed"}], "id": "4637100007", "name": "USPS COLLECTION BOX - PO LOBBY", "address": {"city": "ROLLING PRAIRIE", "state": "IN", "street": "3 S DEPOT ST", "postcode": "46371"}}},
{"geometry": {"type": "Point", "coordinates": [-87.2757914013, 41.1453392238]}, "type": "Feature", "properties": {"collection_times": [{"days": "Mon-Fri", "time": "4:30pm"}, {"days": "Sat", "time": "10:30am"}, {"days": "Sun", "time": "Closed"}], "id": "4637200001", "name": "USPS COLLECTION BOX - BLUE BOX", "address": {"city": "ROSELAWN", "state": "IN", "street": "10060 N 600 E", "postcode": "46372"}}},
{"geometry": {"type": "Point", "coordinates": [-87.2757914013, 41.1453392238]}, "type": "Feature", "properties": {"collection_times": [{"days": "Mon-Fri", "time": "3:45pm"}, {"days": "Sat", "time": "10:30am"}, {"days": "Sun", "time": "Closed"}], "id": "4637200003", "name": "USPS COLLECTION BOX - PO LOBBY", "address": {"city": "ROSELAWN", "state": "IN", "street": "10060 N 600 E", "postcode": "46372"}}},
{"geometry": {"type": "Point", "coordinates": [-87.4679551513, 41.450160745]}, "type": "Feature", "properties": {"collection_times": [{"days": "Mon-Fri", "time": "4:30pm"}, {"days": "Sat", "time": "12:00pm"}, {"days": "Sun", "time": "Closed"}], "id": "4637300001", "name": "USPS COLLECTION BOX - PO LOBBY", "address": {"city": "SAINT JOHN", "state": "IN", "street": "9200 THIEL ST", "postcode": "46373"}}},
{"geometry": {"type": "Point", "coordinates": [-87.4679551513, 41.450160745]}, "type": "Feature", "properties": {"collection_times": [{"days": "Mon-Fri", "time": "4:30pm"}, {"days": "Sat", "time": "12:00pm"}, {"days": "Sun", "time": "Closed"}], "id": "4637300002", "name": "USPS COLLECTION BOX - BLUE BOX", "address": {"city": "SAINT JOHN", "state": "IN", "street": "9200 THIEL ST", "postcode": "46373"}}},
{"geometry": {"type": "Point", "coordinates": [-87.4701027256, 41.4409962427]}, "type": "Feature", "properties": {"collection_times": [{"days": "Mon-Fri", "time": "12:00pm"}, {"days": "Sat", "time": "10:30am"}, {"days": "Sun", "time": "Closed"}], "id": "4637300004", "name": "USPS COLLECTION BOX - BLUE BOX", "address": {"city": "SAINT JOHN", "state": "IN", "street": "9800 WICKER AVE", "postcode": "46373"}}},
{"geometry": {"type": "Point", "coordinates": [-87.4701016587, 41.4495778986]}, "type": "Feature", "properties": {"collection_times": [{"days": "Mon-Fri", "time": "12:00pm"}, {"days": "Sat", "time": "10:30am"}, {"days": "Sun", "time": "Closed"}], "id": "4637300005", "name": "USPS COLLECTION BOX - BLUE BOX", "address": {"city": "SAINT JOHN", "state": "IN", "street": "9321 WICKER AVE", "postcode": "46373"}}},
{"geometry": {"type": "Point", "coordinates": [-87.4702071446, 41.4557956188]}, "type": "Feature", "properties": {"collection_times": [{"days": "Mon-Fri", "time": "12:00pm"}, {"days": "Sat", "time": "10:30am"}, {"days": "Sun", "time": "Closed"}], "id": "4637300006", "name": "USPS COLLECTION BOX - BLUE BOX", "address": {"city": "SAINT JOHN", "state": "IN", "street": "9151 WICKER AVE", "postcode": "46373"}}},
{"geometry": {"type": "Point", "coordinates": [-87.4701073249, 41.4415898498]}, "type": "Feature", "properties": {"collection_times": [{"days": "Mon-Fri", "time": "12:00pm"}, {"days": "Sat", "time": "10:30am"}, {"days": "Sun", "time": "Closed"}], "id": "4637300007", "name": "USPS COLLECTION BOX - BLUE BOX", "address": {"city": "SAINT JOHN", "state": "IN", "street": "9770 WICKER AVE", "postcode": "46373"}}},
{"geometry": {"type": "Point", "coordinates": [-87.4702645921, 41.4510197858]}, "type": "Feature", "properties": {"collection_times": [{"days": "Mon-Fri", "time": "12:00pm"}, {"days": "Sat", "time": "10:30am"}, {"days": "Sun", "time": "Closed"}], "id": "4637300009", "name": "USPS COLLECTION BOX - BLUE BOX", "address": {"city": "SAINT JOHN", "state": "IN", "street": "9280 WICKER AVE", "postcode": "46373"}}},
{"geometry": {"type": "Point", "coordinates": [-87.4679551513, 41.450160745]}, "type": "Feature", "properties": {"collection_times": [{"days": "Mon-Fri", "time": "4:30pm"}, {"days": "Sat", "time": "12:00pm"}, {"days": "Sun", "time": "Closed"}], "id": "4637300010", "name": "USPS COLLECTION BOX - BLUE BOX", "address": {"city": "SAINT JOHN", "state": "IN", "street": "9200 THIEL ST", "postcode": "46373"}}},
{"geometry": {"type": "Point", "coordinates": [-87.4683381033, 41.4520230222]}, "type": "Feature", "properties": {"collection_times": [{"days": "Mon-Fri", "time": "4:30pm"}, {"days": "Sat", "time": "12:00pm"}, {"days": "Sun", "time": "Closed"}], "id": "4637300011", "name": "USPS COLLECTION BOX - BLUE BOX", "address": {"city": "SAINT JOHN", "state": "IN", "street": "9200 THIEL ST", "postcode": "46373"}}},
{"geometry": {"type": "Point", "coordinates": [-87.469943231, 41.4402630768]}, "type": "Feature", "properties": {"collection_times": [{"days": "Mon-Fri", "time": "11:00am"}, {"days": "Sat", "time": "10:30am"}, {"days": "Sun", "time": "Closed"}], "id": "4637300012", "name": "USPS COLLECTION BOX - BLUE BOX", "address": {"city": "SAINT JOHN", "state": "IN", "street": "9825 WICKER AVE", "postcode": "46373"}}},
{"geometry": {"type": "Point", "coordinates": [-86.8895965484, 41.1988447324]}, "type": "Feature", "properties": {"collection_times": [{"days": "Mon-Fri", "time": "4:15pm"}, {"days": "Sat", "time": "10:45am"}, {"days": "Sun", "time": "Closed"}], "id": "4637400000", "name": "USPS COLLECTION BOX - BLUE BOX", "address": {"city": "SAN PIERRE", "state": "IN", "street": "104 ELIZA ST", "postcode": "46374"}}},
{"geometry": {"type": "Point", "coordinates": [-86.8895965484, 41.1988447324]}, "type": "Feature", "properties": {"collection_times": [{"days": "Mon-Fri", "time": "11:45am"}, {"days": "Sat", "time": "10:45am"}, {"days": "Sun", "time": "Closed"}], "id": "4637400001", "name": "USPS COLLECTION BOX - PO LOBBY", "address": {"city": "SAN PIERRE", "state": "IN", "street": "104 ELIZA ST", "postcode": "46374"}}},
{"geometry": {"type": "Point", "coordinates": [-87.4742016528, 41.5015574864]}, "type": "Feature", "properties": {"collection_times": [{"days": "Mon-Fri", "time": "5:00pm"}, {"days": "Sat", "time": "2:45pm"}, {"days": "Sun", "time": "Closed"}], "id": "4637500002", "name": "USPS COLLECTION BOX - BLUE BOX", "address": {"city": "SCHERERVILLE", "state": "IN", "street": "1200 EAGLE RIDGE DR", "postcode": "46375"}}},
{"geometry": {"type": "Point", "coordinates": [-87.4577447262, 41.4885202099]}, "type": "Feature", "properties": {"collection_times": [{"days": "Mon-Sat", "time": "1:30pm"}, {"days": "Sun", "time": "Closed"}], "id": "4637500003", "name": "USPS COLLECTION BOX - BLUE BOX", "address": {"city": "SCHERERVILLE", "state": "IN", "street": "1806 ROBINHOOD BLVD", "postcode": "46375"}}},
{"geometry": {"type": "Point", "coordinates": [-87.4938064231, 41.522513905]}, "type": "Feature", "properties": {"collection_times": [{"days": "Mon-Sat", "time": "10:00am"}, {"days": "Sun", "time": "Closed"}], "id": "4637500005", "name": "USPS COLLECTION BOX - BLUE BOX", "address": {"city": "SCHERERVILLE", "state": "IN", "street": "123 COUNTRY CLUB DR", "postcode": "46375"}}},
{"geometry": {"type": "Point", "coordinates": [-87.4708251711, 41.4958260574]}, "type": "Feature", "properties": {"collection_times": [{"days": "Mon-Sat", "time": "9:30am"}, {"days": "Sun", "time": "Closed"}], "id": "4637500008", "name": "USPS COLLECTION BOX - BLUE BOX", "address": {"city": "SCHERERVILLE", "state": "IN", "street": "1515 US HIGHWAY 41", "postcode": "46375"}}},
{"geometry": {"type": "Point", "coordinates": [-87.4742016528, 41.5015574864]}, "type": "Feature", "properties": {"collection_times": [{"days": "Mon-Fri", "time": "5:00pm"}, {"days": "Sat", "time": "2:45pm"}, {"days": "Sun", "time": "Closed"}], "id": "4637500012", "name": "USPS COLLECTION BOX - BLUE BOX", "address": {"city": "SCHERERVILLE", "state": "IN", "street": "1200 EAGLE RIDGE DR", "postcode": "46375"}}},
{"geometry": {"type": "Point", "coordinates": [-87.4742016528, 41.5015574864]}, "type": "Feature", "properties": {"collection_times": [{"days": "Mon-Fri", "time": "5:00pm"}, {"days": "Sat", "time": "2:45pm"}, {"days": "Sun", "time": "Closed"}], "id": "4637500016", "name": "USPS COLLECTION BOX - PO LOBBY", "address": {"city": "SCHERERVILLE", "state": "IN", "street": "1200 EAGLE RIDGE DR", "postcode": "46375"}}},
{"geometry": {"type": "Point", "coordinates": [-87.4720820279, 41.4841196573]}, "type": "Feature", "properties": {"collection_times": [{"days": "Mon-Sat", "time": "11:30am"}, {"days": "Sun", "time": "Closed"}], "id": "4637500017", "name": "USPS COLLECTION BOX - BLUE BOX", "address": {"city": "SCHERERVILLE", "state": "IN", "street": "2142 SHERWOOD LAKE DR", "postcode": "46375"}}},
{"geometry": {"type": "Point", "coordinates": [-87.4742016528, 41.5015574864]}, "type": "Feature", "properties": {"collection_times": [{"days": "Mon-Fri", "time": "5:00pm"}, {"days": "Sat", "time": "2:45pm"}, {"days": "Sun", "time": "Closed"}], "id": "4637500019", "name": "USPS COLLECTION BOX - BLUE BOX", "address": {"city": "SCHERERVILLE", "state": "IN", "street": "1200 EAGLE RIDGE DR", "postcode": "46375"}}},
{"geometry": {"type": "Point", "coordinates": [-87.4492098301, 41.4911370917]}, "type": "Feature", "properties": {"collection_times": [{"days": "Mon-Sat", "time": "12:00pm"}, {"days": "Sun", "time": "Closed"}], "id": "4637500022", "name": "USPS COLLECTION BOX - BLUE BOX", "address": {"city": "SCHERERVILLE", "state": "IN", "street": "49 E WILHELM ST", "postcode": "46375"}}},
{"geometry": {"type": "Point", "coordinates": [-87.4742016528, 41.5015574864]}, "type": "Feature", "properties": {"collection_times": [{"days": "Mon-Fri", "time": "5:00pm"}, {"days": "Sat", "time": "2:45pm"}, {"days": "Sun", "time": "Closed"}], "id": "4637500024", "name": "USPS COLLECTION BOX - BLUE BOX", "address": {"city": "SCHERERVILLE", "state": "IN", "street": "1200 EAGLE RIDGE DR", "postcode": "46375"}}},
{"geometry": {"type": "Point", "coordinates": [-87.4742016528, 41.5015574864]}, "type": "Feature", "properties": {"collection_times": [{"days": "Mon-Fri", "time": "5:00pm"}, {"days": "Sat", "time": "2:45pm"}, {"days": "Sun", "time": "Closed"}], "id": "4637500025", "name": "USPS COLLECTION BOX - APC", "address": {"city": "SCHERERVILLE", "state": "IN", "street": "1200 EAGLE RIDGE DR", "postcode": "46375"}}},
{"geometry": {"type": "Point", "coordinates": [-87.4321012999, 41.4923584402]}, "type": "Feature", "properties": {"collection_times": [{"days": "Mon-Sat", "time": "1:00pm"}, {"days": "Sun", "time": "Closed"}], "id": "4637500026", "name": "USPS COLLECTION BOX - BLUE BOX", "address": {"city": "SCHERERVILLE", "state": "IN", "street": "800 E JOLIET ST", "postcode": "46375"}}},
{"geometry": {"type": "Point", "coordinates": [-87.4477149002, 41.1767527815]}, "type": "Feature", "properties": {"collection_times": [{"days": "Mon-Fri", "time": "3:30pm"}, {"days": "Sat", "time": "11:00am"}, {"days": "Sun", "time": "Closed"}], "id": "4637600001", "name": "USPS COLLECTION BOX - BLUE BOX", "address": {"city": "SCHNEIDER", "state": "IN", "street": "23914 PARRISH ST", "postcode": "46376"}}},
{"geometry": {"type": "Point", "coordinates": [-87.4477149002, 41.1767527815]}, "type": "Feature", "properties": {"collection_times": [{"days": "Mon-Fri", "time": "3:30pm"}, {"days": "Sat", "time": "11:00am"}, {"days": "Sun", "time": "Closed"}], "id": "4637600002", "name": "USPS COLLECTION BOX - PO LOBBY", "address": {"city": "SCHNEIDER", "state": "IN", "street": "23914 PARRISH ST", "postcode": "46376"}}},
{"geometry": {"type": "Point", "coordinates": [-87.3477079163, 41.1927864369]}, "type": "Feature", "properties": {"collection_times": [{"days": "Mon-Fri", "time": "4:00pm"}, {"days": "Sat", "time": "11:00am"}, {"days": "Sun", "time": "Closed"}], "id": "4637700001", "name": "USPS COLLECTION BOX - BLUE BOX", "address": {"city": "SHELBY", "state": "IN", "street": "23323 SHELBY RD", "postcode": "46377"}}},
{"geometry": {"type": "Point", "coordinates": [-87.3477079163, 41.1927864369]}, "type": "Feature", "properties": {"collection_times": [{"days": "Mon-Fri", "time": "4:00pm"}, {"days": "Sat", "time": "11:00am"}, {"days": "Sun", "time": "Closed"}], "id": "4637700002", "name": "USPS COLLECTION BOX - PO LOBBY", "address": {"city": "SHELBY", "state": "IN", "street": "23323 SHELBY RD", "postcode": "46377"}}},
{"geometry": {"type": "Point", "coordinates": [-87.4379462348, 41.1665715326]}, "type": "Feature", "properties": {"collection_times": [{"days": "Mon-Fri", "time": "4:00pm"}, {"days": "Sat", "time": "10:15am"}, {"days": "Sun", "time": "Closed"}], "id": "4637900001", "name": "USPS COLLECTION BOX - BLUE BOX", "address": {"city": "SUMAVA RESORTS", "state": "IN", "street": "11479 N 250 W", "postcode": "46379"}}},
{"geometry": {"type": "Point", "coordinates": [-87.4379462348, 41.1665715326]}, "type": "Feature", "properties": {"collection_times": [{"days": "Mon-Fri", "time": "10:45am"}, {"days": "Sat", "time": "10:15am"}, {"days": "Sun", "time": "Closed"}], "id": "4637900002", "name": "USPS COLLECTION BOX - PO LOBBY", "address": {"city": "SUMAVA RESORTS", "state": "IN", "street": "11479 N 250 W", "postcode": "46379"}}},
{"geometry": {"type": "Point", "coordinates": [-86.7773500969, 41.4926811677]}, "type": "Feature", "properties": {"collection_times": [{"days": "Mon-Fri", "time": "3:45pm"}, {"days": "Sat", "time": "10:45am"}, {"days": "Sun", "time": "Closed"}], "id": "4638200001", "name": "USPS COLLECTION BOX - BLUE BOX", "address": {"city": "UNION MILLS", "state": "IN", "street": "609 WATER ST", "postcode": "46382"}}},
{"geometry": {"type": "Point", "coordinates": [-86.7773500969, 41.4926811677]}, "type": "Feature", "properties": {"collection_times": [{"days": "Mon-Fri", "time": "11:45am"}, {"days": "Sat", "time": "10:45am"}, {"days": "Sun", "time": "Closed"}], "id": "4638200002", "name": "USPS COLLECTION BOX - PO LOBBY", "address": {"city": "UNION MILLS", "state": "IN", "street": "609 WATER ST", "postcode": "46382"}}},
{"geometry": {"type": "Point", "coordinates": [-87.0560936569, 41.4922523646]}, "type": "Feature", "properties": {"collection_times": [{"days": "Mon-Sat", "time": "5:00pm"}, {"days": "Sun", "time": "Closed"}], "id": "4638300002", "name": "USPS COLLECTION BOX - BLUE BOX", "address": {"city": "VALPARAISO", "state": "IN", "street": "2700 VALPARAISO ST", "postcode": "46383"}}},
{"geometry": {"type": "Point", "coordinates": [-87.0560936569, 41.4922523646]}, "type": "Feature", "properties": {"collection_times": [{"days": "Mon-Sat", "time": "5:00pm"}, {"days": "Sun", "time": "Closed"}], "id": "4638300003", "name": "USPS COLLECTION BOX - BLUE BOX", "address": {"city": "VALPARAISO", "state": "IN", "street": "2700 VALPARAISO ST", "postcode": "46383"}}},
{"geometry": {"type": "Point", "coordinates": [-87.0560936569, 41.4922523646]}, "type": "Feature", "properties": {"collection_times": [{"days": "Mon-Sat", "time": "5:00pm"}, {"days": "Sun", "time": "Closed"}], "id": "4638300004", "name": "USPS COLLECTION BOX - BLUE BOX", "address": {"city": "VALPARAISO", "state": "IN", "street": "2700 VALPARAISO ST", "postcode": "46383"}}},
{"geometry": {"type": "Point", "coordinates": [-87.0420424753, 41.4734522703]}, "type": "Feature", "properties": {"collection_times": [{"days": "Mon-Sat", "time": "10:30am"}, {"days": "Sun", "time": "Closed"}], "id": "4638300018", "name": "USPS COLLECTION BOX - BLUE BOX", "address": {"city": "VALPARAISO", "state": "IN", "street": "1611 BEECH ST", "postcode": "46383"}}},
{"geometry": {"type": "Point", "coordinates": [-87.0487043165, 41.4891664812]}, "type": "Feature", "properties": {"collection_times": [{"days": "Mon-Fri", "time": "3:45pm"}, {"days": "Sat", "time": "2:30pm"}, {"days": "Sun", "time": "Closed"}], "id": "4638300022", "name": "USPS COLLECTION BOX - BLUE BOX", "address": {"city": "VALPARAISO", "state": "IN", "street": "2301 CALUMET AVE", "postcode": "46383"}}},
{"geometry": {"type": "Point", "coordinates": [-87.0464919246, 41.4926632904]}, "type": "Feature", "properties": {"collection_times": [{"days": "Mon-Sat", "time": "12:00pm"}, {"days": "Sun", "time": "Closed"}], "id": "4638300031", "name": "USPS COLLECTION BOX - BLUE BOX", "address": {"city": "VALPARAISO", "state": "IN", "street": "2800 CALUMET AVE", "postcode": "46383"}}},
{"geometry": {"type": "Point", "coordinates": [-87.0623673324, 41.4677241024]}, "type": "Feature", "properties": {"collection_times": [{"days": "Mon-Fri", "time": "3:45pm"}, {"days": "Sat", "time": "2:30pm"}, {"days": "Sun", "time": "Closed"}], "id": "4638300037", "name": "USPS COLLECTION BOX - BLUE BOX", "address": {"city": "VALPARAISO", "state": "IN", "street": "101 LINCOLNWAY", "postcode": "46383"}}},
{"geometry": {"type": "Point", "coordinates": [-87.0630053945, 41.469777414]}, "type": "Feature", "properties": {"collection_times": [{"days": "Mon-Sat", "time": "11:00am"}, {"days": "Sun", "time": "Closed"}], "id": "4638300047", "name": "USPS COLLECTION BOX - BLUE BOX", "address": {"city": "VALPARAISO", "state": "IN", "street": "208 CHICAGO ST", "postcode": "46383"}}},
{"geometry": {"type": "Point", "coordinates": [-87.0328276597, 41.4580918351]}, "type": "Feature", "properties": {"collection_times": [{"days": "Mon-Sat", "time": "10:30am"}, {"days": "Sun", "time": "Closed"}], "id": "4638300048", "name": "USPS COLLECTION BOX - BLUE BOX", "address": {"city": "VALPARAISO", "state": "IN", "street": "2400 MORTHLAND DR", "postcode": "46383"}}},
{"geometry": {"type": "Point", "coordinates": [-87.0027966815, 41.4484873535]}, "type": "Feature", "properties": {"collection_times": [{"days": "Mon-Sat", "time": "10:30am"}, {"days": "Sun", "time": "Closed"}], "id": "4638300050", "name": "USPS COLLECTION BOX - BLUE BOX", "address": {"city": "VALPARAISO", "state": "IN", "street": "2257 MONTDALE DR", "postcode": "46383"}}},
{"geometry": {"type": "Point", "coordinates": [-87.0228440541, 41.4578564112]}, "type": "Feature", "properties": {"collection_times": [{"days": "Mon-Sat", "time": "10:00am"}, {"days": "Sun", "time": "Closed"}], "id": "4638300058", "name": "USPS COLLECTION BOX - BLUE BOX", "address": {"city": "VALPARAISO", "state": "IN", "street": "3001 LEONARD DR", "postcode": "46383"}}},
{"geometry": {"type": "Point", "coordinates": [-87.0382103891, 41.4665386938]}, "type": "Feature", "properties": {"collection_times": [{"days": "Mon-Sat", "time": "2:00pm"}, {"days": "Sun", "time": "Closed"}], "id": "4638300061", "name": "USPS COLLECTION BOX - BLUE BOX", "address": {"city": "VALPARAISO", "state": "IN", "street": "1805 LINCOLNWAY", "postcode": "46383"}}},
{"geometry": {"type": "Point", "coordinates": [-87.0457655957, 41.464017637]}, "type": "Feature", "properties": {"collection_times": [{"days": "Mon-Sat", "time": "10:00am"}, {"days": "Sun", "time": "Closed"}], "id": "4638300068", "name": "USPS COLLECTION BOX - BLUE BOX", "address": {"city": "VALPARAISO", "state": "IN", "street": "366 MCINTYRE CT", "postcode": "46383"}}},
{"geometry": {"type": "Point", "coordinates": [-87.0607639995, 41.4667862597]}, "type": "Feature", "properties": {"collection_times": [{"days": "Mon-Fri", "time": "3:45pm"}, {"days": "Sat", "time": "2:30pm"}, {"days": "Sun", "time": "Closed"}], "id": "4638300070", "name": "USPS COLLECTION BOX - BLUE BOX", "address": {"city": "VALPARAISO", "state": "IN", "street": "16 INDIANA AVE", "postcode": "46383"}}},
{"geometry": {"type": "Point", "coordinates": [-87.0623673324, 41.4677241024]}, "type": "Feature", "properties": {"collection_times": [{"days": "Mon-Fri", "time": "3:45pm"}, {"days": "Sat", "time": "2:30pm"}, {"days": "Sun", "time": "Closed"}], "id": "4638300074", "name": "USPS COLLECTION BOX - BLUE BOX", "address": {"city": "VALPARAISO", "state": "IN", "street": "101 LINCOLNWAY", "postcode": "46383"}}},
{"geometry": {"type": "Point", "coordinates": [-87.0560936569, 41.4922523646]}, "type": "Feature", "properties": {"collection_times": [{"days": "Mon-Sat", "time": "5:00pm"}, {"days": "Sun", "time": "Closed"}], "id": "4638300077", "name": "USPS COLLECTION BOX - PO LOBBY", "address": {"city": "VALPARAISO", "state": "IN", "street": "2700 VALPARAISO ST", "postcode": "46383"}}},
{"geometry": {"type": "Point", "coordinates": [-87.0630624166, 41.4677723672]}, "type": "Feature", "properties": {"collection_times": [{"days": "Mon-Fri", "time": "4:30pm"}, {"days": "Sat", "time": "2:30pm"}, {"days": "Sun", "time": "Closed"}], "id": "4638300079", "name": "USPS COLLECTION BOX - BLUE BOX", "address": {"city": "VALPARAISO", "state": "IN", "street": "166 LINCOLNWAY", "postcode": "46383"}}},
{"geometry": {"type": "Point", "coordinates": [-87.0560936569, 41.4922523646]}, "type": "Feature", "properties": {"collection_times": [{"days": "Mon-Sat", "time": "5:00pm"}, {"days": "Sun", "time": "Closed"}], "id": "4638300080", "name": "USPS COLLECTION BOX - APC", "address": {"city": "VALPARAISO", "state": "IN", "street": "2700 VALPARAISO ST", "postcode": "46383"}}},
{"geometry": {"type": "Point", "coordinates": [-87.0270350473, 41.4715543806]}, "type": "Feature", "properties": {"collection_times": [{"days": "Mon-Sat", "time": "10:00am"}, {"days": "Sun", "time": "Closed"}], "id": "4638300081", "name": "USPS COLLECTION BOX - BLUE BOX", "address": {"city": "VALPARAISO", "state": "IN", "street": "350 SILHAVY RD", "postcode": "46383"}}},
{"geometry": {"type": "Point", "coordinates": [-87.0523828392, 41.4831598985]}, "type": "Feature", "properties": {"collection_times": [{"days": "Mon-Sat", "time": "12:00pm"}, {"days": "Sun", "time": "Closed"}], "id": "4638300082", "name": "USPS COLLECTION BOX - BLUE BOX", "address": {"city": "VALPARAISO", "state": "IN", "street": "1605 CALUMET AVE", "postcode": "46383"}}},
{"geometry": {"type": "Point", "coordinates": [-87.0601219195, 41.4581748671]}, "type": "Feature", "properties": {"collection_times": [{"days": "Mon-Sat", "time": "10:00am"}, {"days": "Sun", "time": "Closed"}], "id": "4638300087", "name": "USPS COLLECTION BOX - BLUE BOX", "address": {"city": "VALPARAISO", "state": "IN", "street": "150 MORTHLAND DR", "postcode": "46383"}}},
{"geometry": {"type": "Point", "coordinates": [-87.084133256, 41.4763798271]}, "type": "Feature", "properties": {"collection_times": [{"days": "Mon-Fri", "time": "4:45pm"}, {"days": "Sat", "time": "2:30pm"}, {"days": "Sun", "time": "Closed"}], "id": "4638500001", "name": "USPS COLLECTION BOX - BLUE BOX", "address": {"city": "VALPARAISO", "state": "IN", "street": "460 LINCOLNWAY", "postcode": "46385"}}},
{"geometry": {"type": "Point", "coordinates": [-87.084133256, 41.4763798271]}, "type": "Feature", "properties": {"collection_times": [{"days": "Mon-Fri", "time": "4:45pm"}, {"days": "Sat", "time": "2:30pm"}, {"days": "Sun", "time": "Closed"}], "id": "4638500002", "name": "USPS COLLECTION BOX - PO LOBBY", "address": {"city": "VALPARAISO", "state": "IN", "street": "460 LINCOLNWAY", "postcode": "46385"}}},
{"geometry": {"type": "Point", "coordinates": [-87.0871639984, 41.4612495417]}, "type": "Feature", "properties": {"collection_times": [{"days": "Mon-Sat", "time": "10:00am"}, {"days": "Sun", "time": "Closed"}], "id": "4638500003", "name": "USPS COLLECTION BOX - BLUE BOX", "address": {"city": "VALPARAISO", "state": "IN", "street": "2168 MORTHLAND DR", "postcode": "46385"}}},
{"geometry": {"type": "Point", "coordinates": [-87.0851272117, 41.4490915783]}, "type": "Feature", "properties": {"collection_times": [{"days": "Mon-Sat", "time": "2:00pm"}, {"days": "Sun", "time": "Closed"}], "id": "4638500005", "name": "USPS COLLECTION BOX - BLUE BOX", "address": {"city": "VALPARAISO", "state": "IN", "street": "852 THORNAPPLE DR", "postcode": "46385"}}},
{"geometry": {"type": "Point", "coordinates": [-87.1284488069, 41.4676104996]}, "type": "Feature", "properties": {"collection_times": [{"days": "Mon-Sat", "time": "10:00am"}, {"days": "Sun", "time": "Closed"}], "id": "4638500006", "name": "USPS COLLECTION BOX - BLUE BOX", "address": {"city": "VALPARAISO", "state": "IN", "street": "330 W US HIGHWAY 30", "postcode": "46385"}}},
{"geometry": {"type": "Point", "coordinates": [-87.13260505, 41.5503174432]}, "type": "Feature", "properties": {"collection_times": [{"days": "Mon-Sat", "time": "10:30am"}, {"days": "Sun", "time": "Closed"}], "id": "4638500007", "name": "USPS COLLECTION BOX - BLUE BOX", "address": {"city": "VALPARAISO", "state": "IN", "street": "389 W US HIGHWAY 6", "postcode": "46385"}}},
{"geometry": {"type": "Point", "coordinates": [-87.1326912592, 41.5502083369]}, "type": "Feature", "properties": {"collection_times": [{"days": "Mon-Sat", "time": "11:00am"}, {"days": "Sun", "time": "Closed"}], "id": "4638500008", "name": "USPS COLLECTION BOX - BLUE BOX", "address": {"city": "VALPARAISO", "state": "IN", "street": "390 W US HIGHWAY 6", "postcode": "46385"}}},
{"geometry": {"type": "Point", "coordinates": [-86.8991035068, 41.429790089]}, "type": "Feature", "properties": {"collection_times": [{"days": "Mon-Fri", "time": "3:00pm"}, {"days": "Sat", "time": "11:00am"}, {"days": "Sun", "time": "Closed"}], "id": "4639000001", "name": "USPS COLLECTION BOX - BLUE BOX", "address": {"city": "WANATAH", "state": "IN", "street": "104 S ILLINOIS ST", "postcode": "46390"}}},
{"geometry": {"type": "Point", "coordinates": [-86.8991035068, 41.429790089]}, "type": "Feature", "properties": {"collection_times": [{"days": "Mon-Fri", "time": "3:00pm"}, {"days": "Sat", "time": "11:00am"}, {"days": "Sun", "time": "Closed"}], "id": "4639000003", "name": "USPS COLLECTION BOX - PO LOBBY", "address": {"city": "WANATAH", "state": "IN", "street": "104 S ILLINOIS ST", "postcode": "46390"}}},
{"geometry": {"type": "Point", "coordinates": [-86.9004673893, 41.5423896279]}, "type": "Feature", "properties": {"collection_times": [{"days": "Mon-Fri", "time": "4:15pm"}, {"days": "Sat", "time": "11:00am"}, {"days": "Sun", "time": "Closed"}], "id": "4639100001", "name": "USPS COLLECTION BOX - BLUE BOX", "address": {"city": "WESTVILLE", "state": "IN", "street": "201 PLAIN ST", "postcode": "46391"}}},
{"geometry": {"type": "Point", "coordinates": [-86.9004673893, 41.5423896279]}, "type": "Feature", "properties": {"collection_times": [{"days": "Mon-Fri", "time": "4:15pm"}, {"days": "Sat", "time": "11:00am"}, {"days": "Sun", "time": "Closed"}], "id": "4639100009", "name": "USPS COLLECTION BOX - PO LOBBY", "address": {"city": "WESTVILLE", "state": "IN", "street": "201 PLAIN ST", "postcode": "46391"}}},
{"geometry": {"type": "Point", "coordinates": [-87.0554369362, 41.1836294181]}, "type": "Feature", "properties": {"collection_times": [{"days": "Mon-Fri", "time": "4:00pm"}, {"days": "Sat", "time": "10:30am"}, {"days": "Sun", "time": "Closed"}], "id": "4639200001", "name": "USPS COLLECTION BOX - BLUE BOX", "address": {"city": "WHEATFIELD", "state": "IN", "street": "497 S BIERMA ST", "postcode": "46392"}}},
{"geometry": {"type": "Point", "coordinates": [-87.0554369362, 41.1836294181]}, "type": "Feature", "properties": {"collection_times": [{"days": "Mon-Fri", "time": "4:00pm"}, {"days": "Sat", "time": "10:30am"}, {"days": "Sun", "time": "Closed"}], "id": "4639200002", "name": "USPS COLLECTION BOX - PO LOBBY", "address": {"city": "WHEATFIELD", "state": "IN", "street": "497 S BIERMA ST", "postcode": "46392"}}},
{"geometry": {"type": "Point", "coordinates": [-87.1201121562, 41.1875393202]}, "type": "Feature", "properties": {"collection_times": [{"days": "Mon-Fri", "time": "10:00am"}, {"days": "Sat-Sun", "time": "Closed"}], "id": "4639200003", "name": "USPS COLLECTION BOX - BLUE BOX", "address": {"city": "WHEATFIELD", "state": "IN", "street": "3908 W STATE ROAD 10", "postcode": "46392"}}},
{"geometry": {"type": "Point", "coordinates": [-87.0554369362, 41.1836294181]}, "type": "Feature", "properties": {"collection_times": [{"days": "Mon-Fri", "time": "4:00pm"}, {"days": "Sat", "time": "10:30am"}, {"days": "Sun", "time": "Closed"}], "id": "4639200004", "name": "USPS COLLECTION BOX - PO LOBBY", "address": {"city": "WHEATFIELD", "state": "IN", "street": "497 S BIERMA ST", "postcode": "46392"}}},
{"geometry": {"type": "Point", "coordinates": [-87.1795679555, 41.5118990131]}, "type": "Feature", "properties": {"collection_times": [{"days": "Mon-Fri", "time": "4:30pm"}, {"days": "Sat", "time": "11:30am"}, {"days": "Sun", "time": "Closed"}], "id": "4639300000", "name": "USPS COLLECTION BOX - BLUE BOX", "address": {"city": "WHEELER", "state": "IN", "street": "305 RAILROAD AVE", "postcode": "46393"}}},
{"geometry": {"type": "Point", "coordinates": [-87.1795679555, 41.5118990131]}, "type": "Feature", "properties": {"collection_times": [{"days": "Mon-Fri", "time": "4:30pm"}, {"days": "Sat", "time": "11:30am"}, {"days": "Sun", "time": "Closed"}], "id": "4639300001", "name": "USPS COLLECTION BOX - PO LOBBY", "address": {"city": "WHEELER", "state": "IN", "street": "305 RAILROAD AVE", "postcode": "46393"}}},
{"geometry": {"type": "Point", "coordinates": [-87.4930611277, 41.679463412]}, "type": "Feature", "properties": {"collection_times": [{"days": "Mon-Fri", "time": "5:00pm"}, {"days": "Sat", "time": "1:00pm"}, {"days": "Sun", "time": "Closed"}], "id": "4639400000", "name": "USPS COLLECTION BOX - BLUE BOX", "address": {"city": "WHITING", "state": "IN", "street": "1501 119TH ST", "postcode": "46394"}}},
{"geometry": {"type": "Point", "coordinates": [-87.5085586407, 41.6831942477]}, "type": "Feature", "properties": {"collection_times": [{"days": "Mon-Fri", "time": "3:00pm"}, {"days": "Sat", "time": "10:00am"}, {"days": "Sun", "time": "Closed"}], "id": "4639400008", "name": "USPS COLLECTION BOX - BLUE BOX", "address": {"city": "WHITING", "state": "IN", "street": "1643 CALUMET AVE", "postcode": "46394"}}},
{"geometry": {"type": "Point", "coordinates": [-87.5112084687, 41.6881756879]}, "type": "Feature", "properties": {"collection_times": [{"days": "Mon-Sat", "time": "11:30am"}, {"days": "Sun", "time": "Closed"}], "id": "4639400012", "name": "USPS COLLECTION BOX - BLUE BOX", "address": {"city": "WHITING", "state": "IN", "street": "648 114TH ST", "postcode": "46394"}}},
{"geometry": {"type": "Point", "coordinates": [-87.4962857583, 41.6792689112]}, "type": "Feature", "properties": {"collection_times": [{"days": "Mon-Fri", "time": "3:00pm"}, {"days": "Sat", "time": "9:30am"}, {"days": "Sun", "time": "Closed"}], "id": "4639400014", "name": "USPS COLLECTION BOX - BLUE BOX", "address": {"city": "WHITING", "state": "IN", "street": "1334 119TH ST", "postcode": "46394"}}},
{"geometry": {"type": "Point", "coordinates": [-87.492896264, 41.6647034161]}, "type": "Feature", "properties": {"collection_times": [{"days": "Mon-Sat", "time": "11:00am"}, {"days": "Sun", "time": "Closed"}], "id": "4639400024", "name": "USPS COLLECTION BOX - BLUE BOX", "address": {"city": "WHITING", "state": "IN", "street": "2706 NEW YORK AVE", "postcode": "46394"}}},
{"geometry": {"type": "Point", "coordinates": [-87.5047909163, 41.6792041271]}, "type": "Feature", "properties": {"collection_times": [{"days": "Mon-Fri", "time": "3:00pm"}, {"days": "Sat", "time": "11:00am"}, {"days": "Sun", "time": "Closed"}], "id": "4639400025", "name": "USPS COLLECTION BOX - BLUE BOX", "address": {"city": "WHITING", "state": "IN", "street": "932 119TH ST", "postcode": "46394"}}},
{"geometry": {"type": "Point", "coordinates": [-87.501253869, 41.6792573602]}, "type": "Feature", "properties": {"collection_times": [{"days": "Mon-Fri", "time": "3:00pm"}, {"days": "Sat", "time": "9:45am"}, {"days": "Sun", "time": "Closed"}], "id": "4639400027", "name": "USPS COLLECTION BOX - BLUE BOX", "address": {"city": "WHITING", "state": "IN", "street": "1104 119TH ST", "postcode": "46394"}}},
{"geometry": {"type": "Point", "coordinates": [-87.5050271223, 41.6755176428]}, "type": "Feature", "properties": {"collection_times": [{"days": "Mon-Sat", "time": "11:00am"}, {"days": "Sun", "time": "Closed"}], "id": "4639400035", "name": "USPS COLLECTION BOX - BLUE BOX", "address": {"city": "WHITING", "state": "IN", "street": "2100 LAKE AVE", "postcode": "46394"}}},
{"geometry": {"type": "Point", "coordinates": [-87.5037744537, 41.6846457994]}, "type": "Feature", "properties": {"collection_times": [{"days": "Mon-Sat", "time": "11:30am"}, {"days": "Sun", "time": "Closed"}], "id": "4639400038", "name": "USPS COLLECTION BOX - BLUE BOX", "address": {"city": "WHITING", "state": "IN", "street": "1000 116TH ST", "postcode": "46394"}}},
{"geometry": {"type": "Point", "coordinates": [-87.4930611277, 41.679463412]}, "type": "Feature", "properties": {"collection_times": [{"days": "Mon-Fri", "time": "5:00pm"}, {"days": "Sat", "time": "1:00pm"}, {"days": "Sun", "time": "Closed"}], "id": "4639400039", "name": "USPS COLLECTION BOX - BLUE BOX", "address": {"city": "WHITING", "state": "IN", "street": "1501 119TH ST", "postcode": "46394"}}},
{"geometry": {"type": "Point", "coordinates": [-87.4930611277, 41.679463412]}, "type": "Feature", "properties": {"collection_times": [{"days": "Mon-Fri", "time": "5:00pm"}, {"days": "Sat", "time": "1:00pm"}, {"days": "Sun", "time": "Closed"}], "id": "4639400040", "name": "USPS COLLECTION BOX - PO LOBBY", "address": {"city": "WHITING", "state": "IN", "street": "1501 119TH ST", "postcode": "46394"}}}
]}
