{"type": "FeatureCollection", "features": [
{"geometry": {"type": "Point", "coordinates": [-87.3187564933, 41.5865344382]}, "type": "Feature", "properties": {"collection_times": [{"days": "Mon-Fri", "time": "7:00pm"}, {"days": "Sat", "time": "6:00pm"}, {"days": "Sun", "time": "Closed"}], "id": "4640100004", "name": "USPS COLLECTION BOX - PO LOBBY", "address": {"city": "GARY", "state": "IN", "street": "1499 MARTIN LUTHER KING DR", "postcode": "46401"}}},
{"geometry": {"type": "Point", "coordinates": [-87.3187564933, 41.5865344382]}, "type": "Feature", "properties": {"collection_times": [{"days": "Mon-Fri", "time": "7:00pm"}, {"days": "Sat", "time": "6:00pm"}, {"days": "Sun", "time": "Closed"}], "id": "4640100005", "name": "USPS COLLECTION BOX - BLUE BOX", "address": {"city": "GARY", "state": "IN", "street": "1499 MARTIN LUTHER KING DR", "postcode": "46401"}}},
{"geometry": {"type": "Point", "coordinates": [-87.3187564933, 41.5865344382]}, "type": "Feature", "properties": {"collection_times": [{"days": "Mon-Fri", "time": "7:00pm"}, {"days": "Sat", "time": "6:00pm"}, {"days": "Sun", "time": "Closed"}], "id": "4640100006", "name": "USPS COLLECTION BOX - BLUE BOX", "address": {"city": "GARY", "state": "IN", "street": "1499 MARTIN LUTHER KING DR", "postcode": "46401"}}},
{"geometry": {"type": "Point", "coordinates": [-87.3372074279, 41.6036391001]}, "type": "Feature", "properties": {"collection_times": [{"days": "Mon-Fri", "time": "1:00pm"}, {"days": "Sat-Sun", "time": "Closed"}], "id": "4640200007", "name": "USPS COLLECTION BOX - BLUE BOX", "address": {"city": "GARY", "state": "IN", "street": "400 BROADWAY", "postcode": "46402"}}},
{"geometry": {"type": "Point", "coordinates": [-87.3495723695, 41.5996020627]}, "type": "Feature", "properties": {"collection_times": [{"days": "Mon-Sat", "time": "2:00pm"}, {"days": "Sun", "time": "Closed"}], "id": "4640200027", "name": "USPS COLLECTION BOX - BLUE BOX", "address": {"city": "GARY", "state": "IN", "street": "555 POLK ST", "postcode": "46402"}}},
{"geometry": {"type": "Point", "coordinates": [-87.3346853655, 41.5999875392]}, "type": "Feature", "properties": {"collection_times": [{"days": "Mon-Sat", "time": "1:00pm"}, {"days": "Sun", "time": "Closed"}], "id": "4640200029", "name": "USPS COLLECTION BOX - BLUE BOX", "address": {"city": "GARY", "state": "IN", "street": "610 CONNECTICUT ST", "postcode": "46402"}}},
{"geometry": {"type": "Point", "coordinates": [-87.2666271879, 41.601151592]}, "type": "Feature", "properties": {"collection_times": [{"days": "Mon-Fri", "time": "5:00pm"}, {"days": "Sat", "time": "12:00pm"}, {"days": "Sun", "time": "Closed"}], "id": "4640300001", "name": "USPS COLLECTION BOX - BLUE BOX", "address": {"city": "GARY", "state": "IN", "street": "518 S HANCOCK ST", "postcode": "46403"}}},
{"geometry": {"type": "Point", "coordinates": [-87.277534, 41.596504]}, "type": "Feature", "properties": {"collection_times": [{"days": "Mon-Sat", "time": "2:00pm"}, {"days": "Sun", "time": "Closed"}], "id": "4640300014", "name": "USPS COLLECTION BOX - BLUE BOX", "address": {"city": "GARY", "state": "IN", "street": "5001 US HIGHWAY 12", "postcode": "46403"}}},
{"geometry": {"type": "Point", "coordinates": [-87.2666271879, 41.601151592]}, "type": "Feature", "properties": {"collection_times": [{"days": "Mon-Fri", "time": "5:00pm"}, {"days": "Sat", "time": "12:00pm"}, {"days": "Sun", "time": "Closed"}], "id": "4640300021", "name": "USPS COLLECTION BOX - PO LOBBY", "address": {"city": "GARY", "state": "IN", "street": "518 S HANCOCK ST", "postcode": "46403"}}},
{"geometry": {"type": "Point", "coordinates": [-87.2666271879, 41.601151592]}, "type": "Feature", "properties": {"collection_times": [{"days": "Mon-Fri", "time": "5:00pm"}, {"days": "Sat", "time": "12:00pm"}, {"days": "Sun", "time": "Closed"}], "id": "4640300022", "name": "USPS COLLECTION BOX - BLUE BOX", "address": {"city": "GARY", "state": "IN", "street": "518 S HANCOCK ST", "postcode": "46403"}}},
{"geometry": {"type": "Point", "coordinates": [-87.230855306, 41.6011768354]}, "type": "Feature", "properties": {"collection_times": [{"days": "Mon-Sat", "time": "1:00pm"}, {"days": "Sun", "time": "Closed"}], "id": "4640300024", "name": "USPS COLLECTION BOX - BLUE BOX", "address": {"city": "GARY", "state": "IN", "street": "8901 E 5TH AVE", "postcode": "46403"}}},
{"geometry": {"type": "Point", "coordinates": [-87.3939032812, 41.5896681942]}, "type": "Feature", "properties": {"collection_times": [{"days": "Mon-Sat", "time": "2:00pm"}, {"days": "Sun", "time": "Closed"}], "id": "4640400006", "name": "USPS COLLECTION BOX - BLUE BOX", "address": {"city": "GARY", "state": "IN", "street": "1300 CLARK RD", "postcode": "46404"}}},
{"geometry": {"type": "Point", "coordinates": [-87.3677102625, 41.591482723]}, "type": "Feature", "properties": {"collection_times": [{"days": "Mon-Fri", "time": "5:00pm"}, {"days": "Sat", "time": "12:00pm"}, {"days": "Sun", "time": "Closed"}], "id": "4640400019", "name": "USPS COLLECTION BOX - BLUE BOX", "address": {"city": "GARY", "state": "IN", "street": "2407 W 11TH AVE", "postcode": "46404"}}},
{"geometry": {"type": "Point", "coordinates": [-87.3674562631, 41.5914477236]}, "type": "Feature", "properties": {"collection_times": [{"days": "Mon-Fri", "time": "5:00pm"}, {"days": "Sat", "time": "12:00pm"}, {"days": "Sun", "time": "Closed"}], "id": "4640400028", "name": "USPS COLLECTION BOX - BLUE BOX", "address": {"city": "GARY", "state": "IN", "street": "2407 W 11TH AVE", "postcode": "46404"}}},
{"geometry": {"type": "Point", "coordinates": [-87.2382059302, 41.5740697531]}, "type": "Feature", "properties": {"collection_times": [{"days": "Mon-Sat", "time": "1:00pm"}, {"days": "Sun", "time": "Closed"}], "id": "4640500021", "name": "USPS COLLECTION BOX - BLUE BOX", "address": {"city": "GARY", "state": "IN", "street": "3115 CENTRAL AVE", "postcode": "46405"}}},
{"geometry": {"type": "Point", "coordinates": [-87.2596098407, 41.5713016207]}, "type": "Feature", "properties": {"collection_times": [{"days": "Mon-Sat", "time": "1:00pm"}, {"days": "Sun", "time": "Closed"}], "id": "4640500025", "name": "USPS COLLECTION BOX - BLUE BOX", "address": {"city": "GARY", "state": "IN", "street": "1969 CENTRAL AVE", "postcode": "46405"}}},
{"geometry": {"type": "Point", "coordinates": [-87.2487804875, 41.5730117382]}, "type": "Feature", "properties": {"collection_times": [{"days": "Mon-Fri", "time": "5:00pm"}, {"days": "Sat", "time": "12:00pm"}, {"days": "Sun", "time": "Closed"}], "id": "4640500031", "name": "USPS COLLECTION BOX - BLUE BOX", "address": {"city": "GARY", "state": "IN", "street": "2901 CENTRAL AVE", "postcode": "46405"}}},
{"geometry": {"type": "Point", "coordinates": [-87.2487804875, 41.5730117382]}, "type": "Feature", "properties": {"collection_times": [{"days": "Mon-Fri", "time": "5:00pm"}, {"days": "Sat", "time": "12:00pm"}, {"days": "Sun", "time": "Closed"}], "id": "4640500032", "name": "USPS COLLECTION BOX - PO LOBBY", "address": {"city": "GARY", "state": "IN", "street": "2901 CENTRAL AVE", "postcode": "46405"}}},
{"geometry": {"type": "Point", "coordinates": [-87.3930460959, 41.6017962804]}, "type": "Feature", "properties": {"collection_times": [{"days": "Mon-Sat", "time": "1:00pm"}, {"days": "Sun", "time": "Closed"}], "id": "4640600004", "name": "USPS COLLECTION BOX - BLUE BOX", "address": {"city": "GARY", "state": "IN", "street": "4511 W 5TH AVE", "postcode": "46406"}}},
{"geometry": {"type": "Point", "coordinates": [-87.4035162236, 41.5732968002]}, "type": "Feature", "properties": {"collection_times": [{"days": "Mon-Sat", "time": "1:00pm"}, {"days": "Sun", "time": "Closed"}], "id": "4640600008", "name": "USPS COLLECTION BOX - BLUE BOX", "address": {"city": "GARY", "state": "IN", "street": "2510 BURR ST", "postcode": "46406"}}},
{"geometry": {"type": "Point", "coordinates": [-87.337049101, 41.5881280818]}, "type": "Feature", "properties": {"collection_times": [{"days": "Mon-Fri", "time": "3:00pm"}, {"days": "Sat", "time": "1:00pm"}, {"days": "Sun", "time": "Closed"}], "id": "4640700014", "name": "USPS COLLECTION BOX - BLUE BOX", "address": {"city": "GARY", "state": "IN", "street": "1490 BROADWAY", "postcode": "46407"}}},
{"geometry": {"type": "Point", "coordinates": [-87.3466658951, 41.584092332]}, "type": "Feature", "properties": {"collection_times": [{"days": "Mon-Sat", "time": "1:00pm"}, {"days": "Sun", "time": "Closed"}], "id": "4640700019", "name": "USPS COLLECTION BOX - BLUE BOX", "address": {"city": "GARY", "state": "IN", "street": "1900 HARRISON ST", "postcode": "46407"}}},
{"geometry": {"type": "Point", "coordinates": [-87.3284967381, 41.5802163942]}, "type": "Feature", "properties": {"collection_times": [{"days": "Mon-Sat", "time": "1:00pm"}, {"days": "Sun", "time": "Closed"}], "id": "4640700020", "name": "USPS COLLECTION BOX - BLUE BOX", "address": {"city": "GARY", "state": "IN", "street": "2100 CAROLINA ST", "postcode": "46407"}}},
{"geometry": {"type": "Point", "coordinates": [-87.3605426151, 41.5475088858]}, "type": "Feature", "properties": {"collection_times": [{"days": "Mon-Sat", "time": "3:00pm"}, {"days": "Sun", "time": "Closed"}], "id": "4640800001", "name": "USPS COLLECTION BOX - BLUE BOX", "address": {"city": "GARY", "state": "IN", "street": "3981 CLEVELAND ST", "postcode": "46408"}}},
{"geometry": {"type": "Point", "coordinates": [-87.3366303255, 41.5516315753]}, "type": "Feature", "properties": {"collection_times": [{"days": "Mon-Sat", "time": "3:00pm"}, {"days": "Sun", "time": "Closed"}], "id": "4640800002", "name": "USPS COLLECTION BOX - BLUE BOX", "address": {"city": "GARY", "state": "IN", "street": "3680 BROADWAY", "postcode": "46408"}}},
{"geometry": {"type": "Point", "coordinates": [-87.4108818522, 41.5494004326]}, "type": "Feature", "properties": {"collection_times": [{"days": "Mon-Sat", "time": "2:00pm"}, {"days": "Sun", "time": "Closed"}], "id": "4640800004", "name": "USPS COLLECTION BOX - BLUE BOX", "address": {"city": "GARY", "state": "IN", "street": "6030 W RIDGE RD", "postcode": "46408"}}},
{"geometry": {"type": "Point", "coordinates": [-87.3324499495, 41.5458175587]}, "type": "Feature", "properties": {"collection_times": [{"days": "Mon-Fri", "time": "5:00pm"}, {"days": "Sat", "time": "12:00pm"}, {"days": "Sun", "time": "Closed"}], "id": "4640900018", "name": "USPS COLLECTION BOX - BLUE BOX", "address": {"city": "GARY", "state": "IN", "street": "320 E 40TH AVE", "postcode": "46409"}}},
{"geometry": {"type": "Point", "coordinates": [-87.3551187309, 41.4871460966]}, "type": "Feature", "properties": {"collection_times": [{"days": "Mon-Sat", "time": "1:00pm"}, {"days": "Sun", "time": "Closed"}], "id": "4641000005", "name": "USPS COLLECTION BOX - BLUE BOX", "address": {"city": "GARY", "state": "IN", "street": "8310 BROADWAY", "postcode": "46410"}}},
{"geometry": {"type": "Point", "coordinates": [-87.3353450654, 41.4551302781]}, "type": "Feature", "properties": {"collection_times": [{"days": "Mon-Fri", "time": "3:00pm"}, {"days": "Sat", "time": "1:00pm"}, {"days": "Sun", "time": "Closed"}], "id": "4641000009", "name": "USPS COLLECTION BOX - BLUE BOX", "address": {"city": "GARY", "state": "IN", "street": "9001 BROADWAY", "postcode": "46410"}}},
{"geometry": {"type": "Point", "coordinates": [-87.2892436746, 41.4711747128]}, "type": "Feature", "properties": {"collection_times": [{"days": "Mon-Sat", "time": "1:00pm"}, {"days": "Sun", "time": "Closed"}], "id": "4641000016", "name": "USPS COLLECTION BOX - BLUE BOX", "address": {"city": "GARY", "state": "IN", "street": "3700 E LINCOLN HWY", "postcode": "46410"}}},
{"geometry": {"type": "Point", "coordinates": [-87.3354115575, 41.459361344]}, "type": "Feature", "properties": {"collection_times": [{"days": "Mon-Sat", "time": "1:00pm"}, {"days": "Sun", "time": "Closed"}], "id": "4641000024", "name": "USPS COLLECTION BOX - BLUE BOX", "address": {"city": "GARY", "state": "IN", "street": "8701 BROADWAY", "postcode": "46410"}}},
{"geometry": {"type": "Point", "coordinates": [-87.3649227393, 41.4735278642]}, "type": "Feature", "properties": {"collection_times": [{"days": "Mon-Sat", "time": "1:00pm"}, {"days": "Sun", "time": "Closed"}], "id": "4641000026", "name": "USPS COLLECTION BOX - BLUE BOX", "address": {"city": "GARY", "state": "IN", "street": "7905 TAFT ST", "postcode": "46410"}}},
{"geometry": {"type": "Point", "coordinates": [-87.3358280886, 41.4747547036]}, "type": "Feature", "properties": {"collection_times": [{"days": "Mon-Sat", "time": "1:00pm"}, {"days": "Sun", "time": "Closed"}], "id": "4641000027", "name": "USPS COLLECTION BOX - BLUE BOX", "address": {"city": "GARY", "state": "IN", "street": "7895 BROADWAY", "postcode": "46410"}}},
{"geometry": {"type": "Point", "coordinates": [-87.3358265232, 41.4756010703]}, "type": "Feature", "properties": {"collection_times": [{"days": "Mon-Sat", "time": "1:00pm"}, {"days": "Sun", "time": "Closed"}], "id": "4641000028", "name": "USPS COLLECTION BOX - BLUE BOX", "address": {"city": "GARY", "state": "IN", "street": "7863 BROADWAY", "postcode": "46410"}}},
{"geometry": {"type": "Point", "coordinates": [-87.3649650689, 41.4869790399]}, "type": "Feature", "properties": {"collection_times": [{"days": "Mon-Sat", "time": "1:00pm"}, {"days": "Sun", "time": "Closed"}], "id": "4641000031", "name": "USPS COLLECTION BOX - BLUE BOX", "address": {"city": "GARY", "state": "IN", "street": "7241 TAFT ST", "postcode": "46410"}}},
{"geometry": {"type": "Point", "coordinates": [-87.3361697351, 41.5065640363]}, "type": "Feature", "properties": {"collection_times": [{"days": "Mon-Sat", "time": "1:00pm"}, {"days": "Sun", "time": "Closed"}], "id": "4641000034", "name": "USPS COLLECTION BOX - BLUE BOX", "address": {"city": "GARY", "state": "IN", "street": "6140 BROADWAY", "postcode": "46410"}}},
{"geometry": {"type": "Point", "coordinates": [-87.3457399777, 41.5072848017]}, "type": "Feature", "properties": {"collection_times": [{"days": "Mon-Sat", "time": "1:00pm"}, {"days": "Sun", "time": "Closed"}], "id": "4641000038", "name": "USPS COLLECTION BOX - BLUE BOX", "address": {"city": "GARY", "state": "IN", "street": "6111 HARRISON ST", "postcode": "46410"}}},
{"geometry": {"type": "Point", "coordinates": [-87.340667581, 41.4710652385]}, "type": "Feature", "properties": {"collection_times": [{"days": "Mon-Sat", "time": "1:00pm"}, {"days": "Sun", "time": "Closed"}], "id": "4641000039", "name": "USPS COLLECTION BOX - BLUE BOX", "address": {"city": "GARY", "state": "IN", "street": "500 W LINCOLN HWY", "postcode": "46410"}}},
{"geometry": {"type": "Point", "coordinates": [-87.3843466827, 41.4763790551]}, "type": "Feature", "properties": {"collection_times": [{"days": "Mon-Sat", "time": "1:00pm"}, {"days": "Sun", "time": "Closed"}], "id": "4641000040", "name": "USPS COLLECTION BOX - BLUE BOX", "address": {"city": "GARY", "state": "IN", "street": "7800 WHITCOMB ST", "postcode": "46410"}}},
{"geometry": {"type": "Point", "coordinates": [-87.3362611455, 41.5206135471]}, "type": "Feature", "properties": {"collection_times": [{"days": "Mon-Sat", "time": "1:00pm"}, {"days": "Sun", "time": "Closed"}], "id": "4641000041", "name": "USPS COLLECTION BOX - BLUE BOX", "address": {"city": "GARY", "state": "IN", "street": "5386 BROADWAY", "postcode": "46410"}}},
{"geometry": {"type": "Point", "coordinates": [-87.3110692006, 41.4663234603]}, "type": "Feature", "properties": {"collection_times": [{"days": "Mon-Sat", "time": "1:00pm"}, {"days": "Sun", "time": "Closed"}], "id": "4641000042", "name": "USPS COLLECTION BOX - BLUE BOX", "address": {"city": "GARY", "state": "IN", "street": "2300 SOUTH LAKE MALL", "postcode": "46410"}}},
{"geometry": {"type": "Point", "coordinates": [-87.3095557539, 41.4704165837]}, "type": "Feature", "properties": {"collection_times": [{"days": "Mon-Sat", "time": "1:00pm"}, {"days": "Sun", "time": "Closed"}], "id": "4641000044", "name": "USPS COLLECTION BOX - BLUE BOX", "address": {"city": "GARY", "state": "IN", "street": "1935 SOUTH LAKE MALL", "postcode": "46410"}}},
{"geometry": {"type": "Point", "coordinates": [-87.3107442494, 41.4705361845]}, "type": "Feature", "properties": {"collection_times": [{"days": "Mon-Sat", "time": "1:00pm"}, {"days": "Sun", "time": "Closed"}], "id": "4641000045", "name": "USPS COLLECTION BOX - BLUE BOX", "address": {"city": "GARY", "state": "IN", "street": "1890 SOUTH LAKE MALL", "postcode": "46410"}}},
{"geometry": {"type": "Point", "coordinates": [-87.3387776238, 41.4733528971]}, "type": "Feature", "properties": {"collection_times": [{"days": "Mon-Fri", "time": "6:30pm"}, {"days": "Sat", "time": "3:00pm"}, {"days": "Sun", "time": "Closed"}], "id": "4641000048", "name": "USPS COLLECTION BOX - BLUE BOX", "address": {"city": "GARY", "state": "IN", "street": "303 W 80TH PL", "postcode": "46410"}}},
{"geometry": {"type": "Point", "coordinates": [-87.3387776238, 41.4733528971]}, "type": "Feature", "properties": {"collection_times": [{"days": "Mon-Fri", "time": "6:30pm"}, {"days": "Sat", "time": "3:00pm"}, {"days": "Sun", "time": "Closed"}], "id": "4641000049", "name": "USPS COLLECTION BOX - BLUE BOX", "address": {"city": "GARY", "state": "IN", "street": "303 W 80TH PL", "postcode": "46410"}}},
{"geometry": {"type": "Point", "coordinates": [-87.3387776238, 41.4733528971]}, "type": "Feature", "properties": {"collection_times": [{"days": "Mon-Fri", "time": "6:30pm"}, {"days": "Sat", "time": "3:00pm"}, {"days": "Sun", "time": "Closed"}], "id": "4641000050", "name": "USPS COLLECTION BOX - BLUE BOX", "address": {"city": "GARY", "state": "IN", "street": "303 W 80TH PL", "postcode": "46410"}}},
{"geometry": {"type": "Point", "coordinates": [-87.3387776238, 41.4733528971]}, "type": "Feature", "properties": {"collection_times": [{"days": "Mon-Fri", "time": "6:30pm"}, {"days": "Sat", "time": "3:00pm"}, {"days": "Sun", "time": "Closed"}], "id": "4641000052", "name": "USPS COLLECTION BOX - BLUE BOX", "address": {"city": "GARY", "state": "IN", "street": "303 W 80TH PL", "postcode": "46410"}}},
{"geometry": {"type": "Point", "coordinates": [-87.3387776238, 41.4733528971]}, "type": "Feature", "properties": {"collection_times": [{"days": "Mon-Fri", "time": "6:30pm"}, {"days": "Sat", "time": "3:00pm"}, {"days": "Sun", "time": "Closed"}], "id": "4641000053", "name": "USPS COLLECTION BOX - PO LOBBY", "address": {"city": "GARY", "state": "IN", "street": "303 W 80TH PL", "postcode": "46410"}}},
{"geometry": {"type": "Point", "coordinates": [-87.3285303297, 41.4622685462]}, "type": "Feature", "properties": {"collection_times": [{"days": "Mon-Fri", "time": "3:00pm"}, {"days": "Sat", "time": "1:00pm"}, {"days": "Sun", "time": "Closed"}], "id": "4641000055", "name": "USPS COLLECTION BOX - BLUE BOX", "address": {"city": "GARY", "state": "IN", "street": "522 E 86TH AVE", "postcode": "46410"}}},
{"geometry": {"type": "Point", "coordinates": [-87.3255793007, 41.4746477904]}, "type": "Feature", "properties": {"collection_times": [{"days": "Mon-Fri", "time": "3:00pm"}, {"days": "Sat", "time": "1:00pm"}, {"days": "Sun", "time": "Closed"}], "id": "4641000058", "name": "USPS COLLECTION BOX - BLUE BOX", "address": {"city": "GARY", "state": "IN", "street": "1000 E 80TH PL", "postcode": "46410"}}},
{"geometry": {"type": "Point", "coordinates": [-87.3414065173, 41.4708079902]}, "type": "Feature", "properties": {"collection_times": [{"days": "Mon-Sat", "time": "1:00pm"}, {"days": "Sun", "time": "Closed"}], "id": "4641000061", "name": "USPS COLLECTION BOX - BLUE BOX", "address": {"city": "GARY", "state": "IN", "street": "611 W LINCOLN HWY", "postcode": "46410"}}},
{"geometry": {"type": "Point", "coordinates": [-87.3434972935, 41.4856730017]}, "type": "Feature", "properties": {"collection_times": [{"days": "Mon-Fri", "time": "1:00pm"}, {"days": "Sat-Sun", "time": "Closed"}], "id": "4641000065", "name": "USPS COLLECTION BOX - BLUE BOX", "address": {"city": "GARY", "state": "IN", "street": "707 E 80TH PL", "postcode": "46410"}}},
{"geometry": {"type": "Point", "coordinates": [-87.3387776238, 41.4733528971]}, "type": "Feature", "properties": {"collection_times": [{"days": "Mon-Fri", "time": "6:30pm"}, {"days": "Sat", "time": "3:00pm"}, {"days": "Sun", "time": "Closed"}], "id": "4641000066", "name": "USPS COLLECTION BOX - APC", "address": {"city": "GARY", "state": "IN", "street": "303 W 80TH PL", "postcode": "46410"}}}
]}
