{"type": "FeatureCollection", "features": [
{"geometry": {"type": "Point", "coordinates": [-86.2457793478, 41.2373292076]}, "type": "Feature", "properties": {"collection_times": [{"days": "Mon-Fri", "time": "4:00pm"}, {"days": "Sat", "time": "11:00am"}, {"days": "Sun", "time": "Closed"}], "id": "4650100001", "name": "USPS COLLECTION BOX - BLUE BOX", "address": {"city": "ARGOS", "state": "IN", "street": "140 W WALNUT ST", "postcode": "46501"}}},
{"geometry": {"type": "Point", "coordinates": [-86.2457793478, 41.2373292076]}, "type": "Feature", "properties": {"collection_times": [{"days": "Mon-Fri", "time": "4:00pm"}, {"days": "Sat", "time": "11:00am"}, {"days": "Sun", "time": "Closed"}], "id": "4650100006", "name": "USPS COLLECTION BOX - PO LOBBY", "address": {"city": "ARGOS", "state": "IN", "street": "140 W WALNUT ST", "postcode": "46501"}}},
{"geometry": {"type": "Point", "coordinates": [-85.977544053, 41.2596983071]}, "type": "Feature", "properties": {"collection_times": [{"days": "Mon-Fri", "time": "3:30pm"}, {"days": "Sat", "time": "10:00am"}, {"days": "Sun", "time": "Closed"}], "id": "4650200001", "name": "USPS COLLECTION BOX - BLUE BOX", "address": {"city": "ATWOOD", "state": "IN", "street": "216 E MAIN ST", "postcode": "46502"}}},
{"geometry": {"type": "Point", "coordinates": [-85.977544053, 41.2596983071]}, "type": "Feature", "properties": {"collection_times": [{"days": "Mon-Fri", "time": "3:30pm"}, {"days": "Sat", "time": "10:00am"}, {"days": "Sun", "time": "Closed"}], "id": "4650200002", "name": "USPS COLLECTION BOX - PO LOBBY", "address": {"city": "ATWOOD", "state": "IN", "street": "216 E MAIN ST", "postcode": "46502"}}},
{"geometry": {"type": "Point", "coordinates": [-86.1163775586, 41.2966362349]}, "type": "Feature", "properties": {"collection_times": [{"days": "Mon-Fri", "time": "4:45pm"}, {"days": "Sat", "time": "11:00am"}, {"days": "Sun", "time": "Closed"}], "id": "4650400001", "name": "USPS COLLECTION BOX - BLUE BOX", "address": {"city": "BOURBON", "state": "IN", "street": "221 N MAIN ST", "postcode": "46504"}}},
{"geometry": {"type": "Point", "coordinates": [-86.1163775586, 41.2966362349]}, "type": "Feature", "properties": {"collection_times": [{"days": "Mon-Fri", "time": "4:45pm"}, {"days": "Sat", "time": "11:00am"}, {"days": "Sun", "time": "Closed"}], "id": "4650400007", "name": "USPS COLLECTION BOX - BLUE BOX", "address": {"city": "BOURBON", "state": "IN", "street": "221 N MAIN ST", "postcode": "46504"}}},
{"geometry": {"type": "Point", "coordinates": [-86.1163775586, 41.2966362349]}, "type": "Feature", "properties": {"collection_times": [{"days": "Mon-Fri", "time": "4:45pm"}, {"days": "Sat", "time": "11:00am"}, {"days": "Sun", "time": "Closed"}], "id": "4650400008", "name": "USPS COLLECTION BOX - PO LOBBY", "address": {"city": "BOURBON", "state": "IN", "street": "221 N MAIN ST", "postcode": "46504"}}},
{"geometry": {"type": "Point", "coordinates": [-86.1465061919, 41.4473150322]}, "type": "Feature", "properties": {"collection_times": [{"days": "Mon-Fri", "time": "5:00pm"}, {"days": "Sat", "time": "3:00pm"}, {"days": "Sun", "time": "Closed"}], "id": "4650600001", "name": "USPS COLLECTION BOX - PO LOBBY", "address": {"city": "BREMEN", "state": "IN", "street": "100 W NORTH ST", "postcode": "46506"}}},
{"geometry": {"type": "Point", "coordinates": [-86.1465061919, 41.4473150322]}, "type": "Feature", "properties": {"collection_times": [{"days": "Mon-Fri", "time": "5:00pm"}, {"days": "Sat", "time": "3:00pm"}, {"days": "Sun", "time": "Closed"}], "id": "4650600002", "name": "USPS COLLECTION BOX - BLUE BOX", "address": {"city": "BREMEN", "state": "IN", "street": "100 W NORTH ST", "postcode": "46506"}}},
{"geometry": {"type": "Point", "coordinates": [-86.1464969887, 41.4465549869]}, "type": "Feature", "properties": {"collection_times": [{"days": "Mon-Fri", "time": "4:00pm"}, {"days": "Sat", "time": "2:45pm"}, {"days": "Sun", "time": "Closed"}], "id": "4650600003", "name": "USPS COLLECTION BOX - BLUE BOX", "address": {"city": "BREMEN", "state": "IN", "street": "101 W PLYMOUTH ST", "postcode": "46506"}}},
{"geometry": {"type": "Point", "coordinates": [-86.1598489034, 41.4463498349]}, "type": "Feature", "properties": {"collection_times": [{"days": "Mon-Sat", "time": "12:30pm"}, {"days": "Sun", "time": "Closed"}], "id": "4650600004", "name": "USPS COLLECTION BOX - BLUE BOX", "address": {"city": "BREMEN", "state": "IN", "street": "1150 W PLYMOUTH ST", "postcode": "46506"}}},
{"geometry": {"type": "Point", "coordinates": [-86.1465061919, 41.4473150322]}, "type": "Feature", "properties": {"collection_times": [{"days": "Mon-Fri", "time": "5:00pm"}, {"days": "Sat", "time": "3:00pm"}, {"days": "Sun", "time": "Closed"}], "id": "4650600006", "name": "USPS COLLECTION BOX - BLUE BOX", "address": {"city": "BREMEN", "state": "IN", "street": "100 W NORTH ST", "postcode": "46506"}}},
{"geometry": {"type": "Point", "coordinates": [-86.1561950887, 41.4465299179]}, "type": "Feature", "properties": {"collection_times": [{"days": "Mon-Sat", "time": "1:30pm"}, {"days": "Sun", "time": "Closed"}], "id": "4650600007", "name": "USPS COLLECTION BOX - BLUE BOX", "address": {"city": "BREMEN", "state": "IN", "street": "110 N BOWEN AVE", "postcode": "46506"}}},
{"geometry": {"type": "Point", "coordinates": [-85.8187856932, 41.7213980092]}, "type": "Feature", "properties": {"collection_times": [{"days": "Mon-Fri", "time": "4:45pm"}, {"days": "Sat", "time": "12:00pm"}, {"days": "Sun", "time": "Closed"}], "id": "4650700002", "name": "USPS COLLECTION BOX - BLUE BOX", "address": {"city": "BRISTOL", "state": "IN", "street": "206 W VISTULA ST", "postcode": "46507"}}},
{"geometry": {"type": "Point", "coordinates": [-85.8187856932, 41.7213980092]}, "type": "Feature", "properties": {"collection_times": [{"days": "Mon-Fri", "time": "4:45pm"}, {"days": "Sat", "time": "12:00pm"}, {"days": "Sun", "time": "Closed"}], "id": "4650700003", "name": "USPS COLLECTION BOX - BLUE BOX", "address": {"city": "BRISTOL", "state": "IN", "street": "206 W VISTULA ST", "postcode": "46507"}}},
{"geometry": {"type": "Point", "coordinates": [-85.8187856932, 41.7213980092]}, "type": "Feature", "properties": {"collection_times": [{"days": "Mon-Fri", "time": "4:45pm"}, {"days": "Sat", "time": "12:00pm"}, {"days": "Sun", "time": "Closed"}], "id": "4650700009", "name": "USPS COLLECTION BOX - PO LOBBY", "address": {"city": "BRISTOL", "state": "IN", "street": "206 W VISTULA ST", "postcode": "46507"}}},
{"geometry": {"type": "Point", "coordinates": [-85.9665175856, 41.1556156194]}, "type": "Feature", "properties": {"collection_times": [{"days": "Mon-Fri", "time": "3:45pm"}, {"days": "Sat", "time": "10:00am"}, {"days": "Sun", "time": "Closed"}], "id": "4650800001", "name": "USPS COLLECTION BOX - BLUE BOX", "address": {"city": "BURKET", "state": "IN", "street": "122 E MAIN ST", "postcode": "46508"}}},
{"geometry": {"type": "Point", "coordinates": [-85.9665175856, 41.1556156194]}, "type": "Feature", "properties": {"collection_times": [{"days": "Mon-Fri", "time": "11:45am"}, {"days": "Sat", "time": "10:00am"}, {"days": "Sun", "time": "Closed"}], "id": "4650800002", "name": "USPS COLLECTION BOX - PO LOBBY", "address": {"city": "BURKET", "state": "IN", "street": "122 E MAIN ST", "postcode": "46508"}}},
{"geometry": {"type": "Point", "coordinates": [-85.8804298504, 41.1300989572]}, "type": "Feature", "properties": {"collection_times": [{"days": "Mon-Fri", "time": "3:00pm"}, {"days": "Sat", "time": "10:00am"}, {"days": "Sun", "time": "Closed"}], "id": "4651000001", "name": "USPS COLLECTION BOX - BLUE BOX", "address": {"city": "CLAYPOOL", "state": "IN", "street": "117 S MAIN ST", "postcode": "46510"}}},
{"geometry": {"type": "Point", "coordinates": [-85.8804298504, 41.1300989572]}, "type": "Feature", "properties": {"collection_times": [{"days": "Mon-Fri", "time": "11:45am"}, {"days": "Sat", "time": "10:00am"}, {"days": "Sun", "time": "Closed"}], "id": "4651000002", "name": "USPS COLLECTION BOX - PO LOBBY", "address": {"city": "CLAYPOOL", "state": "IN", "street": "117 S MAIN ST", "postcode": "46510"}}},
{"geometry": {"type": "Point", "coordinates": [-86.423937529, 41.2168807781]}, "type": "Feature", "properties": {"collection_times": [{"days": "Mon-Fri", "time": "4:00pm"}, {"days": "Sat", "time": "3:30pm"}, {"days": "Sun", "time": "Closed"}], "id": "4651100000", "name": "USPS COLLECTION BOX - BLUE BOX", "address": {"city": "CULVER", "state": "IN", "street": "115 W JEFFERSON ST", "postcode": "46511"}}},
{"geometry": {"type": "Point", "coordinates": [-86.423937529, 41.2168807781]}, "type": "Feature", "properties": {"collection_times": [{"days": "Mon-Fri", "time": "4:00pm"}, {"days": "Sat", "time": "3:30pm"}, {"days": "Sun", "time": "Closed"}], "id": "4651100001", "name": "USPS COLLECTION BOX - PO LOBBY", "address": {"city": "CULVER", "state": "IN", "street": "115 W JEFFERSON ST", "postcode": "46511"}}},
{"geometry": {"type": "Point", "coordinates": [-86.4259581371, 41.2200628155]}, "type": "Feature", "properties": {"collection_times": [{"days": "Mon-Fri", "time": "11:00am"}, {"days": "Sat", "time": "10:30am"}, {"days": "Sun", "time": "Closed"}], "id": "4651100005", "name": "USPS COLLECTION BOX - BLUE BOX", "address": {"city": "CULVER", "state": "IN", "street": "700 E LAKE SHORE DR", "postcode": "46511"}}},
{"geometry": {"type": "Point", "coordinates": [-86.4149160995, 41.2929786322]}, "type": "Feature", "properties": {"collection_times": [{"days": "Mon-Fri", "time": "10:00am"}, {"days": "Sat", "time": "9:30am"}, {"days": "Sun", "time": "Closed"}], "id": "4651100011", "name": "USPS COLLECTION BOX - BLUE BOX", "address": {"city": "CULVER", "state": "IN", "street": "18000 LATONKA TRL", "postcode": "46511"}}},
{"geometry": {"type": "Point", "coordinates": [-86.423937529, 41.2168807781]}, "type": "Feature", "properties": {"collection_times": [{"days": "Mon-Fri", "time": "4:00pm"}, {"days": "Sat", "time": "3:30pm"}, {"days": "Sun", "time": "Closed"}], "id": "4651100012", "name": "USPS COLLECTION BOX - PO LOBBY", "address": {"city": "CULVER", "state": "IN", "street": "115 W JEFFERSON ST", "postcode": "46511"}}},
{"geometry": {"type": "Point", "coordinates": [-86.4443301818, 41.3621752676]}, "type": "Feature", "properties": {"collection_times": [{"days": "Mon-Fri", "time": "3:30pm"}, {"days": "Sat", "time": "10:00am"}, {"days": "Sun", "time": "Closed"}], "id": "4651300001", "name": "USPS COLLECTION BOX - BLUE BOX", "address": {"city": "DONALDSON", "state": "IN", "street": "7919 UNION RD", "postcode": "46513"}}},
{"geometry": {"type": "Point", "coordinates": [-86.4443301818, 41.3621752676]}, "type": "Feature", "properties": {"collection_times": [{"days": "Mon-Fri", "time": "12:00pm"}, {"days": "Sat", "time": "10:00am"}, {"days": "Sun", "time": "Closed"}], "id": "4651300002", "name": "USPS COLLECTION BOX - PO LOBBY", "address": {"city": "DONALDSON", "state": "IN", "street": "7919 UNION RD", "postcode": "46513"}}},
{"geometry": {"type": "Point", "coordinates": [-85.9694694376, 41.7281463582]}, "type": "Feature", "properties": {"collection_times": [{"days": "Mon-Sat", "time": "9:00am"}, {"days": "Sun", "time": "Closed"}], "id": "4651400001", "name": "USPS COLLECTION BOX - BLUE BOX", "address": {"city": "ELKHART", "state": "IN", "street": "3040 WINDSOR CT", "postcode": "46514"}}},
{"geometry": {"type": "Point", "coordinates": [-85.9674030613, 41.7115486642]}, "type": "Feature", "properties": {"collection_times": [{"days": "Mon-Sat", "time": "9:00am"}, {"days": "Sun", "time": "Closed"}], "id": "4651400002", "name": "USPS COLLECTION BOX - BLUE BOX", "address": {"city": "ELKHART", "state": "IN", "street": "53922 N PARK AVE", "postcode": "46514"}}},
{"geometry": {"type": "Point", "coordinates": [-85.9889774489, 41.685776477]}, "type": "Feature", "properties": {"collection_times": [{"days": "Mon-Sat", "time": "9:30am"}, {"days": "Sun", "time": "Closed"}], "id": "4651400003", "name": "USPS COLLECTION BOX - BLUE BOX", "address": {"city": "ELKHART", "state": "IN", "street": "1000 STRONG AVE", "postcode": "46514"}}},
{"geometry": {"type": "Point", "coordinates": [-85.9661589309, 41.6946173836]}, "type": "Feature", "properties": {"collection_times": [{"days": "Mon-Sat", "time": "9:00am"}, {"days": "Sun", "time": "Closed"}], "id": "4651400004", "name": "USPS COLLECTION BOX - BLUE BOX", "address": {"city": "ELKHART", "state": "IN", "street": "901 JOHNSON ST", "postcode": "46514"}}},
{"geometry": {"type": "Point", "coordinates": [-85.9878693226, 41.6927819789]}, "type": "Feature", "properties": {"collection_times": [{"days": "Mon-Sat", "time": "1:30pm"}, {"days": "Sun", "time": "Closed"}], "id": "4651400005", "name": "USPS COLLECTION BOX - BLUE BOX", "address": {"city": "ELKHART", "state": "IN", "street": "900 W BEARDSLEY AVE", "postcode": "46514"}}},
{"geometry": {"type": "Point", "coordinates": [-85.9933578718, 41.6792164295]}, "type": "Feature", "properties": {"collection_times": [{"days": "Mon-Sat", "time": "9:00am"}, {"days": "Sun", "time": "Closed"}], "id": "4651400006", "name": "USPS COLLECTION BOX - BLUE BOX", "address": {"city": "ELKHART", "state": "IN", "street": "600 ARCADE AVE", "postcode": "46514"}}},
{"geometry": {"type": "Point", "coordinates": [-85.9771779637, 41.7343032089]}, "type": "Feature", "properties": {"collection_times": [{"days": "Mon-Sat", "time": "2:30pm"}, {"days": "Sun", "time": "Closed"}], "id": "4651400007", "name": "USPS COLLECTION BOX - BLUE BOX", "address": {"city": "ELKHART", "state": "IN", "street": "3130 NORTHVIEW DR", "postcode": "46514"}}},
{"geometry": {"type": "Point", "coordinates": [-85.9771779637, 41.7343032089]}, "type": "Feature", "properties": {"collection_times": [{"days": "Mon-Sat", "time": "2:30pm"}, {"days": "Sun", "time": "Closed"}], "id": "4651400008", "name": "USPS COLLECTION BOX - BLUE BOX", "address": {"city": "ELKHART", "state": "IN", "street": "3130 NORTHVIEW DR", "postcode": "46514"}}},
{"geometry": {"type": "Point", "coordinates": [-85.9745485755, 41.7453603599]}, "type": "Feature", "properties": {"collection_times": [{"days": "Mon-Sat", "time": "9:00am"}, {"days": "Sun", "time": "Closed"}], "id": "4651400009", "name": "USPS COLLECTION BOX - BLUE BOX", "address": {"city": "ELKHART", "state": "IN", "street": "51543 STATE ROAD 19", "postcode": "46514"}}},
{"geometry": {"type": "Point", "coordinates": [-85.9241244289, 41.7075164549]}, "type": "Feature", "properties": {"collection_times": [{"days": "Mon-Fri", "time": "10:00am"}, {"days": "Sat", "time": "9:00am"}, {"days": "Sun", "time": "Closed"}], "id": "4651400010", "name": "USPS COLLECTION BOX - BLUE BOX", "address": {"city": "ELKHART", "state": "IN", "street": "3535 E LAKE DR N", "postcode": "46514"}}},
{"geometry": {"type": "Point", "coordinates": [-85.9741945598, 41.7026060058]}, "type": "Feature", "properties": {"collection_times": [{"days": "Mon-Sat", "time": "1:30pm"}, {"days": "Sun", "time": "Closed"}], "id": "4651400011", "name": "USPS COLLECTION BOX - BLUE BOX", "address": {"city": "ELKHART", "state": "IN", "street": "320 E BRISTOL ST", "postcode": "46514"}}},
{"geometry": {"type": "Point", "coordinates": [-86.0182611459, 41.7011897962]}, "type": "Feature", "properties": {"collection_times": [{"days": "Mon-Sat", "time": "9:30am"}, {"days": "Sun", "time": "Closed"}], "id": "4651400012", "name": "USPS COLLECTION BOX - BLUE BOX", "address": {"city": "ELKHART", "state": "IN", "street": "2805 MALLOW ST", "postcode": "46514"}}},
{"geometry": {"type": "Point", "coordinates": [-85.9556717401, 41.7241492699]}, "type": "Feature", "properties": {"collection_times": [{"days": "Mon-Sat", "time": "9:00am"}, {"days": "Sun", "time": "Closed"}], "id": "4651400013", "name": "USPS COLLECTION BOX - BLUE BOX", "address": {"city": "ELKHART", "state": "IN", "street": "25416 COUNTY ROAD 6", "postcode": "46514"}}},
{"geometry": {"type": "Point", "coordinates": [-85.9275185075, 41.7022219873]}, "type": "Feature", "properties": {"collection_times": [{"days": "Mon-Sat", "time": "9:00am"}, {"days": "Sun", "time": "Closed"}], "id": "4651400014", "name": "USPS COLLECTION BOX - BLUE BOX", "address": {"city": "ELKHART", "state": "IN", "street": "3900 E BRISTOL ST", "postcode": "46514"}}},
{"geometry": {"type": "Point", "coordinates": [-86.0034755288, 41.6826994386]}, "type": "Feature", "properties": {"collection_times": [{"days": "Mon-Sat", "time": "1:00pm"}, {"days": "Sun", "time": "Closed"}], "id": "4651400015", "name": "USPS COLLECTION BOX - BLUE BOX", "address": {"city": "ELKHART", "state": "IN", "street": "2106 W LEXINGTON AVE", "postcode": "46514"}}},
{"geometry": {"type": "Point", "coordinates": [-85.9489460768, 41.7026491813]}, "type": "Feature", "properties": {"collection_times": [{"days": "Mon-Sat", "time": "1:30pm"}, {"days": "Sun", "time": "Closed"}], "id": "4651400016", "name": "USPS COLLECTION BOX - BLUE BOX", "address": {"city": "ELKHART", "state": "IN", "street": "1808 E BRISTOL ST", "postcode": "46514"}}},
{"geometry": {"type": "Point", "coordinates": [-86.0014195104, 41.6875867173]}, "type": "Feature", "properties": {"collection_times": [{"days": "Mon-Sat", "time": "9:30am"}, {"days": "Sun", "time": "Closed"}], "id": "4651400017", "name": "USPS COLLECTION BOX - BLUE BOX", "address": {"city": "ELKHART", "state": "IN", "street": "1720 FULTON ST", "postcode": "46514"}}},
{"geometry": {"type": "Point", "coordinates": [-85.9984213634, 41.6926653379]}, "type": "Feature", "properties": {"collection_times": [{"days": "Mon-Sat", "time": "1:30pm"}, {"days": "Sun", "time": "Closed"}], "id": "4651400018", "name": "USPS COLLECTION BOX - BLUE BOX", "address": {"city": "ELKHART", "state": "IN", "street": "1600 W BEARDSLEY AVE", "postcode": "46514"}}},
{"geometry": {"type": "Point", "coordinates": [-85.9718284594, 41.7031283812]}, "type": "Feature", "properties": {"collection_times": [{"days": "Mon-Sat", "time": "8:30am"}, {"days": "Sun", "time": "Closed"}], "id": "4651400019", "name": "USPS COLLECTION BOX - BLUE BOX", "address": {"city": "ELKHART", "state": "IN", "street": "1530 CASSOPOLIS ST", "postcode": "46514"}}},
{"geometry": {"type": "Point", "coordinates": [-85.9894621652, 41.703087996]}, "type": "Feature", "properties": {"collection_times": [{"days": "Mon-Sat", "time": "1:30pm"}, {"days": "Sun", "time": "Closed"}], "id": "4651400020", "name": "USPS COLLECTION BOX - BLUE BOX", "address": {"city": "ELKHART", "state": "IN", "street": "1523 EDWARDSBURG AVE", "postcode": "46514"}}},
{"geometry": {"type": "Point", "coordinates": [-85.9839144841, 41.7027176389]}, "type": "Feature", "properties": {"collection_times": [{"days": "Mon-Sat", "time": "12:00pm"}, {"days": "Sun", "time": "Closed"}], "id": "4651400021", "name": "USPS COLLECTION BOX - BLUE BOX", "address": {"city": "ELKHART", "state": "IN", "street": "1504 LOCUST ST", "postcode": "46514"}}},
{"geometry": {"type": "Point", "coordinates": [-85.9738168647, 41.7122215884]}, "type": "Feature", "properties": {"collection_times": [{"days": "Mon-Sat", "time": "9:00am"}, {"days": "Sun", "time": "Closed"}], "id": "4651400022", "name": "USPS COLLECTION BOX - BLUE BOX", "address": {"city": "ELKHART", "state": "IN", "street": "1424 HOLIDAY VIEW DR", "postcode": "46514"}}},
{"geometry": {"type": "Point", "coordinates": [-85.9910723283, 41.6927458344]}, "type": "Feature", "properties": {"collection_times": [{"days": "Mon-Sat", "time": "1:30pm"}, {"days": "Sun", "time": "Closed"}], "id": "4651400023", "name": "USPS COLLECTION BOX - BLUE BOX", "address": {"city": "ELKHART", "state": "IN", "street": "1142 W BEARDSLEY AVE", "postcode": "46514"}}},
{"geometry": {"type": "Point", "coordinates": [-85.9924621409, 41.7026555913]}, "type": "Feature", "properties": {"collection_times": [{"days": "Mon-Sat", "time": "1:30pm"}, {"days": "Sun", "time": "Closed"}], "id": "4651400024", "name": "USPS COLLECTION BOX - BLUE BOX", "address": {"city": "ELKHART", "state": "IN", "street": "1212 W BRISTOL ST", "postcode": "46514"}}},
{"geometry": {"type": "Point", "coordinates": [-86.0042144301, 41.7284719776]}, "type": "Feature", "properties": {"collection_times": [{"days": "Mon-Sat", "time": "9:30am"}, {"days": "Sun", "time": "Closed"}], "id": "4651400025", "name": "USPS COLLECTION BOX - BLUE BOX", "address": {"city": "ELKHART", "state": "IN", "street": "2971 MOOSE TRL", "postcode": "46514"}}},
{"geometry": {"type": "Point", "coordinates": [-86.0053830979, 41.7389947237]}, "type": "Feature", "properties": {"collection_times": [{"days": "Mon-Sat", "time": "10:00am"}, {"days": "Sun", "time": "Closed"}], "id": "4651400026", "name": "USPS COLLECTION BOX - BLUE BOX", "address": {"city": "ELKHART", "state": "IN", "street": "28054 COUNTY ROAD 4", "postcode": "46514"}}},
{"geometry": {"type": "Point", "coordinates": [-85.9504360283, 41.714445213]}, "type": "Feature", "properties": {"collection_times": [{"days": "Mon-Sat", "time": "10:00am"}, {"days": "Sun", "time": "Closed"}], "id": "4651400027", "name": "USPS COLLECTION BOX - BLUE BOX", "address": {"city": "ELKHART", "state": "IN", "street": "1820 PARKE PL", "postcode": "46514"}}},
{"geometry": {"type": "Point", "coordinates": [-86.0034856098, 41.6989690847]}, "type": "Feature", "properties": {"collection_times": [{"days": "Mon-Sat", "time": "9:00am"}, {"days": "Sun", "time": "Closed"}], "id": "4651400028", "name": "USPS COLLECTION BOX - BLUE BOX", "address": {"city": "ELKHART", "state": "IN", "street": "1200 N NAPPANEE ST", "postcode": "46514"}}},
{"geometry": {"type": "Point", "coordinates": [-85.9489460768, 41.7026491813]}, "type": "Feature", "properties": {"collection_times": [{"days": "Mon-Sat", "time": "1:30pm"}, {"days": "Sun", "time": "Closed"}], "id": "4651400029", "name": "USPS COLLECTION BOX - BLUE BOX", "address": {"city": "ELKHART", "state": "IN", "street": "1808 E BRISTOL ST", "postcode": "46514"}}},
{"geometry": {"type": "Point", "coordinates": [-85.9489460768, 41.7026491813]}, "type": "Feature", "properties": {"collection_times": [{"days": "Mon-Sat", "time": "1:30pm"}, {"days": "Sun", "time": "Closed"}], "id": "4651400030", "name": "USPS COLLECTION BOX - BLUE BOX", "address": {"city": "ELKHART", "state": "IN", "street": "1808 E BRISTOL ST", "postcode": "46514"}}},
{"geometry": {"type": "Point", "coordinates": [-85.9538344892, 41.7127794208]}, "type": "Feature", "properties": {"collection_times": [{"days": "Mon-Sat", "time": "9:00am"}, {"days": "Sun", "time": "Closed"}], "id": "4651400031", "name": "USPS COLLECTION BOX - BLUE BOX", "address": {"city": "ELKHART", "state": "IN", "street": "1801 KENTUCKY AVE", "postcode": "46514"}}},
{"geometry": {"type": "Point", "coordinates": [-85.9790651923, 41.7242257382]}, "type": "Feature", "properties": {"collection_times": [{"days": "Mon-Sat", "time": "10:30am"}, {"days": "Sun", "time": "Closed"}], "id": "4651400032", "name": "USPS COLLECTION BOX - BLUE BOX", "address": {"city": "ELKHART", "state": "IN", "street": "175 COUNTY ROAD 6 W", "postcode": "46514"}}},
{"geometry": {"type": "Point", "coordinates": [-85.980018594, 41.7207580825]}, "type": "Feature", "properties": {"collection_times": [{"days": "Mon-Sat", "time": "11:30am"}, {"days": "Sun", "time": "Closed"}], "id": "4651400033", "name": "USPS COLLECTION BOX - BLUE BOX", "address": {"city": "ELKHART", "state": "IN", "street": "2692 LINKS DR", "postcode": "46514"}}},
{"geometry": {"type": "Point", "coordinates": [-85.9576273742, 41.6759712076]}, "type": "Feature", "properties": {"collection_times": [{"days": "Mon-Fri", "time": "11:30am"}, {"days": "Sat", "time": "10:30am"}, {"days": "Sun", "time": "Closed"}], "id": "4651600001", "name": "USPS COLLECTION BOX - BLUE BOX", "address": {"city": "ELKHART", "state": "IN", "street": "555 E JACKSON BLVD", "postcode": "46516"}}},
{"geometry": {"type": "Point", "coordinates": [-85.9576273742, 41.6759712076]}, "type": "Feature", "properties": {"collection_times": [{"days": "Mon-Fri", "time": "11:30am"}, {"days": "Sat", "time": "10:30am"}, {"days": "Sun", "time": "Closed"}], "id": "4651600002", "name": "USPS COLLECTION BOX - BLUE BOX", "address": {"city": "ELKHART", "state": "IN", "street": "555 E JACKSON BLVD", "postcode": "46516"}}},
{"geometry": {"type": "Point", "coordinates": [-85.974104621, 41.6821456484]}, "type": "Feature", "properties": {"collection_times": [{"days": "Mon-Sat", "time": "1:00pm"}, {"days": "Sun", "time": "Closed"}], "id": "4651600003", "name": "USPS COLLECTION BOX - BLUE BOX", "address": {"city": "ELKHART", "state": "IN", "street": "516 S 3RD ST", "postcode": "46516"}}},
{"geometry": {"type": "Point", "coordinates": [-85.974104621, 41.6821456484]}, "type": "Feature", "properties": {"collection_times": [{"days": "Mon-Sat", "time": "1:00pm"}, {"days": "Sun", "time": "Closed"}], "id": "4651600004", "name": "USPS COLLECTION BOX - BLUE BOX", "address": {"city": "ELKHART", "state": "IN", "street": "516 S 3RD ST", "postcode": "46516"}}},
{"geometry": {"type": "Point", "coordinates": [-85.973366767, 41.6835899322]}, "type": "Feature", "properties": {"collection_times": [{"days": "Mon-Sat", "time": "1:00pm"}, {"days": "Sun", "time": "Closed"}], "id": "4651600005", "name": "USPS COLLECTION BOX - BLUE BOX", "address": {"city": "ELKHART", "state": "IN", "street": "415 S 2ND ST", "postcode": "46516"}}},
{"geometry": {"type": "Point", "coordinates": [-85.9744207984, 41.6857210839]}, "type": "Feature", "properties": {"collection_times": [{"days": "Mon-Sat", "time": "1:00pm"}, {"days": "Sun", "time": "Closed"}], "id": "4651600006", "name": "USPS COLLECTION BOX - BLUE BOX", "address": {"city": "ELKHART", "state": "IN", "street": "215 S 2ND ST", "postcode": "46516"}}},
{"geometry": {"type": "Point", "coordinates": [-85.9744207984, 41.6857210839]}, "type": "Feature", "properties": {"collection_times": [{"days": "Mon-Sat", "time": "1:00pm"}, {"days": "Sun", "time": "Closed"}], "id": "4651600007", "name": "USPS COLLECTION BOX - BLUE BOX", "address": {"city": "ELKHART", "state": "IN", "street": "215 S 2ND ST", "postcode": "46516"}}},
{"geometry": {"type": "Point", "coordinates": [-85.9763422275, 41.6866199958]}, "type": "Feature", "properties": {"collection_times": [{"days": "Mon-Sat", "time": "1:00pm"}, {"days": "Sun", "time": "Closed"}], "id": "4651600009", "name": "USPS COLLECTION BOX - BLUE BOX", "address": {"city": "ELKHART", "state": "IN", "street": "100 N 3RD ST", "postcode": "46516"}}},
{"geometry": {"type": "Point", "coordinates": [-85.9452386155, 41.6948135953]}, "type": "Feature", "properties": {"collection_times": [{"days": "Mon-Sat", "time": "11:30am"}, {"days": "Sun", "time": "Closed"}], "id": "4651600010", "name": "USPS COLLECTION BOX - BLUE BOX", "address": {"city": "ELKHART", "state": "IN", "street": "2001 E JACKSON BLVD", "postcode": "46516"}}},
{"geometry": {"type": "Point", "coordinates": [-85.9576273742, 41.6759712076]}, "type": "Feature", "properties": {"collection_times": [{"days": "Mon-Fri", "time": "5:00pm"}, {"days": "Sat", "time": "3:00pm"}, {"days": "Sun", "time": "Closed"}], "id": "4651600011", "name": "USPS COLLECTION BOX - BLUE BOX", "address": {"city": "ELKHART", "state": "IN", "street": "601 S 2ND ST", "postcode": "46516"}}},
{"geometry": {"type": "Point", "coordinates": [-85.9576273742, 41.6759712076]}, "type": "Feature", "properties": {"collection_times": [{"days": "Mon-Fri", "time": "5:00pm"}, {"days": "Sat", "time": "3:00pm"}, {"days": "Sun", "time": "Closed"}], "id": "4651600012", "name": "USPS COLLECTION BOX - BLUE BOX", "address": {"city": "ELKHART", "state": "IN", "street": "601 S 2ND ST", "postcode": "46516"}}},
{"geometry": {"type": "Point", "coordinates": [-85.9576273742, 41.6759712076]}, "type": "Feature", "properties": {"collection_times": [{"days": "Mon-Fri", "time": "5:00pm"}, {"days": "Sat", "time": "3:00pm"}, {"days": "Sun", "time": "Closed"}], "id": "4651600013", "name": "USPS COLLECTION BOX - BLUE BOX", "address": {"city": "ELKHART", "state": "IN", "street": "601 S 2ND ST", "postcode": "46516"}}},
{"geometry": {"type": "Point", "coordinates": [-85.9476209679, 41.69087649]}, "type": "Feature", "properties": {"collection_times": [{"days": "Mon-Sat", "time": "10:30am"}, {"days": "Sun", "time": "Closed"}], "id": "4651600014", "name": "USPS COLLECTION BOX - BLUE BOX", "address": {"city": "ELKHART", "state": "IN", "street": "1801 WOOD ST", "postcode": "46516"}}},
{"geometry": {"type": "Point", "coordinates": [-85.9713511299, 41.6831397885]}, "type": "Feature", "properties": {"collection_times": [{"days": "Mon-Sat", "time": "1:00pm"}, {"days": "Sun", "time": "Closed"}], "id": "4651600015", "name": "USPS COLLECTION BOX - BLUE BOX", "address": {"city": "ELKHART", "state": "IN", "street": "500 S MAIN ST", "postcode": "46516"}}},
{"geometry": {"type": "Point", "coordinates": [-85.9725294273, 41.6852123158]}, "type": "Feature", "properties": {"collection_times": [{"days": "Mon-Sat", "time": "1:00pm"}, {"days": "Sun", "time": "Closed"}], "id": "4651600016", "name": "USPS COLLECTION BOX - BLUE BOX", "address": {"city": "ELKHART", "state": "IN", "street": "301 S MAIN ST", "postcode": "46516"}}},
{"geometry": {"type": "Point", "coordinates": [-85.9153072186, 41.6741630722]}, "type": "Feature", "properties": {"collection_times": [{"days": "Mon-Sat", "time": "10:00am"}, {"days": "Sun", "time": "Closed"}], "id": "4651600017", "name": "USPS COLLECTION BOX - BLUE BOX", "address": {"city": "ELKHART", "state": "IN", "street": "23672 OLD US 20", "postcode": "46516"}}},
{"geometry": {"type": "Point", "coordinates": [-85.8847965334, 41.7029354405]}, "type": "Feature", "properties": {"collection_times": [{"days": "Mon-Sat", "time": "10:30am"}, {"days": "Sun", "time": "Closed"}], "id": "4651600018", "name": "USPS COLLECTION BOX - BLUE BOX", "address": {"city": "ELKHART", "state": "IN", "street": "21826 STATE ROAD 120", "postcode": "46516"}}},
{"geometry": {"type": "Point", "coordinates": [-85.9709673204, 41.6820624104]}, "type": "Feature", "properties": {"collection_times": [{"days": "Mon-Fri", "time": "5:00pm"}, {"days": "Sat", "time": "3:00pm"}, {"days": "Sun", "time": "Closed"}], "id": "4651600019", "name": "USPS COLLECTION BOX - BLUE BOX", "address": {"city": "ELKHART", "state": "IN", "street": "601 S MAIN ST", "postcode": "46516"}}},
{"geometry": {"type": "Point", "coordinates": [-85.9471719318, 41.6755166151]}, "type": "Feature", "properties": {"collection_times": [{"days": "Mon-Sat", "time": "9:00am"}, {"days": "Sun", "time": "Closed"}], "id": "4651600020", "name": "USPS COLLECTION BOX - BLUE BOX", "address": {"city": "ELKHART", "state": "IN", "street": "1838 MIDDLEBURY ST", "postcode": "46516"}}},
{"geometry": {"type": "Point", "coordinates": [-85.9630839545, 41.6900054033]}, "type": "Feature", "properties": {"collection_times": [{"days": "Mon-Sat", "time": "12:00pm"}, {"days": "Sun", "time": "Closed"}], "id": "4651600021", "name": "USPS COLLECTION BOX - BLUE BOX", "address": {"city": "ELKHART", "state": "IN", "street": "200 WINDSOR CIR", "postcode": "46516"}}},
{"geometry": {"type": "Point", "coordinates": [-86.0031666178, 41.6738651154]}, "type": "Feature", "properties": {"collection_times": [{"days": "Mon-Sat", "time": "1:00pm"}, {"days": "Sun", "time": "Closed"}], "id": "4651600022", "name": "USPS COLLECTION BOX - BLUE BOX", "address": {"city": "ELKHART", "state": "IN", "street": "1708 S NAPPANEE ST", "postcode": "46516"}}},
{"geometry": {"type": "Point", "coordinates": [-85.9734725306, 41.6874223416]}, "type": "Feature", "properties": {"collection_times": [{"days": "Mon-Sat", "time": "1:00pm"}, {"days": "Sun", "time": "Closed"}], "id": "4651600023", "name": "USPS COLLECTION BOX - BLUE BOX", "address": {"city": "ELKHART", "state": "IN", "street": "100 N MAIN ST", "postcode": "46516"}}},
{"geometry": {"type": "Point", "coordinates": [-85.963665105, 41.6762003626]}, "type": "Feature", "properties": {"collection_times": [{"days": "Mon-Sat", "time": "9:00am"}, {"days": "Sun", "time": "Closed"}], "id": "4651600024", "name": "USPS COLLECTION BOX - BLUE BOX", "address": {"city": "ELKHART", "state": "IN", "street": "1221 S MAIN ST", "postcode": "46516"}}},
{"geometry": {"type": "Point", "coordinates": [-85.9189615697, 41.6747968854]}, "type": "Feature", "properties": {"collection_times": [{"days": "Mon-Sat", "time": "9:00am"}, {"days": "Sun", "time": "Closed"}], "id": "4651600025", "name": "USPS COLLECTION BOX - BLUE BOX", "address": {"city": "ELKHART", "state": "IN", "street": "2801 TOLEDO RD", "postcode": "46516"}}},
{"geometry": {"type": "Point", "coordinates": [-85.9709673204, 41.6820624104]}, "type": "Feature", "properties": {"collection_times": [{"days": "Mon-Fri", "time": "5:30pm"}, {"days": "Sat", "time": "3:00pm"}, {"days": "Sun", "time": "Closed"}], "id": "4651600026", "name": "USPS COLLECTION BOX - PO LOBBY", "address": {"city": "ELKHART", "state": "IN", "street": "601 S MAIN ST", "postcode": "46516"}}},
{"geometry": {"type": "Point", "coordinates": [-85.9709673204, 41.6820624104]}, "type": "Feature", "properties": {"collection_times": [{"days": "Mon-Fri", "time": "5:30pm"}, {"days": "Sat", "time": "3:00pm"}, {"days": "Sun", "time": "Closed"}], "id": "4651600027", "name": "USPS COLLECTION BOX - PO LOBBY", "address": {"city": "ELKHART", "state": "IN", "street": "601 S MAIN ST", "postcode": "46516"}}},
{"geometry": {"type": "Point", "coordinates": [-85.9028067425, 41.6693804959]}, "type": "Feature", "properties": {"collection_times": [{"days": "Mon-Sat", "time": "10:00am"}, {"days": "Sun", "time": "Closed"}], "id": "4651600028", "name": "USPS COLLECTION BOX - BLUE BOX", "address": {"city": "ELKHART", "state": "IN", "street": "22714 PINE ARBOR DR", "postcode": "46516"}}},
{"geometry": {"type": "Point", "coordinates": [-85.9763422275, 41.6866199958]}, "type": "Feature", "properties": {"collection_times": [{"days": "Mon-Sat", "time": "1:00pm"}, {"days": "Sun", "time": "Closed"}], "id": "4651600029", "name": "USPS COLLECTION BOX - BLUE BOX", "address": {"city": "ELKHART", "state": "IN", "street": "100 N 3RD ST", "postcode": "46516"}}},
{"geometry": {"type": "Point", "coordinates": [-86.0031666178, 41.6738651154]}, "type": "Feature", "properties": {"collection_times": [{"days": "Mon-Sat", "time": "1:00pm"}, {"days": "Sun", "time": "Closed"}], "id": "4651600030", "name": "USPS COLLECTION BOX - BLUE BOX", "address": {"city": "ELKHART", "state": "IN", "street": "1708 S NAPPANEE ST", "postcode": "46516"}}},
{"geometry": {"type": "Point", "coordinates": [-85.971437826, 41.683293557]}, "type": "Feature", "properties": {"collection_times": [{"days": "Mon-Sat", "time": "9:00am"}, {"days": "Sun", "time": "Closed"}], "id": "4651600031", "name": "USPS COLLECTION BOX - BLUE BOX", "address": {"city": "ELKHART", "state": "IN", "street": "500 S MAIN ST", "postcode": "46516"}}},
{"geometry": {"type": "Point", "coordinates": [-85.9725294273, 41.6852123158]}, "type": "Feature", "properties": {"collection_times": [{"days": "Mon-Sat", "time": "1:00pm"}, {"days": "Sun", "time": "Closed"}], "id": "4651600032", "name": "USPS COLLECTION BOX - BLUE BOX", "address": {"city": "ELKHART", "state": "IN", "street": "301 S MAIN ST", "postcode": "46516"}}},
{"geometry": {"type": "Point", "coordinates": [-86.0598235435, 41.6641995474]}, "type": "Feature", "properties": {"collection_times": [{"days": "Mon-Sat", "time": "10:00am"}, {"days": "Sun", "time": "Closed"}], "id": "4651600033", "name": "USPS COLLECTION BOX - BLUE BOX", "address": {"city": "ELKHART", "state": "IN", "street": "30944 US HIGHWAY 33", "postcode": "46516"}}},
{"geometry": {"type": "Point", "coordinates": [-85.9356011888, 41.6469217356]}, "type": "Feature", "properties": {"collection_times": [{"days": "Mon-Sat", "time": "11:00am"}, {"days": "Sun", "time": "Closed"}], "id": "4651700001", "name": "USPS COLLECTION BOX - BLUE BOX", "address": {"city": "ELKHART", "state": "IN", "street": "3501 S MAIN ST", "postcode": "46517"}}},
{"geometry": {"type": "Point", "coordinates": [-85.9757286674, 41.6457734657]}, "type": "Feature", "properties": {"collection_times": [{"days": "Mon-Sat", "time": "12:30pm"}, {"days": "Sun", "time": "Closed"}], "id": "4651700002", "name": "USPS COLLECTION BOX - BLUE BOX", "address": {"city": "ELKHART", "state": "IN", "street": "2426 BENHAM AVE", "postcode": "46517"}}},
{"geometry": {"type": "Point", "coordinates": [-85.9757286674, 41.6457734657]}, "type": "Feature", "properties": {"collection_times": [{"days": "Mon-Sat", "time": "12:30pm"}, {"days": "Sun", "time": "Closed"}], "id": "4651700003", "name": "USPS COLLECTION BOX - BLUE BOX", "address": {"city": "ELKHART", "state": "IN", "street": "2426 BENHAM AVE", "postcode": "46517"}}},
{"geometry": {"type": "Point", "coordinates": [-85.9281601565, 41.6421014452]}, "type": "Feature", "properties": {"collection_times": [{"days": "Mon-Sat", "time": "11:00am"}, {"days": "Sun", "time": "Closed"}], "id": "4651700004", "name": "USPS COLLECTION BOX - BLUE BOX", "address": {"city": "ELKHART", "state": "IN", "street": "3701 S MAIN ST", "postcode": "46517"}}},
{"geometry": {"type": "Point", "coordinates": [-85.9587218016, 41.6587224069]}, "type": "Feature", "properties": {"collection_times": [{"days": "Mon-Sat", "time": "10:00am"}, {"days": "Sun", "time": "Closed"}], "id": "4651700005", "name": "USPS COLLECTION BOX - BLUE BOX", "address": {"city": "ELKHART", "state": "IN", "street": "2718 RIDGEWOOD DR", "postcode": "46517"}}},
{"geometry": {"type": "Point", "coordinates": [-85.9536623641, 41.65035949]}, "type": "Feature", "properties": {"collection_times": [{"days": "Mon-Sat", "time": "10:00am"}, {"days": "Sun", "time": "Closed"}], "id": "4651700006", "name": "USPS COLLECTION BOX - BLUE BOX", "address": {"city": "ELKHART", "state": "IN", "street": "1001 PORTAGE LN", "postcode": "46517"}}},
{"geometry": {"type": "Point", "coordinates": [-85.9757373572, 41.6457821093]}, "type": "Feature", "properties": {"collection_times": [{"days": "Mon-Sat", "time": "10:00am"}, {"days": "Sun", "time": "Closed"}], "id": "4651700007", "name": "USPS COLLECTION BOX - BLUE BOX", "address": {"city": "ELKHART", "state": "IN", "street": "1000 W MISHAWAKA RD", "postcode": "46517"}}},
{"geometry": {"type": "Point", "coordinates": [-85.9757373572, 41.6457821093]}, "type": "Feature", "properties": {"collection_times": [{"days": "Mon-Sat", "time": "12:00pm"}, {"days": "Sun", "time": "Closed"}], "id": "4651700008", "name": "USPS COLLECTION BOX - BLUE BOX", "address": {"city": "ELKHART", "state": "IN", "street": "3314 C LN", "postcode": "46517"}}},
{"geometry": {"type": "Point", "coordinates": [-85.9559680674, 41.6479114676]}, "type": "Feature", "properties": {"collection_times": [{"days": "Mon-Sat", "time": "10:30am"}, {"days": "Sun", "time": "Closed"}], "id": "4651700009", "name": "USPS COLLECTION BOX - BLUE BOX", "address": {"city": "ELKHART", "state": "IN", "street": "855 E MISHAWAKA RD", "postcode": "46517"}}},
{"geometry": {"type": "Point", "coordinates": [-85.9701200738, 41.662311779]}, "type": "Feature", "properties": {"collection_times": [{"days": "Mon-Sat", "time": "12:30pm"}, {"days": "Sun", "time": "Closed"}], "id": "4651700010", "name": "USPS COLLECTION BOX - BLUE BOX", "address": {"city": "ELKHART", "state": "IN", "street": "2426 BENHAM AVE", "postcode": "46517"}}},
{"geometry": {"type": "Point", "coordinates": [-85.9701200738, 41.662311779]}, "type": "Feature", "properties": {"collection_times": [{"days": "Mon-Sat", "time": "12:30pm"}, {"days": "Sun", "time": "Closed"}], "id": "4651700011", "name": "USPS COLLECTION BOX - BLUE BOX", "address": {"city": "ELKHART", "state": "IN", "street": "2426 BENHAM AVE", "postcode": "46517"}}},
{"geometry": {"type": "Point", "coordinates": [-86.0469067182, 41.2765960762]}, "type": "Feature", "properties": {"collection_times": [{"days": "Mon-Fri", "time": "3:45pm"}, {"days": "Sat", "time": "10:15am"}, {"days": "Sun", "time": "Closed"}], "id": "4652400000", "name": "USPS COLLECTION BOX - BLUE BOX", "address": {"city": "ETNA GREEN", "state": "IN", "street": "103 N WALNUT ST", "postcode": "46524"}}},
{"geometry": {"type": "Point", "coordinates": [-86.0469067182, 41.2765960762]}, "type": "Feature", "properties": {"collection_times": [{"days": "Mon-Fri", "time": "11:45am"}, {"days": "Sat", "time": "10:15am"}, {"days": "Sun", "time": "Closed"}], "id": "4652400001", "name": "USPS COLLECTION BOX - PO LOBBY", "address": {"city": "ETNA GREEN", "state": "IN", "street": "103 N WALNUT ST", "postcode": "46524"}}},
{"geometry": {"type": "Point", "coordinates": [-85.9006560883, 41.6224752461]}, "type": "Feature", "properties": {"collection_times": [{"days": "Mon-Sat", "time": "10:00am"}, {"days": "Sun", "time": "Closed"}], "id": "4652600003", "name": "USPS COLLECTION BOX - BLUE BOX", "address": {"city": "GOSHEN", "state": "IN", "street": "4024 ELKHART RD", "postcode": "46526"}}},
{"geometry": {"type": "Point", "coordinates": [-85.8589027778, 41.5952463467]}, "type": "Feature", "properties": {"collection_times": [{"days": "Mon-Sat", "time": "2:00pm"}, {"days": "Sun", "time": "Closed"}], "id": "4652600004", "name": "USPS COLLECTION BOX - BLUE BOX", "address": {"city": "GOSHEN", "state": "IN", "street": "1710 BASHOR RD", "postcode": "46526"}}},
{"geometry": {"type": "Point", "coordinates": [-85.8763872691, 41.587944975]}, "type": "Feature", "properties": {"collection_times": [{"days": "Mon-Sat", "time": "10:00am"}, {"days": "Sun", "time": "Closed"}], "id": "4652600007", "name": "USPS COLLECTION BOX - BLUE BOX", "address": {"city": "GOSHEN", "state": "IN", "street": "2400 W CLINTON ST", "postcode": "46526"}}},
{"geometry": {"type": "Point", "coordinates": [-85.8441622211, 41.5864312122]}, "type": "Feature", "properties": {"collection_times": [{"days": "Mon-Sat", "time": "10:00am"}, {"days": "Sun", "time": "Closed"}], "id": "4652600009", "name": "USPS COLLECTION BOX - BLUE BOX", "address": {"city": "GOSHEN", "state": "IN", "street": "107 DEWEY AVE", "postcode": "46526"}}},
{"geometry": {"type": "Point", "coordinates": [-85.8429305588, 41.5889628709]}, "type": "Feature", "properties": {"collection_times": [{"days": "Mon-Sat", "time": "2:00pm"}, {"days": "Sun", "time": "Closed"}], "id": "4652600010", "name": "USPS COLLECTION BOX - BLUE BOX", "address": {"city": "GOSHEN", "state": "IN", "street": "502 W PIKE ST", "postcode": "46526"}}},
{"geometry": {"type": "Point", "coordinates": [-85.8297889752, 41.5643873277]}, "type": "Feature", "properties": {"collection_times": [{"days": "Mon-Sat", "time": "10:00am"}, {"days": "Sun", "time": "Closed"}], "id": "4652600015", "name": "USPS COLLECTION BOX - BLUE BOX", "address": {"city": "GOSHEN", "state": "IN", "street": "200 HIGH PARK AVE", "postcode": "46526"}}},
{"geometry": {"type": "Point", "coordinates": [-85.8284699061, 41.560671994]}, "type": "Feature", "properties": {"collection_times": [{"days": "Mon-Sat", "time": "10:00am"}, {"days": "Sun", "time": "Closed"}], "id": "4652600016", "name": "USPS COLLECTION BOX - BLUE BOX", "address": {"city": "GOSHEN", "state": "IN", "street": "2012 S MAIN ST", "postcode": "46526"}}},
{"geometry": {"type": "Point", "coordinates": [-85.828309087, 41.5425955871]}, "type": "Feature", "properties": {"collection_times": [{"days": "Mon-Sat", "time": "10:00am"}, {"days": "Sun", "time": "Closed"}], "id": "4652600017", "name": "USPS COLLECTION BOX - BLUE BOX", "address": {"city": "GOSHEN", "state": "IN", "street": "65615 STATE ROAD 15", "postcode": "46526"}}},
{"geometry": {"type": "Point", "coordinates": [-85.8204701105, 41.5528267753]}, "type": "Feature", "properties": {"collection_times": [{"days": "Mon-Fri", "time": "10:00am"}, {"days": "Sat", "time": "9:00am"}, {"days": "Sun", "time": "Closed"}], "id": "4652600018", "name": "USPS COLLECTION BOX - BLUE BOX", "address": {"city": "GOSHEN", "state": "IN", "street": "2516 INDUSTRIAL PARK DR", "postcode": "46526"}}},
{"geometry": {"type": "Point", "coordinates": [-85.8461072407, 41.5733461981]}, "type": "Feature", "properties": {"collection_times": [{"days": "Mon-Sat", "time": "10:00am"}, {"days": "Sun", "time": "Closed"}], "id": "4652600019", "name": "USPS COLLECTION BOX - BLUE BOX", "address": {"city": "GOSHEN", "state": "IN", "street": "1010 W PLYMOUTH AVE", "postcode": "46526"}}},
{"geometry": {"type": "Point", "coordinates": [-85.8286611054, 41.5656223837]}, "type": "Feature", "properties": {"collection_times": [{"days": "Mon-Sat", "time": "10:00am"}, {"days": "Sun", "time": "Closed"}], "id": "4652600020", "name": "USPS COLLECTION BOX - BLUE BOX", "address": {"city": "GOSHEN", "state": "IN", "street": "1700 S MAIN ST", "postcode": "46526"}}},
{"geometry": {"type": "Point", "coordinates": [-85.8149204424, 41.566182882]}, "type": "Feature", "properties": {"collection_times": [{"days": "Mon-Sat", "time": "12:00pm"}, {"days": "Sun", "time": "Closed"}], "id": "4652600027", "name": "USPS COLLECTION BOX - BLUE BOX", "address": {"city": "GOSHEN", "state": "IN", "street": "1401 COLLEGE AVE", "postcode": "46526"}}},
{"geometry": {"type": "Point", "coordinates": [-85.8149204424, 41.566182882]}, "type": "Feature", "properties": {"collection_times": [{"days": "Mon-Sat", "time": "12:00pm"}, {"days": "Sun", "time": "Closed"}], "id": "4652600028", "name": "USPS COLLECTION BOX - BLUE BOX", "address": {"city": "GOSHEN", "state": "IN", "street": "1401 COLLEGE AVE", "postcode": "46526"}}},
{"geometry": {"type": "Point", "coordinates": [-85.8345860297, 41.5863416013]}, "type": "Feature", "properties": {"collection_times": [{"days": "Mon-Sat", "time": "10:00am"}, {"days": "Sun", "time": "Closed"}], "id": "4652600034", "name": "USPS COLLECTION BOX - BLUE BOX", "address": {"city": "GOSHEN", "state": "IN", "street": "104 S MAIN ST", "postcode": "46526"}}},
{"geometry": {"type": "Point", "coordinates": [-85.8396265547, 41.5891757222]}, "type": "Feature", "properties": {"collection_times": [{"days": "Mon-Fri", "time": "5:00pm"}, {"days": "Sat", "time": "3:00pm"}, {"days": "Sun", "time": "Closed"}], "id": "4652600038", "name": "USPS COLLECTION BOX - PO LOBBY", "address": {"city": "GOSHEN", "state": "IN", "street": "415 W PIKE ST", "postcode": "46526"}}},
{"geometry": {"type": "Point", "coordinates": [-85.78906, 41.55552]}, "type": "Feature", "properties": {"collection_times": [{"days": "Mon-Sat", "time": "9:00am"}, {"days": "Sun", "time": "Closed"}], "id": "4652600040", "name": "USPS COLLECTION BOX - BLUE BOX", "address": {"city": "GOSHEN", "state": "IN", "street": "2304 LINCOLNWAY E", "postcode": "46526"}}},
{"geometry": {"type": "Point", "coordinates": [-85.8396265547, 41.5891757222]}, "type": "Feature", "properties": {"collection_times": [{"days": "Mon-Fri", "time": "5:00pm"}, {"days": "Sat", "time": "3:00pm"}, {"days": "Sun", "time": "Closed"}], "id": "4652600041", "name": "USPS COLLECTION BOX - BLUE BOX", "address": {"city": "GOSHEN", "state": "IN", "street": "415 W PIKE ST", "postcode": "46526"}}},
{"geometry": {"type": "Point", "coordinates": [-85.9021930153, 41.6234614357]}, "type": "Feature", "properties": {"collection_times": [{"days": "Mon-Sat", "time": "10:00am"}, {"days": "Sun", "time": "Closed"}], "id": "4652600042", "name": "USPS COLLECTION BOX - BLUE BOX", "address": {"city": "GOSHEN", "state": "IN", "street": "4522 ELKHART RD", "postcode": "46526"}}},
{"geometry": {"type": "Point", "coordinates": [-85.8222587279, 41.6162404169]}, "type": "Feature", "properties": {"collection_times": [{"days": "Mon-Fri", "time": "2:00pm"}, {"days": "Sat", "time": "12:00pm"}, {"days": "Sun", "time": "Closed"}], "id": "4652800002", "name": "USPS COLLECTION BOX - BLUE BOX", "address": {"city": "GOSHEN", "state": "IN", "street": "214 S 5TH ST", "postcode": "46528"}}},
{"geometry": {"type": "Point", "coordinates": [-86.1087577951, 41.7529463858]}, "type": "Feature", "properties": {"collection_times": [{"days": "Mon-Fri", "time": "4:15pm"}, {"days": "Sat", "time": "1:00pm"}, {"days": "Sun", "time": "Closed"}], "id": "4653000000", "name": "USPS COLLECTION BOX - BLUE BOX", "address": {"city": "GRANGER", "state": "IN", "street": "12412 BITTERSWEET COMMONS BLVD W", "postcode": "46530"}}},
{"geometry": {"type": "Point", "coordinates": [-86.1140139045, 41.7534643968]}, "type": "Feature", "properties": {"collection_times": [{"days": "Mon-Fri", "time": "4:15pm"}, {"days": "Sat", "time": "10:00am"}, {"days": "Sun", "time": "Closed"}], "id": "4653000004", "name": "USPS COLLECTION BOX - BLUE BOX", "address": {"city": "GRANGER", "state": "IN", "street": "12850 STATE RD 23", "postcode": "46530"}}},
{"geometry": {"type": "Point", "coordinates": [-86.1868701102, 41.7239760868]}, "type": "Feature", "properties": {"collection_times": [{"days": "Mon-Fri", "time": "4:15pm"}, {"days": "Sat", "time": "10:00am"}, {"days": "Sun", "time": "Closed"}], "id": "4653000005", "name": "USPS COLLECTION BOX - BLUE BOX", "address": {"city": "GRANGER", "state": "IN", "street": "420 W CLEVELAND RD", "postcode": "46530"}}},
{"geometry": {"type": "Point", "coordinates": [-86.177932749, 41.7187432882]}, "type": "Feature", "properties": {"collection_times": [{"days": "Mon-Fri", "time": "4:15pm"}, {"days": "Sat", "time": "10:00am"}, {"days": "Sun", "time": "Closed"}], "id": "4653000006", "name": "USPS COLLECTION BOX - BLUE BOX", "address": {"city": "GRANGER", "state": "IN", "street": "6910 N MAIN ST", "postcode": "46530"}}},
{"geometry": {"type": "Point", "coordinates": [-86.1513675277, 41.736842033]}, "type": "Feature", "properties": {"collection_times": [{"days": "Mon-Fri", "time": "4:15pm"}, {"days": "Sat", "time": "10:00am"}, {"days": "Sun", "time": "Closed"}], "id": "4653000007", "name": "USPS COLLECTION BOX - BLUE BOX", "address": {"city": "GRANGER", "state": "IN", "street": "14992 STATE ROAD 23", "postcode": "46530"}}},
{"geometry": {"type": "Point", "coordinates": [-86.1087577951, 41.7529463858]}, "type": "Feature", "properties": {"collection_times": [{"days": "Mon-Fri", "time": "4:45pm"}, {"days": "Sat", "time": "4:00pm"}, {"days": "Sun", "time": "Closed"}], "id": "4653000008", "name": "USPS COLLECTION BOX - PO LOBBY", "address": {"city": "GRANGER", "state": "IN", "street": "12412 BITTERSWEET COMMONS BLVD W", "postcode": "46530"}}},
{"geometry": {"type": "Point", "coordinates": [-86.5069005922, 41.3727763424]}, "type": "Feature", "properties": {"collection_times": [{"days": "Mon-Fri", "time": "3:00pm"}, {"days": "Sat", "time": "10:15am"}, {"days": "Sun", "time": "Closed"}], "id": "4653100001", "name": "USPS COLLECTION BOX - BLUE BOX", "address": {"city": "GROVERTOWN", "state": "IN", "street": "4840 N STATE ROAD 23", "postcode": "46531"}}},
{"geometry": {"type": "Point", "coordinates": [-86.5069005922, 41.3727763424]}, "type": "Feature", "properties": {"collection_times": [{"days": "Mon-Fri", "time": "11:45am"}, {"days": "Sat", "time": "10:15am"}, {"days": "Sun", "time": "Closed"}], "id": "4653100002", "name": "USPS COLLECTION BOX - PO LOBBY", "address": {"city": "GROVERTOWN", "state": "IN", "street": "4840 N STATE ROAD 23", "postcode": "46531"}}},
{"geometry": {"type": "Point", "coordinates": [-86.5823572934, 41.370837084]}, "type": "Feature", "properties": {"collection_times": [{"days": "Mon-Fri", "time": "2:45pm"}, {"days": "Sat", "time": "10:00am"}, {"days": "Sun", "time": "Closed"}], "id": "4653200001", "name": "USPS COLLECTION BOX - BLUE BOX", "address": {"city": "HAMLET", "state": "IN", "street": "1 STARKE ST", "postcode": "46532"}}},
{"geometry": {"type": "Point", "coordinates": [-86.5823572934, 41.370837084]}, "type": "Feature", "properties": {"collection_times": [{"days": "Mon-Fri", "time": "2:45pm"}, {"days": "Sat", "time": "10:00am"}, {"days": "Sun", "time": "Closed"}], "id": "4653200002", "name": "USPS COLLECTION BOX - PO LOBBY", "address": {"city": "HAMLET", "state": "IN", "street": "1 STARKE ST", "postcode": "46532"}}},
{"geometry": {"type": "Point", "coordinates": [-86.6832793119, 41.4859751176]}, "type": "Feature", "properties": {"collection_times": [{"days": "Mon-Sat", "time": "10:00am"}, {"days": "Sun", "time": "Closed"}], "id": "4653200003", "name": "USPS COLLECTION BOX - BLUE BOX", "address": {"city": "HAMLET", "state": "IN", "street": "8498 S US HIGHWAY 6 AND 35", "postcode": "46532"}}},
{"geometry": {"type": "Point", "coordinates": [-86.6256852916, 41.2984451585]}, "type": "Feature", "properties": {"collection_times": [{"days": "Mon-Fri", "time": "3:45pm"}, {"days": "Sat", "time": "3:15pm"}, {"days": "Sun", "time": "Closed"}], "id": "4653400002", "name": "USPS COLLECTION BOX - BLUE BOX", "address": {"city": "KNOX", "state": "IN", "street": "205 W WASHINGTON ST", "postcode": "46534"}}},
{"geometry": {"type": "Point", "coordinates": [-86.6256852916, 41.2984451585]}, "type": "Feature", "properties": {"collection_times": [{"days": "Mon-Fri", "time": "3:45pm"}, {"days": "Sat", "time": "3:15pm"}, {"days": "Sun", "time": "Closed"}], "id": "4653400003", "name": "USPS COLLECTION BOX - BLUE BOX", "address": {"city": "KNOX", "state": "IN", "street": "205 W WASHINGTON ST", "postcode": "46534"}}},
{"geometry": {"type": "Point", "coordinates": [-86.6231612688, 41.2976801795]}, "type": "Feature", "properties": {"collection_times": [{"days": "Mon-Sat", "time": "1:30pm"}, {"days": "Sun", "time": "Closed"}], "id": "4653400005", "name": "USPS COLLECTION BOX - BLUE BOX", "address": {"city": "KNOX", "state": "IN", "street": "22 N MAIN ST", "postcode": "46534"}}},
{"geometry": {"type": "Point", "coordinates": [-86.6207291567, 41.2858942767]}, "type": "Feature", "properties": {"collection_times": [{"days": "Mon-Sat", "time": "8:30am"}, {"days": "Sun", "time": "Closed"}], "id": "4653400012", "name": "USPS COLLECTION BOX - BLUE BOX", "address": {"city": "KNOX", "state": "IN", "street": "1209 S HEATON ST", "postcode": "46534"}}},
{"geometry": {"type": "Point", "coordinates": [-86.6207632669, 41.2899524713]}, "type": "Feature", "properties": {"collection_times": [{"days": "Mon-Sat", "time": "9:45am"}, {"days": "Sun", "time": "Closed"}], "id": "4653400017", "name": "USPS COLLECTION BOX - BLUE BOX", "address": {"city": "KNOX", "state": "IN", "street": "807 S HEATON ST", "postcode": "46534"}}},
{"geometry": {"type": "Point", "coordinates": [-86.6256852916, 41.2984451585]}, "type": "Feature", "properties": {"collection_times": [{"days": "Mon-Fri", "time": "3:45pm"}, {"days": "Sat", "time": "3:15pm"}, {"days": "Sun", "time": "Closed"}], "id": "4653400018", "name": "USPS COLLECTION BOX - PO LOBBY", "address": {"city": "KNOX", "state": "IN", "street": "205 W WASHINGTON ST", "postcode": "46534"}}},
{"geometry": {"type": "Point", "coordinates": [-86.6256852916, 41.2984451585]}, "type": "Feature", "properties": {"collection_times": [{"days": "Mon-Fri", "time": "3:45pm"}, {"days": "Sat", "time": "3:15pm"}, {"days": "Sun", "time": "Closed"}], "id": "4653400019", "name": "USPS COLLECTION BOX - PO LOBBY", "address": {"city": "KNOX", "state": "IN", "street": "205 W WASHINGTON ST", "postcode": "46534"}}},
{"geometry": {"type": "Point", "coordinates": [-86.274103839, 41.5247066529]}, "type": "Feature", "properties": {"collection_times": [{"days": "Mon-Fri", "time": "4:00pm"}, {"days": "Sat", "time": "10:30am"}, {"days": "Sun", "time": "Closed"}], "id": "4653600001", "name": "USPS COLLECTION BOX - BLUE BOX", "address": {"city": "LAKEVILLE", "state": "IN", "street": "115 N MICHIGAN ST", "postcode": "46536"}}},
{"geometry": {"type": "Point", "coordinates": [-86.274103839, 41.5247066529]}, "type": "Feature", "properties": {"collection_times": [{"days": "Mon-Fri", "time": "4:00pm"}, {"days": "Sat", "time": "10:30am"}, {"days": "Sun", "time": "Closed"}], "id": "4653600002", "name": "USPS COLLECTION BOX - PO LOBBY", "address": {"city": "LAKEVILLE", "state": "IN", "street": "115 N MICHIGAN ST", "postcode": "46536"}}},
{"geometry": {"type": "Point", "coordinates": [-86.3081126895, 41.4587403671]}, "type": "Feature", "properties": {"collection_times": [{"days": "Mon-Fri", "time": "5:00pm"}, {"days": "Sat", "time": "11:00am"}, {"days": "Sun", "time": "Closed"}], "id": "4653700001", "name": "USPS COLLECTION BOX - BLUE BOX", "address": {"city": "LAPAZ", "state": "IN", "street": "105 COURTLAND ST", "postcode": "46537"}}},
{"geometry": {"type": "Point", "coordinates": [-86.3081126895, 41.4587403671]}, "type": "Feature", "properties": {"collection_times": [{"days": "Mon-Fri", "time": "5:00pm"}, {"days": "Sat", "time": "11:00am"}, {"days": "Sun", "time": "Closed"}], "id": "4653700002", "name": "USPS COLLECTION BOX - PO LOBBY", "address": {"city": "LAPAZ", "state": "IN", "street": "105 COURTLAND ST", "postcode": "46537"}}},
{"geometry": {"type": "Point", "coordinates": [-85.8502306987, 41.3318234309]}, "type": "Feature", "properties": {"collection_times": [{"days": "Mon-Fri", "time": "4:00pm"}, {"days": "Sat", "time": "11:00am"}, {"days": "Sun", "time": "Closed"}], "id": "4653800001", "name": "USPS COLLECTION BOX - BLUE BOX", "address": {"city": "LEESBURG", "state": "IN", "street": "105 W VAN BUREN ST", "postcode": "46538"}}},
{"geometry": {"type": "Point", "coordinates": [-85.8498181928, 41.3319372386]}, "type": "Feature", "properties": {"collection_times": [{"days": "Mon-Fri", "time": "2:00pm"}, {"days": "Sat", "time": "11:00am"}, {"days": "Sun", "time": "Closed"}], "id": "4653800002", "name": "USPS COLLECTION BOX - PO LOBBY", "address": {"city": "LEESBURG", "state": "IN", "street": "105 W VAN BUREN ST", "postcode": "46538"}}},
{"geometry": {"type": "Point", "coordinates": [-86.0391922581, 41.1733756498]}, "type": "Feature", "properties": {"collection_times": [{"days": "Mon-Fri", "time": "4:00pm"}, {"days": "Sat", "time": "11:00am"}, {"days": "Sun", "time": "Closed"}], "id": "4653900001", "name": "USPS COLLECTION BOX - BLUE BOX", "address": {"city": "MENTONE", "state": "IN", "street": "102 W MAIN ST", "postcode": "46539"}}},
{"geometry": {"type": "Point", "coordinates": [-86.0391922581, 41.1733756498]}, "type": "Feature", "properties": {"collection_times": [{"days": "Mon-Fri", "time": "4:00pm"}, {"days": "Sat", "time": "11:00am"}, {"days": "Sun", "time": "Closed"}], "id": "4653900002", "name": "USPS COLLECTION BOX - BLUE BOX", "address": {"city": "MENTONE", "state": "IN", "street": "102 W MAIN ST", "postcode": "46539"}}},
{"geometry": {"type": "Point", "coordinates": [-86.0391922581, 41.1733756498]}, "type": "Feature", "properties": {"collection_times": [{"days": "Mon-Fri", "time": "3:00pm"}, {"days": "Sat", "time": "11:00am"}, {"days": "Sun", "time": "Closed"}], "id": "4653900003", "name": "USPS COLLECTION BOX - PO LOBBY", "address": {"city": "MENTONE", "state": "IN", "street": "102 W MAIN ST", "postcode": "46539"}}},
{"geometry": {"type": "Point", "coordinates": [-86.0130479194, 41.1735625666]}, "type": "Feature", "properties": {"collection_times": [{"days": "Mon-Sat", "time": "12:00pm"}, {"days": "Sun", "time": "Closed"}], "id": "4653900004", "name": "USPS COLLECTION BOX - BLUE BOX", "address": {"city": "MENTONE", "state": "IN", "street": "201 E MAIN ST", "postcode": "46539"}}},
{"geometry": {"type": "Point", "coordinates": [-85.7059739131, 41.6741726689]}, "type": "Feature", "properties": {"collection_times": [{"days": "Mon-Fri", "time": "4:30pm"}, {"days": "Sat", "time": "12:00pm"}, {"days": "Sun", "time": "Closed"}], "id": "4654000003", "name": "USPS COLLECTION BOX - BLUE BOX", "address": {"city": "MIDDLEBURY", "state": "IN", "street": "200 S MAIN ST", "postcode": "46540"}}},
{"geometry": {"type": "Point", "coordinates": [-85.7059739131, 41.6741726689]}, "type": "Feature", "properties": {"collection_times": [{"days": "Mon-Fri", "time": "4:30pm"}, {"days": "Sat", "time": "12:00pm"}, {"days": "Sun", "time": "Closed"}], "id": "4654000004", "name": "USPS COLLECTION BOX - BLUE BOX", "address": {"city": "MIDDLEBURY", "state": "IN", "street": "200 S MAIN ST", "postcode": "46540"}}},
{"geometry": {"type": "Point", "coordinates": [-85.7059739131, 41.6741726689]}, "type": "Feature", "properties": {"collection_times": [{"days": "Mon-Fri", "time": "4:30pm"}, {"days": "Sat", "time": "12:00pm"}, {"days": "Sun", "time": "Closed"}], "id": "4654000005", "name": "USPS COLLECTION BOX - PO LOBBY", "address": {"city": "MIDDLEBURY", "state": "IN", "street": "200 S MAIN ST", "postcode": "46540"}}},
{"geometry": {"type": "Point", "coordinates": [-85.7059739131, 41.6741726689]}, "type": "Feature", "properties": {"collection_times": [{"days": "Mon-Fri", "time": "4:30pm"}, {"days": "Sat", "time": "12:00pm"}, {"days": "Sun", "time": "Closed"}], "id": "4654000008", "name": "USPS COLLECTION BOX - BLUE BOX", "address": {"city": "MIDDLEBURY", "state": "IN", "street": "200 S MAIN ST", "postcode": "46540"}}},
{"geometry": {"type": "Point", "coordinates": [-85.7069790189, 41.6752676921]}, "type": "Feature", "properties": {"collection_times": [{"days": "Mon-Fri", "time": "2:00pm"}, {"days": "Sat", "time": "12:00pm"}, {"days": "Sun", "time": "Closed"}], "id": "4654000009", "name": "USPS COLLECTION BOX - BLUE BOX", "address": {"city": "MIDDLEBURY", "state": "IN", "street": "100 S BROWN ST", "postcode": "46540"}}},
{"geometry": {"type": "Point", "coordinates": [-85.8459359983, 41.4094499593]}, "type": "Feature", "properties": {"collection_times": [{"days": "Mon-Fri", "time": "4:00pm"}, {"days": "Sat", "time": "11:00am"}, {"days": "Sun", "time": "Closed"}], "id": "4654200001", "name": "USPS COLLECTION BOX - BLUE BOX", "address": {"city": "MILFORD", "state": "IN", "street": "126 S MAIN ST", "postcode": "46542"}}},
{"geometry": {"type": "Point", "coordinates": [-85.8459359983, 41.4094499593]}, "type": "Feature", "properties": {"collection_times": [{"days": "Mon-Fri", "time": "4:00pm"}, {"days": "Sat", "time": "11:00am"}, {"days": "Sun", "time": "Closed"}], "id": "4654200002", "name": "USPS COLLECTION BOX - PO LOBBY", "address": {"city": "MILFORD", "state": "IN", "street": "126 S MAIN ST", "postcode": "46542"}}},
{"geometry": {"type": "Point", "coordinates": [-85.6974990789, 41.5253138882]}, "type": "Feature", "properties": {"collection_times": [{"days": "Mon-Fri", "time": "4:00pm"}, {"days": "Sat", "time": "11:15am"}, {"days": "Sun", "time": "Closed"}], "id": "4654300001", "name": "USPS COLLECTION BOX - BLUE BOX", "address": {"city": "MILLERSBURG", "state": "IN", "street": "214 E MAIN ST", "postcode": "46543"}}},
{"geometry": {"type": "Point", "coordinates": [-85.6974990789, 41.5253138882]}, "type": "Feature", "properties": {"collection_times": [{"days": "Mon-Fri", "time": "12:00pm"}, {"days": "Sat", "time": "11:15am"}, {"days": "Sun", "time": "Closed"}], "id": "4654300002", "name": "USPS COLLECTION BOX - PO LOBBY", "address": {"city": "MILLERSBURG", "state": "IN", "street": "214 E MAIN ST", "postcode": "46543"}}},
{"geometry": {"type": "Point", "coordinates": [-86.1938974258, 41.6553107969]}, "type": "Feature", "properties": {"collection_times": [{"days": "Mon-Fri", "time": "2:00pm"}, {"days": "Sat", "time": "9:30am"}, {"days": "Sun", "time": "Closed"}], "id": "4654400000", "name": "USPS COLLECTION BOX - BLUE BOX", "address": {"city": "MISHAWAKA", "state": "IN", "street": "1107 W 8TH ST", "postcode": "46544"}}},
{"geometry": {"type": "Point", "coordinates": [-86.2154308268, 41.660011628]}, "type": "Feature", "properties": {"collection_times": [{"days": "Mon-Sat", "time": "9:30am"}, {"days": "Sun", "time": "Closed"}], "id": "4654400007", "name": "USPS COLLECTION BOX - BLUE BOX", "address": {"city": "MISHAWAKA", "state": "IN", "street": "314 N IRONWOOD DR", "postcode": "46544"}}},
{"geometry": {"type": "Point", "coordinates": [-86.1671867232, 41.6534902314]}, "type": "Feature", "properties": {"collection_times": [{"days": "Mon-Sat", "time": "9:30am"}, {"days": "Sun", "time": "Closed"}], "id": "4654400011", "name": "USPS COLLECTION BOX - BLUE BOX", "address": {"city": "MISHAWAKA", "state": "IN", "street": "900 S MERRIFIELD AVE", "postcode": "46544"}}},
{"geometry": {"type": "Point", "coordinates": [-86.180459274, 41.6600720568]}, "type": "Feature", "properties": {"collection_times": [{"days": "Mon-Fri", "time": "5:30pm"}, {"days": "Sat", "time": "4:00pm"}, {"days": "Sun", "time": "Closed"}], "id": "4654400033", "name": "USPS COLLECTION BOX - BLUE BOX", "address": {"city": "MISHAWAKA", "state": "IN", "street": "111 E 3RD ST", "postcode": "46544"}}},
{"geometry": {"type": "Point", "coordinates": [-86.109237603, 41.6650068877]}, "type": "Feature", "properties": {"collection_times": [{"days": "Mon-Sat", "time": "9:30am"}, {"days": "Sun", "time": "Closed"}], "id": "4654400054", "name": "USPS COLLECTION BOX - BLUE BOX", "address": {"city": "MISHAWAKA", "state": "IN", "street": "306 N BITTERSWEET RD", "postcode": "46544"}}},
{"geometry": {"type": "Point", "coordinates": [-86.1768500402, 41.6290197735]}, "type": "Feature", "properties": {"collection_times": [{"days": "Mon-Sat", "time": "9:30am"}, {"days": "Sun", "time": "Closed"}], "id": "4654400058", "name": "USPS COLLECTION BOX - BLUE BOX", "address": {"city": "MISHAWAKA", "state": "IN", "street": "3610 BREMEN HWY", "postcode": "46544"}}},
{"geometry": {"type": "Point", "coordinates": [-86.180459274, 41.6600720568]}, "type": "Feature", "properties": {"collection_times": [{"days": "Mon-Fri", "time": "5:30pm"}, {"days": "Sat", "time": "4:00pm"}, {"days": "Sun", "time": "Closed"}], "id": "4654400067", "name": "USPS COLLECTION BOX - PO LOBBY", "address": {"city": "MISHAWAKA", "state": "IN", "street": "111 E 3RD ST", "postcode": "46544"}}},
{"geometry": {"type": "Point", "coordinates": [-86.180459274, 41.6600720568]}, "type": "Feature", "properties": {"collection_times": [{"days": "Mon-Fri", "time": "5:30pm"}, {"days": "Sat", "time": "4:00pm"}, {"days": "Sun", "time": "Closed"}], "id": "4654400068", "name": "USPS COLLECTION BOX - PO LOBBY", "address": {"city": "MISHAWAKA", "state": "IN", "street": "111 E 3RD ST", "postcode": "46544"}}},
{"geometry": {"type": "Point", "coordinates": [-86.180459274, 41.6600720568]}, "type": "Feature", "properties": {"collection_times": [{"days": "Mon-Fri", "time": "5:30pm"}, {"days": "Sat", "time": "4:00pm"}, {"days": "Sun", "time": "Closed"}], "id": "4654400070", "name": "USPS COLLECTION BOX - PO LOBBY", "address": {"city": "MISHAWAKA", "state": "IN", "street": "111 E 3RD ST", "postcode": "46544"}}},
{"geometry": {"type": "Point", "coordinates": [-86.180459274, 41.6600720568]}, "type": "Feature", "properties": {"collection_times": [{"days": "Mon-Fri", "time": "5:30pm"}, {"days": "Sat", "time": "4:00pm"}, {"days": "Sun", "time": "Closed"}], "id": "4654400071", "name": "USPS COLLECTION BOX - APC", "address": {"city": "MISHAWAKA", "state": "IN", "street": "111 E 3RD ST", "postcode": "46544"}}},
{"geometry": {"type": "Point", "coordinates": [-86.1874456279, 41.7049412675]}, "type": "Feature", "properties": {"collection_times": [{"days": "Mon-Fri", "time": "4:30pm"}, {"days": "Sat", "time": "9:30am"}, {"days": "Sun", "time": "Closed"}], "id": "4654500000", "name": "USPS COLLECTION BOX - BLUE BOX", "address": {"city": "MISHAWAKA", "state": "IN", "street": "5020 GRAPE RD", "postcode": "46545"}}},
{"geometry": {"type": "Point", "coordinates": [-86.1772751524, 41.7128057176]}, "type": "Feature", "properties": {"collection_times": [{"days": "Mon-Sat", "time": "9:30am"}, {"days": "Sun", "time": "Closed"}], "id": "4654500002", "name": "USPS COLLECTION BOX - BLUE BOX", "address": {"city": "MISHAWAKA", "state": "IN", "street": "316 INDIAN RIDGE BLVD", "postcode": "46545"}}},
{"geometry": {"type": "Point", "coordinates": [-86.1813666474, 41.6913029771]}, "type": "Feature", "properties": {"collection_times": [{"days": "Mon-Sat", "time": "9:30am"}, {"days": "Sun", "time": "Closed"}], "id": "4654500007", "name": "USPS COLLECTION BOX - BLUE BOX", "address": {"city": "MISHAWAKA", "state": "IN", "street": "112 E CATALPA DR", "postcode": "46545"}}},
{"geometry": {"type": "Point", "coordinates": [-86.1812643545, 41.6663009516]}, "type": "Feature", "properties": {"collection_times": [{"days": "Mon-Fri", "time": "4:30pm"}, {"days": "Sat", "time": "9:30am"}, {"days": "Sun", "time": "Closed"}], "id": "4654500011", "name": "USPS COLLECTION BOX - BLUE BOX", "address": {"city": "MISHAWAKA", "state": "IN", "street": "606 N MAIN ST", "postcode": "46545"}}},
{"geometry": {"type": "Point", "coordinates": [-86.1871169466, 41.6804144072]}, "type": "Feature", "properties": {"collection_times": [{"days": "Mon-Fri", "time": "4:30pm"}, {"days": "Sat", "time": "9:30am"}, {"days": "Sun", "time": "Closed"}], "id": "4654500012", "name": "USPS COLLECTION BOX - BLUE BOX", "address": {"city": "MISHAWAKA", "state": "IN", "street": "420 W MCKINLEY AVE", "postcode": "46545"}}},
{"geometry": {"type": "Point", "coordinates": [-86.1783082302, 41.694816696]}, "type": "Feature", "properties": {"collection_times": [{"days": "Mon-Fri", "time": "5:00pm"}, {"days": "Sat", "time": "9:30am"}, {"days": "Sun", "time": "Closed"}], "id": "4654500013", "name": "USPS COLLECTION BOX - BLUE BOX", "address": {"city": "MISHAWAKA", "state": "IN", "street": "3930 EDISON LAKES PKWY", "postcode": "46545"}}},
{"geometry": {"type": "Point", "coordinates": [-86.1947656034, 41.682801716]}, "type": "Feature", "properties": {"collection_times": [{"days": "Mon-Fri", "time": "4:30pm"}, {"days": "Sat", "time": "9:30am"}, {"days": "Sun", "time": "Closed"}], "id": "4654500020", "name": "USPS COLLECTION BOX - BLUE BOX", "address": {"city": "MISHAWAKA", "state": "IN", "street": "2360 MIRACLE LN", "postcode": "46545"}}},
{"geometry": {"type": "Point", "coordinates": [-86.17088, 41.707733]}, "type": "Feature", "properties": {"collection_times": [{"days": "Mon-Sat", "time": "9:30am"}, {"days": "Sun", "time": "Closed"}], "id": "4654500021", "name": "USPS COLLECTION BOX - BLUE BOX", "address": {"city": "MISHAWAKA", "state": "IN", "street": "5215 HOLY CROSS PKWY", "postcode": "46545"}}},
{"geometry": {"type": "Point", "coordinates": [-85.999910889, 41.4427067775]}, "type": "Feature", "properties": {"collection_times": [{"days": "Mon-Fri", "time": "5:00pm"}, {"days": "Sat", "time": "3:00pm"}, {"days": "Sun", "time": "Closed"}], "id": "4655000000", "name": "USPS COLLECTION BOX - BLUE BOX", "address": {"city": "NAPPANEE", "state": "IN", "street": "202 E MARKET ST", "postcode": "46550"}}},
{"geometry": {"type": "Point", "coordinates": [-85.999910889, 41.4427067775]}, "type": "Feature", "properties": {"collection_times": [{"days": "Mon-Fri", "time": "5:00pm"}, {"days": "Sat", "time": "3:00pm"}, {"days": "Sun", "time": "Closed"}], "id": "4655000001", "name": "USPS COLLECTION BOX - BLUE BOX", "address": {"city": "NAPPANEE", "state": "IN", "street": "202 E MARKET ST", "postcode": "46550"}}},
{"geometry": {"type": "Point", "coordinates": [-85.9822911136, 41.4445551198]}, "type": "Feature", "properties": {"collection_times": [{"days": "Mon-Sat", "time": "9:00am"}, {"days": "Sun", "time": "Closed"}], "id": "4655000013", "name": "USPS COLLECTION BOX - BLUE BOX", "address": {"city": "NAPPANEE", "state": "IN", "street": "242 N OAKLAND AVE", "postcode": "46550"}}},
{"geometry": {"type": "Point", "coordinates": [-85.999910889, 41.4427067775]}, "type": "Feature", "properties": {"collection_times": [{"days": "Mon-Fri", "time": "5:00pm"}, {"days": "Sat", "time": "3:00pm"}, {"days": "Sun", "time": "Closed"}], "id": "4655000016", "name": "USPS COLLECTION BOX - BLUE BOX", "address": {"city": "NAPPANEE", "state": "IN", "street": "202 E MARKET ST", "postcode": "46550"}}},
{"geometry": {"type": "Point", "coordinates": [-85.999910889, 41.4427067775]}, "type": "Feature", "properties": {"collection_times": [{"days": "Mon-Fri", "time": "5:00pm"}, {"days": "Sat", "time": "3:00pm"}, {"days": "Sun", "time": "Closed"}], "id": "4655000019", "name": "USPS COLLECTION BOX - PO LOBBY", "address": {"city": "NAPPANEE", "state": "IN", "street": "202 E MARKET ST", "postcode": "46550"}}},
{"geometry": {"type": "Point", "coordinates": [-86.5088885987, 41.7053343701]}, "type": "Feature", "properties": {"collection_times": [{"days": "Mon-Fri", "time": "4:45pm"}, {"days": "Sat", "time": "10:45am"}, {"days": "Sun", "time": "Closed"}], "id": "4655200001", "name": "USPS COLLECTION BOX - BLUE BOX", "address": {"city": "NEW CARLISLE", "state": "IN", "street": "121 E CHESTNUT ST", "postcode": "46552"}}},
{"geometry": {"type": "Point", "coordinates": [-86.5088885987, 41.7053343701]}, "type": "Feature", "properties": {"collection_times": [{"days": "Mon-Fri", "time": "4:45pm"}, {"days": "Sat", "time": "10:45am"}, {"days": "Sun", "time": "Closed"}], "id": "4655200002", "name": "USPS COLLECTION BOX - BLUE BOX", "address": {"city": "NEW CARLISLE", "state": "IN", "street": "121 E CHESTNUT ST", "postcode": "46552"}}},
{"geometry": {"type": "Point", "coordinates": [-86.502633438, 41.7073921786]}, "type": "Feature", "properties": {"collection_times": [{"days": "Mon-Sat", "time": "11:00am"}, {"days": "Sun", "time": "Closed"}], "id": "4655200012", "name": "USPS COLLECTION BOX - BLUE BOX", "address": {"city": "NEW CARLISLE", "state": "IN", "street": "485 E MICHIGAN ST", "postcode": "46552"}}},
{"geometry": {"type": "Point", "coordinates": [-86.5254752599, 41.7036045699]}, "type": "Feature", "properties": {"collection_times": [{"days": "Mon-Sat", "time": "9:00am"}, {"days": "Sun", "time": "Closed"}], "id": "4655200013", "name": "USPS COLLECTION BOX - BLUE BOX", "address": {"city": "NEW CARLISLE", "state": "IN", "street": "8989 E US HIGHWAY 20", "postcode": "46552"}}},
{"geometry": {"type": "Point", "coordinates": [-85.8305000716, 41.5010516146]}, "type": "Feature", "properties": {"collection_times": [{"days": "Mon-Fri", "time": "4:00pm"}, {"days": "Sat", "time": "11:45am"}, {"days": "Sun", "time": "Closed"}], "id": "4655300001", "name": "USPS COLLECTION BOX - BLUE BOX", "address": {"city": "NEW PARIS", "state": "IN", "street": "68354 MAIN ST", "postcode": "46553"}}},
{"geometry": {"type": "Point", "coordinates": [-85.8305000716, 41.5010516146]}, "type": "Feature", "properties": {"collection_times": [{"days": "Mon-Fri", "time": "4:30pm"}, {"days": "Sat", "time": "11:45am"}, {"days": "Sun", "time": "Closed"}], "id": "4655300002", "name": "USPS COLLECTION BOX - PO LOBBY", "address": {"city": "NEW PARIS", "state": "IN", "street": "68354 MAIN ST", "postcode": "46553"}}},
{"geometry": {"type": "Point", "coordinates": [-86.4285752122, 41.5347096163]}, "type": "Feature", "properties": {"collection_times": [{"days": "Mon-Fri", "time": "4:45pm"}, {"days": "Sat", "time": "11:15am"}, {"days": "Sun", "time": "Closed"}], "id": "4655400002", "name": "USPS COLLECTION BOX - BLUE BOX", "address": {"city": "NORTH LIBERTY", "state": "IN", "street": "209 W CENTER ST", "postcode": "46554"}}},
{"geometry": {"type": "Point", "coordinates": [-86.4285752122, 41.5347096163]}, "type": "Feature", "properties": {"collection_times": [{"days": "Mon-Fri", "time": "4:45pm"}, {"days": "Sat", "time": "11:15am"}, {"days": "Sun", "time": "Closed"}], "id": "4655400003", "name": "USPS COLLECTION BOX - PO LOBBY", "address": {"city": "NORTH LIBERTY", "state": "IN", "street": "209 W CENTER ST", "postcode": "46554"}}},
{"geometry": {"type": "Point", "coordinates": [-85.6984064012, 41.332303504]}, "type": "Feature", "properties": {"collection_times": [{"days": "Mon-Fri", "time": "4:30pm"}, {"days": "Sat", "time": "10:30am"}, {"days": "Sun", "time": "Closed"}], "id": "4655500004", "name": "USPS COLLECTION BOX - BLUE BOX", "address": {"city": "NORTH WEBSTER", "state": "IN", "street": "623 N MAIN ST", "postcode": "46555"}}},
{"geometry": {"type": "Point", "coordinates": [-85.6984064012, 41.332303504]}, "type": "Feature", "properties": {"collection_times": [{"days": "Mon-Fri", "time": "4:30pm"}, {"days": "Sat", "time": "10:30am"}, {"days": "Sun", "time": "Closed"}], "id": "4655500005", "name": "USPS COLLECTION BOX - BLUE BOX", "address": {"city": "NORTH WEBSTER", "state": "IN", "street": "623 N MAIN ST", "postcode": "46555"}}},
{"geometry": {"type": "Point", "coordinates": [-85.6984064012, 41.332303504]}, "type": "Feature", "properties": {"collection_times": [{"days": "Mon-Fri", "time": "4:30pm"}, {"days": "Sat", "time": "10:30am"}, {"days": "Sun", "time": "Closed"}], "id": "4655500006", "name": "USPS COLLECTION BOX - PO LOBBY", "address": {"city": "NORTH WEBSTER", "state": "IN", "street": "623 N MAIN ST", "postcode": "46555"}}},
{"geometry": {"type": "Point", "coordinates": [-85.6984064012, 41.332303504]}, "type": "Feature", "properties": {"collection_times": [{"days": "Mon-Fri", "time": "4:30pm"}, {"days": "Sat", "time": "10:30am"}, {"days": "Sun", "time": "Closed"}], "id": "4655500007", "name": "USPS COLLECTION BOX - PO LOBBY", "address": {"city": "NORTH WEBSTER", "state": "IN", "street": "623 N MAIN ST", "postcode": "46555"}}},
{"geometry": {"type": "Point", "coordinates": [-86.2355919689, 41.7055836707]}, "type": "Feature", "properties": {"collection_times": [{"days": "Mon-Fri", "time": "4:00pm"}, {"days": "Sat", "time": "12:00pm"}, {"days": "Sun", "time": "Closed"}], "id": "4655600001", "name": "USPS COLLECTION BOX - BLUE BOX", "address": {"city": "NOTRE DAME", "state": "IN", "street": "1 PO SECURITY BUILDING", "postcode": "46556"}}},
{"geometry": {"type": "Point", "coordinates": [-86.238649295, 41.7002728233]}, "type": "Feature", "properties": {"collection_times": [{"days": "Mon-Fri", "time": "4:00pm"}, {"days": "Sat", "time": "12:00pm"}, {"days": "Sun", "time": "Closed"}], "id": "4655600002", "name": "USPS COLLECTION BOX - BLUE BOX", "address": {"city": "NOTRE DAME", "state": "IN", "street": "1 PO SECURITY BUILDING", "postcode": "46556"}}},
{"geometry": {"type": "Point", "coordinates": [-86.2388214856, 41.7051075606]}, "type": "Feature", "properties": {"collection_times": [{"days": "Mon-Fri", "time": "12:00pm"}, {"days": "Sat", "time": "10:15am"}, {"days": "Sun", "time": "Closed"}], "id": "4655600004", "name": "USPS COLLECTION BOX - BLUE BOX", "address": {"city": "NOTRE DAME", "state": "IN", "street": "1 CAMPUS DISTRIBUTION CTR", "postcode": "46556"}}},
{"geometry": {"type": "Point", "coordinates": [-86.246748714, 41.703240393]}, "type": "Feature", "properties": {"collection_times": [{"days": "Mon-Fri", "time": "11:45am"}, {"days": "Sat", "time": "10:00am"}, {"days": "Sun", "time": "Closed"}], "id": "4655600005", "name": "USPS COLLECTION BOX - BLUE BOX", "address": {"city": "NOTRE DAME", "state": "IN", "street": "1 HESBURGH LIBRARY", "postcode": "46556"}}},
{"geometry": {"type": "Point", "coordinates": [-86.246748714, 41.703240393]}, "type": "Feature", "properties": {"collection_times": [{"days": "Mon-Fri", "time": "12:30pm"}, {"days": "Sat", "time": "10:45am"}, {"days": "Sun", "time": "Closed"}], "id": "4655600007", "name": "USPS COLLECTION BOX - BLUE BOX", "address": {"city": "NOTRE DAME", "state": "IN", "street": "1 N DINING HALL", "postcode": "46556"}}},
{"geometry": {"type": "Point", "coordinates": [-86.246748714, 41.703240393]}, "type": "Feature", "properties": {"collection_times": [{"days": "Mon-Fri", "time": "12:15pm"}, {"days": "Sat", "time": "10:30am"}, {"days": "Sun", "time": "Closed"}], "id": "4655600010", "name": "USPS COLLECTION BOX - BLUE BOX", "address": {"city": "NOTRE DAME", "state": "IN", "street": "1 S DINING HALL", "postcode": "46556"}}},
{"geometry": {"type": "Point", "coordinates": [-86.238649295, 41.7002728233]}, "type": "Feature", "properties": {"collection_times": [{"days": "Mon-Fri", "time": "4:00pm"}, {"days": "Sat", "time": "12:00pm"}, {"days": "Sun", "time": "Closed"}], "id": "4655600012", "name": "USPS COLLECTION BOX - PO LOBBY", "address": {"city": "NOTRE DAME", "state": "IN", "street": "1 PO SECURITY BUILDING", "postcode": "46556"}}},
{"geometry": {"type": "Point", "coordinates": [-86.0906410368, 41.6634075514]}, "type": "Feature", "properties": {"collection_times": [{"days": "Mon-Fri", "time": "4:45pm"}, {"days": "Sat", "time": "12:00pm"}, {"days": "Sun", "time": "Closed"}], "id": "4656100001", "name": "USPS COLLECTION BOX - BLUE BOX", "address": {"city": "OSCEOLA", "state": "IN", "street": "1712 LINCOLNWAY W", "postcode": "46561"}}},
{"geometry": {"type": "Point", "coordinates": [-86.0906410368, 41.6634075514]}, "type": "Feature", "properties": {"collection_times": [{"days": "Mon-Fri", "time": "4:45pm"}, {"days": "Sat", "time": "12:00pm"}, {"days": "Sun", "time": "Closed"}], "id": "4656100002", "name": "USPS COLLECTION BOX - BLUE BOX", "address": {"city": "OSCEOLA", "state": "IN", "street": "1712 LINCOLNWAY W", "postcode": "46561"}}},
{"geometry": {"type": "Point", "coordinates": [-86.0618543145, 41.7074832967]}, "type": "Feature", "properties": {"collection_times": [{"days": "Mon-Sat", "time": "12:00pm"}, {"days": "Sun", "time": "Closed"}], "id": "4656100004", "name": "USPS COLLECTION BOX - BLUE BOX", "address": {"city": "OSCEOLA", "state": "IN", "street": "54152 ASH RD", "postcode": "46561"}}},
{"geometry": {"type": "Point", "coordinates": [-86.09052, 41.66334]}, "type": "Feature", "properties": {"collection_times": [{"days": "Mon-Fri", "time": "4:45pm"}, {"days": "Sat", "time": "12:00pm"}, {"days": "Sun", "time": "Closed"}], "id": "4656100005", "name": "USPS COLLECTION BOX - PO LOBBY", "address": {"city": "OSCEOLA", "state": "IN", "street": "1712 LINCOLNWAY W", "postcode": "46561"}}},
{"geometry": {"type": "Point", "coordinates": [-86.0906410368, 41.6634075514]}, "type": "Feature", "properties": {"collection_times": [{"days": "Mon-Fri", "time": "4:45pm"}, {"days": "Sat", "time": "12:00pm"}, {"days": "Sun", "time": "Closed"}], "id": "4656100006", "name": "USPS COLLECTION BOX - BLUE BOX", "address": {"city": "OSCEOLA", "state": "IN", "street": "1712 LINCOLNWAY W", "postcode": "46561"}}},
{"geometry": {"type": "Point", "coordinates": [-86.0603810934, 41.6885579386]}, "type": "Feature", "properties": {"collection_times": [{"days": "Mon-Fri", "time": "12:15pm"}, {"days": "Sat-Sun", "time": "Closed"}], "id": "4656100007", "name": "USPS COLLECTION BOX - BLUE BOX", "address": {"city": "OSCEOLA", "state": "IN", "street": "30955 US HIGHWAY 20", "postcode": "46561"}}},
{"geometry": {"type": "Point", "coordinates": [-85.7052173147, 41.2050204064]}, "type": "Feature", "properties": {"collection_times": [{"days": "Mon-Fri", "time": "3:45pm"}, {"days": "Sat", "time": "10:45am"}, {"days": "Sun", "time": "Closed"}], "id": "4656200001", "name": "USPS COLLECTION BOX - BLUE BOX", "address": {"city": "PIERCETON", "state": "IN", "street": "209 S FIRST ST", "postcode": "46562"}}},
{"geometry": {"type": "Point", "coordinates": [-85.7052173147, 41.2050204064]}, "type": "Feature", "properties": {"collection_times": [{"days": "Mon-Fri", "time": "4:30pm"}, {"days": "Sat", "time": "10:45am"}, {"days": "Sun", "time": "Closed"}], "id": "4656200002", "name": "USPS COLLECTION BOX - PO LOBBY", "address": {"city": "PIERCETON", "state": "IN", "street": "209 S FIRST ST", "postcode": "46562"}}},
{"geometry": {"type": "Point", "coordinates": [-86.309724283, 41.3435871474]}, "type": "Feature", "properties": {"collection_times": [{"days": "Mon-Sat", "time": "9:00am"}, {"days": "Sun", "time": "Closed"}], "id": "4656300011", "name": "USPS COLLECTION BOX - BLUE BOX", "address": {"city": "PLYMOUTH", "state": "IN", "street": "112 W JEFFERSON ST", "postcode": "46563"}}},
{"geometry": {"type": "Point", "coordinates": [-86.3268951966, 41.3557064335]}, "type": "Feature", "properties": {"collection_times": [{"days": "Mon-Sat", "time": "10:00am"}, {"days": "Sun", "time": "Closed"}], "id": "4656300016", "name": "USPS COLLECTION BOX - BLUE BOX", "address": {"city": "PLYMOUTH", "state": "IN", "street": "1500 PILGRIM LN", "postcode": "46563"}}},
{"geometry": {"type": "Point", "coordinates": [-86.311811876, 41.3606350698]}, "type": "Feature", "properties": {"collection_times": [{"days": "Mon-Sat", "time": "10:00am"}, {"days": "Sun", "time": "Closed"}], "id": "4656300017", "name": "USPS COLLECTION BOX - BLUE BOX", "address": {"city": "PLYMOUTH", "state": "IN", "street": "2001 N MICHIGAN ST", "postcode": "46563"}}},
{"geometry": {"type": "Point", "coordinates": [-86.309500539, 41.34086171]}, "type": "Feature", "properties": {"collection_times": [{"days": "Mon-Fri", "time": "5:00pm"}, {"days": "Sat", "time": "4:15pm"}, {"days": "Sun", "time": "Closed"}], "id": "4656300021", "name": "USPS COLLECTION BOX - BLUE BOX", "address": {"city": "PLYMOUTH", "state": "IN", "street": "124 W GARRO ST", "postcode": "46563"}}},
{"geometry": {"type": "Point", "coordinates": [-86.309500539, 41.34086171]}, "type": "Feature", "properties": {"collection_times": [{"days": "Mon-Fri", "time": "5:00pm"}, {"days": "Sat", "time": "4:15pm"}, {"days": "Sun", "time": "Closed"}], "id": "4656300023", "name": "USPS COLLECTION BOX - PO LOBBY", "address": {"city": "PLYMOUTH", "state": "IN", "street": "124 W GARRO ST", "postcode": "46563"}}},
{"geometry": {"type": "Point", "coordinates": [-86.2965484075, 41.343936083]}, "type": "Feature", "properties": {"collection_times": [{"days": "Mon-Sat", "time": "10:00am"}, {"days": "Sun", "time": "Closed"}], "id": "4656300030", "name": "USPS COLLECTION BOX - BLUE BOX", "address": {"city": "PLYMOUTH", "state": "IN", "street": "865 E JEFFERSON ST", "postcode": "46563"}}},
{"geometry": {"type": "Point", "coordinates": [-86.3287916399, 41.3532626158]}, "type": "Feature", "properties": {"collection_times": [{"days": "Mon-Sat", "time": "10:00am"}, {"days": "Sun", "time": "Closed"}], "id": "4656300034", "name": "USPS COLLECTION BOX - BLUE BOX", "address": {"city": "PLYMOUTH", "state": "IN", "street": "1501 N OAK DR", "postcode": "46563"}}},
{"geometry": {"type": "Point", "coordinates": [-86.309500539, 41.34086171]}, "type": "Feature", "properties": {"collection_times": [{"days": "Mon-Fri", "time": "5:00pm"}, {"days": "Sat", "time": "4:15pm"}, {"days": "Sun", "time": "Closed"}], "id": "4656300037", "name": "USPS COLLECTION BOX - PO LOBBY", "address": {"city": "PLYMOUTH", "state": "IN", "street": "124 W GARRO ST", "postcode": "46563"}}},
{"geometry": {"type": "Point", "coordinates": [-86.3484034237, 41.3593453644]}, "type": "Feature", "properties": {"collection_times": [{"days": "Mon-Sat", "time": "10:00am"}, {"days": "Sun", "time": "Closed"}], "id": "4656300038", "name": "USPS COLLECTION BOX - BLUE BOX", "address": {"city": "PLYMOUTH", "state": "IN", "street": "2855 MILLER DR", "postcode": "46563"}}},
{"geometry": {"type": "Point", "coordinates": [-86.425529604, 41.4014300222]}, "type": "Feature", "properties": {"collection_times": [{"days": "Mon-Sat", "time": "10:00am"}, {"days": "Sun", "time": "Closed"}], "id": "4656300039", "name": "USPS COLLECTION BOX - BLUE BOX", "address": {"city": "PLYMOUTH", "state": "IN", "street": "5203 PLYMOUTH LAPORTE TRL", "postcode": "46563"}}},
{"geometry": {"type": "Point", "coordinates": [-86.305156879, 41.332281691]}, "type": "Feature", "properties": {"collection_times": [{"days": "Mon-Sat", "time": "12:00pm"}, {"days": "Sun", "time": "Closed"}], "id": "4656300040", "name": "USPS COLLECTION BOX - BLUE BOX", "address": {"city": "PLYMOUTH", "state": "IN", "street": "840 S MICHIGAN ST", "postcode": "46563"}}},
{"geometry": {"type": "Point", "coordinates": [-85.5772476812, 41.6779655785]}, "type": "Feature", "properties": {"collection_times": [{"days": "Mon-Fri", "time": "4:15pm"}, {"days": "Sat", "time": "10:15am"}, {"days": "Sun", "time": "Closed"}], "id": "4656500001", "name": "USPS COLLECTION BOX - BLUE BOX", "address": {"city": "SHIPSHEWANA", "state": "IN", "street": "355 MAIN ST", "postcode": "46565"}}},
{"geometry": {"type": "Point", "coordinates": [-85.5772476812, 41.6779655785]}, "type": "Feature", "properties": {"collection_times": [{"days": "Mon-Fri", "time": "4:15pm"}, {"days": "Sat", "time": "10:15am"}, {"days": "Sun", "time": "Closed"}], "id": "4656500002", "name": "USPS COLLECTION BOX - BLUE BOX", "address": {"city": "SHIPSHEWANA", "state": "IN", "street": "355 MAIN ST", "postcode": "46565"}}},
{"geometry": {"type": "Point", "coordinates": [-85.5772476812, 41.6779655785]}, "type": "Feature", "properties": {"collection_times": [{"days": "Mon-Fri", "time": "4:15pm"}, {"days": "Sat", "time": "10:15am"}, {"days": "Sun", "time": "Closed"}], "id": "4656500003", "name": "USPS COLLECTION BOX - PO LOBBY", "address": {"city": "SHIPSHEWANA", "state": "IN", "street": "355 MAIN ST", "postcode": "46565"}}},
{"geometry": {"type": "Point", "coordinates": [-85.58058, 41.67413]}, "type": "Feature", "properties": {"collection_times": [{"days": "Mon-Sat", "time": "9:30am"}, {"days": "Sun", "time": "Closed"}], "id": "4656500004", "name": "USPS COLLECTION BOX - BLUE BOX", "address": {"city": "SHIPSHEWANA", "state": "IN", "street": "325 S VAN BUREN ST", "postcode": "46565"}}},
{"geometry": {"type": "Point", "coordinates": [-85.7541551505, 41.4295493755]}, "type": "Feature", "properties": {"collection_times": [{"days": "Mon-Fri", "time": "3:45pm"}, {"days": "Sat", "time": "3:00pm"}, {"days": "Sun", "time": "Closed"}], "id": "4656700000", "name": "USPS COLLECTION BOX - BLUE BOX", "address": {"city": "SYRACUSE", "state": "IN", "street": "1010 N INDIANA AVE", "postcode": "46567"}}},
{"geometry": {"type": "Point", "coordinates": [-85.7541551505, 41.4295493755]}, "type": "Feature", "properties": {"collection_times": [{"days": "Mon-Fri", "time": "3:45pm"}, {"days": "Sat", "time": "3:00pm"}, {"days": "Sun", "time": "Closed"}], "id": "4656700002", "name": "USPS COLLECTION BOX - BLUE BOX", "address": {"city": "SYRACUSE", "state": "IN", "street": "1010 N INDIANA AVE", "postcode": "46567"}}},
{"geometry": {"type": "Point", "coordinates": [-85.7541551505, 41.4295493755]}, "type": "Feature", "properties": {"collection_times": [{"days": "Mon-Fri", "time": "4:00pm"}, {"days": "Sat", "time": "3:00pm"}, {"days": "Sun", "time": "Closed"}], "id": "4656700006", "name": "USPS COLLECTION BOX - PO LOBBY", "address": {"city": "SYRACUSE", "state": "IN", "street": "1010 N INDIANA AVE", "postcode": "46567"}}},
{"geometry": {"type": "Point", "coordinates": [-85.7474383348, 41.4176652177]}, "type": "Feature", "properties": {"collection_times": [{"days": "Mon-Sat", "time": "9:30am"}, {"days": "Sun", "time": "Closed"}], "id": "4656700007", "name": "USPS COLLECTION BOX - BLUE BOX", "address": {"city": "SYRACUSE", "state": "IN", "street": "500 S HUNTINGTON ST", "postcode": "46567"}}},
{"geometry": {"type": "Point", "coordinates": [-86.1148544014, 41.2096714713]}, "type": "Feature", "properties": {"collection_times": [{"days": "Mon-Fri", "time": "4:00pm"}, {"days": "Sat", "time": "10:00am"}, {"days": "Sun", "time": "Closed"}], "id": "4657000001", "name": "USPS COLLECTION BOX - BLUE BOX", "address": {"city": "TIPPECANOE", "state": "IN", "street": "18436 STATE ROAD 331", "postcode": "46570"}}},
{"geometry": {"type": "Point", "coordinates": [-86.1148544014, 41.2096714713]}, "type": "Feature", "properties": {"collection_times": [{"days": "Mon-Fri", "time": "11:45am"}, {"days": "Sat", "time": "10:00am"}, {"days": "Sun", "time": "Closed"}], "id": "4657000002", "name": "USPS COLLECTION BOX - PO LOBBY", "address": {"city": "TIPPECANOE", "state": "IN", "street": "18436 STATE ROAD 331", "postcode": "46570"}}},
{"geometry": {"type": "Point", "coordinates": [-85.538997238, 41.5394314994]}, "type": "Feature", "properties": {"collection_times": [{"days": "Mon-Fri", "time": "3:45pm"}, {"days": "Sat", "time": "10:45am"}, {"days": "Sun", "time": "Closed"}], "id": "4657100000", "name": "USPS COLLECTION BOX - BLUE BOX", "address": {"city": "TOPEKA", "state": "IN", "street": "129 E LAKE ST", "postcode": "46571"}}},
{"geometry": {"type": "Point", "coordinates": [-85.538997238, 41.5394314994]}, "type": "Feature", "properties": {"collection_times": [{"days": "Mon-Fri", "time": "3:45pm"}, {"days": "Sat", "time": "10:45am"}, {"days": "Sun", "time": "Closed"}], "id": "4657100001", "name": "USPS COLLECTION BOX - BLUE BOX", "address": {"city": "TOPEKA", "state": "IN", "street": "129 E LAKE ST", "postcode": "46571"}}},
{"geometry": {"type": "Point", "coordinates": [-85.538997238, 41.5394314994]}, "type": "Feature", "properties": {"collection_times": [{"days": "Mon-Fri", "time": "3:45pm"}, {"days": "Sat", "time": "10:45am"}, {"days": "Sun", "time": "Closed"}], "id": "4657100002", "name": "USPS COLLECTION BOX - PO LOBBY", "address": {"city": "TOPEKA", "state": "IN", "street": "129 E LAKE ST", "postcode": "46571"}}},
{"geometry": {"type": "Point", "coordinates": [-86.021014278, 41.5359128764]}, "type": "Feature", "properties": {"collection_times": [{"days": "Mon-Fri", "time": "4:00pm"}, {"days": "Sat", "time": "11:00am"}, {"days": "Sun", "time": "Closed"}], "id": "4657300001", "name": "USPS COLLECTION BOX - BLUE BOX", "address": {"city": "WAKARUSA", "state": "IN", "street": "111 S ELKHART ST", "postcode": "46573"}}},
{"geometry": {"type": "Point", "coordinates": [-86.021014278, 41.5359128764]}, "type": "Feature", "properties": {"collection_times": [{"days": "Mon-Fri", "time": "4:00pm"}, {"days": "Sat", "time": "11:00am"}, {"days": "Sun", "time": "Closed"}], "id": "4657300002", "name": "USPS COLLECTION BOX - PO LOBBY", "address": {"city": "WAKARUSA", "state": "IN", "street": "111 S ELKHART ST", "postcode": "46573"}}},
{"geometry": {"type": "Point", "coordinates": [-86.4841111364, 41.4658327226]}, "type": "Feature", "properties": {"collection_times": [{"days": "Mon-Fri", "time": "3:00pm"}, {"days": "Sat", "time": "11:00am"}, {"days": "Sun", "time": "Closed"}], "id": "4657400001", "name": "USPS COLLECTION BOX - BLUE BOX", "address": {"city": "WALKERTON", "state": "IN", "street": "620 VAN BUREN ST", "postcode": "46574"}}},
{"geometry": {"type": "Point", "coordinates": [-86.4898645409, 41.4165174915]}, "type": "Feature", "properties": {"collection_times": [{"days": "Mon-Fri", "time": "11:00am"}, {"days": "Sat-Sun", "time": "Closed"}], "id": "4657400003", "name": "USPS COLLECTION BOX - BLUE BOX", "address": {"city": "WALKERTON", "state": "IN", "street": "7893 N STATE ROAD 23", "postcode": "46574"}}},
{"geometry": {"type": "Point", "coordinates": [-86.5444501752, 41.5648239324]}, "type": "Feature", "properties": {"collection_times": [{"days": "Mon-Fri", "time": "11:00am"}, {"days": "Sat-Sun", "time": "Closed"}], "id": "4657400004", "name": "USPS COLLECTION BOX - BLUE BOX", "address": {"city": "WALKERTON", "state": "IN", "street": "7996 E STATE ROAD 4", "postcode": "46574"}}},
{"geometry": {"type": "Point", "coordinates": [-86.4849692754, 41.4681431114]}, "type": "Feature", "properties": {"collection_times": [{"days": "Mon-Sat", "time": "9:30am"}, {"days": "Sun", "time": "Closed"}], "id": "4657400005", "name": "USPS COLLECTION BOX - BLUE BOX", "address": {"city": "WALKERTON", "state": "IN", "street": "409 ROOSEVELT RD", "postcode": "46574"}}},
{"geometry": {"type": "Point", "coordinates": [-86.4841111364, 41.4658327226]}, "type": "Feature", "properties": {"collection_times": [{"days": "Mon-Fri", "time": "3:00pm"}, {"days": "Sat", "time": "11:00am"}, {"days": "Sun", "time": "Closed"}], "id": "4657400014", "name": "USPS COLLECTION BOX - PO LOBBY", "address": {"city": "WALKERTON", "state": "IN", "street": "620 VAN BUREN ST", "postcode": "46574"}}},
{"geometry": {"type": "Point", "coordinates": [-86.4823638598, 41.4674702754]}, "type": "Feature", "properties": {"collection_times": [{"days": "Mon-Fri", "time": "1:00pm"}, {"days": "Sat", "time": "12:00pm"}, {"days": "Sun", "time": "Closed"}], "id": "4657400015", "name": "USPS COLLECTION BOX - BLUE BOX", "address": {"city": "WALKERTON", "state": "IN", "street": "300 MICHIGAN ST", "postcode": "46574"}}},
{"geometry": {"type": "Point", "coordinates": [-85.8601122802, 41.2371567369]}, "type": "Feature", "properties": {"collection_times": [{"days": "Mon-Fri", "time": "5:00pm"}, {"days": "Sat", "time": "12:30pm"}, {"days": "Sun", "time": "Closed"}], "id": "4658000000", "name": "USPS COLLECTION BOX - BLUE BOX", "address": {"city": "WARSAW", "state": "IN", "street": "365 W MARKET ST", "postcode": "46580"}}},
{"geometry": {"type": "Point", "coordinates": [-85.8601122802, 41.2371567369]}, "type": "Feature", "properties": {"collection_times": [{"days": "Mon-Fri", "time": "5:00pm"}, {"days": "Sat", "time": "12:30pm"}, {"days": "Sun", "time": "Closed"}], "id": "4658000001", "name": "USPS COLLECTION BOX - BLUE BOX", "address": {"city": "WARSAW", "state": "IN", "street": "365 W MARKET ST", "postcode": "46580"}}},
{"geometry": {"type": "Point", "coordinates": [-85.8601122802, 41.2371567369]}, "type": "Feature", "properties": {"collection_times": [{"days": "Mon-Fri", "time": "5:00pm"}, {"days": "Sat", "time": "12:30pm"}, {"days": "Sun", "time": "Closed"}], "id": "4658000002", "name": "USPS COLLECTION BOX - BLUE BOX", "address": {"city": "WARSAW", "state": "IN", "street": "365 W MARKET ST", "postcode": "46580"}}},
{"geometry": {"type": "Point", "coordinates": [-85.8601122802, 41.2371567369]}, "type": "Feature", "properties": {"collection_times": [{"days": "Mon-Fri", "time": "4:45pm"}, {"days": "Sat", "time": "12:30pm"}, {"days": "Sun", "time": "Closed"}], "id": "4658000004", "name": "USPS COLLECTION BOX - PO LOBBY", "address": {"city": "WARSAW", "state": "IN", "street": "365 W MARKET ST", "postcode": "46580"}}},
{"geometry": {"type": "Point", "coordinates": [-85.856564511, 41.2381303191]}, "type": "Feature", "properties": {"collection_times": [{"days": "Mon-Fri", "time": "12:00pm"}, {"days": "Sat", "time": "10:00am"}, {"days": "Sun", "time": "Closed"}], "id": "4658000007", "name": "USPS COLLECTION BOX - BLUE BOX", "address": {"city": "WARSAW", "state": "IN", "street": "100 N BUFFALO ST", "postcode": "46580"}}},
{"geometry": {"type": "Point", "coordinates": [-85.856578041, 41.2346472964]}, "type": "Feature", "properties": {"collection_times": [{"days": "Mon-Sat", "time": "9:30am"}, {"days": "Sun", "time": "Closed"}], "id": "4658000009", "name": "USPS COLLECTION BOX - BLUE BOX", "address": {"city": "WARSAW", "state": "IN", "street": "500 S BUFFALO ST", "postcode": "46580"}}},
{"geometry": {"type": "Point", "coordinates": [-85.814199137, 41.2371826023]}, "type": "Feature", "properties": {"collection_times": [{"days": "Mon-Fri", "time": "10:30am"}, {"days": "Sat", "time": "10:00am"}, {"days": "Sun", "time": "Closed"}], "id": "4658000014", "name": "USPS COLLECTION BOX - BLUE BOX", "address": {"city": "WARSAW", "state": "IN", "street": "2858 FRONTAGE RD", "postcode": "46580"}}},
{"geometry": {"type": "Point", "coordinates": [-85.8050792203, 41.2325294399]}, "type": "Feature", "properties": {"collection_times": [{"days": "Mon-Sat", "time": "9:00am"}, {"days": "Sun", "time": "Closed"}], "id": "4658000016", "name": "USPS COLLECTION BOX - BLUE BOX", "address": {"city": "WARSAW", "state": "IN", "street": "3660 COMMERCE DR", "postcode": "46580"}}},
{"geometry": {"type": "Point", "coordinates": [-85.779064826, 41.2209831847]}, "type": "Feature", "properties": {"collection_times": [{"days": "Mon-Fri", "time": "10:45am"}, {"days": "Sat", "time": "10:00am"}, {"days": "Sun", "time": "Closed"}], "id": "4658000017", "name": "USPS COLLECTION BOX - BLUE BOX", "address": {"city": "WARSAW", "state": "IN", "street": "3300 LAKE CITY HWY", "postcode": "46580"}}},
{"geometry": {"type": "Point", "coordinates": [-85.8289343304, 41.2380440355]}, "type": "Feature", "properties": {"collection_times": [{"days": "Mon-Sat", "time": "10:00am"}, {"days": "Sun", "time": "Closed"}], "id": "4658000021", "name": "USPS COLLECTION BOX - BLUE BOX", "address": {"city": "WARSAW", "state": "IN", "street": "2101 E CENTER ST", "postcode": "46580"}}},
{"geometry": {"type": "Point", "coordinates": [-85.833583539, 41.2380651818]}, "type": "Feature", "properties": {"collection_times": [{"days": "Mon-Fri", "time": "10:30am"}, {"days": "Sat", "time": "10:00am"}, {"days": "Sun", "time": "Closed"}], "id": "4658000024", "name": "USPS COLLECTION BOX - BLUE BOX", "address": {"city": "WARSAW", "state": "IN", "street": "1775 E CENTER ST", "postcode": "46580"}}},
{"geometry": {"type": "Point", "coordinates": [-85.8601122802, 41.2371567369]}, "type": "Feature", "properties": {"collection_times": [{"days": "Mon-Fri", "time": "4:45pm"}, {"days": "Sat", "time": "12:30pm"}, {"days": "Sun", "time": "Closed"}], "id": "4658000028", "name": "USPS COLLECTION BOX - PO LOBBY", "address": {"city": "WARSAW", "state": "IN", "street": "365 W MARKET ST", "postcode": "46580"}}},
{"geometry": {"type": "Point", "coordinates": [-85.8601122802, 41.2371567369]}, "type": "Feature", "properties": {"collection_times": [{"days": "Mon-Fri", "time": "4:45pm"}, {"days": "Sat", "time": "12:30pm"}, {"days": "Sun", "time": "Closed"}], "id": "4658000030", "name": "USPS COLLECTION BOX - APC", "address": {"city": "WARSAW", "state": "IN", "street": "365 W MARKET ST", "postcode": "46580"}}},
{"geometry": {"type": "Point", "coordinates": [-85.831197994, 41.234233693]}, "type": "Feature", "properties": {"collection_times": [{"days": "Mon-Sat", "time": "8:30am"}, {"days": "Sun", "time": "Closed"}], "id": "4658000031", "name": "USPS COLLECTION BOX - BLUE BOX", "address": {"city": "WARSAW", "state": "IN", "street": "1900 E WINONA AVE", "postcode": "46580"}}},
{"geometry": {"type": "Point", "coordinates": [-85.8234097417, 41.2513704101]}, "type": "Feature", "properties": {"collection_times": [{"days": "Mon-Sat", "time": "10:00am"}, {"days": "Sun", "time": "Closed"}], "id": "4658200004", "name": "USPS COLLECTION BOX - BLUE BOX", "address": {"city": "WARSAW", "state": "IN", "street": "1150 HUSKY TRL", "postcode": "46582"}}},
{"geometry": {"type": "Point", "coordinates": [-85.8237968598, 41.2796719459]}, "type": "Feature", "properties": {"collection_times": [{"days": "Mon-Sat", "time": "10:00am"}, {"days": "Sun", "time": "Closed"}], "id": "4658200005", "name": "USPS COLLECTION BOX - BLUE BOX", "address": {"city": "WARSAW", "state": "IN", "street": "5000 KUDER LN", "postcode": "46582"}}},
{"geometry": {"type": "Point", "coordinates": [-85.8237968598, 41.2796719459]}, "type": "Feature", "properties": {"collection_times": [{"days": "Mon-Sat", "time": "9:00am"}, {"days": "Sun", "time": "Closed"}], "id": "4658200006", "name": "USPS COLLECTION BOX - BLUE BOX", "address": {"city": "WARSAW", "state": "IN", "street": "2501 WALTON BLVD", "postcode": "46582"}}},
{"geometry": {"type": "Point", "coordinates": [-85.8217881475, 41.2270494967]}, "type": "Feature", "properties": {"collection_times": [{"days": "Mon-Fri", "time": "4:45pm"}, {"days": "Sat", "time": "12:00pm"}, {"days": "Sun", "time": "Closed"}], "id": "4659000001", "name": "USPS COLLECTION BOX - BLUE BOX", "address": {"city": "WINONA LAKE", "state": "IN", "street": "710 PARK AVE", "postcode": "46590"}}},
{"geometry": {"type": "Point", "coordinates": [-85.8217881475, 41.2270494967]}, "type": "Feature", "properties": {"collection_times": [{"days": "Mon-Fri", "time": "4:45pm"}, {"days": "Sat", "time": "12:00pm"}, {"days": "Sun", "time": "Closed"}], "id": "4659000002", "name": "USPS COLLECTION BOX - BLUE BOX", "address": {"city": "WINONA LAKE", "state": "IN", "street": "710 PARK AVE", "postcode": "46590"}}},
{"geometry": {"type": "Point", "coordinates": [-85.8217881475, 41.2270494967]}, "type": "Feature", "properties": {"collection_times": [{"days": "Mon-Fri", "time": "4:45pm"}, {"days": "Sat", "time": "12:00pm"}, {"days": "Sun", "time": "Closed"}], "id": "4659000005", "name": "USPS COLLECTION BOX - PO LOBBY", "address": {"city": "WINONA LAKE", "state": "IN", "street": "710 PARK AVE", "postcode": "46590"}}},
{"geometry": {"type": "Point", "coordinates": [-86.1678241066, 41.5254277279]}, "type": "Feature", "properties": {"collection_times": [{"days": "Mon-Fri", "time": "11:45am"}, {"days": "Sat", "time": "10:30am"}, {"days": "Sun", "time": "Closed"}], "id": "4659500001", "name": "USPS COLLECTION BOX - PO LOBBY", "address": {"city": "WYATT", "state": "IN", "street": "66700 STATE ROAD 331", "postcode": "46595"}}},
{"geometry": {"type": "Point", "coordinates": [-86.1693985973, 41.5258034725]}, "type": "Feature", "properties": {"collection_times": [{"days": "Mon-Fri", "time": "4:30pm"}, {"days": "Sat", "time": "10:30am"}, {"days": "Sun", "time": "Closed"}], "id": "4659500002", "name": "USPS COLLECTION BOX - BLUE BOX", "address": {"city": "WYATT", "state": "IN", "street": "66700 STATE ROAD 331", "postcode": "46595"}}}
]}
