{"type": "FeatureCollection", "features": [
{"geometry": {"type": "Point", "coordinates": [-86.2459034941, 41.6725024002]}, "type": "Feature", "properties": {"collection_times": [{"days": "Mon-Fri", "time": "3:45pm"}, {"days": "Sat-Sun", "time": "Closed"}], "id": "4660100003", "name": "USPS COLLECTION BOX - BLUE BOX", "address": {"city": "SOUTH BEND", "state": "IN", "street": "404 COLUMBIA ST", "postcode": "46601"}}},
{"geometry": {"type": "Point", "coordinates": [-86.2518849545, 41.6749413714]}, "type": "Feature", "properties": {"collection_times": [{"days": "Mon-Fri", "time": "3:45pm"}, {"days": "Sat-Sun", "time": "Closed"}], "id": "4660100004", "name": "USPS COLLECTION BOX - BLUE BOX", "address": {"city": "SOUTH BEND", "state": "IN", "street": "204 S MAIN ST", "postcode": "46601"}}},
{"geometry": {"type": "Point", "coordinates": [-86.2518849545, 41.6749413714]}, "type": "Feature", "properties": {"collection_times": [{"days": "Mon-Fri", "time": "3:45pm"}, {"days": "Sat-Sun", "time": "Closed"}], "id": "4660100005", "name": "USPS COLLECTION BOX - BLUE BOX", "address": {"city": "SOUTH BEND", "state": "IN", "street": "204 S MAIN ST", "postcode": "46601"}}},
{"geometry": {"type": "Point", "coordinates": [-86.2502301459, 41.6736319561]}, "type": "Feature", "properties": {"collection_times": [{"days": "Mon-Fri", "time": "3:45pm"}, {"days": "Sat-Sun", "time": "Closed"}], "id": "4660100010", "name": "USPS COLLECTION BOX - BLUE BOX", "address": {"city": "SOUTH BEND", "state": "IN", "street": "100 E WAYNE ST", "postcode": "46601"}}},
{"geometry": {"type": "Point", "coordinates": [-86.2521805445, 41.6764263399]}, "type": "Feature", "properties": {"collection_times": [{"days": "Mon-Fri", "time": "3:45pm"}, {"days": "Sat-Sun", "time": "Closed"}], "id": "4660100011", "name": "USPS COLLECTION BOX - BLUE BOX", "address": {"city": "SOUTH BEND", "state": "IN", "street": "211 W WASHINGTON ST", "postcode": "46601"}}},
{"geometry": {"type": "Point", "coordinates": [-86.2523753297, 41.6749736128]}, "type": "Feature", "properties": {"collection_times": [{"days": "Mon-Fri", "time": "3:45pm"}, {"days": "Sat-Sun", "time": "Closed"}], "id": "4660100035", "name": "USPS COLLECTION BOX - BLUE BOX", "address": {"city": "SOUTH BEND", "state": "IN", "street": "224 W JEFFERSON BLVD", "postcode": "46601"}}},
{"geometry": {"type": "Point", "coordinates": [-86.2551875272, 41.6777040784]}, "type": "Feature", "properties": {"collection_times": [{"days": "Mon-Fri", "time": "3:45pm"}, {"days": "Sat-Sun", "time": "Closed"}], "id": "4660100039", "name": "USPS COLLECTION BOX - BLUE BOX", "address": {"city": "SOUTH BEND", "state": "IN", "street": "401 E COLFAX AVE", "postcode": "46601"}}},
{"geometry": {"type": "Point", "coordinates": [-86.2502695666, 41.6791199781]}, "type": "Feature", "properties": {"collection_times": [{"days": "Mon-Fri", "time": "3:45pm"}, {"days": "Sat-Sun", "time": "Closed"}], "id": "4660100041", "name": "USPS COLLECTION BOX - BLUE BOX", "address": {"city": "SOUTH BEND", "state": "IN", "street": "300 N MICHIGAN ST", "postcode": "46601"}}},
{"geometry": {"type": "Point", "coordinates": [-86.2502424183, 41.6749772288]}, "type": "Feature", "properties": {"collection_times": [{"days": "Mon-Fri", "time": "3:45pm"}, {"days": "Sat-Sun", "time": "Closed"}], "id": "4660100045", "name": "USPS COLLECTION BOX - BLUE BOX", "address": {"city": "SOUTH BEND", "state": "IN", "street": "202 S MICHIGAN ST", "postcode": "46601"}}},
{"geometry": {"type": "Point", "coordinates": [-86.2502149838, 41.6750968121]}, "type": "Feature", "properties": {"collection_times": [{"days": "Mon-Fri", "time": "3:45pm"}, {"days": "Sat-Sun", "time": "Closed"}], "id": "4660100054", "name": "USPS COLLECTION BOX - BLUE BOX", "address": {"city": "SOUTH BEND", "state": "IN", "street": "105 E JEFFERSON BLVD", "postcode": "46601"}}},
{"geometry": {"type": "Point", "coordinates": [-86.2502803674, 41.6748892049]}, "type": "Feature", "properties": {"collection_times": [{"days": "Mon-Fri", "time": "3:45pm"}, {"days": "Sat-Sun", "time": "Closed"}], "id": "4660100056", "name": "USPS COLLECTION BOX - BLUE BOX", "address": {"city": "SOUTH BEND", "state": "IN", "street": "202 S MICHIGAN ST", "postcode": "46601"}}},
{"geometry": {"type": "Point", "coordinates": [-86.2519076299, 41.6765683469]}, "type": "Feature", "properties": {"collection_times": [{"days": "Mon-Fri", "time": "3:45pm"}, {"days": "Sat-Sun", "time": "Closed"}], "id": "4660100059", "name": "USPS COLLECTION BOX - BLUE BOX", "address": {"city": "SOUTH BEND", "state": "IN", "street": "108 N MAIN ST", "postcode": "46601"}}},
{"geometry": {"type": "Point", "coordinates": [-86.2502424183, 41.6749772288]}, "type": "Feature", "properties": {"collection_times": [{"days": "Mon-Fri", "time": "3:45pm"}, {"days": "Sat-Sun", "time": "Closed"}], "id": "4660100071", "name": "USPS COLLECTION BOX - BLUE BOX", "address": {"city": "SOUTH BEND", "state": "IN", "street": "202 S MICHIGAN ST", "postcode": "46601"}}},
{"geometry": {"type": "Point", "coordinates": [-86.2502915525, 41.6764351667]}, "type": "Feature", "properties": {"collection_times": [{"days": "Mon-Fri", "time": "3:45pm"}, {"days": "Sat-Sun", "time": "Closed"}], "id": "4660100079", "name": "USPS COLLECTION BOX - BLUE BOX", "address": {"city": "SOUTH BEND", "state": "IN", "street": "100 N MICHIGAN ST", "postcode": "46601"}}},
{"geometry": {"type": "Point", "coordinates": [-86.2524082299, 41.675082904]}, "type": "Feature", "properties": {"collection_times": [{"days": "Mon-Fri", "time": "3:45pm"}, {"days": "Sat-Sun", "time": "Closed"}], "id": "4660100085", "name": "USPS COLLECTION BOX - BLUE BOX", "address": {"city": "SOUTH BEND", "state": "IN", "street": "227 W JEFFERSON BLVD", "postcode": "46601"}}},
{"geometry": {"type": "Point", "coordinates": [-86.24984, 41.67226]}, "type": "Feature", "properties": {"collection_times": [{"days": "Mon-Fri", "time": "6:00pm"}, {"days": "Sat", "time": "5:00pm"}, {"days": "Sun", "time": "Closed"}], "id": "4660100088", "name": "USPS COLLECTION BOX - BLUE BOX", "address": {"city": "SOUTH BEND", "state": "IN", "street": "424 S MICHIGAN ST", "postcode": "46601"}}},
{"geometry": {"type": "Point", "coordinates": [-86.2499395101, 41.6720048582]}, "type": "Feature", "properties": {"collection_times": [{"days": "Mon-Fri", "time": "6:00pm"}, {"days": "Sat", "time": "5:00pm"}, {"days": "Sun", "time": "Closed"}], "id": "4660100089", "name": "USPS COLLECTION BOX - BLUE BOX", "address": {"city": "SOUTH BEND", "state": "IN", "street": "424 S MICHIGAN ST", "postcode": "46601"}}},
{"geometry": {"type": "Point", "coordinates": [-86.2499395101, 41.6720048582]}, "type": "Feature", "properties": {"collection_times": [{"days": "Mon-Fri", "time": "6:00pm"}, {"days": "Sat", "time": "5:00pm"}, {"days": "Sun", "time": "Closed"}], "id": "4660100090", "name": "USPS COLLECTION BOX - BLUE BOX", "address": {"city": "SOUTH BEND", "state": "IN", "street": "424 S MICHIGAN ST", "postcode": "46601"}}},
{"geometry": {"type": "Point", "coordinates": [-86.2499395101, 41.6720048582]}, "type": "Feature", "properties": {"collection_times": [{"days": "Mon-Fri", "time": "6:00pm"}, {"days": "Sat", "time": "5:00pm"}, {"days": "Sun", "time": "Closed"}], "id": "4660100091", "name": "USPS COLLECTION BOX - PO LOBBY", "address": {"city": "SOUTH BEND", "state": "IN", "street": "424 S MICHIGAN ST", "postcode": "46601"}}},
{"geometry": {"type": "Point", "coordinates": [-86.2499395101, 41.6720048582]}, "type": "Feature", "properties": {"collection_times": [{"days": "Mon-Fri", "time": "6:00pm"}, {"days": "Sat", "time": "5:00pm"}, {"days": "Sun", "time": "Closed"}], "id": "4660100093", "name": "USPS COLLECTION BOX - BLUE BOX", "address": {"city": "SOUTH BEND", "state": "IN", "street": "424 S MICHIGAN ST", "postcode": "46601"}}},
{"geometry": {"type": "Point", "coordinates": [-86.2499395101, 41.6720048582]}, "type": "Feature", "properties": {"collection_times": [{"days": "Mon-Fri", "time": "6:00pm"}, {"days": "Sat", "time": "5:00pm"}, {"days": "Sun", "time": "Closed"}], "id": "4660100094", "name": "USPS COLLECTION BOX - BLUE BOX", "address": {"city": "SOUTH BEND", "state": "IN", "street": "424 S MICHIGAN ST", "postcode": "46601"}}},
{"geometry": {"type": "Point", "coordinates": [-86.2499395101, 41.6720048582]}, "type": "Feature", "properties": {"collection_times": [{"days": "Mon-Fri", "time": "6:00pm"}, {"days": "Sat", "time": "5:00pm"}, {"days": "Sun", "time": "Closed"}], "id": "4660100095", "name": "USPS COLLECTION BOX - PO LOBBY", "address": {"city": "SOUTH BEND", "state": "IN", "street": "424 S MICHIGAN ST", "postcode": "46601"}}},
{"geometry": {"type": "Point", "coordinates": [-86.2499395101, 41.6720048582]}, "type": "Feature", "properties": {"collection_times": [{"days": "Mon-Fri", "time": "6:00pm"}, {"days": "Sat", "time": "5:00pm"}, {"days": "Sun", "time": "Closed"}], "id": "4660100096", "name": "USPS COLLECTION BOX - APC", "address": {"city": "SOUTH BEND", "state": "IN", "street": "424 S MICHIGAN ST", "postcode": "46601"}}},
{"geometry": {"type": "Point", "coordinates": [-86.2349777902, 41.6517140598]}, "type": "Feature", "properties": {"collection_times": [{"days": "Mon-Sat", "time": "1:15pm"}, {"days": "Sun", "time": "Closed"}], "id": "4661300008", "name": "USPS COLLECTION BOX - BLUE BOX", "address": {"city": "SOUTH BEND", "state": "IN", "street": "2223 MIAMI ST", "postcode": "46613"}}},
{"geometry": {"type": "Point", "coordinates": [-86.2251830378, 41.6493829748]}, "type": "Feature", "properties": {"collection_times": [{"days": "Mon-Sat", "time": "1:45pm"}, {"days": "Sun", "time": "Closed"}], "id": "4661400004", "name": "USPS COLLECTION BOX - BLUE BOX", "address": {"city": "SOUTH BEND", "state": "IN", "street": "1515 SOUTHEAST DR", "postcode": "46614"}}},
{"geometry": {"type": "Point", "coordinates": [-86.2349235171, 41.6456033109]}, "type": "Feature", "properties": {"collection_times": [{"days": "Mon-Sat", "time": "1:45pm"}, {"days": "Sun", "time": "Closed"}], "id": "4661400006", "name": "USPS COLLECTION BOX - BLUE BOX", "address": {"city": "SOUTH BEND", "state": "IN", "street": "2809 MIAMI ST", "postcode": "46614"}}},
{"geometry": {"type": "Point", "coordinates": [-86.2112926054, 41.6366701714]}, "type": "Feature", "properties": {"collection_times": [{"days": "Mon-Sat", "time": "1:15pm"}, {"days": "Sun", "time": "Closed"}], "id": "4661400013", "name": "USPS COLLECTION BOX - BLUE BOX", "address": {"city": "SOUTH BEND", "state": "IN", "street": "3900 IRISH HILLS DR", "postcode": "46614"}}},
{"geometry": {"type": "Point", "coordinates": [-86.2223571001, 41.6295221736]}, "type": "Feature", "properties": {"collection_times": [{"days": "Mon-Sat", "time": "1:45pm"}, {"days": "Sun", "time": "Closed"}], "id": "4661400014", "name": "USPS COLLECTION BOX - BLUE BOX", "address": {"city": "SOUTH BEND", "state": "IN", "street": "1911 E IRELAND RD", "postcode": "46614"}}},
{"geometry": {"type": "Point", "coordinates": [-86.2409078202, 41.6282152225]}, "type": "Feature", "properties": {"collection_times": [{"days": "Mon-Sat", "time": "1:45pm"}, {"days": "Sun", "time": "Closed"}], "id": "4661400018", "name": "USPS COLLECTION BOX - BLUE BOX", "address": {"city": "SOUTH BEND", "state": "IN", "street": "924 ERSKINE PLZ", "postcode": "46614"}}},
{"geometry": {"type": "Point", "coordinates": [-86.2520960581, 41.6337466733]}, "type": "Feature", "properties": {"collection_times": [{"days": "Mon-Fri", "time": "5:00pm"}, {"days": "Sat", "time": "4:00pm"}, {"days": "Sun", "time": "Closed"}], "id": "4661400019", "name": "USPS COLLECTION BOX - BLUE BOX", "address": {"city": "SOUTH BEND", "state": "IN", "street": "4015 S MAIN ST", "postcode": "46614"}}},
{"geometry": {"type": "Point", "coordinates": [-86.2520960581, 41.6337466733]}, "type": "Feature", "properties": {"collection_times": [{"days": "Mon-Fri", "time": "5:00pm"}, {"days": "Sat", "time": "4:00pm"}, {"days": "Sun", "time": "Closed"}], "id": "4661400020", "name": "USPS COLLECTION BOX - BLUE BOX", "address": {"city": "SOUTH BEND", "state": "IN", "street": "4015 S MAIN ST", "postcode": "46614"}}},
{"geometry": {"type": "Point", "coordinates": [-86.2269047404, 41.629393717]}, "type": "Feature", "properties": {"collection_times": [{"days": "Mon-Sat", "time": "1:45pm"}, {"days": "Sun", "time": "Closed"}], "id": "4661400022", "name": "USPS COLLECTION BOX - BLUE BOX", "address": {"city": "SOUTH BEND", "state": "IN", "street": "1400 E IRELAND RD", "postcode": "46614"}}},
{"geometry": {"type": "Point", "coordinates": [-86.2520960581, 41.6337466733]}, "type": "Feature", "properties": {"collection_times": [{"days": "Mon-Fri", "time": "5:00pm"}, {"days": "Sat", "time": "4:00pm"}, {"days": "Sun", "time": "Closed"}], "id": "4661400029", "name": "USPS COLLECTION BOX - BLUE BOX", "address": {"city": "SOUTH BEND", "state": "IN", "street": "4015 S MAIN ST", "postcode": "46614"}}},
{"geometry": {"type": "Point", "coordinates": [-86.2520960581, 41.6337466733]}, "type": "Feature", "properties": {"collection_times": [{"days": "Mon-Fri", "time": "5:00pm"}, {"days": "Sat", "time": "4:00pm"}, {"days": "Sun", "time": "Closed"}], "id": "4661400030", "name": "USPS COLLECTION BOX - BLUE BOX", "address": {"city": "SOUTH BEND", "state": "IN", "street": "4015 S MAIN ST", "postcode": "46614"}}},
{"geometry": {"type": "Point", "coordinates": [-86.2520960581, 41.6337466733]}, "type": "Feature", "properties": {"collection_times": [{"days": "Mon-Fri", "time": "5:00pm"}, {"days": "Sat", "time": "4:00pm"}, {"days": "Sun", "time": "Closed"}], "id": "4661400031", "name": "USPS COLLECTION BOX - BLUE BOX", "address": {"city": "SOUTH BEND", "state": "IN", "street": "4015 S MAIN ST", "postcode": "46614"}}},
{"geometry": {"type": "Point", "coordinates": [-86.2520960581, 41.6337466733]}, "type": "Feature", "properties": {"collection_times": [{"days": "Mon-Fri", "time": "5:00pm"}, {"days": "Sat", "time": "4:00pm"}, {"days": "Sun", "time": "Closed"}], "id": "4661400032", "name": "USPS COLLECTION BOX - PO LOBBY", "address": {"city": "SOUTH BEND", "state": "IN", "street": "4015 S MAIN ST", "postcode": "46614"}}},
{"geometry": {"type": "Point", "coordinates": [-86.2324156818, 41.6434385796]}, "type": "Feature", "properties": {"collection_times": [{"days": "Mon-Sat", "time": "10:00am"}, {"days": "Sun", "time": "Closed"}], "id": "4661400035", "name": "USPS COLLECTION BOX - BLUE BOX", "address": {"city": "SOUTH BEND", "state": "IN", "street": "3012 S TWYCKENHAM DR", "postcode": "46614"}}},
{"geometry": {"type": "Point", "coordinates": [-86.2334801468, 41.6294901426]}, "type": "Feature", "properties": {"collection_times": [{"days": "Mon-Sat", "time": "1:45pm"}, {"days": "Sun", "time": "Closed"}], "id": "4661400036", "name": "USPS COLLECTION BOX - BLUE BOX", "address": {"city": "SOUTH BEND", "state": "IN", "street": "1143 E IRELAND RD", "postcode": "46614"}}},
{"geometry": {"type": "Point", "coordinates": [-86.2112926054, 41.6366701714]}, "type": "Feature", "properties": {"collection_times": [{"days": "Mon-Sat", "time": "1:15pm"}, {"days": "Sun", "time": "Closed"}], "id": "4661400037", "name": "USPS COLLECTION BOX - BLUE BOX", "address": {"city": "SOUTH BEND", "state": "IN", "street": "3900 IRISH HILLS DR", "postcode": "46614"}}},
{"geometry": {"type": "Point", "coordinates": [-86.2337338792, 41.6076121611]}, "type": "Feature", "properties": {"collection_times": [{"days": "Mon-Sat", "time": "12:00pm"}, {"days": "Sun", "time": "Closed"}], "id": "4661400038", "name": "USPS COLLECTION BOX - BLUE BOX", "address": {"city": "SOUTH BEND", "state": "IN", "street": "1150 KERN RD", "postcode": "46614"}}},
{"geometry": {"type": "Point", "coordinates": [-86.2143772128, 41.6945751501]}, "type": "Feature", "properties": {"collection_times": [{"days": "Mon-Fri", "time": "5:00pm"}, {"days": "Sat", "time": "4:00pm"}, {"days": "Sun", "time": "Closed"}], "id": "4661500001", "name": "USPS COLLECTION BOX - BLUE BOX", "address": {"city": "SOUTH BEND", "state": "IN", "street": "2417 EDISON RD", "postcode": "46615"}}},
{"geometry": {"type": "Point", "coordinates": [-86.2143772128, 41.6945751501]}, "type": "Feature", "properties": {"collection_times": [{"days": "Mon-Fri", "time": "5:00pm"}, {"days": "Sat", "time": "4:00pm"}, {"days": "Sun", "time": "Closed"}], "id": "4661500002", "name": "USPS COLLECTION BOX - BLUE BOX", "address": {"city": "SOUTH BEND", "state": "IN", "street": "2417 EDISON RD", "postcode": "46615"}}},
{"geometry": {"type": "Point", "coordinates": [-86.2143772128, 41.6945751501]}, "type": "Feature", "properties": {"collection_times": [{"days": "Mon-Fri", "time": "4:30pm"}, {"days": "Sat", "time": "4:00pm"}, {"days": "Sun", "time": "Closed"}], "id": "4661500003", "name": "USPS COLLECTION BOX - PO LOBBY", "address": {"city": "SOUTH BEND", "state": "IN", "street": "2417 EDISON RD", "postcode": "46615"}}},
{"geometry": {"type": "Point", "coordinates": [-86.2124537405, 41.6657809727]}, "type": "Feature", "properties": {"collection_times": [{"days": "Mon-Sat", "time": "11:00am"}, {"days": "Sun", "time": "Closed"}], "id": "4661500007", "name": "USPS COLLECTION BOX - BLUE BOX", "address": {"city": "SOUTH BEND", "state": "IN", "street": "2427 MISHAWAKA AVE", "postcode": "46615"}}},
{"geometry": {"type": "Point", "coordinates": [-86.2053031127, 41.6656853635]}, "type": "Feature", "properties": {"collection_times": [{"days": "Mon-Sat", "time": "11:00am"}, {"days": "Sun", "time": "Closed"}], "id": "4661500011", "name": "USPS COLLECTION BOX - BLUE BOX", "address": {"city": "SOUTH BEND", "state": "IN", "street": "3002 MISHAWAKA AVE", "postcode": "46615"}}},
{"geometry": {"type": "Point", "coordinates": [-86.2047401094, 41.6730054177]}, "type": "Feature", "properties": {"collection_times": [{"days": "Mon-Sat", "time": "11:00am"}, {"days": "Sun", "time": "Closed"}], "id": "4661500014", "name": "USPS COLLECTION BOX - BLUE BOX", "address": {"city": "SOUTH BEND", "state": "IN", "street": "3001 E JEFFERSON BLVD", "postcode": "46615"}}},
{"geometry": {"type": "Point", "coordinates": [-86.2290861607, 41.6657510442]}, "type": "Feature", "properties": {"collection_times": [{"days": "Mon-Sat", "time": "11:00am"}, {"days": "Sun", "time": "Closed"}], "id": "4661500015", "name": "USPS COLLECTION BOX - BLUE BOX", "address": {"city": "SOUTH BEND", "state": "IN", "street": "1320 MISHAWAKA AVE", "postcode": "46615"}}},
{"geometry": {"type": "Point", "coordinates": [-86.1966466722, 41.6884445285]}, "type": "Feature", "properties": {"collection_times": [{"days": "Mon-Sat", "time": "3:00pm"}, {"days": "Sun", "time": "Closed"}], "id": "4661500044", "name": "USPS COLLECTION BOX - BLUE BOX", "address": {"city": "SOUTH BEND", "state": "IN", "street": "1001 N HICKORY RD", "postcode": "46615"}}},
{"geometry": {"type": "Point", "coordinates": [-86.2143772128, 41.6945751501]}, "type": "Feature", "properties": {"collection_times": [{"days": "Mon-Fri", "time": "4:30pm"}, {"days": "Sat", "time": "4:00pm"}, {"days": "Sun", "time": "Closed"}], "id": "4661500056", "name": "USPS COLLECTION BOX - APC", "address": {"city": "SOUTH BEND", "state": "IN", "street": "2417 EDISON RD", "postcode": "46615"}}},
{"geometry": {"type": "Point", "coordinates": [-86.2686661898, 41.6934214361]}, "type": "Feature", "properties": {"collection_times": [{"days": "Mon-Sat", "time": "3:00pm"}, {"days": "Sun", "time": "Closed"}], "id": "4661600001", "name": "USPS COLLECTION BOX - BLUE BOX", "address": {"city": "SOUTH BEND", "state": "IN", "street": "1355 PORTAGE AVE", "postcode": "46616"}}},
{"geometry": {"type": "Point", "coordinates": [-86.2686661898, 41.6934214361]}, "type": "Feature", "properties": {"collection_times": [{"days": "Mon-Sat", "time": "3:00pm"}, {"days": "Sun", "time": "Closed"}], "id": "4661600002", "name": "USPS COLLECTION BOX - BLUE BOX", "address": {"city": "SOUTH BEND", "state": "IN", "street": "1355 PORTAGE AVE", "postcode": "46616"}}},
{"geometry": {"type": "Point", "coordinates": [-86.2602522425, 41.6972758963]}, "type": "Feature", "properties": {"collection_times": [{"days": "Mon-Sat", "time": "9:30am"}, {"days": "Sun", "time": "Closed"}], "id": "4661600003", "name": "USPS COLLECTION BOX - BLUE BOX", "address": {"city": "SOUTH BEND", "state": "IN", "street": "1671 RIVERSIDE DR", "postcode": "46616"}}},
{"geometry": {"type": "Point", "coordinates": [-86.2686661898, 41.6934214361]}, "type": "Feature", "properties": {"collection_times": [{"days": "Mon-Sat", "time": "3:00pm"}, {"days": "Sun", "time": "Closed"}], "id": "4661600004", "name": "USPS COLLECTION BOX - BLUE BOX", "address": {"city": "SOUTH BEND", "state": "IN", "street": "1355 PORTAGE AVE", "postcode": "46616"}}},
{"geometry": {"type": "Point", "coordinates": [-86.2380405508, 41.6752119015]}, "type": "Feature", "properties": {"collection_times": [{"days": "Mon-Fri", "time": "3:45pm"}, {"days": "Sat-Sun", "time": "Closed"}], "id": "4661700003", "name": "USPS COLLECTION BOX - BLUE BOX", "address": {"city": "SOUTH BEND", "state": "IN", "street": "919 E JEFFERSON BLVD", "postcode": "46617"}}},
{"geometry": {"type": "Point", "coordinates": [-86.2364898268, 41.6841137939]}, "type": "Feature", "properties": {"collection_times": [{"days": "Mon-Fri", "time": "3:45pm"}, {"days": "Sat-Sun", "time": "Closed"}], "id": "4661700010", "name": "USPS COLLECTION BOX - BLUE BOX", "address": {"city": "SOUTH BEND", "state": "IN", "street": "710 E WAYNE ST", "postcode": "46617"}}},
{"geometry": {"type": "Point", "coordinates": [-86.2457124042, 41.6778541147]}, "type": "Feature", "properties": {"collection_times": [{"days": "Mon-Fri", "time": "3:45pm"}, {"days": "Sat-Sun", "time": "Closed"}], "id": "4661700016", "name": "USPS COLLECTION BOX - BLUE BOX", "address": {"city": "SOUTH BEND", "state": "IN", "street": "401 E COLFAX AVE", "postcode": "46617"}}},
{"geometry": {"type": "Point", "coordinates": [-86.3125030924, 41.6651198852]}, "type": "Feature", "properties": {"collection_times": [{"days": "Mon-Sat", "time": "9:30am"}, {"days": "Sun", "time": "Closed"}], "id": "4661900017", "name": "USPS COLLECTION BOX - BLUE BOX", "address": {"city": "SOUTH BEND", "state": "IN", "street": "853 S LOMBARDY DR", "postcode": "46619"}}},
{"geometry": {"type": "Point", "coordinates": [-86.3087788679, 41.6719637616]}, "type": "Feature", "properties": {"collection_times": [{"days": "Mon-Sat", "time": "1:00pm"}, {"days": "Sun", "time": "Closed"}], "id": "4661900019", "name": "USPS COLLECTION BOX - BLUE BOX", "address": {"city": "SOUTH BEND", "state": "IN", "street": "4401 W WESTERN AVE", "postcode": "46619"}}},
{"geometry": {"type": "Point", "coordinates": [-86.3221035993, 41.6633473679]}, "type": "Feature", "properties": {"collection_times": [{"days": "Mon-Sat", "time": "1:00pm"}, {"days": "Sun", "time": "Closed"}], "id": "4661900022", "name": "USPS COLLECTION BOX - BLUE BOX", "address": {"city": "SOUTH BEND", "state": "IN", "street": "1001 S MAYFLOWER RD", "postcode": "46619"}}},
{"geometry": {"type": "Point", "coordinates": [-86.2832857511, 41.6755784423]}, "type": "Feature", "properties": {"collection_times": [{"days": "Mon-Fri", "time": "5:00pm"}, {"days": "Sat", "time": "12:00pm"}, {"days": "Sun", "time": "Closed"}], "id": "4661900033", "name": "USPS COLLECTION BOX - PO LOBBY", "address": {"city": "SOUTH BEND", "state": "IN", "street": "150 S OLIVE ST", "postcode": "46619"}}},
{"geometry": {"type": "Point", "coordinates": [-86.2832857511, 41.6755784423]}, "type": "Feature", "properties": {"collection_times": [{"days": "Mon-Fri", "time": "5:00pm"}, {"days": "Sat", "time": "4:00pm"}, {"days": "Sun", "time": "Closed"}], "id": "4661900034", "name": "USPS COLLECTION BOX - BLUE BOX", "address": {"city": "SOUTH BEND", "state": "IN", "street": "150 S OLIVE ST", "postcode": "46619"}}},
{"geometry": {"type": "Point", "coordinates": [-86.2832857511, 41.6755784423]}, "type": "Feature", "properties": {"collection_times": [{"days": "Mon-Fri", "time": "5:00pm"}, {"days": "Sat", "time": "4:00pm"}, {"days": "Sun", "time": "Closed"}], "id": "4661900035", "name": "USPS COLLECTION BOX - BLUE BOX", "address": {"city": "SOUTH BEND", "state": "IN", "street": "150 S OLIVE ST", "postcode": "46619"}}},
{"geometry": {"type": "Point", "coordinates": [-86.2795153862, 41.6721849133]}, "type": "Feature", "properties": {"collection_times": [{"days": "Mon-Fri", "time": "1:00pm"}, {"days": "Sat-Sun", "time": "Closed"}], "id": "4661900041", "name": "USPS COLLECTION BOX - BLUE BOX", "address": {"city": "SOUTH BEND", "state": "IN", "street": "2019 W WESTERN AVE", "postcode": "46619"}}},
{"geometry": {"type": "Point", "coordinates": [-86.3221191065, 41.6647319822]}, "type": "Feature", "properties": {"collection_times": [{"days": "Mon-Sat", "time": "9:30am"}, {"days": "Sun", "time": "Closed"}], "id": "4661900051", "name": "USPS COLLECTION BOX - BLUE BOX", "address": {"city": "SOUTH BEND", "state": "IN", "street": "56977 MAYFLOWER RD", "postcode": "46619"}}},
{"geometry": {"type": "Point", "coordinates": [-86.2832857511, 41.6755784423]}, "type": "Feature", "properties": {"collection_times": [{"days": "Mon-Fri", "time": "5:00pm"}, {"days": "Sat", "time": "4:00pm"}, {"days": "Sun", "time": "Closed"}], "id": "4661900056", "name": "USPS COLLECTION BOX - BLUE BOX", "address": {"city": "SOUTH BEND", "state": "IN", "street": "150 S OLIVE ST", "postcode": "46619"}}},
{"geometry": {"type": "Point", "coordinates": [-86.2832857511, 41.6755784423]}, "type": "Feature", "properties": {"collection_times": [{"days": "Mon-Fri", "time": "5:00pm"}, {"days": "Sat", "time": "4:00pm"}, {"days": "Sun", "time": "Closed"}], "id": "4661900057", "name": "USPS COLLECTION BOX - BLUE BOX", "address": {"city": "SOUTH BEND", "state": "IN", "street": "150 S OLIVE ST", "postcode": "46619"}}},
{"geometry": {"type": "Point", "coordinates": [-86.311636704, 41.6717733175]}, "type": "Feature", "properties": {"collection_times": [{"days": "Mon-Sat", "time": "1:00pm"}, {"days": "Sun", "time": "Closed"}], "id": "4661900061", "name": "USPS COLLECTION BOX - BLUE BOX", "address": {"city": "SOUTH BEND", "state": "IN", "street": "4606 W WESTERN AVE", "postcode": "46619"}}},
{"geometry": {"type": "Point", "coordinates": [-86.305786, 41.694862]}, "type": "Feature", "properties": {"collection_times": [{"days": "Mon-Fri", "time": "3:30pm"}, {"days": "Sat-Sun", "time": "Closed"}], "id": "4662800001", "name": "USPS COLLECTION BOX - BLUE BOX", "address": {"city": "SOUTH BEND", "state": "IN", "street": "4105 LINCOLN WAY W", "postcode": "46628"}}},
{"geometry": {"type": "Point", "coordinates": [-86.305786, 41.694862]}, "type": "Feature", "properties": {"collection_times": [{"days": "Mon-Fri", "time": "3:30pm"}, {"days": "Sat-Sun", "time": "Closed"}], "id": "4662800002", "name": "USPS COLLECTION BOX - BLUE BOX", "address": {"city": "SOUTH BEND", "state": "IN", "street": "4105 LINCOLN WAY W", "postcode": "46628"}}},
{"geometry": {"type": "Point", "coordinates": [-86.2851317646, 41.7184598781]}, "type": "Feature", "properties": {"collection_times": [{"days": "Mon-Sat", "time": "9:30am"}, {"days": "Sun", "time": "Closed"}], "id": "4662800003", "name": "USPS COLLECTION BOX - BLUE BOX", "address": {"city": "SOUTH BEND", "state": "IN", "street": "2395 FLINT CT", "postcode": "46628"}}},
{"geometry": {"type": "Point", "coordinates": [-86.2938457389, 41.7087187773]}, "type": "Feature", "properties": {"collection_times": [{"days": "Mon-Fri", "time": "3:30pm"}, {"days": "Sat-Sun", "time": "Closed"}], "id": "4662800004", "name": "USPS COLLECTION BOX - BLUE BOX", "address": {"city": "SOUTH BEND", "state": "IN", "street": "2301 N BENDIX DR", "postcode": "46628"}}},
{"geometry": {"type": "Point", "coordinates": [-86.3229471791, 41.7281476393]}, "type": "Feature", "properties": {"collection_times": [{"days": "Mon-Fri", "time": "3:30pm"}, {"days": "Sat-Sun", "time": "Closed"}], "id": "4662800005", "name": "USPS COLLECTION BOX - BLUE BOX", "address": {"city": "SOUTH BEND", "state": "IN", "street": "3900 MOREAU CT", "postcode": "46628"}}},
{"geometry": {"type": "Point", "coordinates": [-86.3425675148, 41.7357892777]}, "type": "Feature", "properties": {"collection_times": [{"days": "Mon-Fri", "time": "3:30pm"}, {"days": "Sat-Sun", "time": "Closed"}], "id": "4662800006", "name": "USPS COLLECTION BOX - BLUE BOX", "address": {"city": "SOUTH BEND", "state": "IN", "street": "4402 TECHNOLOGY DR", "postcode": "46628"}}},
{"geometry": {"type": "Point", "coordinates": [-86.3425675148, 41.7357892777]}, "type": "Feature", "properties": {"collection_times": [{"days": "Mon-Fri", "time": "3:30pm"}, {"days": "Sat-Sun", "time": "Closed"}], "id": "4662800007", "name": "USPS COLLECTION BOX - BLUE BOX", "address": {"city": "SOUTH BEND", "state": "IN", "street": "4402 TECHNOLOGY DR", "postcode": "46628"}}},
{"geometry": {"type": "Point", "coordinates": [-86.2850568747, 41.7300271869]}, "type": "Feature", "properties": {"collection_times": [{"days": "Mon-Sat", "time": "9:30am"}, {"days": "Sun", "time": "Closed"}], "id": "4662800009", "name": "USPS COLLECTION BOX - BLUE BOX", "address": {"city": "SOUTH BEND", "state": "IN", "street": "2701 APPALOOSA LN", "postcode": "46628"}}},
{"geometry": {"type": "Point", "coordinates": [-86.3054895461, 41.6948780209]}, "type": "Feature", "properties": {"collection_times": [{"days": "Mon-Fri", "time": "3:30pm"}, {"days": "Sat-Sun", "time": "Closed"}], "id": "4662800010", "name": "USPS COLLECTION BOX - BLUE BOX", "address": {"city": "SOUTH BEND", "state": "IN", "street": "4105 LINCOLN WAY W", "postcode": "46628"}}},
{"geometry": {"type": "Point", "coordinates": [-86.2938457389, 41.7087187773]}, "type": "Feature", "properties": {"collection_times": [{"days": "Mon-Fri", "time": "3:30pm"}, {"days": "Sat-Sun", "time": "Closed"}], "id": "4662800011", "name": "USPS COLLECTION BOX - BLUE BOX", "address": {"city": "SOUTH BEND", "state": "IN", "street": "2301 N BENDIX DR", "postcode": "46628"}}},
{"geometry": {"type": "Point", "coordinates": [-86.3135549044, 41.7000321549]}, "type": "Feature", "properties": {"collection_times": [{"days": "Mon-Fri", "time": "3:30pm"}, {"days": "Sat", "time": "2:00pm"}, {"days": "Sun", "time": "Closed"}], "id": "4662800012", "name": "USPS COLLECTION BOX - BLUE BOX", "address": {"city": "SOUTH BEND", "state": "IN", "street": "4477 PROGRESS DR", "postcode": "46628"}}},
{"geometry": {"type": "Point", "coordinates": [-86.3006907361, 41.7338609413]}, "type": "Feature", "properties": {"collection_times": [{"days": "Mon-Fri", "time": "3:30pm"}, {"days": "Sat-Sun", "time": "Closed"}], "id": "4662800013", "name": "USPS COLLECTION BOX - BLUE BOX", "address": {"city": "SOUTH BEND", "state": "IN", "street": "4300 RALPH JONES CT", "postcode": "46628"}}},
{"geometry": {"type": "Point", "coordinates": [-86.2875348967, 41.7247128985]}, "type": "Feature", "properties": {"collection_times": [{"days": "Mon-Fri", "time": "3:30pm"}, {"days": "Sat", "time": "2:00pm"}, {"days": "Sun", "time": "Closed"}], "id": "4662800014", "name": "USPS COLLECTION BOX - BLUE BOX", "address": {"city": "SOUTH BEND", "state": "IN", "street": "3701 PORTAGE AVE", "postcode": "46628"}}},
{"geometry": {"type": "Point", "coordinates": [-86.2875348967, 41.7247128985]}, "type": "Feature", "properties": {"collection_times": [{"days": "Mon-Fri", "time": "3:30pm"}, {"days": "Sat", "time": "2:00pm"}, {"days": "Sun", "time": "Closed"}], "id": "4662800015", "name": "USPS COLLECTION BOX - BLUE BOX", "address": {"city": "SOUTH BEND", "state": "IN", "street": "3701 PORTAGE AVE", "postcode": "46628"}}},
{"geometry": {"type": "Point", "coordinates": [-86.2164211486, 41.6998544346]}, "type": "Feature", "properties": {"collection_times": [{"days": "Mon-Fri", "time": "4:30pm"}, {"days": "Sat", "time": "2:00pm"}, {"days": "Sun", "time": "Closed"}], "id": "4663500001", "name": "USPS COLLECTION BOX - BLUE BOX", "address": {"city": "SOUTH BEND", "state": "IN", "street": "2200 S BEND AVE", "postcode": "46635"}}},
{"geometry": {"type": "Point", "coordinates": [-86.2033350802, 41.7118392402]}, "type": "Feature", "properties": {"collection_times": [{"days": "Mon-Sat", "time": "3:30pm"}, {"days": "Sun", "time": "Closed"}], "id": "4663500003", "name": "USPS COLLECTION BOX - BLUE BOX", "address": {"city": "SOUTH BEND", "state": "IN", "street": "53820 GENERATIONS DR", "postcode": "46635"}}},
{"geometry": {"type": "Point", "coordinates": [-86.2033350802, 41.7118392402]}, "type": "Feature", "properties": {"collection_times": [{"days": "Mon-Sat", "time": "3:30pm"}, {"days": "Sun", "time": "Closed"}], "id": "4663500004", "name": "USPS COLLECTION BOX - BLUE BOX", "address": {"city": "SOUTH BEND", "state": "IN", "street": "53820 GENERATIONS DR", "postcode": "46635"}}},
{"geometry": {"type": "Point", "coordinates": [-86.2284284332, 41.7349549555]}, "type": "Feature", "properties": {"collection_times": [{"days": "Mon-Sat", "time": "11:00am"}, {"days": "Sun", "time": "Closed"}], "id": "4663700001", "name": "USPS COLLECTION BOX - BLUE BOX", "address": {"city": "SOUTH BEND", "state": "IN", "street": "52303 EMMONS RD", "postcode": "46637"}}},
{"geometry": {"type": "Point", "coordinates": [-86.2508245411, 41.7589256185]}, "type": "Feature", "properties": {"collection_times": [{"days": "Mon-Sat", "time": "2:30pm"}, {"days": "Sun", "time": "Closed"}], "id": "4663700002", "name": "USPS COLLECTION BOX - BLUE BOX", "address": {"city": "SOUTH BEND", "state": "IN", "street": "50660 STATE RD 933", "postcode": "46637"}}},
{"geometry": {"type": "Point", "coordinates": [-86.2372979983, 41.7303837114]}, "type": "Feature", "properties": {"collection_times": [{"days": "Mon-Sat", "time": "3:00pm"}, {"days": "Sun", "time": "Closed"}], "id": "4663700003", "name": "USPS COLLECTION BOX - BLUE BOX", "address": {"city": "SOUTH BEND", "state": "IN", "street": "19730 DARDEN RD", "postcode": "46637"}}},
{"geometry": {"type": "Point", "coordinates": [-86.2504236222, 41.7137157329]}, "type": "Feature", "properties": {"collection_times": [{"days": "Mon-Sat", "time": "3:00pm"}, {"days": "Sun", "time": "Closed"}], "id": "4663700004", "name": "USPS COLLECTION BOX - BLUE BOX", "address": {"city": "SOUTH BEND", "state": "IN", "street": "227 N DIXIEWAY", "postcode": "46637"}}},
{"geometry": {"type": "Point", "coordinates": [-86.2504236222, 41.7137157329]}, "type": "Feature", "properties": {"collection_times": [{"days": "Mon-Sat", "time": "3:00pm"}, {"days": "Sun", "time": "Closed"}], "id": "4663700005", "name": "USPS COLLECTION BOX - BLUE BOX", "address": {"city": "SOUTH BEND", "state": "IN", "street": "227 N DIXIEWAY", "postcode": "46637"}}},
{"geometry": {"type": "Point", "coordinates": [-86.250520467, 41.7191567294]}, "type": "Feature", "properties": {"collection_times": [{"days": "Mon-Sat", "time": "3:00pm"}, {"days": "Sun", "time": "Closed"}], "id": "4663700006", "name": "USPS COLLECTION BOX - BLUE BOX", "address": {"city": "SOUTH BEND", "state": "IN", "street": "325 N DIXIE WAY", "postcode": "46637"}}},
{"geometry": {"type": "Point", "coordinates": [-86.2198932702, 41.6982394007]}, "type": "Feature", "properties": {"collection_times": [{"days": "Mon-Sat", "time": "11:00am"}, {"days": "Sun", "time": "Closed"}], "id": "4663700007", "name": "USPS COLLECTION BOX - BLUE BOX", "address": {"city": "SOUTH BEND", "state": "IN", "street": "2081 S BEND AVE", "postcode": "46637"}}},
{"geometry": {"type": "Point", "coordinates": [-86.2167355373, 41.7041816977]}, "type": "Feature", "properties": {"collection_times": [{"days": "Mon-Sat", "time": "11:00am"}, {"days": "Sun", "time": "Closed"}], "id": "4663700008", "name": "USPS COLLECTION BOX - BLUE BOX", "address": {"city": "SOUTH BEND", "state": "IN", "street": "18000 BULLA RD", "postcode": "46637"}}},
{"geometry": {"type": "Point", "coordinates": [-86.2172714421, 41.6996974684]}, "type": "Feature", "properties": {"collection_times": [{"days": "Mon-Sat", "time": "11:00am"}, {"days": "Sun", "time": "Closed"}], "id": "4663700009", "name": "USPS COLLECTION BOX - BLUE BOX", "address": {"city": "SOUTH BEND", "state": "IN", "street": "18111 STATE ROAD 23", "postcode": "46637"}}},
{"geometry": {"type": "Point", "coordinates": [-86.2233369997, 41.6974663115]}, "type": "Feature", "properties": {"collection_times": [{"days": "Mon-Sat", "time": "11:00am"}, {"days": "Sun", "time": "Closed"}], "id": "4663700010", "name": "USPS COLLECTION BOX - BLUE BOX", "address": {"city": "SOUTH BEND", "state": "IN", "street": "1710 N TURTLE CREEK DR", "postcode": "46637"}}},
{"geometry": {"type": "Point", "coordinates": [-86.217294763, 41.7236474468]}, "type": "Feature", "properties": {"collection_times": [{"days": "Mon-Sat", "time": "11:00am"}, {"days": "Sun", "time": "Closed"}], "id": "4663700011", "name": "USPS COLLECTION BOX - BLUE BOX", "address": {"city": "SOUTH BEND", "state": "IN", "street": "18011 CLEVELAND RD", "postcode": "46637"}}},
{"geometry": {"type": "Point", "coordinates": [-86.2372979983, 41.7303837114]}, "type": "Feature", "properties": {"collection_times": [{"days": "Mon-Sat", "time": "3:00pm"}, {"days": "Sun", "time": "Closed"}], "id": "4663700012", "name": "USPS COLLECTION BOX - BLUE BOX", "address": {"city": "SOUTH BEND", "state": "IN", "street": "19730 DARDEN RD", "postcode": "46637"}}}
]}
