{"type": "FeatureCollection", "features": [
{"geometry": {"type": "Point", "coordinates": [-85.4240452933, 41.3953326905]}, "type": "Feature", "properties": {"collection_times": [{"days": "Mon-Fri", "time": "4:30pm"}, {"days": "Sat", "time": "11:00am"}, {"days": "Sun", "time": "Closed"}], "id": "4670100001", "name": "USPS COLLECTION BOX - BLUE BOX", "address": {"city": "ALBION", "state": "IN", "street": "123 S ORANGE ST", "postcode": "46701"}}},
{"geometry": {"type": "Point", "coordinates": [-85.4240452933, 41.3953326905]}, "type": "Feature", "properties": {"collection_times": [{"days": "Mon-Fri", "time": "4:30pm"}, {"days": "Sat", "time": "11:00am"}, {"days": "Sun", "time": "Closed"}], "id": "4670100002", "name": "USPS COLLECTION BOX - BLUE BOX", "address": {"city": "ALBION", "state": "IN", "street": "123 S ORANGE ST", "postcode": "46701"}}},
{"geometry": {"type": "Point", "coordinates": [-85.4240452933, 41.3953326905]}, "type": "Feature", "properties": {"collection_times": [{"days": "Mon-Fri", "time": "4:30pm"}, {"days": "Sat", "time": "11:00am"}, {"days": "Sun", "time": "Closed"}], "id": "4670100004", "name": "USPS COLLECTION BOX - PO LOBBY", "address": {"city": "ALBION", "state": "IN", "street": "123 S ORANGE ST", "postcode": "46701"}}},
{"geometry": {"type": "Point", "coordinates": [-85.4383079719, 41.370582496]}, "type": "Feature", "properties": {"collection_times": [{"days": "Mon-Sat", "time": "9:30am"}, {"days": "Sun", "time": "Closed"}], "id": "4670100005", "name": "USPS COLLECTION BOX - BLUE BOX", "address": {"city": "ALBION", "state": "IN", "street": "1445 S US 33", "postcode": "46701"}}},
{"geometry": {"type": "Point", "coordinates": [-85.6021575672, 40.8582994693]}, "type": "Feature", "properties": {"collection_times": [{"days": "Mon-Fri", "time": "4:15pm"}, {"days": "Sat", "time": "10:45am"}, {"days": "Sun", "time": "Closed"}], "id": "4670200001", "name": "USPS COLLECTION BOX - BLUE BOX", "address": {"city": "ANDREWS", "state": "IN", "street": "55 W JEFFERSON ST", "postcode": "46702"}}},
{"geometry": {"type": "Point", "coordinates": [-85.6021575672, 40.8582994693]}, "type": "Feature", "properties": {"collection_times": [{"days": "Mon-Fri", "time": "4:15pm"}, {"days": "Sat", "time": "10:45am"}, {"days": "Sun", "time": "Closed"}], "id": "4670200002", "name": "USPS COLLECTION BOX - PO LOBBY", "address": {"city": "ANDREWS", "state": "IN", "street": "55 W JEFFERSON ST", "postcode": "46702"}}},
{"geometry": {"type": "Point", "coordinates": [-84.9996217737, 41.6582821522]}, "type": "Feature", "properties": {"collection_times": [{"days": "Mon-Sat", "time": "2:45pm"}, {"days": "Sun", "time": "Closed"}], "id": "4670300003", "name": "USPS COLLECTION BOX - BLUE BOX", "address": {"city": "ANGOLA", "state": "IN", "street": "1801 N WAYNE ST", "postcode": "46703"}}},
{"geometry": {"type": "Point", "coordinates": [-84.9997987002, 41.6572569286]}, "type": "Feature", "properties": {"collection_times": [{"days": "Mon-Sat", "time": "4:45pm"}, {"days": "Sun", "time": "Closed"}], "id": "4670300006", "name": "USPS COLLECTION BOX - BLUE BOX", "address": {"city": "ANGOLA", "state": "IN", "street": "110 W HARCOURT RD", "postcode": "46703"}}},
{"geometry": {"type": "Point", "coordinates": [-84.9997987002, 41.6572569286]}, "type": "Feature", "properties": {"collection_times": [{"days": "Mon-Sat", "time": "4:45pm"}, {"days": "Sun", "time": "Closed"}], "id": "4670300008", "name": "USPS COLLECTION BOX - BLUE BOX", "address": {"city": "ANGOLA", "state": "IN", "street": "110 W HARCOURT RD", "postcode": "46703"}}},
{"geometry": {"type": "Point", "coordinates": [-84.9995069305, 41.6349876575]}, "type": "Feature", "properties": {"collection_times": [{"days": "Mon-Sat", "time": "2:30pm"}, {"days": "Sun", "time": "Closed"}], "id": "4670300011", "name": "USPS COLLECTION BOX - BLUE BOX", "address": {"city": "ANGOLA", "state": "IN", "street": "200 N PUBLIC SQ", "postcode": "46703"}}},
{"geometry": {"type": "Point", "coordinates": [-84.9994593923, 41.6574878743]}, "type": "Feature", "properties": {"collection_times": [{"days": "Mon-Sat", "time": "9:00am"}, {"days": "Sun", "time": "Closed"}], "id": "4670300013", "name": "USPS COLLECTION BOX - BLUE BOX", "address": {"city": "ANGOLA", "state": "IN", "street": "1700 N WAYNE ST", "postcode": "46703"}}},
{"geometry": {"type": "Point", "coordinates": [-85.0017041002, 41.634751236]}, "type": "Feature", "properties": {"collection_times": [{"days": "Mon-Sat", "time": "2:30pm"}, {"days": "Sun", "time": "Closed"}], "id": "4670300016", "name": "USPS COLLECTION BOX - BLUE BOX", "address": {"city": "ANGOLA", "state": "IN", "street": "309 W MAUMEE ST", "postcode": "46703"}}},
{"geometry": {"type": "Point", "coordinates": [-84.9981122628, 41.6349190953]}, "type": "Feature", "properties": {"collection_times": [{"days": "Mon-Sat", "time": "2:30pm"}, {"days": "Sun", "time": "Closed"}], "id": "4670300020", "name": "USPS COLLECTION BOX - BLUE BOX", "address": {"city": "ANGOLA", "state": "IN", "street": "201 E MAUMEE ST", "postcode": "46703"}}},
{"geometry": {"type": "Point", "coordinates": [-84.99916354, 41.6328929877]}, "type": "Feature", "properties": {"collection_times": [{"days": "Mon-Sat", "time": "2:30pm"}, {"days": "Sun", "time": "Closed"}], "id": "4670300021", "name": "USPS COLLECTION BOX - BLUE BOX", "address": {"city": "ANGOLA", "state": "IN", "street": "317 S WAYNE ST", "postcode": "46703"}}},
{"geometry": {"type": "Point", "coordinates": [-85.0125411893, 41.6522001123]}, "type": "Feature", "properties": {"collection_times": [{"days": "Mon-Sat", "time": "9:30am"}, {"days": "Sun", "time": "Closed"}], "id": "4670300024", "name": "USPS COLLECTION BOX - BLUE BOX", "address": {"city": "ANGOLA", "state": "IN", "street": "3040 W MAUMEE ST", "postcode": "46703"}}},
{"geometry": {"type": "Point", "coordinates": [-84.9998549216, 41.6656788485]}, "type": "Feature", "properties": {"collection_times": [{"days": "Mon-Sat", "time": "2:45pm"}, {"days": "Sun", "time": "Closed"}], "id": "4670300026", "name": "USPS COLLECTION BOX - BLUE BOX", "address": {"city": "ANGOLA", "state": "IN", "street": "100 GROWTH PKWY", "postcode": "46703"}}},
{"geometry": {"type": "Point", "coordinates": [-84.9996125045, 41.6714455076]}, "type": "Feature", "properties": {"collection_times": [{"days": "Mon-Sat", "time": "2:45pm"}, {"days": "Sun", "time": "Closed"}], "id": "4670300028", "name": "USPS COLLECTION BOX - BLUE BOX", "address": {"city": "ANGOLA", "state": "IN", "street": "2990 N WAYNE ST", "postcode": "46703"}}},
{"geometry": {"type": "Point", "coordinates": [-84.9997987002, 41.6572569286]}, "type": "Feature", "properties": {"collection_times": [{"days": "Mon-Sat", "time": "4:45pm"}, {"days": "Sun", "time": "Closed"}], "id": "4670300029", "name": "USPS COLLECTION BOX - PO LOBBY", "address": {"city": "ANGOLA", "state": "IN", "street": "110 W HARCOURT RD", "postcode": "46703"}}},
{"geometry": {"type": "Point", "coordinates": [-85.3059673933, 41.1038367704]}, "type": "Feature", "properties": {"collection_times": [{"days": "Mon-Fri", "time": "4:45pm"}, {"days": "Sat", "time": "9:45am"}, {"days": "Sun", "time": "Closed"}], "id": "4670400003", "name": "USPS COLLECTION BOX - BLUE BOX", "address": {"city": "ARCOLA", "state": "IN", "street": "11400 ARCOLA RD", "postcode": "46704"}}},
{"geometry": {"type": "Point", "coordinates": [-85.0658565121, 41.5270662982]}, "type": "Feature", "properties": {"collection_times": [{"days": "Mon-Fri", "time": "3:45pm"}, {"days": "Sat", "time": "10:00am"}, {"days": "Sun", "time": "Closed"}], "id": "4670500001", "name": "USPS COLLECTION BOX - BLUE BOX", "address": {"city": "ASHLEY", "state": "IN", "street": "114 W STATE ST", "postcode": "46705"}}},
{"geometry": {"type": "Point", "coordinates": [-85.0658565121, 41.5270662982]}, "type": "Feature", "properties": {"collection_times": [{"days": "Mon-Fri", "time": "4:00pm"}, {"days": "Sat", "time": "10:00am"}, {"days": "Sun", "time": "Closed"}], "id": "4670500002", "name": "USPS COLLECTION BOX - PO LOBBY", "address": {"city": "ASHLEY", "state": "IN", "street": "114 W STATE ST", "postcode": "46705"}}},
{"geometry": {"type": "Point", "coordinates": [-85.0762609744, 41.5270031516]}, "type": "Feature", "properties": {"collection_times": [{"days": "Mon-Sat", "time": "1:00pm"}, {"days": "Sun", "time": "Closed"}], "id": "4670500003", "name": "USPS COLLECTION BOX - BLUE BOX", "address": {"city": "ASHLEY", "state": "IN", "street": "700 W STATE ST", "postcode": "46705"}}},
{"geometry": {"type": "Point", "coordinates": [-85.0725653016, 41.3743372333]}, "type": "Feature", "properties": {"collection_times": [{"days": "Mon-Sat", "time": "12:00pm"}, {"days": "Sun", "time": "Closed"}], "id": "4670600008", "name": "USPS COLLECTION BOX - BLUE BOX", "address": {"city": "AUBURN", "state": "IN", "street": "1027 ANGELA AVE", "postcode": "46706"}}},
{"geometry": {"type": "Point", "coordinates": [-85.0786714872, 41.3632434501]}, "type": "Feature", "properties": {"collection_times": [{"days": "Mon-Sat", "time": "10:00am"}, {"days": "Sun", "time": "Closed"}], "id": "4670600010", "name": "USPS COLLECTION BOX - BLUE BOX", "address": {"city": "AUBURN", "state": "IN", "street": "505 TOURING DR", "postcode": "46706"}}},
{"geometry": {"type": "Point", "coordinates": [-85.0545386287, 41.3669311693]}, "type": "Feature", "properties": {"collection_times": [{"days": "Mon-Fri", "time": "5:00pm"}, {"days": "Sat", "time": "12:00pm"}, {"days": "Sun", "time": "Closed"}], "id": "4670600011", "name": "USPS COLLECTION BOX - BLUE BOX", "address": {"city": "AUBURN", "state": "IN", "street": "100 S CEDAR ST", "postcode": "46706"}}},
{"geometry": {"type": "Point", "coordinates": [-85.0571903687, 41.3663489987]}, "type": "Feature", "properties": {"collection_times": [{"days": "Mon-Sat", "time": "5:00pm"}, {"days": "Sun", "time": "Closed"}], "id": "4670600018", "name": "USPS COLLECTION BOX - PO LOBBY", "address": {"city": "AUBURN", "state": "IN", "street": "201 S JACKSON ST", "postcode": "46706"}}},
{"geometry": {"type": "Point", "coordinates": [-85.0571903687, 41.3663489987]}, "type": "Feature", "properties": {"collection_times": [{"days": "Mon-Sat", "time": "5:00pm"}, {"days": "Sun", "time": "Closed"}], "id": "4670600019", "name": "USPS COLLECTION BOX - PO LOBBY", "address": {"city": "AUBURN", "state": "IN", "street": "201 S JACKSON ST", "postcode": "46706"}}},
{"geometry": {"type": "Point", "coordinates": [-85.0719973124, 41.3666441381]}, "type": "Feature", "properties": {"collection_times": [{"days": "Mon-Sat", "time": "9:45am"}, {"days": "Sun", "time": "Closed"}], "id": "4670600020", "name": "USPS COLLECTION BOX - BLUE BOX", "address": {"city": "AUBURN", "state": "IN", "street": "1011 W 7TH ST", "postcode": "46706"}}},
{"geometry": {"type": "Point", "coordinates": [-85.0360937409, 41.3764881363]}, "type": "Feature", "properties": {"collection_times": [{"days": "Mon-Sat", "time": "10:00am"}, {"days": "Sun", "time": "Closed"}], "id": "4670600021", "name": "USPS COLLECTION BOX - BLUE BOX", "address": {"city": "AUBURN", "state": "IN", "street": "1000 ONTARIO LN", "postcode": "46706"}}},
{"geometry": {"type": "Point", "coordinates": [-85.0571903687, 41.3663489987]}, "type": "Feature", "properties": {"collection_times": [{"days": "Mon-Sat", "time": "5:00pm"}, {"days": "Sun", "time": "Closed"}], "id": "4670600022", "name": "USPS COLLECTION BOX - BLUE BOX", "address": {"city": "AUBURN", "state": "IN", "street": "201 S JACKSON ST", "postcode": "46706"}}},
{"geometry": {"type": "Point", "coordinates": [-85.2383552642, 41.3657959611]}, "type": "Feature", "properties": {"collection_times": [{"days": "Mon-Fri", "time": "4:30pm"}, {"days": "Sat", "time": "10:00am"}, {"days": "Sun", "time": "Closed"}], "id": "4671000001", "name": "USPS COLLECTION BOX - BLUE BOX", "address": {"city": "AVILLA", "state": "IN", "street": "227 E ALBION ST", "postcode": "46710"}}},
{"geometry": {"type": "Point", "coordinates": [-85.2383552642, 41.3657959611]}, "type": "Feature", "properties": {"collection_times": [{"days": "Mon-Fri", "time": "4:30pm"}, {"days": "Sat", "time": "10:00am"}, {"days": "Sun", "time": "Closed"}], "id": "4671000002", "name": "USPS COLLECTION BOX - PO LOBBY", "address": {"city": "AVILLA", "state": "IN", "street": "227 E ALBION ST", "postcode": "46710"}}},
{"geometry": {"type": "Point", "coordinates": [-85.2383552642, 41.3657959611]}, "type": "Feature", "properties": {"collection_times": [{"days": "Mon-Fri", "time": "4:30pm"}, {"days": "Sat", "time": "10:00am"}, {"days": "Sun", "time": "Closed"}], "id": "4671000003", "name": "USPS COLLECTION BOX - PO LOBBY", "address": {"city": "AVILLA", "state": "IN", "street": "227 E ALBION ST", "postcode": "46710"}}},
{"geometry": {"type": "Point", "coordinates": [-84.9517974897, 40.6578160634]}, "type": "Feature", "properties": {"collection_times": [{"days": "Mon-Fri", "time": "4:30pm"}, {"days": "Sat", "time": "3:30pm"}, {"days": "Sun", "time": "Closed"}], "id": "4671100002", "name": "USPS COLLECTION BOX - BLUE BOX", "address": {"city": "BERNE", "state": "IN", "street": "215 W MAIN ST", "postcode": "46711"}}},
{"geometry": {"type": "Point", "coordinates": [-84.9517974897, 40.6578160634]}, "type": "Feature", "properties": {"collection_times": [{"days": "Mon-Fri", "time": "4:30pm"}, {"days": "Sat", "time": "3:30pm"}, {"days": "Sun", "time": "Closed"}], "id": "4671100003", "name": "USPS COLLECTION BOX - BLUE BOX", "address": {"city": "BERNE", "state": "IN", "street": "215 W MAIN ST", "postcode": "46711"}}},
{"geometry": {"type": "Point", "coordinates": [-84.9556359082, 40.6662352336]}, "type": "Feature", "properties": {"collection_times": [{"days": "Mon-Sat", "time": "9:00am"}, {"days": "Sun", "time": "Closed"}], "id": "4671100004", "name": "USPS COLLECTION BOX - BLUE BOX", "address": {"city": "BERNE", "state": "IN", "street": "1056 US HIGHWAY 27 N", "postcode": "46711"}}},
{"geometry": {"type": "Point", "coordinates": [-84.9517974897, 40.6578160634]}, "type": "Feature", "properties": {"collection_times": [{"days": "Mon-Fri", "time": "4:30pm"}, {"days": "Sat", "time": "3:30pm"}, {"days": "Sun", "time": "Closed"}], "id": "4671100007", "name": "USPS COLLECTION BOX - PO LOBBY", "address": {"city": "BERNE", "state": "IN", "street": "215 W MAIN ST", "postcode": "46711"}}},
{"geometry": {"type": "Point", "coordinates": [-84.9517974897, 40.6578160634]}, "type": "Feature", "properties": {"collection_times": [{"days": "Mon-Fri", "time": "4:30pm"}, {"days": "Sat", "time": "3:30pm"}, {"days": "Sun", "time": "Closed"}], "id": "4671100008", "name": "USPS COLLECTION BOX - PO LOBBY", "address": {"city": "BERNE", "state": "IN", "street": "215 W MAIN ST", "postcode": "46711"}}},
{"geometry": {"type": "Point", "coordinates": [-85.1667459864, 40.7206482022]}, "type": "Feature", "properties": {"collection_times": [{"days": "Mon-Sat", "time": "1:00pm"}, {"days": "Sun", "time": "Closed"}], "id": "4671400002", "name": "USPS COLLECTION BOX - BLUE BOX", "address": {"city": "BLUFFTON", "state": "IN", "street": "1521 S HARRISON PLZ", "postcode": "46714"}}},
{"geometry": {"type": "Point", "coordinates": [-85.1671942069, 40.7529697337]}, "type": "Feature", "properties": {"collection_times": [{"days": "Mon-Sat", "time": "1:00pm"}, {"days": "Sun", "time": "Closed"}], "id": "4671400005", "name": "USPS COLLECTION BOX - BLUE BOX", "address": {"city": "BLUFFTON", "state": "IN", "street": "921 N MAIN ST", "postcode": "46714"}}},
{"geometry": {"type": "Point", "coordinates": [-85.1719744164, 40.7397381514]}, "type": "Feature", "properties": {"collection_times": [{"days": "Mon-Fri", "time": "2:00pm"}, {"days": "Sat", "time": "1:00pm"}, {"days": "Sun", "time": "Closed"}], "id": "4671400008", "name": "USPS COLLECTION BOX - BLUE BOX", "address": {"city": "BLUFFTON", "state": "IN", "street": "136 W MARKET ST", "postcode": "46714"}}},
{"geometry": {"type": "Point", "coordinates": [-85.1714907139, 40.7384240703]}, "type": "Feature", "properties": {"collection_times": [{"days": "Mon-Fri", "time": "5:00pm"}, {"days": "Sat", "time": "3:00pm"}, {"days": "Sun", "time": "Closed"}], "id": "4671400012", "name": "USPS COLLECTION BOX - BLUE BOX", "address": {"city": "BLUFFTON", "state": "IN", "street": "205 S MAIN ST", "postcode": "46714"}}},
{"geometry": {"type": "Point", "coordinates": [-85.1713477127, 40.7292258711]}, "type": "Feature", "properties": {"collection_times": [{"days": "Mon-Fri", "time": "2:00pm"}, {"days": "Sat", "time": "1:00pm"}, {"days": "Sun", "time": "Closed"}], "id": "4671400016", "name": "USPS COLLECTION BOX - BLUE BOX", "address": {"city": "BLUFFTON", "state": "IN", "street": "100 W HORTON ST", "postcode": "46714"}}},
{"geometry": {"type": "Point", "coordinates": [-85.1714907139, 40.7384240703]}, "type": "Feature", "properties": {"collection_times": [{"days": "Mon-Fri", "time": "5:00pm"}, {"days": "Sat", "time": "3:00pm"}, {"days": "Sun", "time": "Closed"}], "id": "4671400017", "name": "USPS COLLECTION BOX - PO LOBBY", "address": {"city": "BLUFFTON", "state": "IN", "street": "205 S MAIN ST", "postcode": "46714"}}},
{"geometry": {"type": "Point", "coordinates": [-85.1659216074, 40.7731739185]}, "type": "Feature", "properties": {"collection_times": [{"days": "Mon-Sat", "time": "11:30am"}, {"days": "Sun", "time": "Closed"}], "id": "4671400018", "name": "USPS COLLECTION BOX - BLUE BOX", "address": {"city": "BLUFFTON", "state": "IN", "street": "2100 N MAIN ST", "postcode": "46714"}}},
{"geometry": {"type": "Point", "coordinates": [-84.8664662167, 41.4365501953]}, "type": "Feature", "properties": {"collection_times": [{"days": "Mon-Sat", "time": "9:30am"}, {"days": "Sun", "time": "Closed"}], "id": "4672100001", "name": "USPS COLLECTION BOX - BLUE BOX", "address": {"city": "BUTLER", "state": "IN", "street": "104 N IVY LN", "postcode": "46721"}}},
{"geometry": {"type": "Point", "coordinates": [-84.8770767883, 41.427873757]}, "type": "Feature", "properties": {"collection_times": [{"days": "Mon-Sat", "time": "12:30pm"}, {"days": "Sun", "time": "Closed"}], "id": "4672100007", "name": "USPS COLLECTION BOX - BLUE BOX", "address": {"city": "BUTLER", "state": "IN", "street": "301 DEPOT ST", "postcode": "46721"}}},
{"geometry": {"type": "Point", "coordinates": [-84.8714072322, 41.429371195]}, "type": "Feature", "properties": {"collection_times": [{"days": "Mon-Sat", "time": "1:30pm"}, {"days": "Sun", "time": "Closed"}], "id": "4672100011", "name": "USPS COLLECTION BOX - BLUE BOX", "address": {"city": "BUTLER", "state": "IN", "street": "136 S BROADWAY ST", "postcode": "46721"}}},
{"geometry": {"type": "Point", "coordinates": [-84.8712713173, 41.4299079485]}, "type": "Feature", "properties": {"collection_times": [{"days": "Mon-Fri", "time": "3:45pm"}, {"days": "Sat", "time": "3:00pm"}, {"days": "Sun", "time": "Closed"}], "id": "4672100012", "name": "USPS COLLECTION BOX - BLUE BOX", "address": {"city": "BUTLER", "state": "IN", "street": "119 N BROADWAY ST", "postcode": "46721"}}},
{"geometry": {"type": "Point", "coordinates": [-84.8712713173, 41.4299079485]}, "type": "Feature", "properties": {"collection_times": [{"days": "Mon-Fri", "time": "3:45pm"}, {"days": "Sat", "time": "3:00pm"}, {"days": "Sun", "time": "Closed"}], "id": "4672100013", "name": "USPS COLLECTION BOX - BLUE BOX", "address": {"city": "BUTLER", "state": "IN", "street": "119 N BROADWAY ST", "postcode": "46721"}}},
{"geometry": {"type": "Point", "coordinates": [-84.8712713173, 41.4299079485]}, "type": "Feature", "properties": {"collection_times": [{"days": "Mon-Fri", "time": "4:00pm"}, {"days": "Sat", "time": "3:00pm"}, {"days": "Sun", "time": "Closed"}], "id": "4672100014", "name": "USPS COLLECTION BOX - PO LOBBY", "address": {"city": "BUTLER", "state": "IN", "street": "119 N BROADWAY ST", "postcode": "46721"}}},
{"geometry": {"type": "Point", "coordinates": [-85.3219356896, 41.2368823317]}, "type": "Feature", "properties": {"collection_times": [{"days": "Mon-Fri", "time": "4:30pm"}, {"days": "Sat", "time": "11:00am"}, {"days": "Sun", "time": "Closed"}], "id": "4672300004", "name": "USPS COLLECTION BOX - BLUE BOX", "address": {"city": "CHURUBUSCO", "state": "IN", "street": "123 S MAIN ST", "postcode": "46723"}}},
{"geometry": {"type": "Point", "coordinates": [-85.3191636526, 41.2304978785]}, "type": "Feature", "properties": {"collection_times": [{"days": "Mon-Fri", "time": "4:30pm"}, {"days": "Sat", "time": "11:00am"}, {"days": "Sun", "time": "Closed"}], "id": "4672300007", "name": "USPS COLLECTION BOX - PO LOBBY", "address": {"city": "CHURUBUSCO", "state": "IN", "street": "123 S MAIN ST", "postcode": "46723"}}},
{"geometry": {"type": "Point", "coordinates": [-85.4929612154, 41.170441159]}, "type": "Feature", "properties": {"collection_times": [{"days": "Mon-Sat", "time": "9:30am"}, {"days": "Sun", "time": "Closed"}], "id": "4672500001", "name": "USPS COLLECTION BOX - BLUE BOX", "address": {"city": "COLUMBIA CITY", "state": "IN", "street": "402 W PLAZA DR", "postcode": "46725"}}},
{"geometry": {"type": "Point", "coordinates": [-85.4813756664, 41.1646726853]}, "type": "Feature", "properties": {"collection_times": [{"days": "Mon-Sat", "time": "9:30am"}, {"days": "Sun", "time": "Closed"}], "id": "4672500004", "name": "USPS COLLECTION BOX - BLUE BOX", "address": {"city": "COLUMBIA CITY", "state": "IN", "street": "631 COUNTRY SIDE DR", "postcode": "46725"}}},
{"geometry": {"type": "Point", "coordinates": [-85.4915328928, 41.1651366315]}, "type": "Feature", "properties": {"collection_times": [{"days": "Mon-Sat", "time": "10:00am"}, {"days": "Sun", "time": "Closed"}], "id": "4672500006", "name": "USPS COLLECTION BOX - BLUE BOX", "address": {"city": "COLUMBIA CITY", "state": "IN", "street": "535 N LINE ST", "postcode": "46725"}}},
{"geometry": {"type": "Point", "coordinates": [-85.4813756664, 41.1646726853]}, "type": "Feature", "properties": {"collection_times": [{"days": "Mon-Sat", "time": "5:00pm"}, {"days": "Sun", "time": "Closed"}], "id": "4672500018", "name": "USPS COLLECTION BOX - BLUE BOX", "address": {"city": "COLUMBIA CITY", "state": "IN", "street": "115 N CHAUNCEY ST", "postcode": "46725"}}},
{"geometry": {"type": "Point", "coordinates": [-85.4899410835, 41.1572095442]}, "type": "Feature", "properties": {"collection_times": [{"days": "Mon-Sat", "time": "5:00pm"}, {"days": "Sun", "time": "Closed"}], "id": "4672500019", "name": "USPS COLLECTION BOX - BLUE BOX", "address": {"city": "COLUMBIA CITY", "state": "IN", "street": "115 N CHAUNCEY ST", "postcode": "46725"}}},
{"geometry": {"type": "Point", "coordinates": [-85.4899410835, 41.1572095442]}, "type": "Feature", "properties": {"collection_times": [{"days": "Mon-Sat", "time": "5:00pm"}, {"days": "Sun", "time": "Closed"}], "id": "4672500020", "name": "USPS COLLECTION BOX - BLUE BOX", "address": {"city": "COLUMBIA CITY", "state": "IN", "street": "115 N CHAUNCEY ST", "postcode": "46725"}}},
{"geometry": {"type": "Point", "coordinates": [-85.4899410835, 41.1572095442]}, "type": "Feature", "properties": {"collection_times": [{"days": "Mon-Sat", "time": "5:00pm"}, {"days": "Sun", "time": "Closed"}], "id": "4672500021", "name": "USPS COLLECTION BOX - BLUE BOX", "address": {"city": "COLUMBIA CITY", "state": "IN", "street": "115 N CHAUNCEY ST", "postcode": "46725"}}},
{"geometry": {"type": "Point", "coordinates": [-85.4899410835, 41.1572095442]}, "type": "Feature", "properties": {"collection_times": [{"days": "Mon-Sat", "time": "5:00pm"}, {"days": "Sun", "time": "Closed"}], "id": "4672500022", "name": "USPS COLLECTION BOX - PO LOBBY", "address": {"city": "COLUMBIA CITY", "state": "IN", "street": "115 N CHAUNCEY ST", "postcode": "46725"}}},
{"geometry": {"type": "Point", "coordinates": [-85.4813756664, 41.1646726853]}, "type": "Feature", "properties": {"collection_times": [{"days": "Mon-Sat", "time": "10:00am"}, {"days": "Sun", "time": "Closed"}], "id": "4672500024", "name": "USPS COLLECTION BOX - BLUE BOX", "address": {"city": "COLUMBIA CITY", "state": "IN", "street": "5126 W COUNTY LINE RD N", "postcode": "46725"}}},
{"geometry": {"type": "Point", "coordinates": [-85.1473434359, 41.4361890856]}, "type": "Feature", "properties": {"collection_times": [{"days": "Mon-Fri", "time": "3:45pm"}, {"days": "Sat", "time": "10:00am"}, {"days": "Sun", "time": "Closed"}], "id": "4673000001", "name": "USPS COLLECTION BOX - BLUE BOX", "address": {"city": "CORUNNA", "state": "IN", "street": "104 N BRIDGE ST", "postcode": "46730"}}},
{"geometry": {"type": "Point", "coordinates": [-85.1473434359, 41.4361890856]}, "type": "Feature", "properties": {"collection_times": [{"days": "Mon-Fri", "time": "11:15am"}, {"days": "Sat", "time": "10:00am"}, {"days": "Sun", "time": "Closed"}], "id": "4673000002", "name": "USPS COLLECTION BOX - PO LOBBY", "address": {"city": "CORUNNA", "state": "IN", "street": "104 N BRIDGE ST", "postcode": "46730"}}},
{"geometry": {"type": "Point", "coordinates": [-85.1563084249, 41.445620741]}, "type": "Feature", "properties": {"collection_times": [{"days": "Mon-Sat", "time": "11:00am"}, {"days": "Sun", "time": "Closed"}], "id": "4673000003", "name": "USPS COLLECTION BOX - BLUE BOX", "address": {"city": "CORUNNA", "state": "IN", "street": "200 N BRIDGE ST", "postcode": "46730"}}},
{"geometry": {"type": "Point", "coordinates": [-85.0905423658, 40.7775233158]}, "type": "Feature", "properties": {"collection_times": [{"days": "Mon-Fri", "time": "3:45pm"}, {"days": "Sat", "time": "10:45am"}, {"days": "Sun", "time": "Closed"}], "id": "4673100000", "name": "USPS COLLECTION BOX - BLUE BOX", "address": {"city": "CRAIGVILLE", "state": "IN", "street": "2381 N MAIN ST", "postcode": "46731"}}},
{"geometry": {"type": "Point", "coordinates": [-85.0905423658, 40.7775233158]}, "type": "Feature", "properties": {"collection_times": [{"days": "Mon-Fri", "time": "11:45am"}, {"days": "Sat", "time": "10:45am"}, {"days": "Sun", "time": "Closed"}], "id": "4673100001", "name": "USPS COLLECTION BOX - PO LOBBY", "address": {"city": "CRAIGVILLE", "state": "IN", "street": "2381 N MAIN ST", "postcode": "46731"}}},
{"geometry": {"type": "Point", "coordinates": [-85.6152465002, 41.4012987448]}, "type": "Feature", "properties": {"collection_times": [{"days": "Mon-Fri", "time": "4:15pm"}, {"days": "Sat", "time": "12:00pm"}, {"days": "Sun", "time": "Closed"}], "id": "4673200000", "name": "USPS COLLECTION BOX - BLUE BOX", "address": {"city": "CROMWELL", "state": "IN", "street": "117 N JEFFERSON ST", "postcode": "46732"}}},
{"geometry": {"type": "Point", "coordinates": [-85.6152465002, 41.4012987448]}, "type": "Feature", "properties": {"collection_times": [{"days": "Mon-Fri", "time": "3:45pm"}, {"days": "Sat", "time": "12:00pm"}, {"days": "Sun", "time": "Closed"}], "id": "4673200001", "name": "USPS COLLECTION BOX - PO LOBBY", "address": {"city": "CROMWELL", "state": "IN", "street": "117 N JEFFERSON ST", "postcode": "46732"}}},
{"geometry": {"type": "Point", "coordinates": [-85.661615204, 41.4090404221]}, "type": "Feature", "properties": {"collection_times": [{"days": "Mon-Sat", "time": "10:00am"}, {"days": "Sun", "time": "Closed"}], "id": "4673200002", "name": "USPS COLLECTION BOX - BLUE BOX", "address": {"city": "CROMWELL", "state": "IN", "street": "9720 E KING ARTHURS TRL", "postcode": "46732"}}},
{"geometry": {"type": "Point", "coordinates": [-84.937432819, 40.8194697719]}, "type": "Feature", "properties": {"collection_times": [{"days": "Mon-Sat", "time": "12:00pm"}, {"days": "Sun", "time": "Closed"}], "id": "4673300001", "name": "USPS COLLECTION BOX - BLUE BOX", "address": {"city": "DECATUR", "state": "IN", "street": "929 S 13TH ST", "postcode": "46733"}}},
{"geometry": {"type": "Point", "coordinates": [-84.9377155462, 40.8341479268]}, "type": "Feature", "properties": {"collection_times": [{"days": "Mon-Sat", "time": "12:00pm"}, {"days": "Sun", "time": "Closed"}], "id": "4673300003", "name": "USPS COLLECTION BOX - BLUE BOX", "address": {"city": "DECATUR", "state": "IN", "street": "520 N 13TH ST", "postcode": "46733"}}},
{"geometry": {"type": "Point", "coordinates": [-84.9202412463, 40.831886052]}, "type": "Feature", "properties": {"collection_times": [{"days": "Mon-Sat", "time": "12:00pm"}, {"days": "Sun", "time": "Closed"}], "id": "4673300008", "name": "USPS COLLECTION BOX - BLUE BOX", "address": {"city": "DECATUR", "state": "IN", "street": "210 E MONROE ST", "postcode": "46733"}}},
{"geometry": {"type": "Point", "coordinates": [-84.9248591481, 40.8294018954]}, "type": "Feature", "properties": {"collection_times": [{"days": "Mon-Fri", "time": "4:30pm"}, {"days": "Sat", "time": "3:30pm"}, {"days": "Sun", "time": "Closed"}], "id": "4673300009", "name": "USPS COLLECTION BOX - BLUE BOX", "address": {"city": "DECATUR", "state": "IN", "street": "213 COURT ST", "postcode": "46733"}}},
{"geometry": {"type": "Point", "coordinates": [-84.9248591481, 40.8294018954]}, "type": "Feature", "properties": {"collection_times": [{"days": "Mon-Fri", "time": "4:30pm"}, {"days": "Sat", "time": "3:30pm"}, {"days": "Sun", "time": "Closed"}], "id": "4673300017", "name": "USPS COLLECTION BOX - PO LOBBY", "address": {"city": "DECATUR", "state": "IN", "street": "213 COURT ST", "postcode": "46733"}}},
{"geometry": {"type": "Point", "coordinates": [-84.9351968849, 41.7308147582]}, "type": "Feature", "properties": {"collection_times": [{"days": "Mon-Fri", "time": "4:15pm"}, {"days": "Sat", "time": "11:30am"}, {"days": "Sun", "time": "Closed"}], "id": "4673700003", "name": "USPS COLLECTION BOX - BLUE BOX", "address": {"city": "FREMONT", "state": "IN", "street": "104 N COFFIN ST", "postcode": "46737"}}},
{"geometry": {"type": "Point", "coordinates": [-85.0033466587, 41.7297571429]}, "type": "Feature", "properties": {"collection_times": [{"days": "Mon-Fri", "time": "10:30am"}, {"days": "Sat-Sun", "time": "Closed"}], "id": "4673700004", "name": "USPS COLLECTION BOX - BLUE BOX", "address": {"city": "FREMONT", "state": "IN", "street": "655 W STATE ROAD 120", "postcode": "46737"}}},
{"geometry": {"type": "Point", "coordinates": [-84.9867918606, 41.7500916356]}, "type": "Feature", "properties": {"collection_times": [{"days": "Mon-Fri", "time": "10:00am"}, {"days": "Sat-Sun", "time": "Closed"}], "id": "4673700005", "name": "USPS COLLECTION BOX - BLUE BOX", "address": {"city": "FREMONT", "state": "IN", "street": "7265 N BAKER RD", "postcode": "46737"}}},
{"geometry": {"type": "Point", "coordinates": [-84.9351968849, 41.7308147582]}, "type": "Feature", "properties": {"collection_times": [{"days": "Mon-Fri", "time": "4:30pm"}, {"days": "Sat", "time": "11:30am"}, {"days": "Sun", "time": "Closed"}], "id": "4673700006", "name": "USPS COLLECTION BOX - PO LOBBY", "address": {"city": "FREMONT", "state": "IN", "street": "104 N COFFIN ST", "postcode": "46737"}}},
{"geometry": {"type": "Point", "coordinates": [-85.0003694126, 41.7408866378]}, "type": "Feature", "properties": {"collection_times": [{"days": "Mon-Fri", "time": "10:00am"}, {"days": "Sat-Sun", "time": "Closed"}], "id": "4673700007", "name": "USPS COLLECTION BOX - BLUE BOX", "address": {"city": "FREMONT", "state": "IN", "street": "6900 N OLD 27", "postcode": "46737"}}},
{"geometry": {"type": "Point", "coordinates": [-84.9328767716, 41.7306714669]}, "type": "Feature", "properties": {"collection_times": [{"days": "Mon-Sat", "time": "11:00am"}, {"days": "Sun", "time": "Closed"}], "id": "4673700008", "name": "USPS COLLECTION BOX - BLUE BOX", "address": {"city": "FREMONT", "state": "IN", "street": "104 S WAYNE ST", "postcode": "46737"}}},
{"geometry": {"type": "Point", "coordinates": [-85.1355546635, 41.3493572755]}, "type": "Feature", "properties": {"collection_times": [{"days": "Mon-Fri", "time": "12:00pm"}, {"days": "Sat-Sun", "time": "Closed"}], "id": "4673800002", "name": "USPS COLLECTION BOX - BLUE BOX", "address": {"city": "GARRETT", "state": "IN", "street": "201 S RANDOLPH ST", "postcode": "46738"}}},
{"geometry": {"type": "Point", "coordinates": [-85.1381069719, 41.3484333604]}, "type": "Feature", "properties": {"collection_times": [{"days": "Mon-Sat", "time": "12:00pm"}, {"days": "Sun", "time": "Closed"}], "id": "4673800010", "name": "USPS COLLECTION BOX - BLUE BOX", "address": {"city": "GARRETT", "state": "IN", "street": "300 W HOUSTON ST", "postcode": "46738"}}},
{"geometry": {"type": "Point", "coordinates": [-85.1345285845, 41.3201346416]}, "type": "Feature", "properties": {"collection_times": [{"days": "Mon-Sat", "time": "10:00am"}, {"days": "Sun", "time": "Closed"}], "id": "4673800012", "name": "USPS COLLECTION BOX - BLUE BOX", "address": {"city": "GARRETT", "state": "IN", "street": "5760 COUNTY ROAD 327", "postcode": "46738"}}},
{"geometry": {"type": "Point", "coordinates": [-85.135829449, 41.3493301826]}, "type": "Feature", "properties": {"collection_times": [{"days": "Mon-Fri", "time": "4:00pm"}, {"days": "Sat", "time": "3:30pm"}, {"days": "Sun", "time": "Closed"}], "id": "4673800013", "name": "USPS COLLECTION BOX - BLUE BOX", "address": {"city": "GARRETT", "state": "IN", "street": "115 W KEYSER ST", "postcode": "46738"}}},
{"geometry": {"type": "Point", "coordinates": [-85.135829449, 41.3493301826]}, "type": "Feature", "properties": {"collection_times": [{"days": "Mon-Fri", "time": "4:00pm"}, {"days": "Sat", "time": "3:30pm"}, {"days": "Sun", "time": "Closed"}], "id": "4673800014", "name": "USPS COLLECTION BOX - BLUE BOX", "address": {"city": "GARRETT", "state": "IN", "street": "115 W KEYSER ST", "postcode": "46738"}}},
{"geometry": {"type": "Point", "coordinates": [-85.135829449, 41.3493301826]}, "type": "Feature", "properties": {"collection_times": [{"days": "Mon-Fri", "time": "4:00pm"}, {"days": "Sat", "time": "3:30pm"}, {"days": "Sun", "time": "Closed"}], "id": "4673800015", "name": "USPS COLLECTION BOX - BLUE BOX", "address": {"city": "GARRETT", "state": "IN", "street": "115 W KEYSER ST", "postcode": "46738"}}},
{"geometry": {"type": "Point", "coordinates": [-85.135829449, 41.3493301826]}, "type": "Feature", "properties": {"collection_times": [{"days": "Mon-Fri", "time": "4:00pm"}, {"days": "Sat", "time": "3:30pm"}, {"days": "Sun", "time": "Closed"}], "id": "4673800017", "name": "USPS COLLECTION BOX - PO LOBBY", "address": {"city": "GARRETT", "state": "IN", "street": "115 W KEYSER ST", "postcode": "46738"}}},
{"geometry": {"type": "Point", "coordinates": [-84.9589543914, 40.5920210688]}, "type": "Feature", "properties": {"collection_times": [{"days": "Mon-Fri", "time": "9:00am"}, {"days": "Sat-Sun", "time": "Closed"}], "id": "4674000000", "name": "USPS COLLECTION BOX - BLUE BOX", "address": {"city": "GENEVA", "state": "IN", "street": "215 E LINE ST", "postcode": "46740"}}},
{"geometry": {"type": "Point", "coordinates": [-84.9608294977, 40.5924416019]}, "type": "Feature", "properties": {"collection_times": [{"days": "Mon-Fri", "time": "4:00pm"}, {"days": "Sat", "time": "11:15am"}, {"days": "Sun", "time": "Closed"}], "id": "4674000004", "name": "USPS COLLECTION BOX - PO LOBBY", "address": {"city": "GENEVA", "state": "IN", "street": "414 E LINE ST", "postcode": "46740"}}},
{"geometry": {"type": "Point", "coordinates": [-84.9682761081, 41.2085272311]}, "type": "Feature", "properties": {"collection_times": [{"days": "Mon-Fri", "time": "4:00pm"}, {"days": "Sat", "time": "10:15am"}, {"days": "Sun", "time": "Closed"}], "id": "4674100001", "name": "USPS COLLECTION BOX - BLUE BOX", "address": {"city": "GRABILL", "state": "IN", "street": "13716 3RD ST", "postcode": "46741"}}},
{"geometry": {"type": "Point", "coordinates": [-84.9682761081, 41.2085272311]}, "type": "Feature", "properties": {"collection_times": [{"days": "Mon-Fri", "time": "4:00pm"}, {"days": "Sat", "time": "10:15am"}, {"days": "Sun", "time": "Closed"}], "id": "4674100002", "name": "USPS COLLECTION BOX - PO LOBBY", "address": {"city": "GRABILL", "state": "IN", "street": "13716 3RD ST", "postcode": "46741"}}},
{"geometry": {"type": "Point", "coordinates": [-84.9606788973, 41.2111338292]}, "type": "Feature", "properties": {"collection_times": [{"days": "Mon-Fri", "time": "12:30pm"}, {"days": "Sat", "time": "12:00pm"}, {"days": "Sun", "time": "Closed"}], "id": "4674100003", "name": "USPS COLLECTION BOX - BLUE BOX", "address": {"city": "GRABILL", "state": "IN", "street": "13534 MAIN ST", "postcode": "46741"}}},
{"geometry": {"type": "Point", "coordinates": [-84.9195820312, 41.5350973729]}, "type": "Feature", "properties": {"collection_times": [{"days": "Mon-Fri", "time": "4:00pm"}, {"days": "Sat", "time": "11:00am"}, {"days": "Sun", "time": "Closed"}], "id": "4674200001", "name": "USPS COLLECTION BOX - BLUE BOX", "address": {"city": "HAMILTON", "state": "IN", "street": "3900 E BELLEFONTAINE RD", "postcode": "46742"}}},
{"geometry": {"type": "Point", "coordinates": [-84.9195820312, 41.5350973729]}, "type": "Feature", "properties": {"collection_times": [{"days": "Mon-Fri", "time": "3:45pm"}, {"days": "Sat", "time": "11:00am"}, {"days": "Sun", "time": "Closed"}], "id": "4674200002", "name": "USPS COLLECTION BOX - PO LOBBY", "address": {"city": "HAMILTON", "state": "IN", "street": "3900 E BELLEFONTAINE RD", "postcode": "46742"}}},
{"geometry": {"type": "Point", "coordinates": [-84.9199782595, 41.1967473258]}, "type": "Feature", "properties": {"collection_times": [{"days": "Mon-Fri", "time": "4:00pm"}, {"days": "Sat", "time": "11:00am"}, {"days": "Sun", "time": "Closed"}], "id": "4674300001", "name": "USPS COLLECTION BOX - BLUE BOX", "address": {"city": "HARLAN", "state": "IN", "street": "11927 WATER ST", "postcode": "46743"}}},
{"geometry": {"type": "Point", "coordinates": [-84.9199782595, 41.1967473258]}, "type": "Feature", "properties": {"collection_times": [{"days": "Mon-Fri", "time": "2:45pm"}, {"days": "Sat", "time": "11:00am"}, {"days": "Sun", "time": "Closed"}], "id": "4674300002", "name": "USPS COLLECTION BOX - PO LOBBY", "address": {"city": "HARLAN", "state": "IN", "street": "11927 WATER ST", "postcode": "46743"}}},
{"geometry": {"type": "Point", "coordinates": [-84.9973952413, 40.9481071875]}, "type": "Feature", "properties": {"collection_times": [{"days": "Mon-Fri", "time": "3:30pm"}, {"days": "Sat", "time": "10:30am"}, {"days": "Sun", "time": "Closed"}], "id": "4674500001", "name": "USPS COLLECTION BOX - BLUE BOX", "address": {"city": "HOAGLAND", "state": "IN", "street": "10811 HOAGLAND RD", "postcode": "46745"}}},
{"geometry": {"type": "Point", "coordinates": [-84.9973952413, 40.9481071875]}, "type": "Feature", "properties": {"collection_times": [{"days": "Mon-Fri", "time": "3:30pm"}, {"days": "Sat", "time": "10:30am"}, {"days": "Sun", "time": "Closed"}], "id": "4674500002", "name": "USPS COLLECTION BOX - PO LOBBY", "address": {"city": "HOAGLAND", "state": "IN", "street": "10811 HOAGLAND RD", "postcode": "46745"}}},
{"geometry": {"type": "Point", "coordinates": [-85.4231693254, 41.7202514972]}, "type": "Feature", "properties": {"collection_times": [{"days": "Mon-Fri", "time": "4:00pm"}, {"days": "Sat", "time": "11:00am"}, {"days": "Sun", "time": "Closed"}], "id": "4674600001", "name": "USPS COLLECTION BOX - BLUE BOX", "address": {"city": "HOWE", "state": "IN", "street": "404 DEFIANCE ST", "postcode": "46746"}}},
{"geometry": {"type": "Point", "coordinates": [-85.3789769218, 41.7238835832]}, "type": "Feature", "properties": {"collection_times": [{"days": "Mon-Fri", "time": "12:00pm"}, {"days": "Sat-Sun", "time": "Closed"}], "id": "4674600002", "name": "USPS COLLECTION BOX - BLUE BOX", "address": {"city": "HOWE", "state": "IN", "street": "7065 N 475 E", "postcode": "46746"}}},
{"geometry": {"type": "Point", "coordinates": [-85.3789769218, 41.7238835832]}, "type": "Feature", "properties": {"collection_times": [{"days": "Mon-Fri", "time": "11:00am"}, {"days": "Sat-Sun", "time": "Closed"}], "id": "4674600003", "name": "USPS COLLECTION BOX - BLUE BOX", "address": {"city": "HOWE", "state": "IN", "street": "5000 E 750 N", "postcode": "46746"}}},
{"geometry": {"type": "Point", "coordinates": [-85.4231693254, 41.7202514972]}, "type": "Feature", "properties": {"collection_times": [{"days": "Mon-Fri", "time": "4:15pm"}, {"days": "Sat", "time": "11:00am"}, {"days": "Sun", "time": "Closed"}], "id": "4674600004", "name": "USPS COLLECTION BOX - PO LOBBY", "address": {"city": "HOWE", "state": "IN", "street": "404 DEFIANCE ST", "postcode": "46746"}}},
{"geometry": {"type": "Point", "coordinates": [-85.0809445209, 41.5377434182]}, "type": "Feature", "properties": {"collection_times": [{"days": "Mon-Fri", "time": "4:00pm"}, {"days": "Sat", "time": "11:00am"}, {"days": "Sun", "time": "Closed"}], "id": "4674700000", "name": "USPS COLLECTION BOX - BLUE BOX", "address": {"city": "HUDSON", "state": "IN", "street": "318 N MAIN ST", "postcode": "46747"}}},
{"geometry": {"type": "Point", "coordinates": [-85.1710304238, 41.5306899454]}, "type": "Feature", "properties": {"collection_times": [{"days": "Mon-Fri", "time": "10:00am"}, {"days": "Sat-Sun", "time": "Closed"}], "id": "4674700001", "name": "USPS COLLECTION BOX - BLUE BOX", "address": {"city": "HUDSON", "state": "IN", "street": "9640 W 772 S", "postcode": "46747"}}},
{"geometry": {"type": "Point", "coordinates": [-85.0809445209, 41.5377434182]}, "type": "Feature", "properties": {"collection_times": [{"days": "Mon-Fri", "time": "2:00pm"}, {"days": "Sat", "time": "11:00am"}, {"days": "Sun", "time": "Closed"}], "id": "4674700002", "name": "USPS COLLECTION BOX - PO LOBBY", "address": {"city": "HUDSON", "state": "IN", "street": "318 N MAIN ST", "postcode": "46747"}}},
{"geometry": {"type": "Point", "coordinates": [-85.1721602687, 41.2302865783]}, "type": "Feature", "properties": {"collection_times": [{"days": "Mon-Fri", "time": "5:00pm"}, {"days": "Sat", "time": "11:00am"}, {"days": "Sun", "time": "Closed"}], "id": "4674800000", "name": "USPS COLLECTION BOX - BLUE BOX", "address": {"city": "HUNTERTOWN", "state": "IN", "street": "15741 LIMA RD", "postcode": "46748"}}},
{"geometry": {"type": "Point", "coordinates": [-85.1721602687, 41.2302865783]}, "type": "Feature", "properties": {"collection_times": [{"days": "Mon-Fri", "time": "5:00pm"}, {"days": "Sat", "time": "11:00am"}, {"days": "Sun", "time": "Closed"}], "id": "4674800001", "name": "USPS COLLECTION BOX - PO LOBBY", "address": {"city": "HUNTERTOWN", "state": "IN", "street": "15741 LIMA RD", "postcode": "46748"}}},
{"geometry": {"type": "Point", "coordinates": [-85.4982473227, 40.8836507646]}, "type": "Feature", "properties": {"collection_times": [{"days": "Mon-Fri", "time": "5:00pm"}, {"days": "Sat", "time": "4:45pm"}, {"days": "Sun", "time": "Closed"}], "id": "4675000001", "name": "USPS COLLECTION BOX - PO LOBBY", "address": {"city": "HUNTINGTON", "state": "IN", "street": "330 W MARKET ST", "postcode": "46750"}}},
{"geometry": {"type": "Point", "coordinates": [-85.4982473227, 40.8836507646]}, "type": "Feature", "properties": {"collection_times": [{"days": "Mon-Fri", "time": "5:00pm"}, {"days": "Sat", "time": "4:45pm"}, {"days": "Sun", "time": "Closed"}], "id": "4675000003", "name": "USPS COLLECTION BOX - BLUE BOX", "address": {"city": "HUNTINGTON", "state": "IN", "street": "330 W MARKET ST", "postcode": "46750"}}},
{"geometry": {"type": "Point", "coordinates": [-85.4933170662, 40.881648461]}, "type": "Feature", "properties": {"collection_times": [{"days": "Mon-Sat", "time": "1:00pm"}, {"days": "Sun", "time": "Closed"}], "id": "4675000005", "name": "USPS COLLECTION BOX - BLUE BOX", "address": {"city": "HUNTINGTON", "state": "IN", "street": "48 E FRANKLIN ST", "postcode": "46750"}}},
{"geometry": {"type": "Point", "coordinates": [-85.5061427073, 40.8935987125]}, "type": "Feature", "properties": {"collection_times": [{"days": "Mon-Sat", "time": "10:00am"}, {"days": "Sun", "time": "Closed"}], "id": "4675000007", "name": "USPS COLLECTION BOX - BLUE BOX", "address": {"city": "HUNTINGTON", "state": "IN", "street": "2028 N JEFFERSON ST", "postcode": "46750"}}},
{"geometry": {"type": "Point", "coordinates": [-85.4838415649, 40.871272728]}, "type": "Feature", "properties": {"collection_times": [{"days": "Mon-Sat", "time": "9:30am"}, {"days": "Sun", "time": "Closed"}], "id": "4675000008", "name": "USPS COLLECTION BOX - BLUE BOX", "address": {"city": "HUNTINGTON", "state": "IN", "street": "1229 S JEFFERSON ST", "postcode": "46750"}}},
{"geometry": {"type": "Point", "coordinates": [-85.4939168264, 40.8808073772]}, "type": "Feature", "properties": {"collection_times": [{"days": "Mon-Sat", "time": "9:30am"}, {"days": "Sun", "time": "Closed"}], "id": "4675000012", "name": "USPS COLLECTION BOX - BLUE BOX", "address": {"city": "HUNTINGTON", "state": "IN", "street": "201 N JEFFERSON ST", "postcode": "46750"}}},
{"geometry": {"type": "Point", "coordinates": [-85.4965962285, 40.8965135234]}, "type": "Feature", "properties": {"collection_times": [{"days": "Mon-Sat", "time": "10:00am"}, {"days": "Sun", "time": "Closed"}], "id": "4675000013", "name": "USPS COLLECTION BOX - BLUE BOX", "address": {"city": "HUNTINGTON", "state": "IN", "street": "2100 COLLEGE AVE", "postcode": "46750"}}},
{"geometry": {"type": "Point", "coordinates": [-85.2462784782, 41.4487300057]}, "type": "Feature", "properties": {"collection_times": [{"days": "Mon-Sat", "time": "9:00am"}, {"days": "Sun", "time": "Closed"}], "id": "4675500006", "name": "USPS COLLECTION BOX - BLUE BOX", "address": {"city": "KENDALLVILLE", "state": "IN", "street": "510 FAIRVIEW BLVD", "postcode": "46755"}}},
{"geometry": {"type": "Point", "coordinates": [-85.2670333493, 41.4433572153]}, "type": "Feature", "properties": {"collection_times": [{"days": "Mon-Sat", "time": "2:30pm"}, {"days": "Sun", "time": "Closed"}], "id": "4675500007", "name": "USPS COLLECTION BOX - BLUE BOX", "address": {"city": "KENDALLVILLE", "state": "IN", "street": "126 S ORCHARD ST", "postcode": "46755"}}},
{"geometry": {"type": "Point", "coordinates": [-85.2558518268, 41.4521134059]}, "type": "Feature", "properties": {"collection_times": [{"days": "Mon-Fri", "time": "5:00pm"}, {"days": "Sat", "time": "3:45pm"}, {"days": "Sun", "time": "Closed"}], "id": "4675500010", "name": "USPS COLLECTION BOX - BLUE BOX", "address": {"city": "KENDALLVILLE", "state": "IN", "street": "695 FAIR ST", "postcode": "46755"}}},
{"geometry": {"type": "Point", "coordinates": [-85.2699810154, 41.4533899784]}, "type": "Feature", "properties": {"collection_times": [{"days": "Mon-Sat", "time": "2:00pm"}, {"days": "Sun", "time": "Closed"}], "id": "4675500014", "name": "USPS COLLECTION BOX - BLUE BOX", "address": {"city": "KENDALLVILLE", "state": "IN", "street": "850 N LIMA RD", "postcode": "46755"}}},
{"geometry": {"type": "Point", "coordinates": [-85.2670333493, 41.4433572153]}, "type": "Feature", "properties": {"collection_times": [{"days": "Mon-Sat", "time": "2:30pm"}, {"days": "Sun", "time": "Closed"}], "id": "4675500017", "name": "USPS COLLECTION BOX - BLUE BOX", "address": {"city": "KENDALLVILLE", "state": "IN", "street": "126 S ORCHARD ST", "postcode": "46755"}}},
{"geometry": {"type": "Point", "coordinates": [-85.2558518268, 41.4521134059]}, "type": "Feature", "properties": {"collection_times": [{"days": "Mon-Fri", "time": "5:00pm"}, {"days": "Sat", "time": "3:45pm"}, {"days": "Sun", "time": "Closed"}], "id": "4675500018", "name": "USPS COLLECTION BOX - BLUE BOX", "address": {"city": "KENDALLVILLE", "state": "IN", "street": "695 FAIR ST", "postcode": "46755"}}},
{"geometry": {"type": "Point", "coordinates": [-85.2558518268, 41.4521134059]}, "type": "Feature", "properties": {"collection_times": [{"days": "Mon-Fri", "time": "5:00pm"}, {"days": "Sat", "time": "3:45pm"}, {"days": "Sun", "time": "Closed"}], "id": "4675500021", "name": "USPS COLLECTION BOX - PO LOBBY", "address": {"city": "KENDALLVILLE", "state": "IN", "street": "695 FAIR ST", "postcode": "46755"}}},
{"geometry": {"type": "Point", "coordinates": [-85.2120724919, 41.4522336799]}, "type": "Feature", "properties": {"collection_times": [{"days": "Mon-Sat", "time": "11:00am"}, {"days": "Sun", "time": "Closed"}], "id": "4675500022", "name": "USPS COLLECTION BOX - BLUE BOX", "address": {"city": "KENDALLVILLE", "state": "IN", "street": "2501 E NORTH ST", "postcode": "46755"}}},
{"geometry": {"type": "Point", "coordinates": [-85.2592363067, 40.5957604832]}, "type": "Feature", "properties": {"collection_times": [{"days": "Mon-Fri", "time": "3:15pm"}, {"days": "Sat", "time": "9:15am"}, {"days": "Sun", "time": "Closed"}], "id": "4675900001", "name": "USPS COLLECTION BOX - BLUE BOX", "address": {"city": "KEYSTONE", "state": "IN", "street": "10016 S 200 W", "postcode": "46759"}}},
{"geometry": {"type": "Point", "coordinates": [-85.2592363067, 40.5957604832]}, "type": "Feature", "properties": {"collection_times": [{"days": "Mon-Sat", "time": "9:15am"}, {"days": "Sun", "time": "Closed"}], "id": "4675900002", "name": "USPS COLLECTION BOX - PO LOBBY", "address": {"city": "KEYSTONE", "state": "IN", "street": "10016 S 200 W", "postcode": "46759"}}},
{"geometry": {"type": "Point", "coordinates": [-85.5485060819, 41.3953078354]}, "type": "Feature", "properties": {"collection_times": [{"days": "Mon-Fri", "time": "4:30pm"}, {"days": "Sat", "time": "10:45am"}, {"days": "Sun", "time": "Closed"}], "id": "4676000001", "name": "USPS COLLECTION BOX - BLUE BOX", "address": {"city": "KIMMELL", "state": "IN", "street": "6461 W NOE ST", "postcode": "46760"}}},
{"geometry": {"type": "Point", "coordinates": [-85.5485060819, 41.3953078354]}, "type": "Feature", "properties": {"collection_times": [{"days": "Mon-Fri", "time": "4:30pm"}, {"days": "Sat", "time": "10:45am"}, {"days": "Sun", "time": "Closed"}], "id": "4676000002", "name": "USPS COLLECTION BOX - PO LOBBY", "address": {"city": "KIMMELL", "state": "IN", "street": "6461 W NOE ST", "postcode": "46760"}}},
{"geometry": {"type": "Point", "coordinates": [-85.4200158293, 41.6358870888]}, "type": "Feature", "properties": {"collection_times": [{"days": "Mon-Sat", "time": "9:30am"}, {"days": "Sun", "time": "Closed"}], "id": "4676100001", "name": "USPS COLLECTION BOX - BLUE BOX", "address": {"city": "LAGRANGE", "state": "IN", "street": "215 W SOUTH ST", "postcode": "46761"}}},
{"geometry": {"type": "Point", "coordinates": [-85.4178525725, 41.6419947434]}, "type": "Feature", "properties": {"collection_times": [{"days": "Mon-Fri", "time": "4:30pm"}, {"days": "Sat", "time": "12:00pm"}, {"days": "Sun", "time": "Closed"}], "id": "4676100003", "name": "USPS COLLECTION BOX - BLUE BOX", "address": {"city": "LAGRANGE", "state": "IN", "street": "300 S DETROIT ST", "postcode": "46761"}}},
{"geometry": {"type": "Point", "coordinates": [-85.4178525725, 41.6419947434]}, "type": "Feature", "properties": {"collection_times": [{"days": "Mon-Fri", "time": "4:30pm"}, {"days": "Sat", "time": "12:00pm"}, {"days": "Sun", "time": "Closed"}], "id": "4676100004", "name": "USPS COLLECTION BOX - BLUE BOX", "address": {"city": "LAGRANGE", "state": "IN", "street": "300 S DETROIT ST", "postcode": "46761"}}},
{"geometry": {"type": "Point", "coordinates": [-85.4178929697, 41.6439761022]}, "type": "Feature", "properties": {"collection_times": [{"days": "Mon-Sat", "time": "10:00am"}, {"days": "Sun", "time": "Closed"}], "id": "4676100007", "name": "USPS COLLECTION BOX - BLUE BOX", "address": {"city": "LAGRANGE", "state": "IN", "street": "100 N DETROIT ST", "postcode": "46761"}}},
{"geometry": {"type": "Point", "coordinates": [-85.4178525725, 41.6419947434]}, "type": "Feature", "properties": {"collection_times": [{"days": "Mon-Fri", "time": "4:30pm"}, {"days": "Sat", "time": "12:00pm"}, {"days": "Sun", "time": "Closed"}], "id": "4676100008", "name": "USPS COLLECTION BOX - PO LOBBY", "address": {"city": "LAGRANGE", "state": "IN", "street": "300 S DETROIT ST", "postcode": "46761"}}},
{"geometry": {"type": "Point", "coordinates": [-85.4192753487, 41.6449343568]}, "type": "Feature", "properties": {"collection_times": [{"days": "Mon-Fri", "time": "2:30pm"}, {"days": "Sat", "time": "9:30am"}, {"days": "Sun", "time": "Closed"}], "id": "4676100009", "name": "USPS COLLECTION BOX - BLUE BOX", "address": {"city": "LAGRANGE", "state": "IN", "street": "200 W MICHIGAN ST", "postcode": "46761"}}},
{"geometry": {"type": "Point", "coordinates": [-85.2289651079, 41.2931222745]}, "type": "Feature", "properties": {"collection_times": [{"days": "Mon-Fri", "time": "4:00pm"}, {"days": "Sat", "time": "10:15am"}, {"days": "Sun", "time": "Closed"}], "id": "4676300000", "name": "USPS COLLECTION BOX - BLUE BOX", "address": {"city": "LAOTTO", "state": "IN", "street": "210 S MAIN ST", "postcode": "46763"}}},
{"geometry": {"type": "Point", "coordinates": [-85.2289651079, 41.2931222745]}, "type": "Feature", "properties": {"collection_times": [{"days": "Mon-Fri", "time": "4:00pm"}, {"days": "Sat", "time": "10:15am"}, {"days": "Sun", "time": "Closed"}], "id": "4676300001", "name": "USPS COLLECTION BOX - PO LOBBY", "address": {"city": "LAOTTO", "state": "IN", "street": "210 S MAIN ST", "postcode": "46763"}}},
{"geometry": {"type": "Point", "coordinates": [-85.2228478391, 41.2964827722]}, "type": "Feature", "properties": {"collection_times": [{"days": "Mon-Sat", "time": "12:00pm"}, {"days": "Sun", "time": "Closed"}], "id": "4676300002", "name": "USPS COLLECTION BOX - BLUE BOX", "address": {"city": "LAOTTO", "state": "IN", "street": "6467 MERCHANTS DR", "postcode": "46763"}}},
{"geometry": {"type": "Point", "coordinates": [-85.6255716087, 41.1783308429]}, "type": "Feature", "properties": {"collection_times": [{"days": "Mon-Fri", "time": "4:15pm"}, {"days": "Sat", "time": "10:15am"}, {"days": "Sun", "time": "Closed"}], "id": "4676400001", "name": "USPS COLLECTION BOX - BLUE BOX", "address": {"city": "LARWILL", "state": "IN", "street": "101 W MAIN ST", "postcode": "46764"}}},
{"geometry": {"type": "Point", "coordinates": [-85.6255716087, 41.1783308429]}, "type": "Feature", "properties": {"collection_times": [{"days": "Mon-Fri", "time": "11:15am"}, {"days": "Sat", "time": "10:15am"}, {"days": "Sun", "time": "Closed"}], "id": "4676400002", "name": "USPS COLLECTION BOX - PO LOBBY", "address": {"city": "LARWILL", "state": "IN", "street": "101 W MAIN ST", "postcode": "46764"}}},
{"geometry": {"type": "Point", "coordinates": [-85.0187506012, 41.2148773549]}, "type": "Feature", "properties": {"collection_times": [{"days": "Mon-Fri", "time": "4:30pm"}, {"days": "Sat", "time": "10:30am"}, {"days": "Sun", "time": "Closed"}], "id": "4676500001", "name": "USPS COLLECTION BOX - BLUE BOX", "address": {"city": "LEO", "state": "IN", "street": "14015 AMSTUTZ RD", "postcode": "46765"}}},
{"geometry": {"type": "Point", "coordinates": [-85.0187506012, 41.2148773549]}, "type": "Feature", "properties": {"collection_times": [{"days": "Mon-Fri", "time": "4:30pm"}, {"days": "Sat", "time": "10:30am"}, {"days": "Sun", "time": "Closed"}], "id": "4676500002", "name": "USPS COLLECTION BOX - PO LOBBY", "address": {"city": "LEO", "state": "IN", "street": "14015 AMSTUTZ RD", "postcode": "46765"}}},
{"geometry": {"type": "Point", "coordinates": [-85.2791397912, 40.697773716]}, "type": "Feature", "properties": {"collection_times": [{"days": "Mon-Fri", "time": "3:30pm"}, {"days": "Sat", "time": "8:30am"}, {"days": "Sun", "time": "Closed"}], "id": "4676600001", "name": "USPS COLLECTION BOX - BLUE BOX", "address": {"city": "LIBERTY CENTER", "state": "IN", "street": "3010 S MAIN ST", "postcode": "46766"}}},
{"geometry": {"type": "Point", "coordinates": [-85.2791397912, 40.697773716]}, "type": "Feature", "properties": {"collection_times": [{"days": "Mon-Fri", "time": "3:30pm"}, {"days": "Sat", "time": "8:30am"}, {"days": "Sun", "time": "Closed"}], "id": "4676600002", "name": "USPS COLLECTION BOX - PO LOBBY", "address": {"city": "LIBERTY CENTER", "state": "IN", "street": "3010 S MAIN ST", "postcode": "46766"}}},
{"geometry": {"type": "Point", "coordinates": [-85.589083349, 41.4646067289]}, "type": "Feature", "properties": {"collection_times": [{"days": "Mon-Fri", "time": "4:45pm"}, {"days": "Sat", "time": "2:15pm"}, {"days": "Sun", "time": "Closed"}], "id": "4676700001", "name": "USPS COLLECTION BOX - BLUE BOX", "address": {"city": "LIGONIER", "state": "IN", "street": "201 S MAIN ST", "postcode": "46767"}}},
{"geometry": {"type": "Point", "coordinates": [-85.589083349, 41.4646067289]}, "type": "Feature", "properties": {"collection_times": [{"days": "Mon-Fri", "time": "4:45pm"}, {"days": "Sat", "time": "2:15pm"}, {"days": "Sun", "time": "Closed"}], "id": "4676700002", "name": "USPS COLLECTION BOX - BLUE BOX", "address": {"city": "LIGONIER", "state": "IN", "street": "201 S MAIN ST", "postcode": "46767"}}},
{"geometry": {"type": "Point", "coordinates": [-85.5904130198, 41.4541148372]}, "type": "Feature", "properties": {"collection_times": [{"days": "Mon-Sat", "time": "12:05pm"}, {"days": "Sun", "time": "Closed"}], "id": "4676700003", "name": "USPS COLLECTION BOX - BLUE BOX", "address": {"city": "LIGONIER", "state": "IN", "street": "1203 S MARTIN ST", "postcode": "46767"}}},
{"geometry": {"type": "Point", "coordinates": [-85.58761, 41.46493]}, "type": "Feature", "properties": {"collection_times": [{"days": "Mon-Sat", "time": "11:30am"}, {"days": "Sun", "time": "Closed"}], "id": "4676700004", "name": "USPS COLLECTION BOX - BLUE BOX", "address": {"city": "LIGONIER", "state": "IN", "street": "113 S CAVIN ST", "postcode": "46767"}}},
{"geometry": {"type": "Point", "coordinates": [-85.5866966004, 41.4581677453]}, "type": "Feature", "properties": {"collection_times": [{"days": "Mon-Sat", "time": "10:30am"}, {"days": "Sun", "time": "Closed"}], "id": "4676700005", "name": "USPS COLLECTION BOX - BLUE BOX", "address": {"city": "LIGONIER", "state": "IN", "street": "903 LINCOLNWAY S", "postcode": "46767"}}},
{"geometry": {"type": "Point", "coordinates": [-85.589083349, 41.4646067289]}, "type": "Feature", "properties": {"collection_times": [{"days": "Mon-Fri", "time": "4:45pm"}, {"days": "Sat", "time": "2:15pm"}, {"days": "Sun", "time": "Closed"}], "id": "4676700006", "name": "USPS COLLECTION BOX - PO LOBBY", "address": {"city": "LIGONIER", "state": "IN", "street": "201 S MAIN ST", "postcode": "46767"}}},
{"geometry": {"type": "Point", "coordinates": [-85.0325758426, 40.6432869614]}, "type": "Feature", "properties": {"collection_times": [{"days": "Mon-Sat", "time": "9:00am"}, {"days": "Sun", "time": "Closed"}], "id": "4676900001", "name": "USPS COLLECTION BOX - BLUE BOX", "address": {"city": "BERNE", "state": "IN", "street": "5055 W 700 S", "postcode": "46769"}}},
{"geometry": {"type": "Point", "coordinates": [-85.3370966883, 40.82442637]}, "type": "Feature", "properties": {"collection_times": [{"days": "Mon-Fri", "time": "4:15pm"}, {"days": "Sat", "time": "9:30am"}, {"days": "Sun", "time": "Closed"}], "id": "4677000001", "name": "USPS COLLECTION BOX - BLUE BOX", "address": {"city": "MARKLE", "state": "IN", "street": "165 N MILLER ST", "postcode": "46770"}}},
{"geometry": {"type": "Point", "coordinates": [-85.3370966883, 40.82442637]}, "type": "Feature", "properties": {"collection_times": [{"days": "Mon-Fri", "time": "4:15pm"}, {"days": "Sat", "time": "9:30am"}, {"days": "Sun", "time": "Closed"}], "id": "4677000002", "name": "USPS COLLECTION BOX - BLUE BOX", "address": {"city": "MARKLE", "state": "IN", "street": "165 N MILLER ST", "postcode": "46770"}}},
{"geometry": {"type": "Point", "coordinates": [-85.3370966883, 40.82442637]}, "type": "Feature", "properties": {"collection_times": [{"days": "Mon-Fri", "time": "4:15pm"}, {"days": "Sat", "time": "9:30am"}, {"days": "Sun", "time": "Closed"}], "id": "4677000003", "name": "USPS COLLECTION BOX - PO LOBBY", "address": {"city": "MARKLE", "state": "IN", "street": "165 N MILLER ST", "postcode": "46770"}}},
{"geometry": {"type": "Point", "coordinates": [-85.3178079343, 40.8402832647]}, "type": "Feature", "properties": {"collection_times": [{"days": "Mon-Sat", "time": "9:00am"}, {"days": "Sun", "time": "Closed"}], "id": "4677000004", "name": "USPS COLLECTION BOX - BLUE BOX", "address": {"city": "MARKLE", "state": "IN", "street": "700 COUNTRYSIDE DR", "postcode": "46770"}}},
{"geometry": {"type": "Point", "coordinates": [-85.2797425435, 41.6859963253]}, "type": "Feature", "properties": {"collection_times": [{"days": "Mon-Fri", "time": "4:00pm"}, {"days": "Sat", "time": "10:30am"}, {"days": "Sun", "time": "Closed"}], "id": "4677100001", "name": "USPS COLLECTION BOX - BLUE BOX", "address": {"city": "MONGO", "state": "IN", "street": "3030 N STATE ROAD 3", "postcode": "46771"}}},
{"geometry": {"type": "Point", "coordinates": [-85.2797425435, 41.6859963253]}, "type": "Feature", "properties": {"collection_times": [{"days": "Mon-Fri", "time": "4:00pm"}, {"days": "Sat", "time": "10:45am"}, {"days": "Sun", "time": "Closed"}], "id": "4677100002", "name": "USPS COLLECTION BOX - PO LOBBY", "address": {"city": "MONGO", "state": "IN", "street": "3030 N STATE ROAD 3", "postcode": "46771"}}},
{"geometry": {"type": "Point", "coordinates": [-84.9381875468, 40.7450084199]}, "type": "Feature", "properties": {"collection_times": [{"days": "Mon-Fri", "time": "4:00pm"}, {"days": "Sat", "time": "10:30am"}, {"days": "Sun", "time": "Closed"}], "id": "4677200000", "name": "USPS COLLECTION BOX - BLUE BOX", "address": {"city": "MONROE", "state": "IN", "street": "113 E WASHINGTON ST", "postcode": "46772"}}},
{"geometry": {"type": "Point", "coordinates": [-84.9381875468, 40.7450084199]}, "type": "Feature", "properties": {"collection_times": [{"days": "Mon-Fri", "time": "4:00pm"}, {"days": "Sat", "time": "10:30am"}, {"days": "Sun", "time": "Closed"}], "id": "4677200002", "name": "USPS COLLECTION BOX - PO LOBBY", "address": {"city": "MONROE", "state": "IN", "street": "113 E WASHINGTON ST", "postcode": "46772"}}},
{"geometry": {"type": "Point", "coordinates": [-84.9381875468, 40.7450084199]}, "type": "Feature", "properties": {"collection_times": [{"days": "Mon-Fri", "time": "4:00pm"}, {"days": "Sat", "time": "10:30am"}, {"days": "Sun", "time": "Closed"}], "id": "4677200003", "name": "USPS COLLECTION BOX - PO LOBBY", "address": {"city": "MONROE", "state": "IN", "street": "113 E WASHINGTON ST", "postcode": "46772"}}},
{"geometry": {"type": "Point", "coordinates": [-84.8690556163, 40.9746029518]}, "type": "Feature", "properties": {"collection_times": [{"days": "Mon-Fri", "time": "4:00pm"}, {"days": "Sat", "time": "10:15am"}, {"days": "Sun", "time": "Closed"}], "id": "4677300002", "name": "USPS COLLECTION BOX - BLUE BOX", "address": {"city": "MONROEVILLE", "state": "IN", "street": "103 ALLEN ST", "postcode": "46773"}}},
{"geometry": {"type": "Point", "coordinates": [-84.8690556163, 40.9746029518]}, "type": "Feature", "properties": {"collection_times": [{"days": "Mon-Fri", "time": "4:00pm"}, {"days": "Sat", "time": "10:15am"}, {"days": "Sun", "time": "Closed"}], "id": "4677300003", "name": "USPS COLLECTION BOX - PO LOBBY", "address": {"city": "MONROEVILLE", "state": "IN", "street": "103 ALLEN ST", "postcode": "46773"}}},
{"geometry": {"type": "Point", "coordinates": [-85.0312320012, 41.0700559695]}, "type": "Feature", "properties": {"collection_times": [{"days": "Mon-Fri", "time": "1:45pm"}, {"days": "Sat", "time": "1:15pm"}, {"days": "Sun", "time": "Closed"}], "id": "4677400002", "name": "USPS COLLECTION BOX - BLUE BOX", "address": {"city": "NEW HAVEN", "state": "IN", "street": "134 LINCOLN HWY W", "postcode": "46774"}}},
{"geometry": {"type": "Point", "coordinates": [-85.0171181178, 41.0725626595]}, "type": "Feature", "properties": {"collection_times": [{"days": "Mon-Fri", "time": "5:00pm"}, {"days": "Sat", "time": "3:45pm"}, {"days": "Sun", "time": "Closed"}], "id": "4677400015", "name": "USPS COLLECTION BOX - BLUE BOX", "address": {"city": "NEW HAVEN", "state": "IN", "street": "520 BROADWAY ST", "postcode": "46774"}}},
{"geometry": {"type": "Point", "coordinates": [-85.0171181178, 41.0725626595]}, "type": "Feature", "properties": {"collection_times": [{"days": "Mon-Fri", "time": "5:00pm"}, {"days": "Sat", "time": "3:45pm"}, {"days": "Sun", "time": "Closed"}], "id": "4677400016", "name": "USPS COLLECTION BOX - BLUE BOX", "address": {"city": "NEW HAVEN", "state": "IN", "street": "520 BROADWAY ST", "postcode": "46774"}}},
{"geometry": {"type": "Point", "coordinates": [-85.0171181178, 41.0725626595]}, "type": "Feature", "properties": {"collection_times": [{"days": "Mon-Fri", "time": "5:00pm"}, {"days": "Sat", "time": "3:45pm"}, {"days": "Sun", "time": "Closed"}], "id": "4677400020", "name": "USPS COLLECTION BOX - BLUE BOX", "address": {"city": "NEW HAVEN", "state": "IN", "street": "520 BROADWAY ST", "postcode": "46774"}}},
{"geometry": {"type": "Point", "coordinates": [-85.0171181178, 41.0725626595]}, "type": "Feature", "properties": {"collection_times": [{"days": "Mon-Fri", "time": "5:00pm"}, {"days": "Sat", "time": "3:45pm"}, {"days": "Sun", "time": "Closed"}], "id": "4677400023", "name": "USPS COLLECTION BOX - PO LOBBY", "address": {"city": "NEW HAVEN", "state": "IN", "street": "520 BROADWAY ST", "postcode": "46774"}}},
{"geometry": {"type": "Point", "coordinates": [-85.043116007, 41.0697330217]}, "type": "Feature", "properties": {"collection_times": [{"days": "Mon-Sat", "time": "1:00pm"}, {"days": "Sun", "time": "Closed"}], "id": "4677400024", "name": "USPS COLLECTION BOX - BLUE BOX", "address": {"city": "NEW HAVEN", "state": "IN", "street": "907 LINCOLN HWY W", "postcode": "46774"}}},
{"geometry": {"type": "Point", "coordinates": [-85.0171181178, 41.0725626595]}, "type": "Feature", "properties": {"collection_times": [{"days": "Mon-Fri", "time": "5:00pm"}, {"days": "Sat", "time": "3:45pm"}, {"days": "Sun", "time": "Closed"}], "id": "4677400026", "name": "USPS COLLECTION BOX - BLUE BOX", "address": {"city": "NEW HAVEN", "state": "IN", "street": "520 BROADWAY ST", "postcode": "46774"}}},
{"geometry": {"type": "Point", "coordinates": [-85.1692185982, 41.7311163577]}, "type": "Feature", "properties": {"collection_times": [{"days": "Mon-Fri", "time": "4:00pm"}, {"days": "Sat", "time": "10:15am"}, {"days": "Sun", "time": "Closed"}], "id": "4677600000", "name": "USPS COLLECTION BOX - BLUE BOX", "address": {"city": "ORLAND", "state": "IN", "street": "9462 W STATE ROAD 120", "postcode": "46776"}}},
{"geometry": {"type": "Point", "coordinates": [-85.1692185982, 41.7311163577]}, "type": "Feature", "properties": {"collection_times": [{"days": "Mon-Fri", "time": "2:15pm"}, {"days": "Sat", "time": "10:15am"}, {"days": "Sun", "time": "Closed"}], "id": "4677600001", "name": "USPS COLLECTION BOX - PO LOBBY", "address": {"city": "ORLAND", "state": "IN", "street": "9462 W STATE ROAD 120", "postcode": "46776"}}},
{"geometry": {"type": "Point", "coordinates": [-85.1685569954, 41.7311614674]}, "type": "Feature", "properties": {"collection_times": [{"days": "Mon-Sat", "time": "10:00am"}, {"days": "Sun", "time": "Closed"}], "id": "4677600002", "name": "USPS COLLECTION BOX - BLUE BOX", "address": {"city": "ORLAND", "state": "IN", "street": "9025 W STATE ROAD 120", "postcode": "46776"}}},
{"geometry": {"type": "Point", "coordinates": [-85.1680826091, 40.8798397168]}, "type": "Feature", "properties": {"collection_times": [{"days": "Mon-Fri", "time": "4:30pm"}, {"days": "Sat", "time": "12:00pm"}, {"days": "Sun", "time": "Closed"}], "id": "4677700002", "name": "USPS COLLECTION BOX - BLUE BOX", "address": {"city": "OSSIAN", "state": "IN", "street": "106 S OGDEN ST", "postcode": "46777"}}},
{"geometry": {"type": "Point", "coordinates": [-85.1680826091, 40.8798397168]}, "type": "Feature", "properties": {"collection_times": [{"days": "Mon-Fri", "time": "4:30pm"}, {"days": "Sat", "time": "12:00pm"}, {"days": "Sun", "time": "Closed"}], "id": "4677700004", "name": "USPS COLLECTION BOX - PO LOBBY", "address": {"city": "OSSIAN", "state": "IN", "street": "106 S OGDEN ST", "postcode": "46777"}}},
{"geometry": {"type": "Point", "coordinates": [-85.1520551736, 40.6109224052]}, "type": "Feature", "properties": {"collection_times": [{"days": "Mon-Fri", "time": "3:00pm"}, {"days": "Sat", "time": "9:30am"}, {"days": "Sun", "time": "Closed"}], "id": "4677800001", "name": "USPS COLLECTION BOX - BLUE BOX", "address": {"city": "PETROLEUM", "state": "IN", "street": "3657 E MARKET ST", "postcode": "46778"}}},
{"geometry": {"type": "Point", "coordinates": [-85.1520551736, 40.6109224052]}, "type": "Feature", "properties": {"collection_times": [{"days": "Mon-Fri", "time": "1:45pm"}, {"days": "Sat", "time": "9:30am"}, {"days": "Sun", "time": "Closed"}], "id": "4677800002", "name": "USPS COLLECTION BOX - PO LOBBY", "address": {"city": "PETROLEUM", "state": "IN", "street": "3657 E MARKET ST", "postcode": "46778"}}},
{"geometry": {"type": "Point", "coordinates": [-85.0114571566, 41.5744972087]}, "type": "Feature", "properties": {"collection_times": [{"days": "Mon-Fri", "time": "4:00pm"}, {"days": "Sat", "time": "9:45am"}, {"days": "Sun", "time": "Closed"}], "id": "4677900001", "name": "USPS COLLECTION BOX - BLUE BOX", "address": {"city": "PLEASANT LAKE", "state": "IN", "street": "965 W MAIN ST", "postcode": "46779"}}},
{"geometry": {"type": "Point", "coordinates": [-85.0114571566, 41.5744972087]}, "type": "Feature", "properties": {"collection_times": [{"days": "Mon-Fri", "time": "4:00pm"}, {"days": "Sat", "time": "10:00am"}, {"days": "Sun", "time": "Closed"}], "id": "4677900002", "name": "USPS COLLECTION BOX - PO LOBBY", "address": {"city": "PLEASANT LAKE", "state": "IN", "street": "965 W MAIN ST", "postcode": "46779"}}},
{"geometry": {"type": "Point", "coordinates": [-85.2241879869, 40.6556441508]}, "type": "Feature", "properties": {"collection_times": [{"days": "Mon-Fri", "time": "3:30pm"}, {"days": "Sat", "time": "9:30am"}, {"days": "Sun", "time": "Closed"}], "id": "4678100001", "name": "USPS COLLECTION BOX - BLUE BOX", "address": {"city": "PONETO", "state": "IN", "street": "139 W WASHINGTON ST", "postcode": "46781"}}},
{"geometry": {"type": "Point", "coordinates": [-85.2241879869, 40.6556441508]}, "type": "Feature", "properties": {"collection_times": [{"days": "Mon-Fri", "time": "11:15am"}, {"days": "Sat", "time": "9:30am"}, {"days": "Sun", "time": "Closed"}], "id": "4678100002", "name": "USPS COLLECTION BOX - PO LOBBY", "address": {"city": "PONETO", "state": "IN", "street": "139 W WASHINGTON ST", "postcode": "46781"}}},
{"geometry": {"type": "Point", "coordinates": [-85.0144407789, 40.8319638751]}, "type": "Feature", "properties": {"collection_times": [{"days": "Mon-Fri", "time": "3:45pm"}, {"days": "Sat", "time": "9:45am"}, {"days": "Sun", "time": "Closed"}], "id": "4678200001", "name": "USPS COLLECTION BOX - BLUE BOX", "address": {"city": "PREBLE", "state": "IN", "street": "3990 W US HIGHWAY 224", "postcode": "46782"}}},
{"geometry": {"type": "Point", "coordinates": [-85.0144407789, 40.8319638751]}, "type": "Feature", "properties": {"collection_times": [{"days": "Mon-Fri", "time": "3:45pm"}, {"days": "Sat", "time": "9:45am"}, {"days": "Sun", "time": "Closed"}], "id": "4678200002", "name": "USPS COLLECTION BOX - PO LOBBY", "address": {"city": "PREBLE", "state": "IN", "street": "3990 W US HIGHWAY 224", "postcode": "46782"}}},
{"geometry": {"type": "Point", "coordinates": [-85.0144179253, 40.8319234741]}, "type": "Feature", "properties": {"collection_times": [{"days": "Mon-Sat", "time": "10:00am"}, {"days": "Sun", "time": "Closed"}], "id": "4678200003", "name": "USPS COLLECTION BOX - BLUE BOX", "address": {"city": "PREBLE", "state": "IN", "street": "6035 N 400 W", "postcode": "46782"}}},
{"geometry": {"type": "Point", "coordinates": [-85.3734052478, 40.9613349428]}, "type": "Feature", "properties": {"collection_times": [{"days": "Mon-Fri", "time": "4:45pm"}, {"days": "Sat", "time": "11:15am"}, {"days": "Sun", "time": "Closed"}], "id": "4678300001", "name": "USPS COLLECTION BOX - BLUE BOX", "address": {"city": "ROANOKE", "state": "IN", "street": "117 N MAIN ST", "postcode": "46783"}}},
{"geometry": {"type": "Point", "coordinates": [-85.3734052478, 40.9613349428]}, "type": "Feature", "properties": {"collection_times": [{"days": "Mon-Fri", "time": "4:45pm"}, {"days": "Sat", "time": "11:15am"}, {"days": "Sun", "time": "Closed"}], "id": "4678300002", "name": "USPS COLLECTION BOX - PO LOBBY", "address": {"city": "ROANOKE", "state": "IN", "street": "117 N MAIN ST", "postcode": "46783"}}},
{"geometry": {"type": "Point", "coordinates": [-85.3759600241, 41.4930259614]}, "type": "Feature", "properties": {"collection_times": [{"days": "Mon-Fri", "time": "4:15pm"}, {"days": "Sat", "time": "12:15pm"}, {"days": "Sun", "time": "Closed"}], "id": "4678400001", "name": "USPS COLLECTION BOX - BLUE BOX", "address": {"city": "ROME CITY", "state": "IN", "street": "125 KERR AVE", "postcode": "46784"}}},
{"geometry": {"type": "Point", "coordinates": [-85.3759600241, 41.4930259614]}, "type": "Feature", "properties": {"collection_times": [{"days": "Mon-Fri", "time": "1:45pm"}, {"days": "Sat", "time": "12:15pm"}, {"days": "Sun", "time": "Closed"}], "id": "4678400002", "name": "USPS COLLECTION BOX - PO LOBBY", "address": {"city": "ROME CITY", "state": "IN", "street": "125 KERR AVE", "postcode": "46784"}}},
{"geometry": {"type": "Point", "coordinates": [-84.9014998413, 41.3159923131]}, "type": "Feature", "properties": {"collection_times": [{"days": "Mon-Fri", "time": "4:30pm"}, {"days": "Sat", "time": "10:00am"}, {"days": "Sun", "time": "Closed"}], "id": "4678500001", "name": "USPS COLLECTION BOX - BLUE BOX", "address": {"city": "SAINT JOE", "state": "IN", "street": "104 THIRD ST", "postcode": "46785"}}},
{"geometry": {"type": "Point", "coordinates": [-84.9014998413, 41.3159923131]}, "type": "Feature", "properties": {"collection_times": [{"days": "Mon-Fri", "time": "11:15am"}, {"days": "Sat", "time": "10:00am"}, {"days": "Sun", "time": "Closed"}], "id": "4678500002", "name": "USPS COLLECTION BOX - PO LOBBY", "address": {"city": "SAINT JOE", "state": "IN", "street": "104 THIRD ST", "postcode": "46785"}}},
{"geometry": {"type": "Point", "coordinates": [-85.271868553, 41.5311463876]}, "type": "Feature", "properties": {"collection_times": [{"days": "Mon-Fri", "time": "3:45pm"}, {"days": "Sat", "time": "10:00am"}, {"days": "Sun", "time": "Closed"}], "id": "4678600001", "name": "USPS COLLECTION BOX - BLUE BOX", "address": {"city": "SOUTH MILFORD", "state": "IN", "street": "7470 S STATE ROAD 3", "postcode": "46786"}}},
{"geometry": {"type": "Point", "coordinates": [-85.271868553, 41.5311463876]}, "type": "Feature", "properties": {"collection_times": [{"days": "Mon-Fri", "time": "4:00pm"}, {"days": "Sat", "time": "10:30am"}, {"days": "Sun", "time": "Closed"}], "id": "4678600002", "name": "USPS COLLECTION BOX - PO LOBBY", "address": {"city": "SOUTH MILFORD", "state": "IN", "street": "7470 S STATE ROAD 3", "postcode": "46786"}}},
{"geometry": {"type": "Point", "coordinates": [-85.624912531, 41.0797063259]}, "type": "Feature", "properties": {"collection_times": [{"days": "Mon-Sat", "time": "9:30am"}, {"days": "Sun", "time": "Closed"}], "id": "4678700001", "name": "USPS COLLECTION BOX - BLUE BOX", "address": {"city": "SOUTH WHITLEY", "state": "IN", "street": "802 S STATE ST", "postcode": "46787"}}},
{"geometry": {"type": "Point", "coordinates": [-85.6262933787, 41.0844231398]}, "type": "Feature", "properties": {"collection_times": [{"days": "Mon-Fri", "time": "4:00pm"}, {"days": "Sat", "time": "10:00am"}, {"days": "Sun", "time": "Closed"}], "id": "4678700004", "name": "USPS COLLECTION BOX - BLUE BOX", "address": {"city": "SOUTH WHITLEY", "state": "IN", "street": "107 S MAPLE ST", "postcode": "46787"}}},
{"geometry": {"type": "Point", "coordinates": [-85.6262933787, 41.0844231398]}, "type": "Feature", "properties": {"collection_times": [{"days": "Mon-Fri", "time": "4:00pm"}, {"days": "Sat", "time": "10:00am"}, {"days": "Sun", "time": "Closed"}], "id": "4678700005", "name": "USPS COLLECTION BOX - PO LOBBY", "address": {"city": "SOUTH WHITLEY", "state": "IN", "street": "107 S MAPLE ST", "postcode": "46787"}}},
{"geometry": {"type": "Point", "coordinates": [-84.921763056, 41.2805407555]}, "type": "Feature", "properties": {"collection_times": [{"days": "Mon-Fri", "time": "3:45pm"}, {"days": "Sat", "time": "9:45am"}, {"days": "Sun", "time": "Closed"}], "id": "4678800001", "name": "USPS COLLECTION BOX - BLUE BOX", "address": {"city": "SPENCERVILLE", "state": "IN", "street": "6909 STATE ROAD 1", "postcode": "46788"}}},
{"geometry": {"type": "Point", "coordinates": [-84.921763056, 41.2805407555]}, "type": "Feature", "properties": {"collection_times": [{"days": "Mon-Fri", "time": "1:45pm"}, {"days": "Sat", "time": "9:45am"}, {"days": "Sun", "time": "Closed"}], "id": "4678800002", "name": "USPS COLLECTION BOX - PO LOBBY", "address": {"city": "SPENCERVILLE", "state": "IN", "street": "6909 STATE ROAD 1", "postcode": "46788"}}},
{"geometry": {"type": "Point", "coordinates": [-84.921763056, 41.2805407555]}, "type": "Feature", "properties": {"collection_times": [{"days": "Mon-Fri", "time": "1:45pm"}, {"days": "Sat", "time": "9:45am"}, {"days": "Sun", "time": "Closed"}], "id": "4678800003", "name": "USPS COLLECTION BOX - PO LOBBY", "address": {"city": "SPENCERVILLE", "state": "IN", "street": "6909 STATE ROAD 1", "postcode": "46788"}}},
{"geometry": {"type": "Point", "coordinates": [-85.199212449, 41.5820971589]}, "type": "Feature", "properties": {"collection_times": [{"days": "Mon-Fri", "time": "3:30pm"}, {"days": "Sat", "time": "10:30am"}, {"days": "Sun", "time": "Closed"}], "id": "4678900001", "name": "USPS COLLECTION BOX - BLUE BOX", "address": {"city": "STROH", "state": "IN", "street": "4120 S 1175 E", "postcode": "46789"}}},
{"geometry": {"type": "Point", "coordinates": [-85.199212449, 41.5820971589]}, "type": "Feature", "properties": {"collection_times": [{"days": "Mon-Fri", "time": "3:30pm"}, {"days": "Sat", "time": "11:00am"}, {"days": "Sun", "time": "Closed"}], "id": "4678900002", "name": "USPS COLLECTION BOX - PO LOBBY", "address": {"city": "STROH", "state": "IN", "street": "4120 S 1175 E", "postcode": "46789"}}},
{"geometry": {"type": "Point", "coordinates": [-85.2419958844, 40.8295391824]}, "type": "Feature", "properties": {"collection_times": [{"days": "Mon-Fri", "time": "4:00pm"}, {"days": "Sat", "time": "10:30am"}, {"days": "Sun", "time": "Closed"}], "id": "4679100001", "name": "USPS COLLECTION BOX - BLUE BOX", "address": {"city": "UNIONDALE", "state": "IN", "street": "5965 N MAIN ST", "postcode": "46791"}}},
{"geometry": {"type": "Point", "coordinates": [-85.2419958844, 40.8295391824]}, "type": "Feature", "properties": {"collection_times": [{"days": "Mon-Fri", "time": "11:45am"}, {"days": "Sat", "time": "10:30am"}, {"days": "Sun", "time": "Closed"}], "id": "4679100002", "name": "USPS COLLECTION BOX - PO LOBBY", "address": {"city": "UNIONDALE", "state": "IN", "street": "5965 N MAIN ST", "postcode": "46791"}}},
{"geometry": {"type": "Point", "coordinates": [-85.4271033041, 40.6817402255]}, "type": "Feature", "properties": {"collection_times": [{"days": "Mon-Fri", "time": "4:00pm"}, {"days": "Sat", "time": "10:30am"}, {"days": "Sun", "time": "Closed"}], "id": "4679200001", "name": "USPS COLLECTION BOX - BLUE BOX", "address": {"city": "WARREN", "state": "IN", "street": "110 E 1ST ST", "postcode": "46792"}}},
{"geometry": {"type": "Point", "coordinates": [-85.4271033041, 40.6817402255]}, "type": "Feature", "properties": {"collection_times": [{"days": "Mon-Fri", "time": "4:00pm"}, {"days": "Sat", "time": "10:30am"}, {"days": "Sun", "time": "Closed"}], "id": "4679200002", "name": "USPS COLLECTION BOX - PO LOBBY", "address": {"city": "WARREN", "state": "IN", "street": "110 E 1ST ST", "postcode": "46792"}}},
{"geometry": {"type": "Point", "coordinates": [-85.0212059548, 41.4323363374]}, "type": "Feature", "properties": {"collection_times": [{"days": "Mon-Fri", "time": "4:00pm"}, {"days": "Sat", "time": "10:00am"}, {"days": "Sun", "time": "Closed"}], "id": "4679300000", "name": "USPS COLLECTION BOX - BLUE BOX", "address": {"city": "WATERLOO", "state": "IN", "street": "180 W MARION ST", "postcode": "46793"}}},
{"geometry": {"type": "Point", "coordinates": [-85.0212059548, 41.4323363374]}, "type": "Feature", "properties": {"collection_times": [{"days": "Mon-Fri", "time": "4:00pm"}, {"days": "Sat", "time": "10:00am"}, {"days": "Sun", "time": "Closed"}], "id": "4679300001", "name": "USPS COLLECTION BOX - BLUE BOX", "address": {"city": "WATERLOO", "state": "IN", "street": "180 W MARION ST", "postcode": "46793"}}},
{"geometry": {"type": "Point", "coordinates": [-85.0212059548, 41.4323363374]}, "type": "Feature", "properties": {"collection_times": [{"days": "Mon-Fri", "time": "4:00pm"}, {"days": "Sat", "time": "10:00am"}, {"days": "Sun", "time": "Closed"}], "id": "4679300002", "name": "USPS COLLECTION BOX - PO LOBBY", "address": {"city": "WATERLOO", "state": "IN", "street": "180 W MARION ST", "postcode": "46793"}}},
{"geometry": {"type": "Point", "coordinates": [-85.4822482803, 41.45962392]}, "type": "Feature", "properties": {"collection_times": [{"days": "Mon-Fri", "time": "4:15pm"}, {"days": "Sat", "time": "9:30am"}, {"days": "Sun", "time": "Closed"}], "id": "4679400001", "name": "USPS COLLECTION BOX - BLUE BOX", "address": {"city": "WAWAKA", "state": "IN", "street": "7369 N ALBION ST", "postcode": "46794"}}},
{"geometry": {"type": "Point", "coordinates": [-85.4822482803, 41.45962392]}, "type": "Feature", "properties": {"collection_times": [{"days": "Mon-Fri", "time": "11:15am"}, {"days": "Sat", "time": "9:30am"}, {"days": "Sun", "time": "Closed"}], "id": "4679400002", "name": "USPS COLLECTION BOX - PO LOBBY", "address": {"city": "WAWAKA", "state": "IN", "street": "7369 N ALBION ST", "postcode": "46794"}}},
{"geometry": {"type": "Point", "coordinates": [-85.3665304791, 41.5260296499]}, "type": "Feature", "properties": {"collection_times": [{"days": "Mon-Fri", "time": "4:15pm"}, {"days": "Sat", "time": "11:00am"}, {"days": "Sun", "time": "Closed"}], "id": "4679500001", "name": "USPS COLLECTION BOX - BLUE BOX", "address": {"city": "WOLCOTTVILLE", "state": "IN", "street": "105 N MAIN ST", "postcode": "46795"}}},
{"geometry": {"type": "Point", "coordinates": [-85.3665304791, 41.5260296499]}, "type": "Feature", "properties": {"collection_times": [{"days": "Mon-Fri", "time": "4:30pm"}, {"days": "Sat", "time": "11:00am"}, {"days": "Sun", "time": "Closed"}], "id": "4679500002", "name": "USPS COLLECTION BOX - PO LOBBY", "address": {"city": "WOLCOTTVILLE", "state": "IN", "street": "105 N MAIN ST", "postcode": "46795"}}},
{"geometry": {"type": "Point", "coordinates": [-85.4957942164, 41.3350453778]}, "type": "Feature", "properties": {"collection_times": [{"days": "Mon-Fri", "time": "4:45pm"}, {"days": "Sat", "time": "10:00am"}, {"days": "Sun", "time": "Closed"}], "id": "4679600001", "name": "USPS COLLECTION BOX - BLUE BOX", "address": {"city": "WOLFLAKE", "state": "IN", "street": "1221 S US HIGHWAY 33", "postcode": "46796"}}},
{"geometry": {"type": "Point", "coordinates": [-85.4957942164, 41.3350453778]}, "type": "Feature", "properties": {"collection_times": [{"days": "Mon-Fri", "time": "4:45pm"}, {"days": "Sat", "time": "10:00am"}, {"days": "Sun", "time": "Closed"}], "id": "4679600002", "name": "USPS COLLECTION BOX - PO LOBBY", "address": {"city": "WOLFLAKE", "state": "IN", "street": "1221 S US HIGHWAY 33", "postcode": "46796"}}},
{"geometry": {"type": "Point", "coordinates": [-84.8560298637, 41.1250055964]}, "type": "Feature", "properties": {"collection_times": [{"days": "Mon-Fri", "time": "4:00pm"}, {"days": "Sat", "time": "10:30am"}, {"days": "Sun", "time": "Closed"}], "id": "4679700002", "name": "USPS COLLECTION BOX - BLUE BOX", "address": {"city": "WOODBURN", "state": "IN", "street": "22133 MAIN ST", "postcode": "46797"}}},
{"geometry": {"type": "Point", "coordinates": [-84.8560298637, 41.1250055964]}, "type": "Feature", "properties": {"collection_times": [{"days": "Mon-Fri", "time": "4:00pm"}, {"days": "Sat", "time": "10:30am"}, {"days": "Sun", "time": "Closed"}], "id": "4679700003", "name": "USPS COLLECTION BOX - PO LOBBY", "address": {"city": "WOODBURN", "state": "IN", "street": "22133 MAIN ST", "postcode": "46797"}}},
{"geometry": {"type": "Point", "coordinates": [-85.1771854783, 40.9310086068]}, "type": "Feature", "properties": {"collection_times": [{"days": "Mon-Fri", "time": "4:00pm"}, {"days": "Sat", "time": "10:00am"}, {"days": "Sun", "time": "Closed"}], "id": "4679800001", "name": "USPS COLLECTION BOX - BLUE BOX", "address": {"city": "YODER", "state": "IN", "street": "3209 YODER RD", "postcode": "46798"}}},
{"geometry": {"type": "Point", "coordinates": [-85.2297609066, 40.9716385154]}, "type": "Feature", "properties": {"collection_times": [{"days": "Mon-Sat", "time": "11:00am"}, {"days": "Sun", "time": "Closed"}], "id": "4679800002", "name": "USPS COLLECTION BOX - BLUE BOX", "address": {"city": "YODER", "state": "IN", "street": "12204 INDIANAPOLIS RD", "postcode": "46798"}}},
{"geometry": {"type": "Point", "coordinates": [-85.1771854783, 40.9310086068]}, "type": "Feature", "properties": {"collection_times": [{"days": "Mon-Fri", "time": "4:00pm"}, {"days": "Sat", "time": "10:00am"}, {"days": "Sun", "time": "Closed"}], "id": "4679800003", "name": "USPS COLLECTION BOX - PO LOBBY", "address": {"city": "YODER", "state": "IN", "street": "3209 YODER RD", "postcode": "46798"}}},
{"geometry": {"type": "Point", "coordinates": [-85.2291771294, 40.9721477451]}, "type": "Feature", "properties": {"collection_times": [{"days": "Mon-Sat", "time": "11:00am"}, {"days": "Sun", "time": "Closed"}], "id": "4679800004", "name": "USPS COLLECTION BOX - BLUE BOX", "address": {"city": "YODER", "state": "IN", "street": "12206 INDIANAPOLIS RD", "postcode": "46798"}}},
{"geometry": {"type": "Point", "coordinates": [-85.2812934185, 40.9176794412]}, "type": "Feature", "properties": {"collection_times": [{"days": "Mon-Fri", "time": "4:00pm"}, {"days": "Sat", "time": "10:00am"}, {"days": "Sun", "time": "Closed"}], "id": "4679900001", "name": "USPS COLLECTION BOX - BLUE BOX", "address": {"city": "ZANESVILLE", "state": "IN", "street": "10917 WASHINGTON ST", "postcode": "46799"}}},
{"geometry": {"type": "Point", "coordinates": [-85.2812934185, 40.9176794412]}, "type": "Feature", "properties": {"collection_times": [{"days": "Mon-Fri", "time": "4:00pm"}, {"days": "Sat", "time": "10:00am"}, {"days": "Sun", "time": "Closed"}], "id": "4679900002", "name": "USPS COLLECTION BOX - PO LOBBY", "address": {"city": "ZANESVILLE", "state": "IN", "street": "10917 WASHINGTON ST", "postcode": "46799"}}}
]}
