{"type": "FeatureCollection", "features": [
{"geometry": {"type": "Point", "coordinates": [-85.1367614046, 41.0729175472]}, "type": "Feature", "properties": {"collection_times": [{"days": "Mon-Sat", "time": "7:00pm"}, {"days": "Sun", "time": "Closed"}], "id": "4680200000", "name": "USPS COLLECTION BOX - BLUE BOX", "address": {"city": "FORT WAYNE", "state": "IN", "street": "1501 S CLINTON ST", "postcode": "46802"}}},
{"geometry": {"type": "Point", "coordinates": [-85.1367614046, 41.0729175472]}, "type": "Feature", "properties": {"collection_times": [{"days": "Mon-Sat", "time": "7:00pm"}, {"days": "Sun", "time": "Closed"}], "id": "4680200001", "name": "USPS COLLECTION BOX - PO LOBBY", "address": {"city": "FORT WAYNE", "state": "IN", "street": "1501 S CLINTON ST", "postcode": "46802"}}},
{"geometry": {"type": "Point", "coordinates": [-85.1367614046, 41.0729175472]}, "type": "Feature", "properties": {"collection_times": [{"days": "Mon-Sat", "time": "7:00pm"}, {"days": "Sun", "time": "Closed"}], "id": "4680200002", "name": "USPS COLLECTION BOX - BLUE BOX", "address": {"city": "FORT WAYNE", "state": "IN", "street": "1501 S CLINTON ST", "postcode": "46802"}}},
{"geometry": {"type": "Point", "coordinates": [-85.1367614046, 41.0729175472]}, "type": "Feature", "properties": {"collection_times": [{"days": "Mon-Sat", "time": "7:00pm"}, {"days": "Sun", "time": "Closed"}], "id": "4680200004", "name": "USPS COLLECTION BOX - BLUE BOX", "address": {"city": "FORT WAYNE", "state": "IN", "street": "1501 S CLINTON ST", "postcode": "46802"}}},
{"geometry": {"type": "Point", "coordinates": [-85.1333012496, 41.080247161]}, "type": "Feature", "properties": {"collection_times": [{"days": "Mon-Fri", "time": "4:30pm"}, {"days": "Sat-Sun", "time": "Closed"}], "id": "4680200007", "name": "USPS COLLECTION BOX - BLUE BOX", "address": {"city": "FORT WAYNE", "state": "IN", "street": "437 E BERRY ST", "postcode": "46802"}}},
{"geometry": {"type": "Point", "coordinates": [-85.1361900354, 41.0776706763]}, "type": "Feature", "properties": {"collection_times": [{"days": "Mon-Fri", "time": "4:30pm"}, {"days": "Sat-Sun", "time": "Closed"}], "id": "4680200009", "name": "USPS COLLECTION BOX - BLUE BOX", "address": {"city": "FORT WAYNE", "state": "IN", "street": "227 E WASHINGTON BLVD", "postcode": "46802"}}},
{"geometry": {"type": "Point", "coordinates": [-85.1343519796, 41.0789736711]}, "type": "Feature", "properties": {"collection_times": [{"days": "Mon-Fri", "time": "3:30pm"}, {"days": "Sat", "time": "11:00am"}, {"days": "Sun", "time": "Closed"}], "id": "4680200012", "name": "USPS COLLECTION BOX - BLUE BOX", "address": {"city": "FORT WAYNE", "state": "IN", "street": "406 E WAYNE ST", "postcode": "46802"}}},
{"geometry": {"type": "Point", "coordinates": [-85.1391154933, 41.0805014972]}, "type": "Feature", "properties": {"collection_times": [{"days": "Mon-Fri", "time": "5:00pm"}, {"days": "Sat-Sun", "time": "Closed"}], "id": "4680200016", "name": "USPS COLLECTION BOX - BLUE BOX", "address": {"city": "FORT WAYNE", "state": "IN", "street": "1 E MAIN ST", "postcode": "46802"}}},
{"geometry": {"type": "Point", "coordinates": [-85.1397154886, 41.0798092495]}, "type": "Feature", "properties": {"collection_times": [{"days": "Mon-Fri", "time": "4:30pm"}, {"days": "Sat-Sun", "time": "Closed"}], "id": "4680200018", "name": "USPS COLLECTION BOX - BLUE BOX", "address": {"city": "FORT WAYNE", "state": "IN", "street": "715 S CALHOUN ST", "postcode": "46802"}}},
{"geometry": {"type": "Point", "coordinates": [-85.1582842626, 41.0696868001]}, "type": "Feature", "properties": {"collection_times": [{"days": "Mon-Sat", "time": "9:30am"}, {"days": "Sun", "time": "Closed"}], "id": "4680200023", "name": "USPS COLLECTION BOX - BLUE BOX", "address": {"city": "FORT WAYNE", "state": "IN", "street": "1535 SWINNEY AVE", "postcode": "46802"}}},
{"geometry": {"type": "Point", "coordinates": [-85.1540577121, 41.0721023432]}, "type": "Feature", "properties": {"collection_times": [{"days": "Mon-Fri", "time": "5:00pm"}, {"days": "Sat-Sun", "time": "Closed"}], "id": "4680200024", "name": "USPS COLLECTION BOX - BLUE BOX", "address": {"city": "FORT WAYNE", "state": "IN", "street": "210 W BERRY ST", "postcode": "46802"}}},
{"geometry": {"type": "Point", "coordinates": [-85.1386571961, 41.0794129722]}, "type": "Feature", "properties": {"collection_times": [{"days": "Mon-Fri", "time": "5:00pm"}, {"days": "Sat-Sun", "time": "Closed"}], "id": "4680200028", "name": "USPS COLLECTION BOX - BLUE BOX", "address": {"city": "FORT WAYNE", "state": "IN", "street": "116 E BERRY ST", "postcode": "46802"}}},
{"geometry": {"type": "Point", "coordinates": [-85.1524450745, 41.0673671038]}, "type": "Feature", "properties": {"collection_times": [{"days": "Mon-Sat", "time": "9:30am"}, {"days": "Sun", "time": "Closed"}], "id": "4680200038", "name": "USPS COLLECTION BOX - BLUE BOX", "address": {"city": "FORT WAYNE", "state": "IN", "street": "2021 BROADWAY", "postcode": "46802"}}},
{"geometry": {"type": "Point", "coordinates": [-85.1373996421, 41.0796614083]}, "type": "Feature", "properties": {"collection_times": [{"days": "Mon-Fri", "time": "5:00pm"}, {"days": "Sat-Sun", "time": "Closed"}], "id": "4680200042", "name": "USPS COLLECTION BOX - BLUE BOX", "address": {"city": "FORT WAYNE", "state": "IN", "street": "203 E BERRY ST", "postcode": "46802"}}},
{"geometry": {"type": "Point", "coordinates": [-85.1469596938, 41.0781308474]}, "type": "Feature", "properties": {"collection_times": [{"days": "Mon-Sat", "time": "9:00am"}, {"days": "Sun", "time": "Closed"}], "id": "4680200050", "name": "USPS COLLECTION BOX - BLUE BOX", "address": {"city": "FORT WAYNE", "state": "IN", "street": "530 W BERRY ST", "postcode": "46802"}}},
{"geometry": {"type": "Point", "coordinates": [-85.1484656006, 41.0774364505]}, "type": "Feature", "properties": {"collection_times": [{"days": "Mon-Fri", "time": "4:00pm"}, {"days": "Sat", "time": "9:30am"}, {"days": "Sun", "time": "Closed"}], "id": "4680200053", "name": "USPS COLLECTION BOX - BLUE BOX", "address": {"city": "FORT WAYNE", "state": "IN", "street": "800 BROADWAY", "postcode": "46802"}}},
{"geometry": {"type": "Point", "coordinates": [-85.1640201359, 41.0644032663]}, "type": "Feature", "properties": {"collection_times": [{"days": "Mon-Sat", "time": "10:00am"}, {"days": "Sun", "time": "Closed"}], "id": "4680200059", "name": "USPS COLLECTION BOX - BLUE BOX", "address": {"city": "FORT WAYNE", "state": "IN", "street": "1900 HALE AVE", "postcode": "46802"}}},
{"geometry": {"type": "Point", "coordinates": [-85.1442260527, 41.0785330045]}, "type": "Feature", "properties": {"collection_times": [{"days": "Mon-Fri", "time": "5:00pm"}, {"days": "Sat-Sun", "time": "Closed"}], "id": "4680200060", "name": "USPS COLLECTION BOX - BLUE BOX", "address": {"city": "FORT WAYNE", "state": "IN", "street": "347 W BERRY ST", "postcode": "46802"}}},
{"geometry": {"type": "Point", "coordinates": [-85.1340950151, 41.0811816985]}, "type": "Feature", "properties": {"collection_times": [{"days": "Mon-Fri", "time": "5:00pm"}, {"days": "Sat-Sun", "time": "Closed"}], "id": "4680200061", "name": "USPS COLLECTION BOX - BLUE BOX", "address": {"city": "FORT WAYNE", "state": "IN", "street": "444 E MAIN ST", "postcode": "46802"}}},
{"geometry": {"type": "Point", "coordinates": [-85.1395662003, 41.0791268988]}, "type": "Feature", "properties": {"collection_times": [{"days": "Mon-Fri", "time": "5:00pm"}, {"days": "Sat-Sun", "time": "Closed"}], "id": "4680200063", "name": "USPS COLLECTION BOX - BLUE BOX", "address": {"city": "FORT WAYNE", "state": "IN", "street": "803 S CALHOUN ST", "postcode": "46802"}}},
{"geometry": {"type": "Point", "coordinates": [-85.1444210639, 41.0777475687]}, "type": "Feature", "properties": {"collection_times": [{"days": "Mon-Fri", "time": "4:00pm"}, {"days": "Sat-Sun", "time": "Closed"}], "id": "4680200064", "name": "USPS COLLECTION BOX - BLUE BOX", "address": {"city": "FORT WAYNE", "state": "IN", "street": "826 EWING ST", "postcode": "46802"}}},
{"geometry": {"type": "Point", "coordinates": [-85.1466130869, 41.0771206004]}, "type": "Feature", "properties": {"collection_times": [{"days": "Mon-Fri", "time": "4:00pm"}, {"days": "Sat-Sun", "time": "Closed"}], "id": "4680200069", "name": "USPS COLLECTION BOX - BLUE BOX", "address": {"city": "FORT WAYNE", "state": "IN", "street": "535 W WAYNE ST", "postcode": "46802"}}},
{"geometry": {"type": "Point", "coordinates": [-85.1411164444, 41.0779432507]}, "type": "Feature", "properties": {"collection_times": [{"days": "Mon-Fri", "time": "5:00pm"}, {"days": "Sat-Sun", "time": "Closed"}], "id": "4680200070", "name": "USPS COLLECTION BOX - BLUE BOX", "address": {"city": "FORT WAYNE", "state": "IN", "street": "203 W WAYNE ST", "postcode": "46802"}}},
{"geometry": {"type": "Point", "coordinates": [-85.1496745426, 41.0767056886]}, "type": "Feature", "properties": {"collection_times": [{"days": "Mon-Sat", "time": "9:30am"}, {"days": "Sun", "time": "Closed"}], "id": "4680200071", "name": "USPS COLLECTION BOX - BLUE BOX", "address": {"city": "FORT WAYNE", "state": "IN", "street": "800 W WAYNE ST", "postcode": "46802"}}},
{"geometry": {"type": "Point", "coordinates": [-85.1401162762, 41.0811320143]}, "type": "Feature", "properties": {"collection_times": [{"days": "Mon-Fri", "time": "4:45pm"}, {"days": "Sat-Sun", "time": "Closed"}], "id": "4680200075", "name": "USPS COLLECTION BOX - BLUE BOX", "address": {"city": "FORT WAYNE", "state": "IN", "street": "602 S CALHOUN ST", "postcode": "46802"}}},
{"geometry": {"type": "Point", "coordinates": [-85.1400299202, 41.0737657288]}, "type": "Feature", "properties": {"collection_times": [{"days": "Mon-Fri", "time": "5:00pm"}, {"days": "Sat-Sun", "time": "Closed"}], "id": "4680200078", "name": "USPS COLLECTION BOX - BLUE BOX", "address": {"city": "FORT WAYNE", "state": "IN", "street": "1300 S HARRISON ST", "postcode": "46802"}}},
{"geometry": {"type": "Point", "coordinates": [-85.1400299202, 41.0737657288]}, "type": "Feature", "properties": {"collection_times": [{"days": "Mon-Fri", "time": "5:00pm"}, {"days": "Sat-Sun", "time": "Closed"}], "id": "4680200079", "name": "USPS COLLECTION BOX - BLUE BOX", "address": {"city": "FORT WAYNE", "state": "IN", "street": "1300 S HARRISON ST", "postcode": "46802"}}},
{"geometry": {"type": "Point", "coordinates": [-85.1806556626, 41.0602399764]}, "type": "Feature", "properties": {"collection_times": [{"days": "Mon-Sat", "time": "11:00am"}, {"days": "Sun", "time": "Closed"}], "id": "4680200085", "name": "USPS COLLECTION BOX - BLUE BOX", "address": {"city": "FORT WAYNE", "state": "IN", "street": "3200 COVINGTON RD", "postcode": "46802"}}},
{"geometry": {"type": "Point", "coordinates": [-85.1389581594, 41.0783224867]}, "type": "Feature", "properties": {"collection_times": [{"days": "Mon-Fri", "time": "4:30pm"}, {"days": "Sat-Sun", "time": "Closed"}], "id": "4680200088", "name": "USPS COLLECTION BOX - BLUE BOX", "address": {"city": "FORT WAYNE", "state": "IN", "street": "111 E WAYNE ST", "postcode": "46802"}}},
{"geometry": {"type": "Point", "coordinates": [-85.1739821487, 41.0638018903]}, "type": "Feature", "properties": {"collection_times": [{"days": "Mon-Fri", "time": "5:00pm"}, {"days": "Sat-Sun", "time": "Closed"}], "id": "4680200090", "name": "USPS COLLECTION BOX - BLUE BOX", "address": {"city": "FORT WAYNE", "state": "IN", "street": "1 SUMMIT SQ", "postcode": "46802"}}},
{"geometry": {"type": "Point", "coordinates": [-85.1739821487, 41.0638018903]}, "type": "Feature", "properties": {"collection_times": [{"days": "Mon-Fri", "time": "5:00pm"}, {"days": "Sat-Sun", "time": "Closed"}], "id": "4680200092", "name": "USPS COLLECTION BOX - BLUE BOX", "address": {"city": "FORT WAYNE", "state": "IN", "street": "1 SUMMIT SQ", "postcode": "46802"}}},
{"geometry": {"type": "Point", "coordinates": [-85.1411265232, 41.0779888923]}, "type": "Feature", "properties": {"collection_times": [{"days": "Mon-Fri", "time": "5:00pm"}, {"days": "Sat-Sun", "time": "Closed"}], "id": "4680200095", "name": "USPS COLLECTION BOX - BLUE BOX", "address": {"city": "FORT WAYNE", "state": "IN", "street": "203 W WAYNE ST", "postcode": "46802"}}},
{"geometry": {"type": "Point", "coordinates": [-85.1406805476, 41.0772566407]}, "type": "Feature", "properties": {"collection_times": [{"days": "Mon-Fri", "time": "5:00pm"}, {"days": "Sat-Sun", "time": "Closed"}], "id": "4680200101", "name": "USPS COLLECTION BOX - BLUE BOX", "address": {"city": "FORT WAYNE", "state": "IN", "street": "927 S HARRISON ST", "postcode": "46802"}}},
{"geometry": {"type": "Point", "coordinates": [-85.1406805476, 41.0772566407]}, "type": "Feature", "properties": {"collection_times": [{"days": "Mon-Fri", "time": "5:00pm"}, {"days": "Sat-Sun", "time": "Closed"}], "id": "4680200103", "name": "USPS COLLECTION BOX - BLUE BOX", "address": {"city": "FORT WAYNE", "state": "IN", "street": "927 S HARRISON ST", "postcode": "46802"}}},
{"geometry": {"type": "Point", "coordinates": [-85.1401931685, 41.0823894996]}, "type": "Feature", "properties": {"collection_times": [{"days": "Mon-Fri", "time": "3:30pm"}, {"days": "Sat-Sun", "time": "Closed"}], "id": "4680200104", "name": "USPS COLLECTION BOX - BLUE BOX", "address": {"city": "FORT WAYNE", "state": "IN", "street": "101 E SUPERIOR ST", "postcode": "46802"}}},
{"geometry": {"type": "Point", "coordinates": [-85.1367614046, 41.0729175472]}, "type": "Feature", "properties": {"collection_times": [{"days": "Mon-Sat", "time": "7:00pm"}, {"days": "Sun", "time": "Closed"}], "id": "4680200105", "name": "USPS COLLECTION BOX - APC", "address": {"city": "FORT WAYNE", "state": "IN", "street": "1501 S CLINTON ST", "postcode": "46802"}}},
{"geometry": {"type": "Point", "coordinates": [-85.1444210639, 41.0777475687]}, "type": "Feature", "properties": {"collection_times": [{"days": "Mon-Fri", "time": "4:00pm"}, {"days": "Sat-Sun", "time": "Closed"}], "id": "4680200107", "name": "USPS COLLECTION BOX - BLUE BOX", "address": {"city": "FORT WAYNE", "state": "IN", "street": "826 EWING ST", "postcode": "46802"}}},
{"geometry": {"type": "Point", "coordinates": [-85.136797026, 41.079683373]}, "type": "Feature", "properties": {"collection_times": [{"days": "Mon-Fri", "time": "4:45pm"}, {"days": "Sat-Sun", "time": "Closed"}], "id": "4680200108", "name": "USPS COLLECTION BOX - BLUE BOX", "address": {"city": "FORT WAYNE", "state": "IN", "street": "200 E BERRY ST", "postcode": "46802"}}},
{"geometry": {"type": "Point", "coordinates": [-85.1038432055, 41.0685488798]}, "type": "Feature", "properties": {"collection_times": [{"days": "Mon-Sat", "time": "11:00am"}, {"days": "Sun", "time": "Closed"}], "id": "4680300000", "name": "USPS COLLECTION BOX - BLUE BOX", "address": {"city": "FORT WAYNE", "state": "IN", "street": "2605 NEW HAVEN AVE", "postcode": "46803"}}},
{"geometry": {"type": "Point", "coordinates": [-85.1176502432, 41.0660538837]}, "type": "Feature", "properties": {"collection_times": [{"days": "Mon-Sat", "time": "9:30am"}, {"days": "Sun", "time": "Closed"}], "id": "4680300001", "name": "USPS COLLECTION BOX - BLUE BOX", "address": {"city": "FORT WAYNE", "state": "IN", "street": "2201 REED ST", "postcode": "46803"}}},
{"geometry": {"type": "Point", "coordinates": [-85.1256569688, 41.06770543]}, "type": "Feature", "properties": {"collection_times": [{"days": "Mon-Sat", "time": "9:30am"}, {"days": "Sun", "time": "Closed"}], "id": "4680300004", "name": "USPS COLLECTION BOX - BLUE BOX", "address": {"city": "FORT WAYNE", "state": "IN", "street": "865 BUCHANAN ST", "postcode": "46803"}}},
{"geometry": {"type": "Point", "coordinates": [-85.1160004748, 41.0791186181]}, "type": "Feature", "properties": {"collection_times": [{"days": "Mon-Fri", "time": "2:45pm"}, {"days": "Sat-Sun", "time": "Closed"}], "id": "4680300005", "name": "USPS COLLECTION BOX - BLUE BOX", "address": {"city": "FORT WAYNE", "state": "IN", "street": "1600 E WASHINGTON BLVD", "postcode": "46803"}}},
{"geometry": {"type": "Point", "coordinates": [-85.2308777201, 41.0533781078]}, "type": "Feature", "properties": {"collection_times": [{"days": "Mon-Fri", "time": "4:30pm"}, {"days": "Sat", "time": "11:00am"}, {"days": "Sun", "time": "Closed"}], "id": "4680400000", "name": "USPS COLLECTION BOX - BLUE BOX", "address": {"city": "FORT WAYNE", "state": "IN", "street": "3304 MALLARD COVE LN", "postcode": "46804"}}},
{"geometry": {"type": "Point", "coordinates": [-85.2193831512, 41.0566250939]}, "type": "Feature", "properties": {"collection_times": [{"days": "Mon-Sat", "time": "9:30am"}, {"days": "Sun", "time": "Closed"}], "id": "4680400002", "name": "USPS COLLECTION BOX - BLUE BOX", "address": {"city": "FORT WAYNE", "state": "IN", "street": "2912 GETZ RD", "postcode": "46804"}}},
{"geometry": {"type": "Point", "coordinates": [-85.2229305015, 41.0618935526]}, "type": "Feature", "properties": {"collection_times": [{"days": "Mon-Sat", "time": "12:00pm"}, {"days": "Sun", "time": "Closed"}], "id": "4680400003", "name": "USPS COLLECTION BOX - BLUE BOX", "address": {"city": "FORT WAYNE", "state": "IN", "street": "6408 COVINGTON RD", "postcode": "46804"}}},
{"geometry": {"type": "Point", "coordinates": [-85.2569867072, 41.0332718605]}, "type": "Feature", "properties": {"collection_times": [{"days": "Mon-Fri", "time": "4:15pm"}, {"days": "Sat", "time": "11:00am"}, {"days": "Sun", "time": "Closed"}], "id": "4680400004", "name": "USPS COLLECTION BOX - BLUE BOX", "address": {"city": "FORT WAYNE", "state": "IN", "street": "5735 COVENTRY LN", "postcode": "46804"}}},
{"geometry": {"type": "Point", "coordinates": [-85.2351047392, 41.0864439632]}, "type": "Feature", "properties": {"collection_times": [{"days": "Mon-Sat", "time": "12:00pm"}, {"days": "Sun", "time": "Closed"}], "id": "4680400005", "name": "USPS COLLECTION BOX - BLUE BOX", "address": {"city": "FORT WAYNE", "state": "IN", "street": "7100 LINCOLN PKWY", "postcode": "46804"}}},
{"geometry": {"type": "Point", "coordinates": [-85.2472131002, 41.0387974618]}, "type": "Feature", "properties": {"collection_times": [{"days": "Mon-Sat", "time": "11:30am"}, {"days": "Sun", "time": "Closed"}], "id": "4680400008", "name": "USPS COLLECTION BOX - BLUE BOX", "address": {"city": "FORT WAYNE", "state": "IN", "street": "7900 W JEFFERSON BLVD", "postcode": "46804"}}},
{"geometry": {"type": "Point", "coordinates": [-85.2215760135, 41.059720457]}, "type": "Feature", "properties": {"collection_times": [{"days": "Mon-Sat", "time": "10:00am"}, {"days": "Sun", "time": "Closed"}], "id": "4680400009", "name": "USPS COLLECTION BOX - BLUE BOX", "address": {"city": "FORT WAYNE", "state": "IN", "street": "6242 COVINGTON RD", "postcode": "46804"}}},
{"geometry": {"type": "Point", "coordinates": [-85.2414097639, 41.0522565913]}, "type": "Feature", "properties": {"collection_times": [{"days": "Mon-Sat", "time": "11:00am"}, {"days": "Sun", "time": "Closed"}], "id": "4680400010", "name": "USPS COLLECTION BOX - BLUE BOX", "address": {"city": "FORT WAYNE", "state": "IN", "street": "5901 MEADOWS DR", "postcode": "46804"}}},
{"geometry": {"type": "Point", "coordinates": [-85.2339604109, 41.0730417579]}, "type": "Feature", "properties": {"collection_times": [{"days": "Mon-Fri", "time": "4:00pm"}, {"days": "Sat", "time": "12:00pm"}, {"days": "Sun", "time": "Closed"}], "id": "4680400011", "name": "USPS COLLECTION BOX - BLUE BOX", "address": {"city": "FORT WAYNE", "state": "IN", "street": "7030 POINTE INVERNESS WAY", "postcode": "46804"}}},
{"geometry": {"type": "Point", "coordinates": [-85.2352563559, 41.0718863082]}, "type": "Feature", "properties": {"collection_times": [{"days": "Mon-Sat", "time": "12:00pm"}, {"days": "Sun", "time": "Closed"}], "id": "4680400012", "name": "USPS COLLECTION BOX - BLUE BOX", "address": {"city": "FORT WAYNE", "state": "IN", "street": "7051 POINTE INVERNESS WAY", "postcode": "46804"}}},
{"geometry": {"type": "Point", "coordinates": [-85.1907683577, 41.0728463351]}, "type": "Feature", "properties": {"collection_times": [{"days": "Mon-Fri", "time": "3:30pm"}, {"days": "Sat", "time": "1:00pm"}, {"days": "Sun", "time": "Closed"}], "id": "4680400013", "name": "USPS COLLECTION BOX - BLUE BOX", "address": {"city": "FORT WAYNE", "state": "IN", "street": "3900 W JEFFERSON BLVD", "postcode": "46804"}}},
{"geometry": {"type": "Point", "coordinates": [-85.1907683577, 41.0728463351]}, "type": "Feature", "properties": {"collection_times": [{"days": "Mon-Fri", "time": "3:30pm"}, {"days": "Sat", "time": "1:00pm"}, {"days": "Sun", "time": "Closed"}], "id": "4680400014", "name": "USPS COLLECTION BOX - BLUE BOX", "address": {"city": "FORT WAYNE", "state": "IN", "street": "3900 W JEFFERSON BLVD", "postcode": "46804"}}},
{"geometry": {"type": "Point", "coordinates": [-85.2214376073, 41.0736888365]}, "type": "Feature", "properties": {"collection_times": [{"days": "Mon-Fri", "time": "3:45pm"}, {"days": "Sat", "time": "11:00am"}, {"days": "Sun", "time": "Closed"}], "id": "4680400017", "name": "USPS COLLECTION BOX - BLUE BOX", "address": {"city": "FORT WAYNE", "state": "IN", "street": "1235 MAGNAVOX WAY", "postcode": "46804"}}},
{"geometry": {"type": "Point", "coordinates": [-85.2362993947, 41.0469930193]}, "type": "Feature", "properties": {"collection_times": [{"days": "Mon-Fri", "time": "4:30pm"}, {"days": "Sat", "time": "1:00pm"}, {"days": "Sun", "time": "Closed"}], "id": "4680400018", "name": "USPS COLLECTION BOX - BLUE BOX", "address": {"city": "FORT WAYNE", "state": "IN", "street": "7300 W JEFFERSON BLVD", "postcode": "46804"}}},
{"geometry": {"type": "Point", "coordinates": [-85.2359927344, 41.0438037441]}, "type": "Feature", "properties": {"collection_times": [{"days": "Mon-Sat", "time": "10:00am"}, {"days": "Sun", "time": "Closed"}], "id": "4680400021", "name": "USPS COLLECTION BOX - BLUE BOX", "address": {"city": "FORT WAYNE", "state": "IN", "street": "7221 ENGLE RD", "postcode": "46804"}}},
{"geometry": {"type": "Point", "coordinates": [-85.2162728085, 41.0603024728]}, "type": "Feature", "properties": {"collection_times": [{"days": "Mon-Fri", "time": "5:00pm"}, {"days": "Sat", "time": "3:45pm"}, {"days": "Sun", "time": "Closed"}], "id": "4680400023", "name": "USPS COLLECTION BOX - BLUE BOX", "address": {"city": "FORT WAYNE", "state": "IN", "street": "5930 W JEFFERSON BLVD", "postcode": "46804"}}},
{"geometry": {"type": "Point", "coordinates": [-85.2362993947, 41.0469930193]}, "type": "Feature", "properties": {"collection_times": [{"days": "Mon-Fri", "time": "4:30pm"}, {"days": "Sat", "time": "1:00pm"}, {"days": "Sun", "time": "Closed"}], "id": "4680400024", "name": "USPS COLLECTION BOX - BLUE BOX", "address": {"city": "FORT WAYNE", "state": "IN", "street": "7300 W JEFFERSON BLVD", "postcode": "46804"}}},
{"geometry": {"type": "Point", "coordinates": [-85.199795373, 41.0673197854]}, "type": "Feature", "properties": {"collection_times": [{"days": "Mon-Fri", "time": "3:30pm"}, {"days": "Sat", "time": "1:00pm"}, {"days": "Sun", "time": "Closed"}], "id": "4680400026", "name": "USPS COLLECTION BOX - BLUE BOX", "address": {"city": "FORT WAYNE", "state": "IN", "street": "4600 W JEFFERSON BLVD", "postcode": "46804"}}},
{"geometry": {"type": "Point", "coordinates": [-85.2420945086, 41.0752846985]}, "type": "Feature", "properties": {"collection_times": [{"days": "Mon-Fri", "time": "11:30am"}, {"days": "Sat", "time": "11:00am"}, {"days": "Sun", "time": "Closed"}], "id": "4680400029", "name": "USPS COLLECTION BOX - BLUE BOX", "address": {"city": "FORT WAYNE", "state": "IN", "street": "7606 CANTERCHASE CT", "postcode": "46804"}}},
{"geometry": {"type": "Point", "coordinates": [-85.2544371145, 41.0433699855]}, "type": "Feature", "properties": {"collection_times": [{"days": "Mon-Sat", "time": "12:00pm"}, {"days": "Sun", "time": "Closed"}], "id": "4680400030", "name": "USPS COLLECTION BOX - BLUE BOX", "address": {"city": "FORT WAYNE", "state": "IN", "street": "4613 COVENTRY PKWY", "postcode": "46804"}}},
{"geometry": {"type": "Point", "coordinates": [-85.2258506707, 41.0678852578]}, "type": "Feature", "properties": {"collection_times": [{"days": "Mon-Fri", "time": "4:00pm"}, {"days": "Sat", "time": "11:00am"}, {"days": "Sun", "time": "Closed"}], "id": "4680400032", "name": "USPS COLLECTION BOX - BLUE BOX", "address": {"city": "FORT WAYNE", "state": "IN", "street": "6323 CONSTITUTION DR", "postcode": "46804"}}},
{"geometry": {"type": "Point", "coordinates": [-85.2184991372, 41.0744258199]}, "type": "Feature", "properties": {"collection_times": [{"days": "Mon-Sat", "time": "3:45pm"}, {"days": "Sun", "time": "Closed"}], "id": "4680400033", "name": "USPS COLLECTION BOX - BLUE BOX", "address": {"city": "FORT WAYNE", "state": "IN", "street": "5909 ILLINOIS RD", "postcode": "46804"}}},
{"geometry": {"type": "Point", "coordinates": [-85.2238413799, 41.0565595906]}, "type": "Feature", "properties": {"collection_times": [{"days": "Mon-Fri", "time": "2:00pm"}, {"days": "Sat", "time": "10:00am"}, {"days": "Sun", "time": "Closed"}], "id": "4680400034", "name": "USPS COLLECTION BOX - BLUE BOX", "address": {"city": "FORT WAYNE", "state": "IN", "street": "6360 W JEFFERSON BLVD", "postcode": "46804"}}},
{"geometry": {"type": "Point", "coordinates": [-85.2569867072, 41.0332718605]}, "type": "Feature", "properties": {"collection_times": [{"days": "Mon-Fri", "time": "4:15pm"}, {"days": "Sat", "time": "11:00am"}, {"days": "Sun", "time": "Closed"}], "id": "4680400037", "name": "USPS COLLECTION BOX - BLUE BOX", "address": {"city": "FORT WAYNE", "state": "IN", "street": "5735 COVENTRY LN", "postcode": "46804"}}},
{"geometry": {"type": "Point", "coordinates": [-85.1115809401, 41.0969221505]}, "type": "Feature", "properties": {"collection_times": [{"days": "Mon-Fri", "time": "3:00pm"}, {"days": "Sat", "time": "1:30pm"}, {"days": "Sun", "time": "Closed"}], "id": "4680500001", "name": "USPS COLLECTION BOX - BLUE BOX", "address": {"city": "FORT WAYNE", "state": "IN", "street": "2200 RANDALLIA DR", "postcode": "46805"}}},
{"geometry": {"type": "Point", "coordinates": [-85.1081757844, 41.0897253518]}, "type": "Feature", "properties": {"collection_times": [{"days": "Mon-Fri", "time": "3:00pm"}, {"days": "Sat-Sun", "time": "Closed"}], "id": "4680500002", "name": "USPS COLLECTION BOX - BLUE BOX", "address": {"city": "FORT WAYNE", "state": "IN", "street": "2300 LAKE AVE", "postcode": "46805"}}},
{"geometry": {"type": "Point", "coordinates": [-85.0883606385, 41.0994631464]}, "type": "Feature", "properties": {"collection_times": [{"days": "Mon-Fri", "time": "3:00pm"}, {"days": "Sat-Sun", "time": "Closed"}], "id": "4680500005", "name": "USPS COLLECTION BOX - BLUE BOX", "address": {"city": "FORT WAYNE", "state": "IN", "street": "2420 N COLISEUM BLVD", "postcode": "46805"}}},
{"geometry": {"type": "Point", "coordinates": [-85.115877447, 41.1047178501]}, "type": "Feature", "properties": {"collection_times": [{"days": "Mon-Fri", "time": "10:00am"}, {"days": "Sat-Sun", "time": "Closed"}], "id": "4680500009", "name": "USPS COLLECTION BOX - BLUE BOX", "address": {"city": "FORT WAYNE", "state": "IN", "street": "3105 N ANTHONY BLVD", "postcode": "46805"}}},
{"geometry": {"type": "Point", "coordinates": [-85.0995606784, 41.0973758421]}, "type": "Feature", "properties": {"collection_times": [{"days": "Mon-Fri", "time": "2:00pm"}, {"days": "Sat-Sun", "time": "Closed"}], "id": "4680500011", "name": "USPS COLLECTION BOX - BLUE BOX", "address": {"city": "FORT WAYNE", "state": "IN", "street": "3125 E STATE BLVD", "postcode": "46805"}}},
{"geometry": {"type": "Point", "coordinates": [-85.0925991805, 41.1070056928]}, "type": "Feature", "properties": {"collection_times": [{"days": "Mon-Fri", "time": "3:00pm"}, {"days": "Sat-Sun", "time": "Closed"}], "id": "4680500012", "name": "USPS COLLECTION BOX - BLUE BOX", "address": {"city": "FORT WAYNE", "state": "IN", "street": "3400 E COLISEUM BLVD", "postcode": "46805"}}},
{"geometry": {"type": "Point", "coordinates": [-85.0896488809, 41.0977088182]}, "type": "Feature", "properties": {"collection_times": [{"days": "Mon-Fri", "time": "2:00pm"}, {"days": "Sat-Sun", "time": "Closed"}], "id": "4680500014", "name": "USPS COLLECTION BOX - BLUE BOX", "address": {"city": "FORT WAYNE", "state": "IN", "street": "3915 E STATE BLVD", "postcode": "46805"}}},
{"geometry": {"type": "Point", "coordinates": [-85.1304684688, 41.1156967812]}, "type": "Feature", "properties": {"collection_times": [{"days": "Mon-Fri", "time": "3:30pm"}, {"days": "Sat", "time": "10:00am"}, {"days": "Sun", "time": "Closed"}], "id": "4680500017", "name": "USPS COLLECTION BOX - BLUE BOX", "address": {"city": "FORT WAYNE", "state": "IN", "street": "4120 N CLINTON ST", "postcode": "46805"}}},
{"geometry": {"type": "Point", "coordinates": [-85.1337448592, 41.0893417495]}, "type": "Feature", "properties": {"collection_times": [{"days": "Mon-Fri", "time": "2:30pm"}, {"days": "Sat", "time": "1:30pm"}, {"days": "Sun", "time": "Closed"}], "id": "4680500032", "name": "USPS COLLECTION BOX - BLUE BOX", "address": {"city": "FORT WAYNE", "state": "IN", "street": "520 TENNESSEE AVE", "postcode": "46805"}}},
{"geometry": {"type": "Point", "coordinates": [-85.1351975328, 41.1132174103]}, "type": "Feature", "properties": {"collection_times": [{"days": "Mon-Fri", "time": "4:15pm"}, {"days": "Sat", "time": "2:00pm"}, {"days": "Sun", "time": "Closed"}], "id": "4680500034", "name": "USPS COLLECTION BOX - BLUE BOX", "address": {"city": "FORT WAYNE", "state": "IN", "street": "4201 COLDWATER RD", "postcode": "46805"}}},
{"geometry": {"type": "Point", "coordinates": [-85.1351975328, 41.1132174103]}, "type": "Feature", "properties": {"collection_times": [{"days": "Mon-Fri", "time": "4:15pm"}, {"days": "Sat", "time": "2:00pm"}, {"days": "Sun", "time": "Closed"}], "id": "4680500035", "name": "USPS COLLECTION BOX - BLUE BOX", "address": {"city": "FORT WAYNE", "state": "IN", "street": "4201 COLDWATER RD", "postcode": "46805"}}},
{"geometry": {"type": "Point", "coordinates": [-85.1079918426, 41.0933034791]}, "type": "Feature", "properties": {"collection_times": [{"days": "Mon-Fri", "time": "3:00pm"}, {"days": "Sat-Sun", "time": "Closed"}], "id": "4680500041", "name": "USPS COLLECTION BOX - BLUE BOX", "address": {"city": "FORT WAYNE", "state": "IN", "street": "1818 CAREW ST", "postcode": "46805"}}},
{"geometry": {"type": "Point", "coordinates": [-85.1284962292, 41.1220135771]}, "type": "Feature", "properties": {"collection_times": [{"days": "Mon-Fri", "time": "4:45pm"}, {"days": "Sat", "time": "3:30pm"}, {"days": "Sun", "time": "Closed"}], "id": "4680500049", "name": "USPS COLLECTION BOX - BLUE BOX", "address": {"city": "FORT WAYNE", "state": "IN", "street": "901 NORTHCREST SHOPPING CTR", "postcode": "46805"}}},
{"geometry": {"type": "Point", "coordinates": [-85.1205347565, 41.0967719147]}, "type": "Feature", "properties": {"collection_times": [{"days": "Mon-Fri", "time": "2:30pm"}, {"days": "Sat-Sun", "time": "Closed"}], "id": "4680500053", "name": "USPS COLLECTION BOX - BLUE BOX", "address": {"city": "FORT WAYNE", "state": "IN", "street": "1411 E STATE BLVD", "postcode": "46805"}}},
{"geometry": {"type": "Point", "coordinates": [-85.1137717801, 41.1051579108]}, "type": "Feature", "properties": {"collection_times": [{"days": "Mon-Fri", "time": "5:00pm"}, {"days": "Sat", "time": "3:00pm"}, {"days": "Sun", "time": "Closed"}], "id": "4680500055", "name": "USPS COLLECTION BOX - PO LOBBY", "address": {"city": "FORT WAYNE", "state": "IN", "street": "1800 HAZELWOOD AVE", "postcode": "46805"}}},
{"geometry": {"type": "Point", "coordinates": [-85.1137717801, 41.1051579108]}, "type": "Feature", "properties": {"collection_times": [{"days": "Mon-Fri", "time": "5:00pm"}, {"days": "Sat", "time": "3:00pm"}, {"days": "Sun", "time": "Closed"}], "id": "4680500058", "name": "USPS COLLECTION BOX - BLUE BOX", "address": {"city": "FORT WAYNE", "state": "IN", "street": "1800 HAZELWOOD AVE", "postcode": "46805"}}},
{"geometry": {"type": "Point", "coordinates": [-85.1354719793, 41.0500817074]}, "type": "Feature", "properties": {"collection_times": [{"days": "Mon-Fri", "time": "2:30pm"}, {"days": "Sat", "time": "9:00am"}, {"days": "Sun", "time": "Closed"}], "id": "4680600003", "name": "USPS COLLECTION BOX - BLUE BOX", "address": {"city": "FORT WAYNE", "state": "IN", "street": "201 E RUDISILL BLVD", "postcode": "46806"}}},
{"geometry": {"type": "Point", "coordinates": [-85.0461739559, 41.0551861753]}, "type": "Feature", "properties": {"collection_times": [{"days": "Mon-Sat", "time": "12:00pm"}, {"days": "Sun", "time": "Closed"}], "id": "4680600009", "name": "USPS COLLECTION BOX - BLUE BOX", "address": {"city": "FORT WAYNE", "state": "IN", "street": "7227 MOELLER RD", "postcode": "46806"}}},
{"geometry": {"type": "Point", "coordinates": [-85.1349124397, 41.0365462909]}, "type": "Feature", "properties": {"collection_times": [{"days": "Mon-Fri", "time": "2:00pm"}, {"days": "Sat", "time": "10:30am"}, {"days": "Sun", "time": "Closed"}], "id": "4680600029", "name": "USPS COLLECTION BOX - BLUE BOX", "address": {"city": "FORT WAYNE", "state": "IN", "street": "210 E PETTIT AVE", "postcode": "46806"}}},
{"geometry": {"type": "Point", "coordinates": [-85.1349124397, 41.0365462909]}, "type": "Feature", "properties": {"collection_times": [{"days": "Mon-Fri", "time": "2:00pm"}, {"days": "Sat", "time": "10:30am"}, {"days": "Sun", "time": "Closed"}], "id": "4680600030", "name": "USPS COLLECTION BOX - BLUE BOX", "address": {"city": "FORT WAYNE", "state": "IN", "street": "210 E PETTIT AVE", "postcode": "46806"}}},
{"geometry": {"type": "Point", "coordinates": [-85.0957813401, 41.0470284903]}, "type": "Feature", "properties": {"collection_times": [{"days": "Mon-Fri", "time": "5:00pm"}, {"days": "Sat", "time": "3:00pm"}, {"days": "Sun", "time": "Closed"}], "id": "4680600031", "name": "USPS COLLECTION BOX - BLUE BOX", "address": {"city": "FORT WAYNE", "state": "IN", "street": "4171 DIPLOMAT PLAZA CTR", "postcode": "46806"}}},
{"geometry": {"type": "Point", "coordinates": [-85.0957813401, 41.0470284903]}, "type": "Feature", "properties": {"collection_times": [{"days": "Mon-Fri", "time": "5:00pm"}, {"days": "Sat", "time": "1:00pm"}, {"days": "Sun", "time": "Closed"}], "id": "4680600033", "name": "USPS COLLECTION BOX - PO LOBBY", "address": {"city": "FORT WAYNE", "state": "IN", "street": "4171 DIPLOMAT PLAZA CTR", "postcode": "46806"}}},
{"geometry": {"type": "Point", "coordinates": [-85.1373331134, 41.0508144475]}, "type": "Feature", "properties": {"collection_times": [{"days": "Mon-Sat", "time": "12:30pm"}, {"days": "Sun", "time": "Closed"}], "id": "4680700000", "name": "USPS COLLECTION BOX - BLUE BOX", "address": {"city": "FORT WAYNE", "state": "IN", "street": "3813 S CALHOUN ST", "postcode": "46807"}}},
{"geometry": {"type": "Point", "coordinates": [-85.1519742569, 41.0434145506]}, "type": "Feature", "properties": {"collection_times": [{"days": "Mon-Sat", "time": "1:00pm"}, {"days": "Sun", "time": "Closed"}], "id": "4680700003", "name": "USPS COLLECTION BOX - BLUE BOX", "address": {"city": "FORT WAYNE", "state": "IN", "street": "1115 WESTOVER RD", "postcode": "46807"}}},
{"geometry": {"type": "Point", "coordinates": [-85.1374439719, 41.0435967263]}, "type": "Feature", "properties": {"collection_times": [{"days": "Mon-Fri", "time": "10:00am"}, {"days": "Sat", "time": "11:00am"}, {"days": "Sun", "time": "Closed"}], "id": "4680700004", "name": "USPS COLLECTION BOX - BLUE BOX", "address": {"city": "FORT WAYNE", "state": "IN", "street": "102 S CORNELL CIR", "postcode": "46807"}}},
{"geometry": {"type": "Point", "coordinates": [-85.1449424579, 41.0566825517]}, "type": "Feature", "properties": {"collection_times": [{"days": "Mon-Sat", "time": "1:00pm"}, {"days": "Sun", "time": "Closed"}], "id": "4680700005", "name": "USPS COLLECTION BOX - BLUE BOX", "address": {"city": "FORT WAYNE", "state": "IN", "street": "3130 FAIRFIELD AVE", "postcode": "46807"}}},
{"geometry": {"type": "Point", "coordinates": [-85.1479238054, 41.0390281388]}, "type": "Feature", "properties": {"collection_times": [{"days": "Mon-Sat", "time": "1:00pm"}, {"days": "Sun", "time": "Closed"}], "id": "4680700007", "name": "USPS COLLECTION BOX - BLUE BOX", "address": {"city": "FORT WAYNE", "state": "IN", "street": "4901 TACOMA AVE", "postcode": "46807"}}},
{"geometry": {"type": "Point", "coordinates": [-85.1430819543, 41.0310348851]}, "type": "Feature", "properties": {"collection_times": [{"days": "Mon-Sat", "time": "1:00pm"}, {"days": "Sun", "time": "Closed"}], "id": "4680700009", "name": "USPS COLLECTION BOX - BLUE BOX", "address": {"city": "FORT WAYNE", "state": "IN", "street": "5800 FAIRFIELD AVE", "postcode": "46807"}}},
{"geometry": {"type": "Point", "coordinates": [-85.158169413, 41.0959710515]}, "type": "Feature", "properties": {"collection_times": [{"days": "Mon-Fri", "time": "3:00pm"}, {"days": "Sat", "time": "1:00pm"}, {"days": "Sun", "time": "Closed"}], "id": "4680800065", "name": "USPS COLLECTION BOX - BLUE BOX", "address": {"city": "FORT WAYNE", "state": "IN", "street": "1203 W STATE BLVD", "postcode": "46808"}}},
{"geometry": {"type": "Point", "coordinates": [-85.158169413, 41.0959710515]}, "type": "Feature", "properties": {"collection_times": [{"days": "Mon-Fri", "time": "3:00pm"}, {"days": "Sat", "time": "1:00pm"}, {"days": "Sun", "time": "Closed"}], "id": "4680800066", "name": "USPS COLLECTION BOX - BLUE BOX", "address": {"city": "FORT WAYNE", "state": "IN", "street": "1203 W STATE BLVD", "postcode": "46808"}}},
{"geometry": {"type": "Point", "coordinates": [-85.1455223987, 41.0961437635]}, "type": "Feature", "properties": {"collection_times": [{"days": "Mon-Sat", "time": "12:00pm"}, {"days": "Sun", "time": "Closed"}], "id": "4680800077", "name": "USPS COLLECTION BOX - BLUE BOX", "address": {"city": "FORT WAYNE", "state": "IN", "street": "330 W STATE BLVD", "postcode": "46808"}}},
{"geometry": {"type": "Point", "coordinates": [-85.1753932955, 41.1116074031]}, "type": "Feature", "properties": {"collection_times": [{"days": "Mon-Fri", "time": "5:15pm"}, {"days": "Sat", "time": "3:00pm"}, {"days": "Sun", "time": "Closed"}], "id": "4680800083", "name": "USPS COLLECTION BOX - BLUE BOX", "address": {"city": "FORT WAYNE", "state": "IN", "street": "2525 INDEPENDENCE DR", "postcode": "46808"}}},
{"geometry": {"type": "Point", "coordinates": [-85.1753932955, 41.1116074031]}, "type": "Feature", "properties": {"collection_times": [{"days": "Mon-Fri", "time": "5:30pm"}, {"days": "Sat", "time": "3:00pm"}, {"days": "Sun", "time": "Closed"}], "id": "4680800101", "name": "USPS COLLECTION BOX - PO LOBBY", "address": {"city": "FORT WAYNE", "state": "IN", "street": "2525 INDEPENDENCE DR", "postcode": "46808"}}},
{"geometry": {"type": "Point", "coordinates": [-85.1658704758, 41.1221392868]}, "type": "Feature", "properties": {"collection_times": [{"days": "Mon-Fri", "time": "5:00pm"}, {"days": "Sat", "time": "10:00am"}, {"days": "Sun", "time": "Closed"}], "id": "4680800108", "name": "USPS COLLECTION BOX - BLUE BOX", "address": {"city": "FORT WAYNE", "state": "IN", "street": "4815 EXECUTIVE BLVD", "postcode": "46808"}}},
{"geometry": {"type": "Point", "coordinates": [-85.1759646647, 41.0885420692]}, "type": "Feature", "properties": {"collection_times": [{"days": "Mon-Sat", "time": "12:00pm"}, {"days": "Sun", "time": "Closed"}], "id": "4680800115", "name": "USPS COLLECTION BOX - BLUE BOX", "address": {"city": "FORT WAYNE", "state": "IN", "street": "2701 SPRING ST", "postcode": "46808"}}},
{"geometry": {"type": "Point", "coordinates": [-85.1623996742, 41.118701608]}, "type": "Feature", "properties": {"collection_times": [{"days": "Mon-Fri", "time": "5:15pm"}, {"days": "Sat", "time": "10:00am"}, {"days": "Sun", "time": "Closed"}], "id": "4680800119", "name": "USPS COLLECTION BOX - BLUE BOX", "address": {"city": "FORT WAYNE", "state": "IN", "street": "1415 DIRECTORS ROW", "postcode": "46808"}}},
{"geometry": {"type": "Point", "coordinates": [-85.1623996742, 41.118701608]}, "type": "Feature", "properties": {"collection_times": [{"days": "Mon-Fri", "time": "5:15pm"}, {"days": "Sat", "time": "10:00am"}, {"days": "Sun", "time": "Closed"}], "id": "4680800120", "name": "USPS COLLECTION BOX - BLUE BOX", "address": {"city": "FORT WAYNE", "state": "IN", "street": "1415 DIRECTORS ROW", "postcode": "46808"}}},
{"geometry": {"type": "Point", "coordinates": [-85.1658704758, 41.1221392868]}, "type": "Feature", "properties": {"collection_times": [{"days": "Mon-Fri", "time": "5:00pm"}, {"days": "Sat", "time": "10:00am"}, {"days": "Sun", "time": "Closed"}], "id": "4680800124", "name": "USPS COLLECTION BOX - BLUE BOX", "address": {"city": "FORT WAYNE", "state": "IN", "street": "4815 EXECUTIVE BLVD", "postcode": "46808"}}},
{"geometry": {"type": "Point", "coordinates": [-85.158169413, 41.0959710515]}, "type": "Feature", "properties": {"collection_times": [{"days": "Mon-Fri", "time": "3:00pm"}, {"days": "Sat", "time": "1:00pm"}, {"days": "Sun", "time": "Closed"}], "id": "4680800126", "name": "USPS COLLECTION BOX - BLUE BOX", "address": {"city": "FORT WAYNE", "state": "IN", "street": "1203 W STATE BLVD", "postcode": "46808"}}},
{"geometry": {"type": "Point", "coordinates": [-85.1717864536, 41.0173338543]}, "type": "Feature", "properties": {"collection_times": [{"days": "Mon-Fri", "time": "5:00pm"}, {"days": "Sat", "time": "12:00pm"}, {"days": "Sun", "time": "Closed"}], "id": "4680900001", "name": "USPS COLLECTION BOX - BLUE BOX", "address": {"city": "FORT WAYNE", "state": "IN", "street": "7025 OLD TRAIL RD", "postcode": "46809"}}},
{"geometry": {"type": "Point", "coordinates": [-85.1717864536, 41.0173338543]}, "type": "Feature", "properties": {"collection_times": [{"days": "Mon-Fri", "time": "5:00pm"}, {"days": "Sat", "time": "12:00pm"}, {"days": "Sun", "time": "Closed"}], "id": "4680900002", "name": "USPS COLLECTION BOX - BLUE BOX", "address": {"city": "FORT WAYNE", "state": "IN", "street": "7025 OLD TRAIL RD", "postcode": "46809"}}},
{"geometry": {"type": "Point", "coordinates": [-85.1833155693, 40.9991837469]}, "type": "Feature", "properties": {"collection_times": [{"days": "Mon-Sat", "time": "10:00am"}, {"days": "Sun", "time": "Closed"}], "id": "4680900047", "name": "USPS COLLECTION BOX - BLUE BOX", "address": {"city": "FORT WAYNE", "state": "IN", "street": "3700 VANGUARD DR", "postcode": "46809"}}},
{"geometry": {"type": "Point", "coordinates": [-85.1619253077, 41.0507879339]}, "type": "Feature", "properties": {"collection_times": [{"days": "Mon-Sat", "time": "11:00am"}, {"days": "Sun", "time": "Closed"}], "id": "4680900085", "name": "USPS COLLECTION BOX - BLUE BOX", "address": {"city": "FORT WAYNE", "state": "IN", "street": "1838 BLUFFTON RD", "postcode": "46809"}}},
{"geometry": {"type": "Point", "coordinates": [-85.1717864536, 41.0173338543]}, "type": "Feature", "properties": {"collection_times": [{"days": "Mon-Fri", "time": "5:00pm"}, {"days": "Sat", "time": "12:00pm"}, {"days": "Sun", "time": "Closed"}], "id": "4680900094", "name": "USPS COLLECTION BOX - PO LOBBY", "address": {"city": "FORT WAYNE", "state": "IN", "street": "7025 OLD TRAIL RD", "postcode": "46809"}}},
{"geometry": {"type": "Point", "coordinates": [-85.1848995538, 40.989093075]}, "type": "Feature", "properties": {"collection_times": [{"days": "Mon-Fri", "time": "10:00am"}, {"days": "Sat", "time": "10:30am"}, {"days": "Sun", "time": "Closed"}], "id": "4680900097", "name": "USPS COLLECTION BOX - BLUE BOX", "address": {"city": "FORT WAYNE", "state": "IN", "street": "3801 W FERGUSON RD", "postcode": "46809"}}},
{"geometry": {"type": "Point", "coordinates": [-85.1670972043, 41.0284643152]}, "type": "Feature", "properties": {"collection_times": [{"days": "Mon-Fri", "time": "5:00pm"}, {"days": "Sat", "time": "4:00pm"}, {"days": "Sun", "time": "Closed"}], "id": "4680900098", "name": "USPS COLLECTION BOX - PO LOBBY", "address": {"city": "FORT WAYNE", "state": "IN", "street": "6013 BLUFFTON RD", "postcode": "46809"}}},
{"geometry": {"type": "Point", "coordinates": [-85.1670972043, 41.0284643152]}, "type": "Feature", "properties": {"collection_times": [{"days": "Mon-Fri", "time": "5:00pm"}, {"days": "Sat", "time": "4:00pm"}, {"days": "Sun", "time": "Closed"}], "id": "4680900099", "name": "USPS COLLECTION BOX - BLUE BOX", "address": {"city": "FORT WAYNE", "state": "IN", "street": "6013 BLUFFTON RD", "postcode": "46809"}}},
{"geometry": {"type": "Point", "coordinates": [-85.2756869225, 41.0754502624]}, "type": "Feature", "properties": {"collection_times": [{"days": "Mon-Sat", "time": "11:00am"}, {"days": "Sun", "time": "Closed"}], "id": "4681400000", "name": "USPS COLLECTION BOX - BLUE BOX", "address": {"city": "FORT WAYNE", "state": "IN", "street": "10230 CHESTNUT PLAZA DR", "postcode": "46814"}}},
{"geometry": {"type": "Point", "coordinates": [-85.0649735398, 41.1203814098]}, "type": "Feature", "properties": {"collection_times": [{"days": "Mon-Fri", "time": "5:30pm"}, {"days": "Sat", "time": "2:00pm"}, {"days": "Sun", "time": "Closed"}], "id": "4681500002", "name": "USPS COLLECTION BOX - BLUE BOX", "address": {"city": "FORT WAYNE", "state": "IN", "street": "6041 STELLHORN RD", "postcode": "46815"}}},
{"geometry": {"type": "Point", "coordinates": [-85.0989871589, 41.1174003532]}, "type": "Feature", "properties": {"collection_times": [{"days": "Mon-Fri", "time": "4:45pm"}, {"days": "Sat", "time": "11:00am"}, {"days": "Sun", "time": "Closed"}], "id": "4681500007", "name": "USPS COLLECTION BOX - BLUE BOX", "address": {"city": "FORT WAYNE", "state": "IN", "street": "4222 HOBSON CT", "postcode": "46815"}}},
{"geometry": {"type": "Point", "coordinates": [-85.0870596859, 41.0959126881]}, "type": "Feature", "properties": {"collection_times": [{"days": "Mon-Fri", "time": "4:00pm"}, {"days": "Sat", "time": "10:00am"}, {"days": "Sun", "time": "Closed"}], "id": "4681500008", "name": "USPS COLLECTION BOX - BLUE BOX", "address": {"city": "FORT WAYNE", "state": "IN", "street": "2100 INWOOD DR", "postcode": "46815"}}},
{"geometry": {"type": "Point", "coordinates": [-85.0585879273, 41.1016267783]}, "type": "Feature", "properties": {"collection_times": [{"days": "Mon-Fri", "time": "4:30pm"}, {"days": "Sat", "time": "3:45pm"}, {"days": "Sun", "time": "Closed"}], "id": "4681500010", "name": "USPS COLLECTION BOX - BLUE BOX", "address": {"city": "FORT WAYNE", "state": "IN", "street": "6414 E STATE BLVD", "postcode": "46815"}}},
{"geometry": {"type": "Point", "coordinates": [-85.0649735398, 41.1203814098]}, "type": "Feature", "properties": {"collection_times": [{"days": "Mon-Fri", "time": "5:00pm"}, {"days": "Sat", "time": "1:00pm"}, {"days": "Sun", "time": "Closed"}], "id": "4681500028", "name": "USPS COLLECTION BOX - PO LOBBY", "address": {"city": "FORT WAYNE", "state": "IN", "street": "6041 STELLHORN RD", "postcode": "46815"}}},
{"geometry": {"type": "Point", "coordinates": [-85.1011103975, 41.1105688733]}, "type": "Feature", "properties": {"collection_times": [{"days": "Mon-Fri", "time": "5:15pm"}, {"days": "Sat", "time": "9:30am"}, {"days": "Sun", "time": "Closed"}], "id": "4681500032", "name": "USPS COLLECTION BOX - BLUE BOX", "address": {"city": "FORT WAYNE", "state": "IN", "street": "3700 RUPP DR", "postcode": "46815"}}},
{"geometry": {"type": "Point", "coordinates": [-85.1011103975, 41.1105688733]}, "type": "Feature", "properties": {"collection_times": [{"days": "Mon-Fri", "time": "5:15pm"}, {"days": "Sat", "time": "9:30am"}, {"days": "Sun", "time": "Closed"}], "id": "4681500033", "name": "USPS COLLECTION BOX - BLUE BOX", "address": {"city": "FORT WAYNE", "state": "IN", "street": "3700 RUPP DR", "postcode": "46815"}}},
{"geometry": {"type": "Point", "coordinates": [-85.0870596859, 41.0959126881]}, "type": "Feature", "properties": {"collection_times": [{"days": "Mon-Fri", "time": "4:00pm"}, {"days": "Sat", "time": "10:00am"}, {"days": "Sun", "time": "Closed"}], "id": "4681500035", "name": "USPS COLLECTION BOX - BLUE BOX", "address": {"city": "FORT WAYNE", "state": "IN", "street": "2100 INWOOD DR", "postcode": "46815"}}},
{"geometry": {"type": "Point", "coordinates": [-85.0989871589, 41.1174003532]}, "type": "Feature", "properties": {"collection_times": [{"days": "Mon-Fri", "time": "4:45pm"}, {"days": "Sat", "time": "11:00am"}, {"days": "Sun", "time": "Closed"}], "id": "4681500036", "name": "USPS COLLECTION BOX - BLUE BOX", "address": {"city": "FORT WAYNE", "state": "IN", "street": "4222 HOBSON CT", "postcode": "46815"}}},
{"geometry": {"type": "Point", "coordinates": [-85.0271976381, 41.1202377492]}, "type": "Feature", "properties": {"collection_times": [{"days": "Mon-Fri", "time": "4:15pm"}, {"days": "Sat", "time": "11:00am"}, {"days": "Sun", "time": "Closed"}], "id": "4681500042", "name": "USPS COLLECTION BOX - BLUE BOX", "address": {"city": "FORT WAYNE", "state": "IN", "street": "4300 FLAGSTAFF CV", "postcode": "46815"}}},
{"geometry": {"type": "Point", "coordinates": [-85.1087394726, 41.0134253579]}, "type": "Feature", "properties": {"collection_times": [{"days": "Mon-Sat", "time": "10:00am"}, {"days": "Sun", "time": "Closed"}], "id": "4681600002", "name": "USPS COLLECTION BOX - BLUE BOX", "address": {"city": "FORT WAYNE", "state": "IN", "street": "7911 DECATUR RD", "postcode": "46816"}}},
{"geometry": {"type": "Point", "coordinates": [-85.1080781986, 41.0124943692]}, "type": "Feature", "properties": {"collection_times": [{"days": "Mon-Sat", "time": "10:00am"}, {"days": "Sun", "time": "Closed"}], "id": "4681600003", "name": "USPS COLLECTION BOX - BLUE BOX", "address": {"city": "FORT WAYNE", "state": "IN", "street": "7915 DECATUR RD", "postcode": "46816"}}},
{"geometry": {"type": "Point", "coordinates": [-85.1237453071, 41.0067936899]}, "type": "Feature", "properties": {"collection_times": [{"days": "Mon-Sat", "time": "10:30am"}, {"days": "Sun", "time": "Closed"}], "id": "4681600005", "name": "USPS COLLECTION BOX - BLUE BOX", "address": {"city": "FORT WAYNE", "state": "IN", "street": "8310 BRIDGEWAY BLVD", "postcode": "46816"}}},
{"geometry": {"type": "Point", "coordinates": [-85.0335943817, 41.0049842324]}, "type": "Feature", "properties": {"collection_times": [{"days": "Mon-Sat", "time": "9:00am"}, {"days": "Sun", "time": "Closed"}], "id": "4681600007", "name": "USPS COLLECTION BOX - BLUE BOX", "address": {"city": "FORT WAYNE", "state": "IN", "street": "7530 K MART PLZ S", "postcode": "46816"}}},
{"geometry": {"type": "Point", "coordinates": [-85.197518177, 41.1362744635]}, "type": "Feature", "properties": {"collection_times": [{"days": "Mon-Fri", "time": "1:45pm"}, {"days": "Sat", "time": "11:00am"}, {"days": "Sun", "time": "Closed"}], "id": "4681800000", "name": "USPS COLLECTION BOX - BLUE BOX", "address": {"city": "FORT WAYNE", "state": "IN", "street": "6319 DISCOUNT DR", "postcode": "46818"}}},
{"geometry": {"type": "Point", "coordinates": [-85.1658474283, 41.1651590072]}, "type": "Feature", "properties": {"collection_times": [{"days": "Mon-Sat", "time": "10:00am"}, {"days": "Sun", "time": "Closed"}], "id": "4681800001", "name": "USPS COLLECTION BOX - BLUE BOX", "address": {"city": "FORT WAYNE", "state": "IN", "street": "9121 LIMA RD", "postcode": "46818"}}},
{"geometry": {"type": "Point", "coordinates": [-85.1824484628, 41.1321199116]}, "type": "Feature", "properties": {"collection_times": [{"days": "Mon-Fri", "time": "12:00pm"}, {"days": "Sat", "time": "11:00am"}, {"days": "Sun", "time": "Closed"}], "id": "4681800003", "name": "USPS COLLECTION BOX - BLUE BOX", "address": {"city": "FORT WAYNE", "state": "IN", "street": "3031 W WASHINGTON CENTER RD", "postcode": "46818"}}},
{"geometry": {"type": "Point", "coordinates": [-85.1619868216, 41.1379294231]}, "type": "Feature", "properties": {"collection_times": [{"days": "Mon-Fri", "time": "3:45pm"}, {"days": "Sat", "time": "4:15pm"}, {"days": "Sun", "time": "Closed"}], "id": "4681800004", "name": "USPS COLLECTION BOX - BLUE BOX", "address": {"city": "FORT WAYNE", "state": "IN", "street": "6309 LIMA RD", "postcode": "46818"}}},
{"geometry": {"type": "Point", "coordinates": [-85.1631425023, 41.1432395085]}, "type": "Feature", "properties": {"collection_times": [{"days": "Mon-Fri", "time": "4:00pm"}, {"days": "Sat", "time": "10:00am"}, {"days": "Sun", "time": "Closed"}], "id": "4681800005", "name": "USPS COLLECTION BOX - BLUE BOX", "address": {"city": "FORT WAYNE", "state": "IN", "street": "6902 LIMA RD", "postcode": "46818"}}},
{"geometry": {"type": "Point", "coordinates": [-85.1631425023, 41.1432395085]}, "type": "Feature", "properties": {"collection_times": [{"days": "Mon-Fri", "time": "4:00pm"}, {"days": "Sat", "time": "10:00am"}, {"days": "Sun", "time": "Closed"}], "id": "4681800008", "name": "USPS COLLECTION BOX - BLUE BOX", "address": {"city": "FORT WAYNE", "state": "IN", "street": "6902 LIMA RD", "postcode": "46818"}}},
{"geometry": {"type": "Point", "coordinates": [-85.1499623198, 41.0166811694]}, "type": "Feature", "properties": {"collection_times": [{"days": "Mon-Sat", "time": "1:00pm"}, {"days": "Sun", "time": "Closed"}], "id": "4681900000", "name": "USPS COLLECTION BOX - BLUE BOX", "address": {"city": "FORT WAYNE", "state": "IN", "street": "7300 LAKERIDGE DR", "postcode": "46819"}}},
{"geometry": {"type": "Point", "coordinates": [-85.1651181139, 41.0366137195]}, "type": "Feature", "properties": {"collection_times": [{"days": "Mon-Sat", "time": "12:00pm"}, {"days": "Sun", "time": "Closed"}], "id": "4681900002", "name": "USPS COLLECTION BOX - BLUE BOX", "address": {"city": "FORT WAYNE", "state": "IN", "street": "2005 WOODHAVEN DR", "postcode": "46819"}}},
{"geometry": {"type": "Point", "coordinates": [-85.1352034476, 41.1628035012]}, "type": "Feature", "properties": {"collection_times": [{"days": "Mon-Fri", "time": "4:00pm"}, {"days": "Sat", "time": "10:00am"}, {"days": "Sun", "time": "Closed"}], "id": "4682500001", "name": "USPS COLLECTION BOX - BLUE BOX", "address": {"city": "FORT WAYNE", "state": "IN", "street": "9017 COLDWATER RD", "postcode": "46825"}}},
{"geometry": {"type": "Point", "coordinates": [-85.1438677889, 41.1254015466]}, "type": "Feature", "properties": {"collection_times": [{"days": "Mon-Fri", "time": "4:45pm"}, {"days": "Sat", "time": "10:00am"}, {"days": "Sun", "time": "Closed"}], "id": "4682500002", "name": "USPS COLLECTION BOX - BLUE BOX", "address": {"city": "FORT WAYNE", "state": "IN", "street": "5300 KEYSTONE DR", "postcode": "46825"}}},
{"geometry": {"type": "Point", "coordinates": [-85.15292299, 41.1262962046]}, "type": "Feature", "properties": {"collection_times": [{"days": "Mon-Fri", "time": "5:00pm"}, {"days": "Sat", "time": "10:00am"}, {"days": "Sun", "time": "Closed"}], "id": "4682500004", "name": "USPS COLLECTION BOX - BLUE BOX", "address": {"city": "FORT WAYNE", "state": "IN", "street": "5211 MERCHANDISE DR", "postcode": "46825"}}},
{"geometry": {"type": "Point", "coordinates": [-85.15292299, 41.1262962046]}, "type": "Feature", "properties": {"collection_times": [{"days": "Mon-Fri", "time": "5:00pm"}, {"days": "Sat", "time": "10:00am"}, {"days": "Sun", "time": "Closed"}], "id": "4682500005", "name": "USPS COLLECTION BOX - BLUE BOX", "address": {"city": "FORT WAYNE", "state": "IN", "street": "5211 MERCHANDISE DR", "postcode": "46825"}}},
{"geometry": {"type": "Point", "coordinates": [-85.1404928183, 41.1328236482]}, "type": "Feature", "properties": {"collection_times": [{"days": "Mon-Fri", "time": "4:15pm"}, {"days": "Sat", "time": "10:00am"}, {"days": "Sun", "time": "Closed"}], "id": "4682500009", "name": "USPS COLLECTION BOX - BLUE BOX", "address": {"city": "FORT WAYNE", "state": "IN", "street": "100 W WASHINGTON CENTER RD", "postcode": "46825"}}},
{"geometry": {"type": "Point", "coordinates": [-85.1260568089, 41.1248589095]}, "type": "Feature", "properties": {"collection_times": [{"days": "Mon-Fri", "time": "4:30pm"}, {"days": "Sat", "time": "10:00am"}, {"days": "Sun", "time": "Closed"}], "id": "4682500015", "name": "USPS COLLECTION BOX - BLUE BOX", "address": {"city": "FORT WAYNE", "state": "IN", "street": "5110 N CLINTON ST", "postcode": "46825"}}},
{"geometry": {"type": "Point", "coordinates": [-85.1356324207, 41.1474764192]}, "type": "Feature", "properties": {"collection_times": [{"days": "Mon-Fri", "time": "12:00pm"}, {"days": "Sat", "time": "10:00am"}, {"days": "Sun", "time": "Closed"}], "id": "4682500017", "name": "USPS COLLECTION BOX - BLUE BOX", "address": {"city": "FORT WAYNE", "state": "IN", "street": "409 E COOK RD", "postcode": "46825"}}},
{"geometry": {"type": "Point", "coordinates": [-85.1356324207, 41.1474764192]}, "type": "Feature", "properties": {"collection_times": [{"days": "Mon-Fri", "time": "12:00pm"}, {"days": "Sat", "time": "10:00am"}, {"days": "Sun", "time": "Closed"}], "id": "4682500019", "name": "USPS COLLECTION BOX - BLUE BOX", "address": {"city": "FORT WAYNE", "state": "IN", "street": "409 E COOK RD", "postcode": "46825"}}},
{"geometry": {"type": "Point", "coordinates": [-85.1199033028, 41.1356076592]}, "type": "Feature", "properties": {"collection_times": [{"days": "Mon-Fri", "time": "3:30pm"}, {"days": "Sat", "time": "10:00am"}, {"days": "Sun", "time": "Closed"}], "id": "4682500020", "name": "USPS COLLECTION BOX - BLUE BOX", "address": {"city": "FORT WAYNE", "state": "IN", "street": "6100 N CLINTON ST", "postcode": "46825"}}},
{"geometry": {"type": "Point", "coordinates": [-85.1359558095, 41.1297315174]}, "type": "Feature", "properties": {"collection_times": [{"days": "Mon-Fri", "time": "4:30pm"}, {"days": "Sat", "time": "3:30pm"}, {"days": "Sun", "time": "Closed"}], "id": "4682500021", "name": "USPS COLLECTION BOX - BLUE BOX", "address": {"city": "FORT WAYNE", "state": "IN", "street": "5525 COLDWATER RD", "postcode": "46825"}}},
{"geometry": {"type": "Point", "coordinates": [-85.132800858, 41.1773136759]}, "type": "Feature", "properties": {"collection_times": [{"days": "Mon-Sat", "time": "1:00pm"}, {"days": "Sun", "time": "Closed"}], "id": "4682500022", "name": "USPS COLLECTION BOX - BLUE BOX", "address": {"city": "FORT WAYNE", "state": "IN", "street": "710 E DUPONT RD", "postcode": "46825"}}},
{"geometry": {"type": "Point", "coordinates": [-85.1123924499, 41.1320927035]}, "type": "Feature", "properties": {"collection_times": [{"days": "Mon-Fri", "time": "12:00pm"}, {"days": "Sat", "time": "11:00am"}, {"days": "Sun", "time": "Closed"}], "id": "4682500024", "name": "USPS COLLECTION BOX - BLUE BOX", "address": {"city": "FORT WAYNE", "state": "IN", "street": "5710 RIVER RUN TRL", "postcode": "46825"}}},
{"geometry": {"type": "Point", "coordinates": [-85.1302433007, 41.1776496362]}, "type": "Feature", "properties": {"collection_times": [{"days": "Mon-Sat", "time": "11:00am"}, {"days": "Sun", "time": "Closed"}], "id": "4682500029", "name": "USPS COLLECTION BOX - BLUE BOX", "address": {"city": "FORT WAYNE", "state": "IN", "street": "10350 COLDWATER RD", "postcode": "46825"}}},
{"geometry": {"type": "Point", "coordinates": [-85.125762593, 41.1193602693]}, "type": "Feature", "properties": {"collection_times": [{"days": "Mon-Fri", "time": "10:00am"}, {"days": "Sat", "time": "11:00am"}, {"days": "Sun", "time": "Closed"}], "id": "4682500032", "name": "USPS COLLECTION BOX - BLUE BOX", "address": {"city": "FORT WAYNE", "state": "IN", "street": "4602 PARNELL AVE", "postcode": "46825"}}},
{"geometry": {"type": "Point", "coordinates": [-85.109607834, 41.1786543788]}, "type": "Feature", "properties": {"collection_times": [{"days": "Mon-Sat", "time": "10:00am"}, {"days": "Sun", "time": "Closed"}], "id": "4682500033", "name": "USPS COLLECTION BOX - BLUE BOX", "address": {"city": "FORT WAYNE", "state": "IN", "street": "2510 E DUPONT RD", "postcode": "46825"}}},
{"geometry": {"type": "Point", "coordinates": [-85.1391557135, 41.1400433707]}, "type": "Feature", "properties": {"collection_times": [{"days": "Mon-Sat", "time": "10:00am"}, {"days": "Sun", "time": "Closed"}], "id": "4682500034", "name": "USPS COLLECTION BOX - BLUE BOX", "address": {"city": "FORT WAYNE", "state": "IN", "street": "118 E LUDWIG RD", "postcode": "46825"}}},
{"geometry": {"type": "Point", "coordinates": [-85.15292299, 41.1262962046]}, "type": "Feature", "properties": {"collection_times": [{"days": "Mon-Fri", "time": "5:00pm"}, {"days": "Sat", "time": "10:00am"}, {"days": "Sun", "time": "Closed"}], "id": "4682500035", "name": "USPS COLLECTION BOX - BLUE BOX", "address": {"city": "FORT WAYNE", "state": "IN", "street": "5211 MERCHANDISE DR", "postcode": "46825"}}},
{"geometry": {"type": "Point", "coordinates": [-85.138305166, 41.1218258027]}, "type": "Feature", "properties": {"collection_times": [{"days": "Mon-Fri", "time": "4:45pm"}, {"days": "Sat", "time": "10:00am"}, {"days": "Sun", "time": "Closed"}], "id": "4682500037", "name": "USPS COLLECTION BOX - BLUE BOX", "address": {"city": "FORT WAYNE", "state": "IN", "street": "200 E COLLINS RD", "postcode": "46825"}}},
{"geometry": {"type": "Point", "coordinates": [-85.0758685919, 41.1782292861]}, "type": "Feature", "properties": {"collection_times": [{"days": "Mon-Fri", "time": "12:00pm"}, {"days": "Sat", "time": "11:00am"}, {"days": "Sun", "time": "Closed"}], "id": "4682500040", "name": "USPS COLLECTION BOX - BLUE BOX", "address": {"city": "FORT WAYNE", "state": "IN", "street": "10330 OLD LEO RD", "postcode": "46825"}}},
{"geometry": {"type": "Point", "coordinates": [-85.1448350995, 41.1764110782]}, "type": "Feature", "properties": {"collection_times": [{"days": "Mon-Fri", "time": "2:30pm"}, {"days": "Sat", "time": "11:00am"}, {"days": "Sun", "time": "Closed"}], "id": "4682500042", "name": "USPS COLLECTION BOX - BLUE BOX", "address": {"city": "FORT WAYNE", "state": "IN", "street": "10301 DAWSONS CREEK BLVD", "postcode": "46825"}}},
{"geometry": {"type": "Point", "coordinates": [-85.1391557135, 41.1400433707]}, "type": "Feature", "properties": {"collection_times": [{"days": "Mon-Sat", "time": "10:00am"}, {"days": "Sun", "time": "Closed"}], "id": "4682500044", "name": "USPS COLLECTION BOX - BLUE BOX", "address": {"city": "FORT WAYNE", "state": "IN", "street": "118 E LUDWIG RD", "postcode": "46825"}}},
{"geometry": {"type": "Point", "coordinates": [-85.1125568812, 41.1744532811]}, "type": "Feature", "properties": {"collection_times": [{"days": "Mon-Sat", "time": "10:00am"}, {"days": "Sun", "time": "Closed"}], "id": "4682500045", "name": "USPS COLLECTION BOX - BLUE BOX", "address": {"city": "FORT WAYNE", "state": "IN", "street": "10021 DUPONT CIRCLE CT", "postcode": "46825"}}},
{"geometry": {"type": "Point", "coordinates": [-85.1125568812, 41.1744532811]}, "type": "Feature", "properties": {"collection_times": [{"days": "Mon-Sat", "time": "10:00am"}, {"days": "Sun", "time": "Closed"}], "id": "4682500046", "name": "USPS COLLECTION BOX - BLUE BOX", "address": {"city": "FORT WAYNE", "state": "IN", "street": "10021 DUPONT CIRCLE CT", "postcode": "46825"}}},
{"geometry": {"type": "Point", "coordinates": [-85.1055253731, 41.178896475]}, "type": "Feature", "properties": {"collection_times": [{"days": "Mon-Fri", "time": "2:00pm"}, {"days": "Sat", "time": "10:30am"}, {"days": "Sun", "time": "Closed"}], "id": "4682500047", "name": "USPS COLLECTION BOX - BLUE BOX", "address": {"city": "FORT WAYNE", "state": "IN", "street": "2801 E DUPONT RD", "postcode": "46825"}}},
{"geometry": {"type": "Point", "coordinates": [-85.1448350995, 41.1764110782]}, "type": "Feature", "properties": {"collection_times": [{"days": "Mon-Fri", "time": "2:30pm"}, {"days": "Sat", "time": "11:00am"}, {"days": "Sun", "time": "Closed"}], "id": "4682500052", "name": "USPS COLLECTION BOX - BLUE BOX", "address": {"city": "FORT WAYNE", "state": "IN", "street": "10301 DAWSONS CREEK BLVD", "postcode": "46825"}}},
{"geometry": {"type": "Point", "coordinates": [-85.1374214854, 41.1782721088]}, "type": "Feature", "properties": {"collection_times": [{"days": "Mon-Fri", "time": "4:15pm"}, {"days": "Sat", "time": "3:45pm"}, {"days": "Sun", "time": "Closed"}], "id": "4682500053", "name": "USPS COLLECTION BOX - BLUE BOX", "address": {"city": "FORT WAYNE", "state": "IN", "street": "429 E DUPONT RD", "postcode": "46825"}}},
{"geometry": {"type": "Point", "coordinates": [-85.1374214854, 41.1782721088]}, "type": "Feature", "properties": {"collection_times": [{"days": "Mon-Fri", "time": "4:15pm"}, {"days": "Sat", "time": "3:45pm"}, {"days": "Sun", "time": "Closed"}], "id": "4682500054", "name": "USPS COLLECTION BOX - BLUE BOX", "address": {"city": "FORT WAYNE", "state": "IN", "street": "429 E DUPONT RD", "postcode": "46825"}}},
{"geometry": {"type": "Point", "coordinates": [-85.163574, 41.177685]}, "type": "Feature", "properties": {"collection_times": [{"days": "Mon-Fri", "time": "5:15pm"}, {"days": "Sat", "time": "2:45pm"}, {"days": "Sun", "time": "Closed"}], "id": "4682500055", "name": "USPS COLLECTION BOX - PO LOBBY", "address": {"city": "FORT WAYNE", "state": "IN", "street": "1529 W DUPONT RD", "postcode": "46825"}}},
{"geometry": {"type": "Point", "coordinates": [-86.2817923943, 39.9198050791]}, "type": "Feature", "properties": {"collection_times": [{"days": "Mon-Fri", "time": "5:15pm"}, {"days": "Sat", "time": "2:00pm"}, {"days": "Sun", "time": "Closed"}], "id": "4682500056", "name": "USPS COLLECTION BOX - BLUE BOX", "address": {"city": "FORT WAYNE", "state": "IN", "street": "1529 W DUPONT RD", "postcode": "46825"}}},
{"geometry": {"type": "Point", "coordinates": [-85.1013037661, 41.1238437205]}, "type": "Feature", "properties": {"collection_times": [{"days": "Mon-Sat", "time": "12:00pm"}, {"days": "Sun", "time": "Closed"}], "id": "4683500001", "name": "USPS COLLECTION BOX - BLUE BOX", "address": {"city": "FORT WAYNE", "state": "IN", "street": "3102 CANTERBURY BLVD", "postcode": "46835"}}},
{"geometry": {"type": "Point", "coordinates": [-85.1003896531, 41.1318590616]}, "type": "Feature", "properties": {"collection_times": [{"days": "Mon-Fri", "time": "5:00pm"}, {"days": "Sat", "time": "10:30am"}, {"days": "Sun", "time": "Closed"}], "id": "4683500006", "name": "USPS COLLECTION BOX - BLUE BOX", "address": {"city": "FORT WAYNE", "state": "IN", "street": "5700 SAINT JOE RD", "postcode": "46835"}}},
{"geometry": {"type": "Point", "coordinates": [-85.0120207476, 41.1297871165]}, "type": "Feature", "properties": {"collection_times": [{"days": "Mon-Fri", "time": "4:15pm"}, {"days": "Sat", "time": "3:45pm"}, {"days": "Sun", "time": "Closed"}], "id": "4683500009", "name": "USPS COLLECTION BOX - BLUE BOX", "address": {"city": "FORT WAYNE", "state": "IN", "street": "10301 MAYSVILLE RD", "postcode": "46835"}}},
{"geometry": {"type": "Point", "coordinates": [-85.1003896531, 41.1318590616]}, "type": "Feature", "properties": {"collection_times": [{"days": "Mon-Fri", "time": "5:00pm"}, {"days": "Sat", "time": "10:30am"}, {"days": "Sun", "time": "Closed"}], "id": "4683500012", "name": "USPS COLLECTION BOX - BLUE BOX", "address": {"city": "FORT WAYNE", "state": "IN", "street": "5700 SAINT JOE RD", "postcode": "46835"}}},
{"geometry": {"type": "Point", "coordinates": [-85.1315504704, 41.1811026934]}, "type": "Feature", "properties": {"collection_times": [{"days": "Mon-Fri", "time": "1:00pm"}, {"days": "Sat", "time": "12:00pm"}, {"days": "Sun", "time": "Closed"}], "id": "4684500000", "name": "USPS COLLECTION BOX - BLUE BOX", "address": {"city": "FORT WAYNE", "state": "IN", "street": "811 MILL LAKE RD", "postcode": "46845"}}},
{"geometry": {"type": "Point", "coordinates": [-85.097831408, 41.1864910715]}, "type": "Feature", "properties": {"collection_times": [{"days": "Mon-Fri", "time": "1:00pm"}, {"days": "Sat", "time": "12:00pm"}, {"days": "Sun", "time": "Closed"}], "id": "4684500001", "name": "USPS COLLECTION BOX - BLUE BOX", "address": {"city": "FORT WAYNE", "state": "IN", "street": "3602 NEW VISION DR", "postcode": "46845"}}}
]}
