{"type": "FeatureCollection", "features": [
{"geometry": {"type": "Point", "coordinates": [-86.1077128298, 40.4833071399]}, "type": "Feature", "properties": {"collection_times": [{"days": "Mon-Sat", "time": "9:00am"}, {"days": "Sun", "time": "Closed"}], "id": "4690100001", "name": "USPS COLLECTION BOX - BLUE BOX", "address": {"city": "KOKOMO", "state": "IN", "street": "537 S REED RD", "postcode": "46901"}}},
{"geometry": {"type": "Point", "coordinates": [-86.1009817933, 40.4767263392]}, "type": "Feature", "properties": {"collection_times": [{"days": "Mon-Sat", "time": "12:00pm"}, {"days": "Sun", "time": "Closed"}], "id": "4690100002", "name": "USPS COLLECTION BOX - BLUE BOX", "address": {"city": "KOKOMO", "state": "IN", "street": "2130 E MARKLAND AVE", "postcode": "46901"}}},
{"geometry": {"type": "Point", "coordinates": [-86.126871483, 40.5179527099]}, "type": "Feature", "properties": {"collection_times": [{"days": "Mon-Sat", "time": "9:00am"}, {"days": "Sun", "time": "Closed"}], "id": "4690100003", "name": "USPS COLLECTION BOX - BLUE BOX", "address": {"city": "KOKOMO", "state": "IN", "street": "2900 N APPERSON WAY", "postcode": "46901"}}},
{"geometry": {"type": "Point", "coordinates": [-86.1149608194, 40.5055846231]}, "type": "Feature", "properties": {"collection_times": [{"days": "Mon-Sat", "time": "9:00am"}, {"days": "Sun", "time": "Closed"}], "id": "4690100005", "name": "USPS COLLECTION BOX - BLUE BOX", "address": {"city": "KOKOMO", "state": "IN", "street": "1303 E MORGAN ST", "postcode": "46901"}}},
{"geometry": {"type": "Point", "coordinates": [-86.1269370959, 40.51198798]}, "type": "Feature", "properties": {"collection_times": [{"days": "Mon-Sat", "time": "9:00am"}, {"days": "Sun", "time": "Closed"}], "id": "4690100006", "name": "USPS COLLECTION BOX - BLUE BOX", "address": {"city": "KOKOMO", "state": "IN", "street": "2501 N APPERSON WAY", "postcode": "46901"}}},
{"geometry": {"type": "Point", "coordinates": [-86.145673983, 40.4982467286]}, "type": "Feature", "properties": {"collection_times": [{"days": "Mon-Sat", "time": "10:00am"}, {"days": "Sun", "time": "Closed"}], "id": "4690100007", "name": "USPS COLLECTION BOX - BLUE BOX", "address": {"city": "KOKOMO", "state": "IN", "street": "1300 N PHILIPS ST", "postcode": "46901"}}},
{"geometry": {"type": "Point", "coordinates": [-86.1315021346, 40.5164169784]}, "type": "Feature", "properties": {"collection_times": [{"days": "Mon-Sat", "time": "10:00am"}, {"days": "Sun", "time": "Closed"}], "id": "4690100008", "name": "USPS COLLECTION BOX - BLUE BOX", "address": {"city": "KOKOMO", "state": "IN", "street": "2700 N WASHINGTON ST", "postcode": "46901"}}},
{"geometry": {"type": "Point", "coordinates": [-86.1360506118, 40.4883110563]}, "type": "Feature", "properties": {"collection_times": [{"days": "Mon-Sat", "time": "10:00am"}, {"days": "Sun", "time": "Closed"}], "id": "4690100009", "name": "USPS COLLECTION BOX - BLUE BOX", "address": {"city": "KOKOMO", "state": "IN", "street": "500 W MULBERRY ST", "postcode": "46901"}}},
{"geometry": {"type": "Point", "coordinates": [-86.1828804787, 40.4821743049]}, "type": "Feature", "properties": {"collection_times": [{"days": "Mon-Sat", "time": "10:00am"}, {"days": "Sun", "time": "Closed"}], "id": "4690100010", "name": "USPS COLLECTION BOX - BLUE BOX", "address": {"city": "KOKOMO", "state": "IN", "street": "800 HARVEST DR", "postcode": "46901"}}},
{"geometry": {"type": "Point", "coordinates": [-86.1335865808, 40.5136451543]}, "type": "Feature", "properties": {"collection_times": [{"days": "Mon-Sat", "time": "10:00am"}, {"days": "Sun", "time": "Closed"}], "id": "4690100011", "name": "USPS COLLECTION BOX - BLUE BOX", "address": {"city": "KOKOMO", "state": "IN", "street": "2620 N WASHINGTON ST", "postcode": "46901"}}},
{"geometry": {"type": "Point", "coordinates": [-86.1275084651, 40.5054391192]}, "type": "Feature", "properties": {"collection_times": [{"days": "Mon-Sat", "time": "9:00am"}, {"days": "Sun", "time": "Closed"}], "id": "4690100012", "name": "USPS COLLECTION BOX - BLUE BOX", "address": {"city": "KOKOMO", "state": "IN", "street": "420 E MORGAN ST", "postcode": "46901"}}},
{"geometry": {"type": "Point", "coordinates": [-86.1212707225, 40.4765950307]}, "type": "Feature", "properties": {"collection_times": [{"days": "Mon-Sat", "time": "9:00am"}, {"days": "Sun", "time": "Closed"}], "id": "4690100013", "name": "USPS COLLECTION BOX - BLUE BOX", "address": {"city": "KOKOMO", "state": "IN", "street": "919 E MARKLAND AVE", "postcode": "46901"}}},
{"geometry": {"type": "Point", "coordinates": [-86.1485911598, 40.4848201444]}, "type": "Feature", "properties": {"collection_times": [{"days": "Mon-Sat", "time": "9:00am"}, {"days": "Sun", "time": "Closed"}], "id": "4690100014", "name": "USPS COLLECTION BOX - BLUE BOX", "address": {"city": "KOKOMO", "state": "IN", "street": "1501 W SUPERIOR ST", "postcode": "46901"}}},
{"geometry": {"type": "Point", "coordinates": [-86.1474247623, 40.4821040706]}, "type": "Feature", "properties": {"collection_times": [{"days": "Mon-Sat", "time": "9:00am"}, {"days": "Sun", "time": "Closed"}], "id": "4690100015", "name": "USPS COLLECTION BOX - BLUE BOX", "address": {"city": "KOKOMO", "state": "IN", "street": "1406 KINGSTON RD", "postcode": "46901"}}},
{"geometry": {"type": "Point", "coordinates": [-86.1542220445, 40.4834514609]}, "type": "Feature", "properties": {"collection_times": [{"days": "Mon-Sat", "time": "10:00am"}, {"days": "Sun", "time": "Closed"}], "id": "4690100016", "name": "USPS COLLECTION BOX - BLUE BOX", "address": {"city": "KOKOMO", "state": "IN", "street": "1809 W CARTER ST", "postcode": "46901"}}},
{"geometry": {"type": "Point", "coordinates": [-86.1372099116, 40.5034955176]}, "type": "Feature", "properties": {"collection_times": [{"days": "Mon-Sat", "time": "9:00am"}, {"days": "Sun", "time": "Closed"}], "id": "4690100017", "name": "USPS COLLECTION BOX - BLUE BOX", "address": {"city": "KOKOMO", "state": "IN", "street": "519 W SPRAKER ST", "postcode": "46901"}}},
{"geometry": {"type": "Point", "coordinates": [-86.1379367875, 40.4764892409]}, "type": "Feature", "properties": {"collection_times": [{"days": "Mon-Sat", "time": "9:00am"}, {"days": "Sun", "time": "Closed"}], "id": "4690100018", "name": "USPS COLLECTION BOX - BLUE BOX", "address": {"city": "KOKOMO", "state": "IN", "street": "610 W MARKLAND AVE", "postcode": "46901"}}},
{"geometry": {"type": "Point", "coordinates": [-86.1286584681, 40.4865560536]}, "type": "Feature", "properties": {"collection_times": [{"days": "Mon-Fri", "time": "5:00pm"}, {"days": "Sat", "time": "12:30pm"}, {"days": "Sun", "time": "Closed"}], "id": "4690100021", "name": "USPS COLLECTION BOX - BLUE BOX", "address": {"city": "KOKOMO", "state": "IN", "street": "308 E SYCAMORE ST", "postcode": "46901"}}},
{"geometry": {"type": "Point", "coordinates": [-86.1286584681, 40.4865560536]}, "type": "Feature", "properties": {"collection_times": [{"days": "Mon-Fri", "time": "5:00pm"}, {"days": "Sat", "time": "12:30pm"}, {"days": "Sun", "time": "Closed"}], "id": "4690100022", "name": "USPS COLLECTION BOX - BLUE BOX", "address": {"city": "KOKOMO", "state": "IN", "street": "308 E SYCAMORE ST", "postcode": "46901"}}},
{"geometry": {"type": "Point", "coordinates": [-86.1105105278, 40.5015353546]}, "type": "Feature", "properties": {"collection_times": [{"days": "Mon-Sat", "time": "9:00am"}, {"days": "Sun", "time": "Closed"}], "id": "4690100023", "name": "USPS COLLECTION BOX - BLUE BOX", "address": {"city": "KOKOMO", "state": "IN", "street": "1500 N REED RD", "postcode": "46901"}}},
{"geometry": {"type": "Point", "coordinates": [-86.126871483, 40.5179527099]}, "type": "Feature", "properties": {"collection_times": [{"days": "Mon-Sat", "time": "9:00am"}, {"days": "Sun", "time": "Closed"}], "id": "4690100024", "name": "USPS COLLECTION BOX - BLUE BOX", "address": {"city": "KOKOMO", "state": "IN", "street": "2900 N APPERSON WAY", "postcode": "46901"}}},
{"geometry": {"type": "Point", "coordinates": [-86.07588795, 40.538367177]}, "type": "Feature", "properties": {"collection_times": [{"days": "Mon-Sat", "time": "10:00am"}, {"days": "Sun", "time": "Closed"}], "id": "4690100025", "name": "USPS COLLECTION BOX - BLUE BOX", "address": {"city": "KOKOMO", "state": "IN", "street": "12948 S 00 EW", "postcode": "46901"}}},
{"geometry": {"type": "Point", "coordinates": [-86.1329926629, 40.4874072757]}, "type": "Feature", "properties": {"collection_times": [{"days": "Mon-Fri", "time": "5:00pm"}, {"days": "Sat", "time": "12:00pm"}, {"days": "Sun", "time": "Closed"}], "id": "4690100026", "name": "USPS COLLECTION BOX - BLUE BOX", "address": {"city": "KOKOMO", "state": "IN", "street": "210 W WALNUT ST", "postcode": "46901"}}},
{"geometry": {"type": "Point", "coordinates": [-86.133740293, 40.499217938]}, "type": "Feature", "properties": {"collection_times": [{"days": "Mon-Sat", "time": "10:00am"}, {"days": "Sun", "time": "Closed"}], "id": "4690100027", "name": "USPS COLLECTION BOX - BLUE BOX", "address": {"city": "KOKOMO", "state": "IN", "street": "1401 N WASHINGTON ST", "postcode": "46901"}}},
{"geometry": {"type": "Point", "coordinates": [-86.1313160605, 40.486676026]}, "type": "Feature", "properties": {"collection_times": [{"days": "Mon-Fri", "time": "5:00pm"}, {"days": "Sat", "time": "12:00pm"}, {"days": "Sun", "time": "Closed"}], "id": "4690100028", "name": "USPS COLLECTION BOX - BLUE BOX", "address": {"city": "KOKOMO", "state": "IN", "street": "117 N MAIN ST", "postcode": "46901"}}},
{"geometry": {"type": "Point", "coordinates": [-86.1313160605, 40.486676026]}, "type": "Feature", "properties": {"collection_times": [{"days": "Mon-Fri", "time": "5:00pm"}, {"days": "Sat", "time": "12:00pm"}, {"days": "Sun", "time": "Closed"}], "id": "4690100029", "name": "USPS COLLECTION BOX - BLUE BOX", "address": {"city": "KOKOMO", "state": "IN", "street": "117 N MAIN ST", "postcode": "46901"}}},
{"geometry": {"type": "Point", "coordinates": [-86.1315033175, 40.486504678]}, "type": "Feature", "properties": {"collection_times": [{"days": "Mon-Fri", "time": "5:00pm"}, {"days": "Sat", "time": "12:00pm"}, {"days": "Sun", "time": "Closed"}], "id": "4690100030", "name": "USPS COLLECTION BOX - BLUE BOX", "address": {"city": "KOKOMO", "state": "IN", "street": "105 W SYCAMORE ST", "postcode": "46901"}}},
{"geometry": {"type": "Point", "coordinates": [-86.1315033175, 40.486504678]}, "type": "Feature", "properties": {"collection_times": [{"days": "Mon-Fri", "time": "5:00pm"}, {"days": "Sat", "time": "12:00pm"}, {"days": "Sun", "time": "Closed"}], "id": "4690100031", "name": "USPS COLLECTION BOX - BLUE BOX", "address": {"city": "KOKOMO", "state": "IN", "street": "105 W SYAMORE ST", "postcode": "46901"}}},
{"geometry": {"type": "Point", "coordinates": [-86.1317612026, 40.4874120075]}, "type": "Feature", "properties": {"collection_times": [{"days": "Mon-Fri", "time": "5:00pm"}, {"days": "Sat", "time": "12:00pm"}, {"days": "Sun", "time": "Closed"}], "id": "4690100032", "name": "USPS COLLECTION BOX - BLUE BOX", "address": {"city": "KOKOMO", "state": "IN", "street": "110 W WALNUT ST", "postcode": "46901"}}},
{"geometry": {"type": "Point", "coordinates": [-86.1300411803, 40.4889356586]}, "type": "Feature", "properties": {"collection_times": [{"days": "Mon-Fri", "time": "5:00pm"}, {"days": "Sat", "time": "12:00pm"}, {"days": "Sun", "time": "Closed"}], "id": "4690100033", "name": "USPS COLLECTION BOX - BLUE BOX", "address": {"city": "KOKOMO", "state": "IN", "street": "300 N UNION ST", "postcode": "46901"}}},
{"geometry": {"type": "Point", "coordinates": [-86.1309947064, 40.4883059207]}, "type": "Feature", "properties": {"collection_times": [{"days": "Mon-Fri", "time": "5:00pm"}, {"days": "Sat", "time": "12:00pm"}, {"days": "Sun", "time": "Closed"}], "id": "4690100035", "name": "USPS COLLECTION BOX - BLUE BOX", "address": {"city": "KOKOMO", "state": "IN", "street": "119 E MULBERRY ST", "postcode": "46901"}}},
{"geometry": {"type": "Point", "coordinates": [-86.1566601229, 40.4872972605]}, "type": "Feature", "properties": {"collection_times": [{"days": "Mon-Sat", "time": "9:00am"}, {"days": "Sun", "time": "Closed"}], "id": "4690100036", "name": "USPS COLLECTION BOX - BLUE BOX", "address": {"city": "KOKOMO", "state": "IN", "street": "1907 W SYCAMORE ST", "postcode": "46901"}}},
{"geometry": {"type": "Point", "coordinates": [-86.1591963869, 40.4874782532]}, "type": "Feature", "properties": {"collection_times": [{"days": "Mon-Fri", "time": "4:30pm"}, {"days": "Sat", "time": "2:00pm"}, {"days": "Sun", "time": "Closed"}], "id": "4690100037", "name": "USPS COLLECTION BOX - BLUE BOX", "address": {"city": "KOKOMO", "state": "IN", "street": "2130 W SYAMORE ST", "postcode": "46901"}}},
{"geometry": {"type": "Point", "coordinates": [-86.1591963869, 40.4874782532]}, "type": "Feature", "properties": {"collection_times": [{"days": "Mon-Fri", "time": "4:30pm"}, {"days": "Sat", "time": "2:00pm"}, {"days": "Sun", "time": "Closed"}], "id": "4690100038", "name": "USPS COLLECTION BOX - BLUE BOX", "address": {"city": "KOKOMO", "state": "IN", "street": "2130 W SYCAMORE ST", "postcode": "46901"}}},
{"geometry": {"type": "Point", "coordinates": [-86.1591963869, 40.4874782532]}, "type": "Feature", "properties": {"collection_times": [{"days": "Mon-Fri", "time": "4:30pm"}, {"days": "Sat", "time": "2:00pm"}, {"days": "Sun", "time": "Closed"}], "id": "4690100039", "name": "USPS COLLECTION BOX - BLUE BOX", "address": {"city": "KOKOMO", "state": "IN", "street": "2130 W SYCAMORE ST", "postcode": "46901"}}},
{"geometry": {"type": "Point", "coordinates": [-86.1649354232, 40.4882287038]}, "type": "Feature", "properties": {"collection_times": [{"days": "Mon-Fri", "time": "4:30pm"}, {"days": "Sat", "time": "2:00pm"}, {"days": "Sun", "time": "Closed"}], "id": "4690100040", "name": "USPS COLLECTION BOX - BLUE BOX", "address": {"city": "KOKOMO", "state": "IN", "street": "136 N DIXON RD", "postcode": "46901"}}},
{"geometry": {"type": "Point", "coordinates": [-86.1650683128, 40.490958927]}, "type": "Feature", "properties": {"collection_times": [{"days": "Mon-Sat", "time": "10:00am"}, {"days": "Sun", "time": "Closed"}], "id": "4690100041", "name": "USPS COLLECTION BOX - BLUE BOX", "address": {"city": "KOKOMO", "state": "IN", "street": "613 N DIXON RD", "postcode": "46901"}}},
{"geometry": {"type": "Point", "coordinates": [-86.1006905395, 40.4766927823]}, "type": "Feature", "properties": {"collection_times": [{"days": "Mon-Fri", "time": "2:00pm"}, {"days": "Sat", "time": "12:00pm"}, {"days": "Sun", "time": "Closed"}], "id": "4690100042", "name": "USPS COLLECTION BOX - BLUE BOX", "address": {"city": "KOKOMO", "state": "IN", "street": "2301 E MARKLAND AVE", "postcode": "46901"}}},
{"geometry": {"type": "Point", "coordinates": [-86.1361531665, 40.5164427659]}, "type": "Feature", "properties": {"collection_times": [{"days": "Mon-Sat", "time": "9:00am"}, {"days": "Sun", "time": "Closed"}], "id": "4690100045", "name": "USPS COLLECTION BOX - BLUE BOX", "address": {"city": "KOKOMO", "state": "IN", "street": "2864 N WEBSTER ST", "postcode": "46901"}}},
{"geometry": {"type": "Point", "coordinates": [-86.1312552816, 40.4854875334]}, "type": "Feature", "properties": {"collection_times": [{"days": "Mon-Fri", "time": "5:00pm"}, {"days": "Sat", "time": "12:00pm"}, {"days": "Sun", "time": "Closed"}], "id": "4690100046", "name": "USPS COLLECTION BOX - BLUE BOX", "address": {"city": "KOKOMO", "state": "IN", "street": "101 W SUPERIOR ST", "postcode": "46901"}}},
{"geometry": {"type": "Point", "coordinates": [-86.1337627692, 40.506393767]}, "type": "Feature", "properties": {"collection_times": [{"days": "Mon-Sat", "time": "9:00am"}, {"days": "Sun", "time": "Closed"}], "id": "4690100047", "name": "USPS COLLECTION BOX - BLUE BOX", "address": {"city": "KOKOMO", "state": "IN", "street": "2135 N WASHINGTON ST", "postcode": "46901"}}},
{"geometry": {"type": "Point", "coordinates": [-86.1063902817, 40.4516878297]}, "type": "Feature", "properties": {"collection_times": [{"days": "Mon-Sat", "time": "10:00am"}, {"days": "Sun", "time": "Closed"}], "id": "4690200001", "name": "USPS COLLECTION BOX - BLUE BOX", "address": {"city": "KOKOMO", "state": "IN", "street": "3017 MATTHEW DR", "postcode": "46902"}}},
{"geometry": {"type": "Point", "coordinates": [-86.1256173399, 40.4334955732]}, "type": "Feature", "properties": {"collection_times": [{"days": "Mon-Sat", "time": "9:00am"}, {"days": "Sun", "time": "Closed"}], "id": "4690200002", "name": "USPS COLLECTION BOX - BLUE BOX", "address": {"city": "KOKOMO", "state": "IN", "street": "420 E CENTER RD", "postcode": "46902"}}},
{"geometry": {"type": "Point", "coordinates": [-86.1379923214, 40.4429078416]}, "type": "Feature", "properties": {"collection_times": [{"days": "Mon-Sat", "time": "9:00am"}, {"days": "Sun", "time": "Closed"}], "id": "4690200010", "name": "USPS COLLECTION BOX - BLUE BOX", "address": {"city": "KOKOMO", "state": "IN", "street": "536 SOUTHLEA DR", "postcode": "46902"}}},
{"geometry": {"type": "Point", "coordinates": [-86.0411646436, 40.4490145267]}, "type": "Feature", "properties": {"collection_times": [{"days": "Mon-Sat", "time": "10:00am"}, {"days": "Sun", "time": "Closed"}], "id": "4690200012", "name": "USPS COLLECTION BOX - BLUE BOX", "address": {"city": "KOKOMO", "state": "IN", "street": "4508 E 200 S", "postcode": "46902"}}},
{"geometry": {"type": "Point", "coordinates": [-86.0985887225, 40.4648037285]}, "type": "Feature", "properties": {"collection_times": [{"days": "Mon-Sat", "time": "9:00am"}, {"days": "Sun", "time": "Closed"}], "id": "4690200013", "name": "USPS COLLECTION BOX - BLUE BOX", "address": {"city": "KOKOMO", "state": "IN", "street": "1930 S GOYER RD", "postcode": "46902"}}},
{"geometry": {"type": "Point", "coordinates": [-86.1352020381, 40.4383446996]}, "type": "Feature", "properties": {"collection_times": [{"days": "Mon-Sat", "time": "10:00am"}, {"days": "Sun", "time": "Closed"}], "id": "4690200016", "name": "USPS COLLECTION BOX - BLUE BOX", "address": {"city": "KOKOMO", "state": "IN", "street": "5038 S WEBSTER ST", "postcode": "46902"}}},
{"geometry": {"type": "Point", "coordinates": [-86.1274712787, 40.4130387404]}, "type": "Feature", "properties": {"collection_times": [{"days": "Mon-Sat", "time": "10:00am"}, {"days": "Sun", "time": "Closed"}], "id": "4690200017", "name": "USPS COLLECTION BOX - BLUE BOX", "address": {"city": "KOKOMO", "state": "IN", "street": "4411 S 00 EW", "postcode": "46902"}}},
{"geometry": {"type": "Point", "coordinates": [-86.1159213821, 40.4676636905]}, "type": "Feature", "properties": {"collection_times": [{"days": "Mon-Sat", "time": "9:00am"}, {"days": "Sun", "time": "Closed"}], "id": "4690200020", "name": "USPS COLLECTION BOX - BLUE BOX", "address": {"city": "KOKOMO", "state": "IN", "street": "1600 S PLATE ST", "postcode": "46902"}}},
{"geometry": {"type": "Point", "coordinates": [-86.1144296708, 40.4738647614]}, "type": "Feature", "properties": {"collection_times": [{"days": "Mon-Sat", "time": "9:00am"}, {"days": "Sun", "time": "Closed"}], "id": "4690200021", "name": "USPS COLLECTION BOX - BLUE BOX", "address": {"city": "KOKOMO", "state": "IN", "street": "1139 S ELIZABETH ST", "postcode": "46902"}}},
{"geometry": {"type": "Point", "coordinates": [-86.1091397141, 40.4552242817]}, "type": "Feature", "properties": {"collection_times": [{"days": "Mon-Fri", "time": "2:00pm"}, {"days": "Sat", "time": "10:00am"}, {"days": "Sun", "time": "Closed"}], "id": "4690200035", "name": "USPS COLLECTION BOX - BLUE BOX", "address": {"city": "KOKOMO", "state": "IN", "street": "1761 E LINCOLN RD", "postcode": "46902"}}},
{"geometry": {"type": "Point", "coordinates": [-86.0986726574, 40.4643005382]}, "type": "Feature", "properties": {"collection_times": [{"days": "Mon-Sat", "time": "9:00am"}, {"days": "Sun", "time": "Closed"}], "id": "4690200057", "name": "USPS COLLECTION BOX - BLUE BOX", "address": {"city": "KOKOMO", "state": "IN", "street": "1901 S GOYER RD", "postcode": "46902"}}},
{"geometry": {"type": "Point", "coordinates": [-86.1377000154, 40.4519028618]}, "type": "Feature", "properties": {"collection_times": [{"days": "Mon-Sat", "time": "9:00am"}, {"days": "Sun", "time": "Closed"}], "id": "4690200065", "name": "USPS COLLECTION BOX - BLUE BOX", "address": {"city": "KOKOMO", "state": "IN", "street": "529 ELK DR", "postcode": "46902"}}},
{"geometry": {"type": "Point", "coordinates": [-86.1313211419, 40.4694499586]}, "type": "Feature", "properties": {"collection_times": [{"days": "Mon-Sat", "time": "9:00am"}, {"days": "Sun", "time": "Closed"}], "id": "4690200070", "name": "USPS COLLECTION BOX - BLUE BOX", "address": {"city": "KOKOMO", "state": "IN", "street": "101 W DEFENBAUGH ST", "postcode": "46902"}}},
{"geometry": {"type": "Point", "coordinates": [-86.1552855246, 40.4690477525]}, "type": "Feature", "properties": {"collection_times": [{"days": "Mon-Sat", "time": "9:00am"}, {"days": "Sun", "time": "Closed"}], "id": "4690200076", "name": "USPS COLLECTION BOX - BLUE BOX", "address": {"city": "KOKOMO", "state": "IN", "street": "1816 W DEFENBAUGH ST", "postcode": "46902"}}},
{"geometry": {"type": "Point", "coordinates": [-86.1310750864, 40.472925492]}, "type": "Feature", "properties": {"collection_times": [{"days": "Mon-Fri", "time": "5:00pm"}, {"days": "Sat", "time": "2:00pm"}, {"days": "Sun", "time": "Closed"}], "id": "4690200078", "name": "USPS COLLECTION BOX - BLUE BOX", "address": {"city": "KOKOMO", "state": "IN", "street": "1200 S MAIN ST", "postcode": "46902"}}},
{"geometry": {"type": "Point", "coordinates": [-86.1079351558, 40.4760133731]}, "type": "Feature", "properties": {"collection_times": [{"days": "Mon-Fri", "time": "2:00pm"}, {"days": "Sat", "time": "1:00pm"}, {"days": "Sun", "time": "Closed"}], "id": "4690200084", "name": "USPS COLLECTION BOX - BLUE BOX", "address": {"city": "KOKOMO", "state": "IN", "street": "1037 S REED RD", "postcode": "46902"}}},
{"geometry": {"type": "Point", "coordinates": [-86.1100465507, 40.4625793089]}, "type": "Feature", "properties": {"collection_times": [{"days": "Mon-Sat", "time": "10:00am"}, {"days": "Sun", "time": "Closed"}], "id": "4690200087", "name": "USPS COLLECTION BOX - BLUE BOX", "address": {"city": "KOKOMO", "state": "IN", "street": "1700 E BOULEVARD", "postcode": "46902"}}},
{"geometry": {"type": "Point", "coordinates": [-86.129705432, 40.4440442635]}, "type": "Feature", "properties": {"collection_times": [{"days": "Mon-Sat", "time": "10:00am"}, {"days": "Sun", "time": "Closed"}], "id": "4690200091", "name": "USPS COLLECTION BOX - BLUE BOX", "address": {"city": "KOKOMO", "state": "IN", "street": "200 E SOUTHWAY BLVD", "postcode": "46902"}}},
{"geometry": {"type": "Point", "coordinates": [-86.1239375369, 40.4441210082]}, "type": "Feature", "properties": {"collection_times": [{"days": "Mon-Sat", "time": "2:00pm"}, {"days": "Sun", "time": "Closed"}], "id": "4690200092", "name": "USPS COLLECTION BOX - BLUE BOX", "address": {"city": "KOKOMO", "state": "IN", "street": "3700 S REED RD", "postcode": "46902"}}},
{"geometry": {"type": "Point", "coordinates": [-86.1271003443, 40.4473369066]}, "type": "Feature", "properties": {"collection_times": [{"days": "Mon-Sat", "time": "9:00am"}, {"days": "Sun", "time": "Closed"}], "id": "4690200096", "name": "USPS COLLECTION BOX - BLUE BOX", "address": {"city": "KOKOMO", "state": "IN", "street": "3500 S LAFOUNTAIN ST", "postcode": "46902"}}},
{"geometry": {"type": "Point", "coordinates": [-86.1297094561, 40.4544729865]}, "type": "Feature", "properties": {"collection_times": [{"days": "Mon-Sat", "time": "9:00am"}, {"days": "Sun", "time": "Closed"}], "id": "4690200097", "name": "USPS COLLECTION BOX - BLUE BOX", "address": {"city": "KOKOMO", "state": "IN", "street": "2855 S WASHINGTON ST", "postcode": "46902"}}},
{"geometry": {"type": "Point", "coordinates": [-86.0980255788, 40.4529949994]}, "type": "Feature", "properties": {"collection_times": [{"days": "Mon-Sat", "time": "10:00am"}, {"days": "Sun", "time": "Closed"}], "id": "4690200119", "name": "USPS COLLECTION BOX - BLUE BOX", "address": {"city": "KOKOMO", "state": "IN", "street": "2529 COMMERCE DR", "postcode": "46902"}}},
{"geometry": {"type": "Point", "coordinates": [-86.1403438262, 40.4454222498]}, "type": "Feature", "properties": {"collection_times": [{"days": "Mon-Sat", "time": "9:00am"}, {"days": "Sun", "time": "Closed"}], "id": "4690200121", "name": "USPS COLLECTION BOX - BLUE BOX", "address": {"city": "KOKOMO", "state": "IN", "street": "3604 BRIARWICK DR", "postcode": "46902"}}},
{"geometry": {"type": "Point", "coordinates": [-86.1365048681, 40.4535651856]}, "type": "Feature", "properties": {"collection_times": [{"days": "Mon-Fri", "time": "5:00pm"}, {"days": "Sat", "time": "4:30pm"}, {"days": "Sun", "time": "Closed"}], "id": "4690200124", "name": "USPS COLLECTION BOX - BLUE BOX", "address": {"city": "KOKOMO", "state": "IN", "street": "2719 S WEBSTER ST", "postcode": "46902"}}},
{"geometry": {"type": "Point", "coordinates": [-86.1365048681, 40.4535651856]}, "type": "Feature", "properties": {"collection_times": [{"days": "Mon-Fri", "time": "5:00pm"}, {"days": "Sat", "time": "4:30pm"}, {"days": "Sun", "time": "Closed"}], "id": "4690200125", "name": "USPS COLLECTION BOX - BLUE BOX", "address": {"city": "KOKOMO", "state": "IN", "street": "2719 S WEBSTER ST", "postcode": "46902"}}},
{"geometry": {"type": "Point", "coordinates": [-86.1365048681, 40.4535651856]}, "type": "Feature", "properties": {"collection_times": [{"days": "Mon-Fri", "time": "5:00pm"}, {"days": "Sat", "time": "4:30pm"}, {"days": "Sun", "time": "Closed"}], "id": "4690200126", "name": "USPS COLLECTION BOX - PO LOBBY", "address": {"city": "KOKOMO", "state": "IN", "street": "2719 S WEBSTER ST", "postcode": "46902"}}},
{"geometry": {"type": "Point", "coordinates": [-86.1373211021, 40.4392831846]}, "type": "Feature", "properties": {"collection_times": [{"days": "Mon-Sat", "time": "10:00am"}, {"days": "Sun", "time": "Closed"}], "id": "4690200129", "name": "USPS COLLECTION BOX - BLUE BOX", "address": {"city": "KOKOMO", "state": "IN", "street": "555 SALEM DR", "postcode": "46902"}}},
{"geometry": {"type": "Point", "coordinates": [-86.1597698874, 40.4187190714]}, "type": "Feature", "properties": {"collection_times": [{"days": "Mon-Sat", "time": "10:00am"}, {"days": "Sun", "time": "Closed"}], "id": "4690200132", "name": "USPS COLLECTION BOX - BLUE BOX", "address": {"city": "KOKOMO", "state": "IN", "street": "1762 HOGAN DR", "postcode": "46902"}}},
{"geometry": {"type": "Point", "coordinates": [-86.1049494377, 40.4535947596]}, "type": "Feature", "properties": {"collection_times": [{"days": "Mon-Sat", "time": "10:00am"}, {"days": "Sun", "time": "Closed"}], "id": "4690200136", "name": "USPS COLLECTION BOX - BLUE BOX", "address": {"city": "KOKOMO", "state": "IN", "street": "2101 MARK LN", "postcode": "46902"}}},
{"geometry": {"type": "Point", "coordinates": [-86.1459673568, 40.4639704926]}, "type": "Feature", "properties": {"collection_times": [{"days": "Mon-Sat", "time": "9:00am"}, {"days": "Sun", "time": "Closed"}], "id": "4690200137", "name": "USPS COLLECTION BOX - BLUE BOX", "address": {"city": "KOKOMO", "state": "IN", "street": "1901 S PARK RD", "postcode": "46902"}}},
{"geometry": {"type": "Point", "coordinates": [-86.1220658393, 40.4662258602]}, "type": "Feature", "properties": {"collection_times": [{"days": "Mon-Sat", "time": "9:00am"}, {"days": "Sun", "time": "Closed"}], "id": "4690200138", "name": "USPS COLLECTION BOX - BLUE BOX", "address": {"city": "KOKOMO", "state": "IN", "street": "800 E HOFFER ST", "postcode": "46902"}}},
{"geometry": {"type": "Point", "coordinates": [-86.1365048681, 40.4535651856]}, "type": "Feature", "properties": {"collection_times": [{"days": "Mon-Fri", "time": "5:00pm"}, {"days": "Sat", "time": "4:30pm"}, {"days": "Sun", "time": "Closed"}], "id": "4690200140", "name": "USPS COLLECTION BOX - APC", "address": {"city": "KOKOMO", "state": "IN", "street": "2719 S WEBSTER ST", "postcode": "46902"}}},
{"geometry": {"type": "Point", "coordinates": [-86.0285468086, 41.0388293168]}, "type": "Feature", "properties": {"collection_times": [{"days": "Mon-Fri", "time": "4:00pm"}, {"days": "Sat", "time": "12:00pm"}, {"days": "Sun", "time": "Closed"}], "id": "4691000001", "name": "USPS COLLECTION BOX - BLUE BOX", "address": {"city": "AKRON", "state": "IN", "street": "120 W ROCHESTER ST", "postcode": "46910"}}},
{"geometry": {"type": "Point", "coordinates": [-86.0285468086, 41.0388293168]}, "type": "Feature", "properties": {"collection_times": [{"days": "Mon-Fri", "time": "4:00pm"}, {"days": "Sat", "time": "12:00pm"}, {"days": "Sun", "time": "Closed"}], "id": "4691000002", "name": "USPS COLLECTION BOX - PO LOBBY", "address": {"city": "AKRON", "state": "IN", "street": "120 W ROCHESTER ST", "postcode": "46910"}}},
{"geometry": {"type": "Point", "coordinates": [-85.9663336858, 40.6118018899]}, "type": "Feature", "properties": {"collection_times": [{"days": "Mon-Fri", "time": "4:00pm"}, {"days": "Sat", "time": "10:00am"}, {"days": "Sun", "time": "Closed"}], "id": "4691100000", "name": "USPS COLLECTION BOX - BLUE BOX", "address": {"city": "AMBOY", "state": "IN", "street": "109 S MAIN ST", "postcode": "46911"}}},
{"geometry": {"type": "Point", "coordinates": [-85.9292669674, 40.6005806058]}, "type": "Feature", "properties": {"collection_times": [{"days": "Mon-Fri", "time": "11:15am"}, {"days": "Sat", "time": "10:00am"}, {"days": "Sun", "time": "Closed"}], "id": "4691100001", "name": "USPS COLLECTION BOX - PO LOBBY", "address": {"city": "AMBOY", "state": "IN", "street": "109 S MAIN ST", "postcode": "46911"}}},
{"geometry": {"type": "Point", "coordinates": [-86.1017997913, 40.6601310839]}, "type": "Feature", "properties": {"collection_times": [{"days": "Mon-Fri", "time": "4:30pm"}, {"days": "Sat", "time": "11:00am"}, {"days": "Sun", "time": "Closed"}], "id": "4691400001", "name": "USPS COLLECTION BOX - BLUE BOX", "address": {"city": "BUNKER  HILL", "state": "IN", "street": "150 E BROADWAY", "postcode": "46914"}}},
{"geometry": {"type": "Point", "coordinates": [-86.1017997913, 40.6601310839]}, "type": "Feature", "properties": {"collection_times": [{"days": "Mon-Fri", "time": "4:15pm"}, {"days": "Sat", "time": "11:00am"}, {"days": "Sun", "time": "Closed"}], "id": "4691400002", "name": "USPS COLLECTION BOX - PO LOBBY", "address": {"city": "BUNKER  HILL", "state": "IN", "street": "150 E BROADWAY", "postcode": "46914"}}},
{"geometry": {"type": "Point", "coordinates": [-86.3950076301, 40.4793321389]}, "type": "Feature", "properties": {"collection_times": [{"days": "Mon-Fri", "time": "4:15pm"}, {"days": "Sat", "time": "10:00am"}, {"days": "Sun", "time": "Closed"}], "id": "4691500001", "name": "USPS COLLECTION BOX - BLUE BOX", "address": {"city": "BURLINGTON", "state": "IN", "street": "809 MICHIGAN RD", "postcode": "46915"}}},
{"geometry": {"type": "Point", "coordinates": [-86.3950076301, 40.4793321389]}, "type": "Feature", "properties": {"collection_times": [{"days": "Mon-Fri", "time": "12:00pm"}, {"days": "Sat", "time": "10:30am"}, {"days": "Sun", "time": "Closed"}], "id": "4691500002", "name": "USPS COLLECTION BOX - PO LOBBY", "address": {"city": "BURLINGTON", "state": "IN", "street": "809 MICHIGAN RD", "postcode": "46915"}}},
{"geometry": {"type": "Point", "coordinates": [-86.5074116155, 40.6776808306]}, "type": "Feature", "properties": {"collection_times": [{"days": "Mon-Fri", "time": "4:15pm"}, {"days": "Sat", "time": "10:15am"}, {"days": "Sun", "time": "Closed"}], "id": "4691600001", "name": "USPS COLLECTION BOX - BLUE BOX", "address": {"city": "BURROWS", "state": "IN", "street": "1010 E STATE ROAD 25", "postcode": "46916"}}},
{"geometry": {"type": "Point", "coordinates": [-86.5074116155, 40.6776808306]}, "type": "Feature", "properties": {"collection_times": [{"days": "Mon-Fri", "time": "4:00pm"}, {"days": "Sat", "time": "10:15am"}, {"days": "Sun", "time": "Closed"}], "id": "4691600002", "name": "USPS COLLECTION BOX - PO LOBBY", "address": {"city": "BURROWS", "state": "IN", "street": "1010 BURROWS RD", "postcode": "46916"}}},
{"geometry": {"type": "Point", "coordinates": [-86.5393789001, 40.6085133247]}, "type": "Feature", "properties": {"collection_times": [{"days": "Mon-Fri", "time": "4:00pm"}, {"days": "Sat", "time": "10:30am"}, {"days": "Sun", "time": "Closed"}], "id": "4691700001", "name": "USPS COLLECTION BOX - BLUE BOX", "address": {"city": "CAMDEN", "state": "IN", "street": "108 W MAIN ST", "postcode": "46917"}}},
{"geometry": {"type": "Point", "coordinates": [-86.5393789001, 40.6085133247]}, "type": "Feature", "properties": {"collection_times": [{"days": "Mon-Fri", "time": "11:45am"}, {"days": "Sat", "time": "10:30am"}, {"days": "Sun", "time": "Closed"}], "id": "4691700002", "name": "USPS COLLECTION BOX - PO LOBBY", "address": {"city": "CAMDEN", "state": "IN", "street": "108 W MAIN ST", "postcode": "46917"}}},
{"geometry": {"type": "Point", "coordinates": [-85.8733839837, 40.5783163162]}, "type": "Feature", "properties": {"collection_times": [{"days": "Mon-Fri", "time": "4:00pm"}, {"days": "Sat", "time": "11:00am"}, {"days": "Sun", "time": "Closed"}], "id": "4691900001", "name": "USPS COLLECTION BOX - BLUE BOX", "address": {"city": "CONVERSE", "state": "IN", "street": "107 S JEFFERSON ST", "postcode": "46919"}}},
{"geometry": {"type": "Point", "coordinates": [-85.8733839837, 40.5783163162]}, "type": "Feature", "properties": {"collection_times": [{"days": "Mon-Fri", "time": "4:30pm"}, {"days": "Sat", "time": "11:00am"}, {"days": "Sun", "time": "Closed"}], "id": "4691900002", "name": "USPS COLLECTION BOX - PO LOBBY", "address": {"city": "CONVERSE", "state": "IN", "street": "107 S JEFFERSON ST", "postcode": "46919"}}},
{"geometry": {"type": "Point", "coordinates": [-86.5252549164, 40.4765064901]}, "type": "Feature", "properties": {"collection_times": [{"days": "Mon-Fri", "time": "4:00pm"}, {"days": "Sat", "time": "10:30am"}, {"days": "Sun", "time": "Closed"}], "id": "4692000001", "name": "USPS COLLECTION BOX - BLUE BOX", "address": {"city": "CUTLER", "state": "IN", "street": "96 E 485 S", "postcode": "46920"}}},
{"geometry": {"type": "Point", "coordinates": [-86.5252549164, 40.4765064901]}, "type": "Feature", "properties": {"collection_times": [{"days": "Mon-Fri", "time": "11:45am"}, {"days": "Sat", "time": "10:30am"}, {"days": "Sun", "time": "Closed"}], "id": "4692000002", "name": "USPS COLLECTION BOX - PO LOBBY", "address": {"city": "CUTLER", "state": "IN", "street": "96 E 485 S", "postcode": "46920"}}},
{"geometry": {"type": "Point", "coordinates": [-86.1010202161, 40.9106711025]}, "type": "Feature", "properties": {"collection_times": [{"days": "Mon-Sat", "time": "10:00am"}, {"days": "Sun", "time": "Closed"}], "id": "4692100001", "name": "USPS COLLECTION BOX - BLUE BOX", "address": {"city": "DEEDSVILLE", "state": "IN", "street": "1211 W 1000 N", "postcode": "46921"}}},
{"geometry": {"type": "Point", "coordinates": [-86.4326811655, 41.1461861093]}, "type": "Feature", "properties": {"collection_times": [{"days": "Mon-Sat", "time": "11:00am"}, {"days": "Sun", "time": "Closed"}], "id": "4692200000", "name": "USPS COLLECTION BOX - BLUE BOX", "address": {"city": "DELONG", "state": "IN", "street": "9067 OLSON RD", "postcode": "46922"}}},
{"geometry": {"type": "Point", "coordinates": [-86.4326811655, 41.1461861093]}, "type": "Feature", "properties": {"collection_times": [{"days": "Mon-Sat", "time": "11:00am"}, {"days": "Sun", "time": "Closed"}], "id": "4692200001", "name": "USPS COLLECTION BOX - PO LOBBY", "address": {"city": "DELONG", "state": "IN", "street": "9067 OLSON RD", "postcode": "46922"}}},
{"geometry": {"type": "Point", "coordinates": [-86.4158864143, 41.1368733402]}, "type": "Feature", "properties": {"collection_times": [{"days": "Mon-Sat", "time": "10:00am"}, {"days": "Sun", "time": "Closed"}], "id": "4692200002", "name": "USPS COLLECTION BOX - BLUE BOX", "address": {"city": "DELONG", "state": "IN", "street": "9109 OLSON RD", "postcode": "46922"}}},
{"geometry": {"type": "Point", "coordinates": [-86.6745640158, 40.5871336451]}, "type": "Feature", "properties": {"collection_times": [{"days": "Mon-Sat", "time": "2:00pm"}, {"days": "Sun", "time": "Closed"}], "id": "4692300001", "name": "USPS COLLECTION BOX - BLUE BOX", "address": {"city": "DELPHI", "state": "IN", "street": "121 N WASHINGTON ST", "postcode": "46923"}}},
{"geometry": {"type": "Point", "coordinates": [-86.6757398003, 40.5865850229]}, "type": "Feature", "properties": {"collection_times": [{"days": "Mon-Fri", "time": "5:00pm"}, {"days": "Sat", "time": "2:00pm"}, {"days": "Sun", "time": "Closed"}], "id": "4692300002", "name": "USPS COLLECTION BOX - BLUE BOX", "address": {"city": "DELPHI", "state": "IN", "street": "201 W FRANKLIN ST", "postcode": "46923"}}},
{"geometry": {"type": "Point", "coordinates": [-86.6734923865, 40.587346292]}, "type": "Feature", "properties": {"collection_times": [{"days": "Mon-Sat", "time": "2:00pm"}, {"days": "Sun", "time": "Closed"}], "id": "4692300004", "name": "USPS COLLECTION BOX - BLUE BOX", "address": {"city": "DELPHI", "state": "IN", "street": "100 S UNION ST", "postcode": "46923"}}},
{"geometry": {"type": "Point", "coordinates": [-86.6728569212, 40.5866235187]}, "type": "Feature", "properties": {"collection_times": [{"days": "Mon-Sat", "time": "2:00pm"}, {"days": "Sun", "time": "Closed"}], "id": "4692300005", "name": "USPS COLLECTION BOX - BLUE BOX", "address": {"city": "DELPHI", "state": "IN", "street": "203 E MAIN ST", "postcode": "46923"}}},
{"geometry": {"type": "Point", "coordinates": [-86.6736481874, 40.5851220259]}, "type": "Feature", "properties": {"collection_times": [{"days": "Mon-Sat", "time": "2:00pm"}, {"days": "Sun", "time": "Closed"}], "id": "4692300006", "name": "USPS COLLECTION BOX - BLUE BOX", "address": {"city": "DELPHI", "state": "IN", "street": "122 W FRONT ST", "postcode": "46923"}}},
{"geometry": {"type": "Point", "coordinates": [-86.6743453066, 40.5867939261]}, "type": "Feature", "properties": {"collection_times": [{"days": "Mon-Sat", "time": "2:00pm"}, {"days": "Sun", "time": "Closed"}], "id": "4692300007", "name": "USPS COLLECTION BOX - BLUE BOX", "address": {"city": "DELPHI", "state": "IN", "street": "125 S WASHINGTON ST", "postcode": "46923"}}},
{"geometry": {"type": "Point", "coordinates": [-86.6757398003, 40.5865850229]}, "type": "Feature", "properties": {"collection_times": [{"days": "Mon-Fri", "time": "5:15pm"}, {"days": "Sat", "time": "2:00pm"}, {"days": "Sun", "time": "Closed"}], "id": "4692300008", "name": "USPS COLLECTION BOX - PO LOBBY", "address": {"city": "DELPHI", "state": "IN", "street": "201 W FRANKLIN ST", "postcode": "46923"}}},
{"geometry": {"type": "Point", "coordinates": [-86.6690719927, 40.5811783923]}, "type": "Feature", "properties": {"collection_times": [{"days": "Mon-Sat", "time": "10:00am"}, {"days": "Sun", "time": "Closed"}], "id": "4692300009", "name": "USPS COLLECTION BOX - BLUE BOX", "address": {"city": "DELPHI", "state": "IN", "street": "921 S WASHINGTON ST", "postcode": "46923"}}},
{"geometry": {"type": "Point", "coordinates": [-86.6785021307, 40.5844915507]}, "type": "Feature", "properties": {"collection_times": [{"days": "Mon-Sat", "time": "8:30am"}, {"days": "Sun", "time": "Closed"}], "id": "4692300010", "name": "USPS COLLECTION BOX - BLUE BOX", "address": {"city": "DELPHI", "state": "IN", "street": "505 W MAIN ST", "postcode": "46923"}}},
{"geometry": {"type": "Point", "coordinates": [-86.0786058752, 40.8660061427]}, "type": "Feature", "properties": {"collection_times": [{"days": "Mon-Fri", "time": "4:00pm"}, {"days": "Sat", "time": "10:30am"}, {"days": "Sun", "time": "Closed"}], "id": "4692600000", "name": "USPS COLLECTION BOX - BLUE BOX", "address": {"city": "DENVER", "state": "IN", "street": "120 W HARRISON ST", "postcode": "46926"}}},
{"geometry": {"type": "Point", "coordinates": [-86.0786058752, 40.8660061427]}, "type": "Feature", "properties": {"collection_times": [{"days": "Mon-Fri", "time": "4:15pm"}, {"days": "Sat", "time": "10:30am"}, {"days": "Sun", "time": "Closed"}], "id": "4692600001", "name": "USPS COLLECTION BOX - PO LOBBY", "address": {"city": "DENVER", "state": "IN", "street": "120 W HARRISON ST", "postcode": "46926"}}},
{"geometry": {"type": "Point", "coordinates": [-85.6505638624, 40.416664122]}, "type": "Feature", "properties": {"collection_times": [{"days": "Mon-Fri", "time": "1:00pm"}, {"days": "Sat-Sun", "time": "Closed"}], "id": "4692800005", "name": "USPS COLLECTION BOX - BLUE BOX", "address": {"city": "FAIRMOUNT", "state": "IN", "street": "216 N MAIN ST", "postcode": "46928"}}},
{"geometry": {"type": "Point", "coordinates": [-85.6505820891, 40.4147205614]}, "type": "Feature", "properties": {"collection_times": [{"days": "Mon-Fri", "time": "4:30pm"}, {"days": "Sat", "time": "12:00pm"}, {"days": "Sun", "time": "Closed"}], "id": "4692800007", "name": "USPS COLLECTION BOX - BLUE BOX", "address": {"city": "FAIRMOUNT", "state": "IN", "street": "204 S MAIN ST", "postcode": "46928"}}},
{"geometry": {"type": "Point", "coordinates": [-85.6505820891, 40.4147205614]}, "type": "Feature", "properties": {"collection_times": [{"days": "Mon-Fri", "time": "4:30pm"}, {"days": "Sat", "time": "12:00pm"}, {"days": "Sun", "time": "Closed"}], "id": "4692800008", "name": "USPS COLLECTION BOX - BLUE BOX", "address": {"city": "FAIRMOUNT", "state": "IN", "street": "204 S MAIN ST", "postcode": "46928"}}},
{"geometry": {"type": "Point", "coordinates": [-85.6505820891, 40.4147205614]}, "type": "Feature", "properties": {"collection_times": [{"days": "Mon-Fri", "time": "4:30pm"}, {"days": "Sat", "time": "12:00pm"}, {"days": "Sun", "time": "Closed"}], "id": "4692800010", "name": "USPS COLLECTION BOX - PO LOBBY", "address": {"city": "FAIRMOUNT", "state": "IN", "street": "204 S MAIN ST", "postcode": "46928"}}},
{"geometry": {"type": "Point", "coordinates": [-86.5274588819, 40.550586499]}, "type": "Feature", "properties": {"collection_times": [{"days": "Mon-Sat", "time": "9:30am"}, {"days": "Sun", "time": "Closed"}], "id": "4692900001", "name": "USPS COLLECTION BOX - BLUE BOX", "address": {"city": "FLORA", "state": "IN", "street": "320 N WASHINGTON ST", "postcode": "46929"}}},
{"geometry": {"type": "Point", "coordinates": [-86.5237080258, 40.5496161131]}, "type": "Feature", "properties": {"collection_times": [{"days": "Mon-Sat", "time": "10:00am"}, {"days": "Sun", "time": "Closed"}], "id": "4692900002", "name": "USPS COLLECTION BOX - BLUE BOX", "address": {"city": "FLORA", "state": "IN", "street": "215 N CENTER ST", "postcode": "46929"}}},
{"geometry": {"type": "Point", "coordinates": [-86.5235869715, 40.5481484873]}, "type": "Feature", "properties": {"collection_times": [{"days": "Mon-Fri", "time": "4:45pm"}, {"days": "Sat", "time": "11:00am"}, {"days": "Sun", "time": "Closed"}], "id": "4692900004", "name": "USPS COLLECTION BOX - BLUE BOX", "address": {"city": "FLORA", "state": "IN", "street": "21 E MAIN ST", "postcode": "46929"}}},
{"geometry": {"type": "Point", "coordinates": [-86.5274594626, 40.5480683774]}, "type": "Feature", "properties": {"collection_times": [{"days": "Mon-Fri", "time": "11:00am"}, {"days": "Sat", "time": "10:30am"}, {"days": "Sun", "time": "Closed"}], "id": "4692900005", "name": "USPS COLLECTION BOX - BLUE BOX", "address": {"city": "FLORA", "state": "IN", "street": "304 W MAIN ST", "postcode": "46929"}}},
{"geometry": {"type": "Point", "coordinates": [-86.5265361254, 40.5470787423]}, "type": "Feature", "properties": {"collection_times": [{"days": "Mon-Sat", "time": "10:30am"}, {"days": "Sun", "time": "Closed"}], "id": "4692900007", "name": "USPS COLLECTION BOX - BLUE BOX", "address": {"city": "FLORA", "state": "IN", "street": "204 W COLUMBIA ST", "postcode": "46929"}}},
{"geometry": {"type": "Point", "coordinates": [-86.5186304726, 40.5471036878]}, "type": "Feature", "properties": {"collection_times": [{"days": "Mon-Sat", "time": "10:00am"}, {"days": "Sun", "time": "Closed"}], "id": "4692900008", "name": "USPS COLLECTION BOX - BLUE BOX", "address": {"city": "FLORA", "state": "IN", "street": "403 E COLUMBIA ST", "postcode": "46929"}}},
{"geometry": {"type": "Point", "coordinates": [-86.5297058667, 40.545350668]}, "type": "Feature", "properties": {"collection_times": [{"days": "Mon-Fri", "time": "11:45am"}, {"days": "Sat", "time": "10:30am"}, {"days": "Sun", "time": "Closed"}], "id": "4692900009", "name": "USPS COLLECTION BOX - BLUE BOX", "address": {"city": "FLORA", "state": "IN", "street": "312 S SYCAMORE ST", "postcode": "46929"}}},
{"geometry": {"type": "Point", "coordinates": [-86.5179733843, 40.5480020751]}, "type": "Feature", "properties": {"collection_times": [{"days": "Mon-Sat", "time": "10:00am"}, {"days": "Sun", "time": "Closed"}], "id": "4692900012", "name": "USPS COLLECTION BOX - BLUE BOX", "address": {"city": "FLORA", "state": "IN", "street": "508 E MAIN ST", "postcode": "46929"}}},
{"geometry": {"type": "Point", "coordinates": [-86.4952175247, 40.5468215933]}, "type": "Feature", "properties": {"collection_times": [{"days": "Mon-Sat", "time": "8:30am"}, {"days": "Sun", "time": "Closed"}], "id": "4692900014", "name": "USPS COLLECTION BOX - BLUE BOX", "address": {"city": "FLORA", "state": "IN", "street": "13 W WALNUT ST", "postcode": "46929"}}},
{"geometry": {"type": "Point", "coordinates": [-86.5235869715, 40.5481484873]}, "type": "Feature", "properties": {"collection_times": [{"days": "Mon-Fri", "time": "4:45pm"}, {"days": "Sat", "time": "11:00am"}, {"days": "Sun", "time": "Closed"}], "id": "4692900015", "name": "USPS COLLECTION BOX - PO LOBBY", "address": {"city": "FLORA", "state": "IN", "street": "21 E MAIN ST", "postcode": "46929"}}},
{"geometry": {"type": "Point", "coordinates": [-86.2628575745, 40.9472932569]}, "type": "Feature", "properties": {"collection_times": [{"days": "Mon-Fri", "time": "4:15pm"}, {"days": "Sat", "time": "10:30am"}, {"days": "Sun", "time": "Closed"}], "id": "4693100001", "name": "USPS COLLECTION BOX - BLUE BOX", "address": {"city": "FULTON", "state": "IN", "street": "604 N STATE ROAD 25", "postcode": "46931"}}},
{"geometry": {"type": "Point", "coordinates": [-86.2628575745, 40.9472932569]}, "type": "Feature", "properties": {"collection_times": [{"days": "Mon-Fri", "time": "11:45am"}, {"days": "Sat", "time": "10:30am"}, {"days": "Sun", "time": "Closed"}], "id": "4693100002", "name": "USPS COLLECTION BOX - PO LOBBY", "address": {"city": "FULTON", "state": "IN", "street": "604 N STATE ROAD 25", "postcode": "46931"}}},
{"geometry": {"type": "Point", "coordinates": [-86.1898341643, 40.5770430343]}, "type": "Feature", "properties": {"collection_times": [{"days": "Mon-Fri", "time": "4:15pm"}, {"days": "Sat", "time": "11:30am"}, {"days": "Sun", "time": "Closed"}], "id": "4693200001", "name": "USPS COLLECTION BOX - BLUE BOX", "address": {"city": "GALVESTON", "state": "IN", "street": "102 W WASHINGTON ST", "postcode": "46932"}}},
{"geometry": {"type": "Point", "coordinates": [-86.1898341643, 40.5770430343]}, "type": "Feature", "properties": {"collection_times": [{"days": "Mon-Fri", "time": "4:00pm"}, {"days": "Sat", "time": "11:30am"}, {"days": "Sun", "time": "Closed"}], "id": "4693200002", "name": "USPS COLLECTION BOX - BLUE BOX", "address": {"city": "GALVESTON", "state": "IN", "street": "102 W WASHINGTON ST", "postcode": "46932"}}},
{"geometry": {"type": "Point", "coordinates": [-85.6131840822, 40.4881109436]}, "type": "Feature", "properties": {"collection_times": [{"days": "Mon-Fri", "time": "5:00pm"}, {"days": "Sat", "time": "3:00pm"}, {"days": "Sun", "time": "Closed"}], "id": "4693300001", "name": "USPS COLLECTION BOX - BLUE BOX", "address": {"city": "GAS CITY", "state": "IN", "street": "123 N 2ND ST", "postcode": "46933"}}},
{"geometry": {"type": "Point", "coordinates": [-85.6131840822, 40.4881109436]}, "type": "Feature", "properties": {"collection_times": [{"days": "Mon-Fri", "time": "5:00pm"}, {"days": "Sat", "time": "3:00pm"}, {"days": "Sun", "time": "Closed"}], "id": "4693300002", "name": "USPS COLLECTION BOX - BLUE BOX", "address": {"city": "GAS CITY", "state": "IN", "street": "123 N 2ND ST", "postcode": "46933"}}},
{"geometry": {"type": "Point", "coordinates": [-85.5949058451, 40.4878965599]}, "type": "Feature", "properties": {"collection_times": [{"days": "Mon-Sat", "time": "9:00am"}, {"days": "Sun", "time": "Closed"}], "id": "4693300007", "name": "USPS COLLECTION BOX - BLUE BOX", "address": {"city": "GAS CITY", "state": "IN", "street": "1025 E MAIN ST", "postcode": "46933"}}},
{"geometry": {"type": "Point", "coordinates": [-85.5958410034, 40.4907781942]}, "type": "Feature", "properties": {"collection_times": [{"days": "Mon-Sat", "time": "9:00am"}, {"days": "Sun", "time": "Closed"}], "id": "4693300012", "name": "USPS COLLECTION BOX - BLUE BOX", "address": {"city": "GAS CITY", "state": "IN", "street": "400 N 10TH ST", "postcode": "46933"}}},
{"geometry": {"type": "Point", "coordinates": [-85.6131840822, 40.4881109436]}, "type": "Feature", "properties": {"collection_times": [{"days": "Mon-Fri", "time": "5:00pm"}, {"days": "Sat", "time": "3:00pm"}, {"days": "Sun", "time": "Closed"}], "id": "4693300014", "name": "USPS COLLECTION BOX - PO LOBBY", "address": {"city": "GAS CITY", "state": "IN", "street": "123 N 2ND ST", "postcode": "46933"}}},
{"geometry": {"type": "Point", "coordinates": [-85.594690461, 40.4877681435]}, "type": "Feature", "properties": {"collection_times": [{"days": "Mon-Sat", "time": "9:00am"}, {"days": "Sun", "time": "Closed"}], "id": "4693300015", "name": "USPS COLLECTION BOX - BLUE BOX", "address": {"city": "GAS CITY", "state": "IN", "street": "1030 E MAIN ST", "postcode": "46933"}}},
{"geometry": {"type": "Point", "coordinates": [-85.5543761692, 40.4805503505]}, "type": "Feature", "properties": {"collection_times": [{"days": "Mon-Sat", "time": "9:00am"}, {"days": "Sun", "time": "Closed"}], "id": "4693300016", "name": "USPS COLLECTION BOX - BLUE BOX", "address": {"city": "GAS CITY", "state": "IN", "street": "6271 E 500 S", "postcode": "46933"}}},
{"geometry": {"type": "Point", "coordinates": [-85.9713816616, 40.4817805799]}, "type": "Feature", "properties": {"collection_times": [{"days": "Mon-Fri", "time": "9:15am"}, {"days": "Sat", "time": "9:30am"}, {"days": "Sun", "time": "Closed"}], "id": "4693600002", "name": "USPS COLLECTION BOX - BLUE BOX", "address": {"city": "GREENTOWN", "state": "IN", "street": "500 W PAYTON ST", "postcode": "46936"}}},
{"geometry": {"type": "Point", "coordinates": [-85.966507393, 40.4766174416]}, "type": "Feature", "properties": {"collection_times": [{"days": "Mon-Fri", "time": "4:00pm"}, {"days": "Sat", "time": "11:00am"}, {"days": "Sun", "time": "Closed"}], "id": "4693600005", "name": "USPS COLLECTION BOX - BLUE BOX", "address": {"city": "GREENTOWN", "state": "IN", "street": "204 S MERIDIAN ST", "postcode": "46936"}}},
{"geometry": {"type": "Point", "coordinates": [-85.966507393, 40.4766174416]}, "type": "Feature", "properties": {"collection_times": [{"days": "Mon-Fri", "time": "4:00pm"}, {"days": "Sat", "time": "11:00am"}, {"days": "Sun", "time": "Closed"}], "id": "4693600006", "name": "USPS COLLECTION BOX - PO LOBBY", "address": {"city": "GREENTOWN", "state": "IN", "street": "204 S MERIDIAN ST", "postcode": "46936"}}},
{"geometry": {"type": "Point", "coordinates": [-85.9560227736, 40.4733523925]}, "type": "Feature", "properties": {"collection_times": [{"days": "Mon-Sat", "time": "11:30am"}, {"days": "Sun", "time": "Closed"}], "id": "4693600007", "name": "USPS COLLECTION BOX - BLUE BOX", "address": {"city": "GREENTOWN", "state": "IN", "street": "615 S HARVEY DR", "postcode": "46936"}}},
{"geometry": {"type": "Point", "coordinates": [-86.0412065878, 40.4200243102]}, "type": "Feature", "properties": {"collection_times": [{"days": "Mon-Fri", "time": "4:30pm"}, {"days": "Sat", "time": "11:00am"}, {"days": "Sun", "time": "Closed"}], "id": "4693700001", "name": "USPS COLLECTION BOX - BLUE BOX", "address": {"city": "HEMLOCK", "state": "IN", "street": "4577 E 400 S", "postcode": "46937"}}},
{"geometry": {"type": "Point", "coordinates": [-86.0412065878, 40.4200243102]}, "type": "Feature", "properties": {"collection_times": [{"days": "Mon-Fri", "time": "11:45am"}, {"days": "Sat", "time": "11:00am"}, {"days": "Sun", "time": "Closed"}], "id": "4693700002", "name": "USPS COLLECTION BOX - PO LOBBY", "address": {"city": "HEMLOCK", "state": "IN", "street": "4577 E 400 S", "postcode": "46937"}}},
{"geometry": {"type": "Point", "coordinates": [-85.6373903993, 40.4805538855]}, "type": "Feature", "properties": {"collection_times": [{"days": "Mon-Sat", "time": "9:00am"}, {"days": "Sun", "time": "Closed"}], "id": "4693800000", "name": "USPS COLLECTION BOX - BLUE BOX", "address": {"city": "JONESBORO", "state": "IN", "street": "708 W 6TH ST", "postcode": "46938"}}},
{"geometry": {"type": "Point", "coordinates": [-85.6276224854, 40.4825520054]}, "type": "Feature", "properties": {"collection_times": [{"days": "Mon-Sat", "time": "1:00pm"}, {"days": "Sun", "time": "Closed"}], "id": "4693800006", "name": "USPS COLLECTION BOX - BLUE BOX", "address": {"city": "JONESBORO", "state": "IN", "street": "117 E 4TH ST", "postcode": "46938"}}},
{"geometry": {"type": "Point", "coordinates": [-86.4130676076, 41.0185341576]}, "type": "Feature", "properties": {"collection_times": [{"days": "Mon-Fri", "time": "3:30pm"}, {"days": "Sat", "time": "10:00am"}, {"days": "Sun", "time": "Closed"}], "id": "4693900001", "name": "USPS COLLECTION BOX - BLUE BOX", "address": {"city": "KEWANNA", "state": "IN", "street": "203 E MAIN ST", "postcode": "46939"}}},
{"geometry": {"type": "Point", "coordinates": [-86.4130676076, 41.0185341576]}, "type": "Feature", "properties": {"collection_times": [{"days": "Mon-Fri", "time": "3:30pm"}, {"days": "Sat", "time": "10:00am"}, {"days": "Sun", "time": "Closed"}], "id": "4693900002", "name": "USPS COLLECTION BOX - PO LOBBY", "address": {"city": "KEWANNA", "state": "IN", "street": "203 E MAIN ST", "postcode": "46939"}}},
{"geometry": {"type": "Point", "coordinates": [-85.7193568709, 40.6733754544]}, "type": "Feature", "properties": {"collection_times": [{"days": "Mon-Fri", "time": "4:00pm"}, {"days": "Sat", "time": "10:30am"}, {"days": "Sun", "time": "Closed"}], "id": "4694000001", "name": "USPS COLLECTION BOX - BLUE BOX", "address": {"city": "LA FONTAINE", "state": "IN", "street": "12 E BRANSON ST", "postcode": "46940"}}},
{"geometry": {"type": "Point", "coordinates": [-85.7193568709, 40.6733754544]}, "type": "Feature", "properties": {"collection_times": [{"days": "Mon-Fri", "time": "12:00pm"}, {"days": "Sat", "time": "10:30am"}, {"days": "Sun", "time": "Closed"}], "id": "4694000003", "name": "USPS COLLECTION BOX - PO LOBBY", "address": {"city": "LA FONTAINE", "state": "IN", "street": "12 E BRANSON ST", "postcode": "46940"}}},
{"geometry": {"type": "Point", "coordinates": [-85.7284790437, 40.8371873224]}, "type": "Feature", "properties": {"collection_times": [{"days": "Mon-Fri", "time": "4:00pm"}, {"days": "Sat", "time": "9:45am"}, {"days": "Sun", "time": "Closed"}], "id": "4694100001", "name": "USPS COLLECTION BOX - BLUE BOX", "address": {"city": "LAGRO", "state": "IN", "street": "830 MAIN ST", "postcode": "46941"}}},
{"geometry": {"type": "Point", "coordinates": [-85.7284790437, 40.8371873224]}, "type": "Feature", "properties": {"collection_times": [{"days": "Mon-Fri", "time": "12:00pm"}, {"days": "Sat", "time": "9:45am"}, {"days": "Sun", "time": "Closed"}], "id": "4694100002", "name": "USPS COLLECTION BOX - PO LOBBY", "address": {"city": "LAGRO", "state": "IN", "street": "830 MAIN ST", "postcode": "46941"}}},
{"geometry": {"type": "Point", "coordinates": [-85.6996383277, 40.8330314505]}, "type": "Feature", "properties": {"collection_times": [{"days": "Mon-Fri", "time": "11:00am"}, {"days": "Sat", "time": "12:00pm"}, {"days": "Sun", "time": "Closed"}], "id": "4694100003", "name": "USPS COLLECTION BOX - BLUE BOX", "address": {"city": "LAGRO", "state": "IN", "street": "230 BUCHANAN ST", "postcode": "46941"}}},
{"geometry": {"type": "Point", "coordinates": [-86.5421384428, 40.7644893741]}, "type": "Feature", "properties": {"collection_times": [{"days": "Mon-Sat", "time": "11:00am"}, {"days": "Sun", "time": "Closed"}], "id": "4694200001", "name": "USPS COLLECTION BOX - BLUE BOX", "address": {"city": "LAKE CICOTT", "state": "IN", "street": "8080 W US HIGHWAY 24", "postcode": "46942"}}},
{"geometry": {"type": "Point", "coordinates": [-86.5421384428, 40.7644893741]}, "type": "Feature", "properties": {"collection_times": [{"days": "Mon-Sat", "time": "11:00am"}, {"days": "Sun", "time": "Closed"}], "id": "4694200002", "name": "USPS COLLECTION BOX - PO LOBBY", "address": {"city": "LAKE CICOTT", "state": "IN", "street": "8080 W US HIGHWAY 24", "postcode": "46942"}}},
{"geometry": {"type": "Point", "coordinates": [-86.3857014882, 41.1224533164]}, "type": "Feature", "properties": {"collection_times": [{"days": "Mon-Fri", "time": "3:30pm"}, {"days": "Sat", "time": "11:00am"}, {"days": "Sun", "time": "Closed"}], "id": "4694500001", "name": "USPS COLLECTION BOX - BLUE BOX", "address": {"city": "LEITERS FORD", "state": "IN", "street": "4510 SCHOOL ST", "postcode": "46945"}}},
{"geometry": {"type": "Point", "coordinates": [-86.3857014882, 41.1224533164]}, "type": "Feature", "properties": {"collection_times": [{"days": "Mon-Fri", "time": "9:45am"}, {"days": "Sat", "time": "11:00am"}, {"days": "Sun", "time": "Closed"}], "id": "4694500002", "name": "USPS COLLECTION BOX - PO LOBBY", "address": {"city": "LEITERS FORD", "state": "IN", "street": "4510 SCHOOL ST", "postcode": "46945"}}},
{"geometry": {"type": "Point", "coordinates": [-85.7699091105, 40.9990410887]}, "type": "Feature", "properties": {"collection_times": [{"days": "Mon-Fri", "time": "3:45pm"}, {"days": "Sat", "time": "11:00am"}, {"days": "Sun", "time": "Closed"}], "id": "4694600000", "name": "USPS COLLECTION BOX - BLUE BOX", "address": {"city": "LIBERTY MILLS", "state": "IN", "street": "111 E MAIN ST", "postcode": "46946"}}},
{"geometry": {"type": "Point", "coordinates": [-85.7699091105, 40.9990410887]}, "type": "Feature", "properties": {"collection_times": [{"days": "Mon-Fri", "time": "3:45pm"}, {"days": "Sat", "time": "11:00am"}, {"days": "Sun", "time": "Closed"}], "id": "4694600001", "name": "USPS COLLECTION BOX - PO LOBBY", "address": {"city": "LIBERTY MILLS", "state": "IN", "street": "111 E MAIN ST", "postcode": "46946"}}},
{"geometry": {"type": "Point", "coordinates": [-86.3671130711, 40.7537413859]}, "type": "Feature", "properties": {"collection_times": [{"days": "Mon-Sat", "time": "3:30pm"}, {"days": "Sun", "time": "Closed"}], "id": "4694700010", "name": "USPS COLLECTION BOX - BLUE BOX", "address": {"city": "LOGANSPORT", "state": "IN", "street": "315 E BROADWAY", "postcode": "46947"}}},
{"geometry": {"type": "Point", "coordinates": [-86.3582245017, 40.7539977813]}, "type": "Feature", "properties": {"collection_times": [{"days": "Mon-Fri", "time": "5:00pm"}, {"days": "Sat", "time": "4:30pm"}, {"days": "Sun", "time": "Closed"}], "id": "4694700041", "name": "USPS COLLECTION BOX - BLUE BOX", "address": {"city": "LOGANSPORT", "state": "IN", "street": "406 9TH ST", "postcode": "46947"}}},
{"geometry": {"type": "Point", "coordinates": [-86.3223683517, 40.7573168964]}, "type": "Feature", "properties": {"collection_times": [{"days": "Mon-Sat", "time": "9:00am"}, {"days": "Sun", "time": "Closed"}], "id": "4694700043", "name": "USPS COLLECTION BOX - BLUE BOX", "address": {"city": "LOGANSPORT", "state": "IN", "street": "3420 E MARKET ST", "postcode": "46947"}}},
{"geometry": {"type": "Point", "coordinates": [-86.3612932588, 40.7625210643]}, "type": "Feature", "properties": {"collection_times": [{"days": "Mon-Sat", "time": "2:00pm"}, {"days": "Sun", "time": "Closed"}], "id": "4694700045", "name": "USPS COLLECTION BOX - BLUE BOX", "address": {"city": "LOGANSPORT", "state": "IN", "street": "1101 MICHIGAN AVE", "postcode": "46947"}}},
{"geometry": {"type": "Point", "coordinates": [-86.3695449971, 40.7579483651]}, "type": "Feature", "properties": {"collection_times": [{"days": "Mon-Sat", "time": "2:00pm"}, {"days": "Sun", "time": "Closed"}], "id": "4694700046", "name": "USPS COLLECTION BOX - BLUE BOX", "address": {"city": "LOGANSPORT", "state": "IN", "street": "824 N 3RD ST", "postcode": "46947"}}},
{"geometry": {"type": "Point", "coordinates": [-86.3668181152, 40.7545084517]}, "type": "Feature", "properties": {"collection_times": [{"days": "Mon-Sat", "time": "3:30pm"}, {"days": "Sun", "time": "Closed"}], "id": "4694700053", "name": "USPS COLLECTION BOX - BLUE BOX", "address": {"city": "LOGANSPORT", "state": "IN", "street": "200 COURT PARK", "postcode": "46947"}}},
{"geometry": {"type": "Point", "coordinates": [-86.3668181152, 40.7545084517]}, "type": "Feature", "properties": {"collection_times": [{"days": "Mon-Sat", "time": "3:30pm"}, {"days": "Sun", "time": "Closed"}], "id": "4694700054", "name": "USPS COLLECTION BOX - BLUE BOX", "address": {"city": "LOGANSPORT", "state": "IN", "street": "200 COURT PARK", "postcode": "46947"}}},
{"geometry": {"type": "Point", "coordinates": [-86.3629542266, 40.7544447475]}, "type": "Feature", "properties": {"collection_times": [{"days": "Mon-Sat", "time": "3:30pm"}, {"days": "Sun", "time": "Closed"}], "id": "4694700059", "name": "USPS COLLECTION BOX - BLUE BOX", "address": {"city": "LOGANSPORT", "state": "IN", "street": "601 E BROADWAY", "postcode": "46947"}}},
{"geometry": {"type": "Point", "coordinates": [-86.3459513187, 40.757468892]}, "type": "Feature", "properties": {"collection_times": [{"days": "Mon-Sat", "time": "12:00pm"}, {"days": "Sun", "time": "Closed"}], "id": "4694700060", "name": "USPS COLLECTION BOX - BLUE BOX", "address": {"city": "LOGANSPORT", "state": "IN", "street": "1830 E BROADWAY", "postcode": "46947"}}},
{"geometry": {"type": "Point", "coordinates": [-86.3168226038, 40.7622305224]}, "type": "Feature", "properties": {"collection_times": [{"days": "Mon-Sat", "time": "10:00am"}, {"days": "Sun", "time": "Closed"}], "id": "4694700067", "name": "USPS COLLECTION BOX - BLUE BOX", "address": {"city": "LOGANSPORT", "state": "IN", "street": "240 MALL RD", "postcode": "46947"}}},
{"geometry": {"type": "Point", "coordinates": [-86.3138540648, 40.7573002096]}, "type": "Feature", "properties": {"collection_times": [{"days": "Mon-Sat", "time": "9:00am"}, {"days": "Sun", "time": "Closed"}], "id": "4694700070", "name": "USPS COLLECTION BOX - BLUE BOX", "address": {"city": "LOGANSPORT", "state": "IN", "street": "3900 E MARKET ST", "postcode": "46947"}}},
{"geometry": {"type": "Point", "coordinates": [-86.3582245017, 40.7539977813]}, "type": "Feature", "properties": {"collection_times": [{"days": "Mon-Fri", "time": "5:00pm"}, {"days": "Sat", "time": "4:30pm"}, {"days": "Sun", "time": "Closed"}], "id": "4694700072", "name": "USPS COLLECTION BOX - PO LOBBY", "address": {"city": "LOGANSPORT", "state": "IN", "street": "406 9TH ST", "postcode": "46947"}}},
{"geometry": {"type": "Point", "coordinates": [-86.4045117382, 40.86630244]}, "type": "Feature", "properties": {"collection_times": [{"days": "Mon-Fri", "time": "4:00pm"}, {"days": "Sat", "time": "10:00am"}, {"days": "Sun", "time": "Closed"}], "id": "4695000001", "name": "USPS COLLECTION BOX - BLUE BOX", "address": {"city": "LUCERNE", "state": "IN", "street": "1567 W FRUSHOUR ST", "postcode": "46950"}}},
{"geometry": {"type": "Point", "coordinates": [-86.4045117382, 40.86630244]}, "type": "Feature", "properties": {"collection_times": [{"days": "Mon-Fri", "time": "10:45am"}, {"days": "Sat", "time": "10:00am"}, {"days": "Sun", "time": "Closed"}], "id": "4695000002", "name": "USPS COLLECTION BOX - PO LOBBY", "address": {"city": "LUCERNE", "state": "IN", "street": "1567 W FRUSHOUR ST", "postcode": "46950"}}},
{"geometry": {"type": "Point", "coordinates": [-86.126712975, 40.9592486148]}, "type": "Feature", "properties": {"collection_times": [{"days": "Mon-Fri", "time": "4:00pm"}, {"days": "Sat", "time": "10:30am"}, {"days": "Sun", "time": "Closed"}], "id": "4695100001", "name": "USPS COLLECTION BOX - BLUE BOX", "address": {"city": "MACY", "state": "IN", "street": "180 E COMMERCE ST", "postcode": "46951"}}},
{"geometry": {"type": "Point", "coordinates": [-86.126712975, 40.9592486148]}, "type": "Feature", "properties": {"collection_times": [{"days": "Mon-Fri", "time": "12:00pm"}, {"days": "Sat", "time": "10:30am"}, {"days": "Sun", "time": "Closed"}], "id": "4695100002", "name": "USPS COLLECTION BOX - PO LOBBY", "address": {"city": "MACY", "state": "IN", "street": "180 E COMMERCE ST", "postcode": "46951"}}},
{"geometry": {"type": "Point", "coordinates": [-85.6610508459, 40.5588893182]}, "type": "Feature", "properties": {"collection_times": [{"days": "Mon-Fri", "time": "5:00pm"}, {"days": "Sat", "time": "4:00pm"}, {"days": "Sun", "time": "Closed"}], "id": "4695200002", "name": "USPS COLLECTION BOX - PO LOBBY", "address": {"city": "MARION", "state": "IN", "street": "202 W 3RD ST", "postcode": "46952"}}},
{"geometry": {"type": "Point", "coordinates": [-85.661483393, 40.5587764272]}, "type": "Feature", "properties": {"collection_times": [{"days": "Mon-Fri", "time": "5:00pm"}, {"days": "Sat", "time": "4:00pm"}, {"days": "Sun", "time": "Closed"}], "id": "4695200004", "name": "USPS COLLECTION BOX - BLUE BOX", "address": {"city": "MARION", "state": "IN", "street": "241 W 3RD ST", "postcode": "46952"}}},
{"geometry": {"type": "Point", "coordinates": [-85.6610870603, 40.5597169519]}, "type": "Feature", "properties": {"collection_times": [{"days": "Mon-Fri", "time": "5:00pm"}, {"days": "Sat", "time": "4:00pm"}, {"days": "Sun", "time": "Closed"}], "id": "4695200006", "name": "USPS COLLECTION BOX - BLUE BOX", "address": {"city": "MARION", "state": "IN", "street": "200 S BOOTS ST", "postcode": "46952"}}},
{"geometry": {"type": "Point", "coordinates": [-85.6610898574, 40.5598027391]}, "type": "Feature", "properties": {"collection_times": [{"days": "Mon-Fri", "time": "5:00pm"}, {"days": "Sat", "time": "4:00pm"}, {"days": "Sun", "time": "Closed"}], "id": "4695200009", "name": "USPS COLLECTION BOX - BLUE BOX", "address": {"city": "MARION", "state": "IN", "street": "200 W 2ND ST", "postcode": "46952"}}},
{"geometry": {"type": "Point", "coordinates": [-85.6610898574, 40.5598027391]}, "type": "Feature", "properties": {"collection_times": [{"days": "Mon-Fri", "time": "5:00pm"}, {"days": "Sat", "time": "4:00pm"}, {"days": "Sun", "time": "Closed"}], "id": "4695200010", "name": "USPS COLLECTION BOX - BLUE BOX", "address": {"city": "MARION", "state": "IN", "street": "200 W 2ND ST", "postcode": "46952"}}},
{"geometry": {"type": "Point", "coordinates": [-85.6760647101, 40.5714622778]}, "type": "Feature", "properties": {"collection_times": [{"days": "Mon-Fri", "time": "4:00pm"}, {"days": "Sat", "time": "3:00pm"}, {"days": "Sun", "time": "Closed"}], "id": "4695200016", "name": "USPS COLLECTION BOX - BLUE BOX", "address": {"city": "MARION", "state": "IN", "street": "1129 N BALDWIN AVE", "postcode": "46952"}}},
{"geometry": {"type": "Point", "coordinates": [-85.6658565556, 40.5647918834]}, "type": "Feature", "properties": {"collection_times": [{"days": "Mon-Sat", "time": "9:00am"}, {"days": "Sun", "time": "Closed"}], "id": "4695200018", "name": "USPS COLLECTION BOX - BLUE BOX", "address": {"city": "MARION", "state": "IN", "street": "500 N WABASH AVE", "postcode": "46952"}}},
{"geometry": {"type": "Point", "coordinates": [-85.6760647101, 40.5714622778]}, "type": "Feature", "properties": {"collection_times": [{"days": "Mon-Fri", "time": "4:00pm"}, {"days": "Sat", "time": "3:00pm"}, {"days": "Sun", "time": "Closed"}], "id": "4695200020", "name": "USPS COLLECTION BOX - BLUE BOX", "address": {"city": "MARION", "state": "IN", "street": "1129 N BALDWIN AVE", "postcode": "46952"}}},
{"geometry": {"type": "Point", "coordinates": [-85.6776817589, 40.5673317108]}, "type": "Feature", "properties": {"collection_times": [{"days": "Mon-Fri", "time": "4:00pm"}, {"days": "Sat", "time": "3:00pm"}, {"days": "Sun", "time": "Closed"}], "id": "4695200022", "name": "USPS COLLECTION BOX - BLUE BOX", "address": {"city": "MARION", "state": "IN", "street": "1013 N FOREST AVE", "postcode": "46952"}}},
{"geometry": {"type": "Point", "coordinates": [-85.6759902426, 40.5678638993]}, "type": "Feature", "properties": {"collection_times": [{"days": "Mon-Sat", "time": "10:00am"}, {"days": "Sun", "time": "Closed"}], "id": "4695200032", "name": "USPS COLLECTION BOX - BLUE BOX", "address": {"city": "MARION", "state": "IN", "street": "935 N BALDWIN AVE", "postcode": "46952"}}},
{"geometry": {"type": "Point", "coordinates": [-85.6451995021, 40.5672634711]}, "type": "Feature", "properties": {"collection_times": [{"days": "Mon-Sat", "time": "10:00am"}, {"days": "Sun", "time": "Closed"}], "id": "4695200045", "name": "USPS COLLECTION BOX - BLUE BOX", "address": {"city": "MARION", "state": "IN", "street": "907 E BRADFORD ST", "postcode": "46952"}}},
{"geometry": {"type": "Point", "coordinates": [-85.6815711645, 40.5753330618]}, "type": "Feature", "properties": {"collection_times": [{"days": "Mon-Sat", "time": "9:00am"}, {"days": "Sun", "time": "Closed"}], "id": "4695200065", "name": "USPS COLLECTION BOX - BLUE BOX", "address": {"city": "MARION", "state": "IN", "street": "1648 W SPRING DR", "postcode": "46952"}}},
{"geometry": {"type": "Point", "coordinates": [-85.6925362, 40.5584849628]}, "type": "Feature", "properties": {"collection_times": [{"days": "Mon-Sat", "time": "9:00am"}, {"days": "Sun", "time": "Closed"}], "id": "4695200072", "name": "USPS COLLECTION BOX - BLUE BOX", "address": {"city": "MARION", "state": "IN", "street": "2229 WESTWOOD SQ", "postcode": "46952"}}},
{"geometry": {"type": "Point", "coordinates": [-85.6644690426, 40.5754216595]}, "type": "Feature", "properties": {"collection_times": [{"days": "Mon-Sat", "time": "10:00am"}, {"days": "Sun", "time": "Closed"}], "id": "4695200093", "name": "USPS COLLECTION BOX - BLUE BOX", "address": {"city": "MARION", "state": "IN", "street": "524 W WHARTON DR", "postcode": "46952"}}},
{"geometry": {"type": "Point", "coordinates": [-85.6643566285, 40.579714934]}, "type": "Feature", "properties": {"collection_times": [{"days": "Mon-Sat", "time": "1:00pm"}, {"days": "Sun", "time": "Closed"}], "id": "4695200094", "name": "USPS COLLECTION BOX - BLUE BOX", "address": {"city": "MARION", "state": "IN", "street": "515 W GARDNER CT", "postcode": "46952"}}},
{"geometry": {"type": "Point", "coordinates": [-85.6920691946, 40.5672747311]}, "type": "Feature", "properties": {"collection_times": [{"days": "Mon-Sat", "time": "9:30am"}, {"days": "Sun", "time": "Closed"}], "id": "4695200099", "name": "USPS COLLECTION BOX - BLUE BOX", "address": {"city": "MARION", "state": "IN", "street": "2101 W BRADFORD ST", "postcode": "46952"}}},
{"geometry": {"type": "Point", "coordinates": [-85.6736095283, 40.5742667793]}, "type": "Feature", "properties": {"collection_times": [{"days": "Mon-Fri", "time": "4:00pm"}, {"days": "Sat", "time": "3:00pm"}, {"days": "Sun", "time": "Closed"}], "id": "4695200102", "name": "USPS COLLECTION BOX - BLUE BOX", "address": {"city": "MARION", "state": "IN", "street": "1251 W KEM RD", "postcode": "46952"}}},
{"geometry": {"type": "Point", "coordinates": [-85.6742545049, 40.5704309283]}, "type": "Feature", "properties": {"collection_times": [{"days": "Mon-Sat", "time": "9:00am"}, {"days": "Sun", "time": "Closed"}], "id": "4695200103", "name": "USPS COLLECTION BOX - BLUE BOX", "address": {"city": "MARION", "state": "IN", "street": "1001 N WESTERN AVE", "postcode": "46952"}}},
{"geometry": {"type": "Point", "coordinates": [-85.6598858723, 40.5797436999]}, "type": "Feature", "properties": {"collection_times": [{"days": "Mon-Sat", "time": "9:00am"}, {"days": "Sun", "time": "Closed"}], "id": "4695200109", "name": "USPS COLLECTION BOX - BLUE BOX", "address": {"city": "MARION", "state": "IN", "street": "214 E 4TH ST", "postcode": "46952"}}},
{"geometry": {"type": "Point", "coordinates": [-85.673789879, 40.5327859589]}, "type": "Feature", "properties": {"collection_times": [{"days": "Mon-Fri", "time": "4:00pm"}, {"days": "Sat", "time": "3:00pm"}, {"days": "Sun", "time": "Closed"}], "id": "4695300003", "name": "USPS COLLECTION BOX - BLUE BOX", "address": {"city": "MARION", "state": "IN", "street": "3100 S WESTERN AVE", "postcode": "46953"}}},
{"geometry": {"type": "Point", "coordinates": [-85.6598644976, 40.5575973935]}, "type": "Feature", "properties": {"collection_times": [{"days": "Mon-Sat", "time": "9:00am"}, {"days": "Sun", "time": "Closed"}], "id": "4695300006", "name": "USPS COLLECTION BOX - BLUE BOX", "address": {"city": "MARION", "state": "IN", "street": "428 S WASHINGTON ST", "postcode": "46953"}}},
{"geometry": {"type": "Point", "coordinates": [-85.6666738314, 40.5226809579]}, "type": "Feature", "properties": {"collection_times": [{"days": "Mon-Sat", "time": "9:00am"}, {"days": "Sun", "time": "Closed"}], "id": "4695300007", "name": "USPS COLLECTION BOX - BLUE BOX", "address": {"city": "MARION", "state": "IN", "street": "209 W 38TH ST", "postcode": "46953"}}},
{"geometry": {"type": "Point", "coordinates": [-85.6622889566, 40.5482651718]}, "type": "Feature", "properties": {"collection_times": [{"days": "Mon-Sat", "time": "10:30am"}, {"days": "Sun", "time": "Closed"}], "id": "4695300008", "name": "USPS COLLECTION BOX - BLUE BOX", "address": {"city": "MARION", "state": "IN", "street": "303 W 14TH ST", "postcode": "46953"}}},
{"geometry": {"type": "Point", "coordinates": [-85.6709589562, 40.5248456161]}, "type": "Feature", "properties": {"collection_times": [{"days": "Mon-Sat", "time": "12:00pm"}, {"days": "Sun", "time": "Closed"}], "id": "4695300009", "name": "USPS COLLECTION BOX - BLUE BOX", "address": {"city": "MARION", "state": "IN", "street": "3678 PRINCE HALL DR", "postcode": "46953"}}},
{"geometry": {"type": "Point", "coordinates": [-85.6452944616, 40.5057010076]}, "type": "Feature", "properties": {"collection_times": [{"days": "Mon-Sat", "time": "1:30pm"}, {"days": "Sun", "time": "Closed"}], "id": "4695300010", "name": "USPS COLLECTION BOX - BLUE BOX", "address": {"city": "MARION", "state": "IN", "street": "5101 S ADAMS ST", "postcode": "46953"}}},
{"geometry": {"type": "Point", "coordinates": [-85.6557193757, 40.5125495554]}, "type": "Feature", "properties": {"collection_times": [{"days": "Mon-Sat", "time": "10:30am"}, {"days": "Sun", "time": "Closed"}], "id": "4695300011", "name": "USPS COLLECTION BOX - BLUE BOX", "address": {"city": "MARION", "state": "IN", "street": "850 E BELLAMY BLVD", "postcode": "46953"}}},
{"geometry": {"type": "Point", "coordinates": [-85.6521515691, 40.5128961766]}, "type": "Feature", "properties": {"collection_times": [{"days": "Mon-Sat", "time": "9:30am"}, {"days": "Sun", "time": "Closed"}], "id": "4695300012", "name": "USPS COLLECTION BOX - BLUE BOX", "address": {"city": "MARION", "state": "IN", "street": "4515 S ADAMS ST", "postcode": "46953"}}},
{"geometry": {"type": "Point", "coordinates": [-85.673807637, 40.5467111532]}, "type": "Feature", "properties": {"collection_times": [{"days": "Mon-Fri", "time": "4:00pm"}, {"days": "Sat", "time": "3:00pm"}, {"days": "Sun", "time": "Closed"}], "id": "4695300013", "name": "USPS COLLECTION BOX - BLUE BOX", "address": {"city": "MARION", "state": "IN", "street": "1555 S WESTERN AVE", "postcode": "46953"}}},
{"geometry": {"type": "Point", "coordinates": [-85.691377387, 40.549486881]}, "type": "Feature", "properties": {"collection_times": [{"days": "Mon-Sat", "time": "12:30pm"}, {"days": "Sun", "time": "Closed"}], "id": "4695300014", "name": "USPS COLLECTION BOX - BLUE BOX", "address": {"city": "MARION", "state": "IN", "street": "1200 S HENDRICKS AVE", "postcode": "46953"}}},
{"geometry": {"type": "Point", "coordinates": [-85.6738040685, 40.5424110655]}, "type": "Feature", "properties": {"collection_times": [{"days": "Mon-Sat", "time": "9:00am"}, {"days": "Sun", "time": "Closed"}], "id": "4695300016", "name": "USPS COLLECTION BOX - BLUE BOX", "address": {"city": "MARION", "state": "IN", "street": "2020 S WESTERN AVE", "postcode": "46953"}}},
{"geometry": {"type": "Point", "coordinates": [-85.6412622909, 40.5235066884]}, "type": "Feature", "properties": {"collection_times": [{"days": "Mon-Sat", "time": "12:00pm"}, {"days": "Sun", "time": "Closed"}], "id": "4695300017", "name": "USPS COLLECTION BOX - BLUE BOX", "address": {"city": "MARION", "state": "IN", "street": "1422 E 38TH ST", "postcode": "46953"}}},
{"geometry": {"type": "Point", "coordinates": [-85.6499999178, 40.53416425]}, "type": "Feature", "properties": {"collection_times": [{"days": "Mon-Sat", "time": "10:00am"}, {"days": "Sun", "time": "Closed"}], "id": "4695300018", "name": "USPS COLLECTION BOX - BLUE BOX", "address": {"city": "MARION", "state": "IN", "street": "825 E 30TH ST", "postcode": "46953"}}},
{"geometry": {"type": "Point", "coordinates": [-85.62539, 40.53561]}, "type": "Feature", "properties": {"collection_times": [{"days": "Mon-Sat", "time": "9:30am"}, {"days": "Sun", "time": "Closed"}], "id": "4695300019", "name": "USPS COLLECTION BOX - BLUE BOX", "address": {"city": "MARION", "state": "IN", "street": "2801 S STONE RD", "postcode": "46953"}}},
{"geometry": {"type": "Point", "coordinates": [-85.4990730479, 40.3883786039]}, "type": "Feature", "properties": {"collection_times": [{"days": "Mon-Fri", "time": "4:15pm"}, {"days": "Sat", "time": "11:15am"}, {"days": "Sun", "time": "Closed"}], "id": "4695700001", "name": "USPS COLLECTION BOX - BLUE BOX", "address": {"city": "MATTHEWS", "state": "IN", "street": "702 MASSACHUSETTS AVE", "postcode": "46957"}}},
{"geometry": {"type": "Point", "coordinates": [-85.4990730479, 40.3883786039]}, "type": "Feature", "properties": {"collection_times": [{"days": "Mon-Fri", "time": "11:45am"}, {"days": "Sat", "time": "11:15am"}, {"days": "Sun", "time": "Closed"}], "id": "4695700002", "name": "USPS COLLECTION BOX - PO LOBBY", "address": {"city": "MATTHEWS", "state": "IN", "street": "702 MASSACHUSETTS AVE", "postcode": "46957"}}},
{"geometry": {"type": "Point", "coordinates": [-86.1155122232, 40.8222414433]}, "type": "Feature", "properties": {"collection_times": [{"days": "Mon-Fri", "time": "4:00pm"}, {"days": "Sat", "time": "11:30am"}, {"days": "Sun", "time": "Closed"}], "id": "4695800001", "name": "USPS COLLECTION BOX - BLUE BOX", "address": {"city": "MEXICO", "state": "IN", "street": "3969 N MEXICO RD", "postcode": "46958"}}},
{"geometry": {"type": "Point", "coordinates": [-86.1155122232, 40.8222414433]}, "type": "Feature", "properties": {"collection_times": [{"days": "Mon-Fri", "time": "11:15am"}, {"days": "Sat", "time": "11:30am"}, {"days": "Sun", "time": "Closed"}], "id": "4695800002", "name": "USPS COLLECTION BOX - PO LOBBY", "address": {"city": "MEXICO", "state": "IN", "street": "3969 N MEXICO RD", "postcode": "46958"}}},
{"geometry": {"type": "Point", "coordinates": [-86.4823903517, 41.1569895259]}, "type": "Feature", "properties": {"collection_times": [{"days": "Mon-Fri", "time": "4:00pm"}, {"days": "Sat", "time": "10:00am"}, {"days": "Sun", "time": "Closed"}], "id": "4696000001", "name": "USPS COLLECTION BOX - BLUE BOX", "address": {"city": "MONTEREY", "state": "IN", "street": "6194 E MAIN ST", "postcode": "46960"}}},
{"geometry": {"type": "Point", "coordinates": [-86.4823903517, 41.1569895259]}, "type": "Feature", "properties": {"collection_times": [{"days": "Mon-Fri", "time": "12:00pm"}, {"days": "Sat", "time": "10:00am"}, {"days": "Sun", "time": "Closed"}], "id": "4696000002", "name": "USPS COLLECTION BOX - PO LOBBY", "address": {"city": "MONTEREY", "state": "IN", "street": "6194 E MAIN ST", "postcode": "46960"}}},
{"geometry": {"type": "Point", "coordinates": [-85.7686494238, 41.0002511229]}, "type": "Feature", "properties": {"collection_times": [{"days": "Mon-Fri", "time": "4:00pm"}, {"days": "Sat", "time": "2:30pm"}, {"days": "Sun", "time": "Closed"}], "id": "4696200001", "name": "USPS COLLECTION BOX - BLUE BOX", "address": {"city": "N MANCHESTER", "state": "IN", "street": "202 E 2ND ST", "postcode": "46962"}}},
{"geometry": {"type": "Point", "coordinates": [-85.7686494238, 41.0002511229]}, "type": "Feature", "properties": {"collection_times": [{"days": "Mon-Fri", "time": "4:00pm"}, {"days": "Sat", "time": "2:30pm"}, {"days": "Sun", "time": "Closed"}], "id": "4696200002", "name": "USPS COLLECTION BOX - BLUE BOX", "address": {"city": "N MANCHESTER", "state": "IN", "street": "202 E 2ND ST", "postcode": "46962"}}},
{"geometry": {"type": "Point", "coordinates": [-85.7869068689, 41.000330555]}, "type": "Feature", "properties": {"collection_times": [{"days": "Mon-Fri", "time": "11:00am"}, {"days": "Sat", "time": "10:00am"}, {"days": "Sun", "time": "Closed"}], "id": "4696200003", "name": "USPS COLLECTION BOX - BLUE BOX", "address": {"city": "N MANCHESTER", "state": "IN", "street": "1202 STATE ROAD 114 W", "postcode": "46962"}}},
{"geometry": {"type": "Point", "coordinates": [-85.7879250565, 41.0039265848]}, "type": "Feature", "properties": {"collection_times": [{"days": "Mon-Sat", "time": "11:00am"}, {"days": "Sun", "time": "Closed"}], "id": "4696200004", "name": "USPS COLLECTION BOX - BLUE BOX", "address": {"city": "N MANCHESTER", "state": "IN", "street": "501 KECH ST", "postcode": "46962"}}},
{"geometry": {"type": "Point", "coordinates": [-85.7879250565, 41.0039265848]}, "type": "Feature", "properties": {"collection_times": [{"days": "Mon-Sat", "time": "11:00am"}, {"days": "Sun", "time": "Closed"}], "id": "4696200010", "name": "USPS COLLECTION BOX - BLUE BOX", "address": {"city": "N MANCHESTER", "state": "IN", "street": "501 KECH ST", "postcode": "46962"}}},
{"geometry": {"type": "Point", "coordinates": [-85.7686494238, 41.0002511229]}, "type": "Feature", "properties": {"collection_times": [{"days": "Mon-Fri", "time": "4:00pm"}, {"days": "Sat", "time": "2:30pm"}, {"days": "Sun", "time": "Closed"}], "id": "4696200030", "name": "USPS COLLECTION BOX - BLUE BOX", "address": {"city": "N MANCHESTER", "state": "IN", "street": "202 E 2ND ST", "postcode": "46962"}}},
{"geometry": {"type": "Point", "coordinates": [-85.7686494238, 41.0002511229]}, "type": "Feature", "properties": {"collection_times": [{"days": "Mon-Fri", "time": "4:00pm"}, {"days": "Sat", "time": "2:30pm"}, {"days": "Sun", "time": "Closed"}], "id": "4696200033", "name": "USPS COLLECTION BOX - PO LOBBY", "address": {"city": "N MANCHESTER", "state": "IN", "street": "202 E 2ND ST", "postcode": "46962"}}},
{"geometry": {"type": "Point", "coordinates": [-85.7686494238, 41.0002511229]}, "type": "Feature", "properties": {"collection_times": [{"days": "Mon-Fri", "time": "4:00pm"}, {"days": "Sat", "time": "2:30pm"}, {"days": "Sun", "time": "Closed"}], "id": "4696200035", "name": "USPS COLLECTION BOX - PO LOBBY", "address": {"city": "N MANCHESTER", "state": "IN", "street": "202 E 2ND ST", "postcode": "46962"}}},
{"geometry": {"type": "Point", "coordinates": [-86.102924068, 40.4192641902]}, "type": "Feature", "properties": {"collection_times": [{"days": "Mon-Fri", "time": "4:00pm"}, {"days": "Sat", "time": "11:00am"}, {"days": "Sun", "time": "Closed"}], "id": "4696500001", "name": "USPS COLLECTION BOX - BLUE BOX", "address": {"city": "OAKFORD", "state": "IN", "street": "1184 E 400 S", "postcode": "46965"}}},
{"geometry": {"type": "Point", "coordinates": [-86.102924068, 40.4192641902]}, "type": "Feature", "properties": {"collection_times": [{"days": "Mon-Fri", "time": "11:45am"}, {"days": "Sat", "time": "11:00am"}, {"days": "Sun", "time": "Closed"}], "id": "4696500002", "name": "USPS COLLECTION BOX - PO LOBBY", "address": {"city": "OAKFORD", "state": "IN", "street": "1184 E 400 S", "postcode": "46965"}}},
{"geometry": {"type": "Point", "coordinates": [-86.0979183263, 40.7447022072]}, "type": "Feature", "properties": {"collection_times": [{"days": "Mon-Sat", "time": "10:00am"}, {"days": "Sun", "time": "Closed"}], "id": "4697000001", "name": "USPS COLLECTION BOX - BLUE BOX", "address": {"city": "PERU", "state": "IN", "street": "999 W MAIN ST", "postcode": "46970"}}},
{"geometry": {"type": "Point", "coordinates": [-86.0678634575, 40.7532104634]}, "type": "Feature", "properties": {"collection_times": [{"days": "Mon-Sat", "time": "9:30am"}, {"days": "Sun", "time": "Closed"}], "id": "4697000005", "name": "USPS COLLECTION BOX - BLUE BOX", "address": {"city": "PERU", "state": "IN", "street": "20 E 3RD ST", "postcode": "46970"}}},
{"geometry": {"type": "Point", "coordinates": [-86.0751992004, 40.7630914086]}, "type": "Feature", "properties": {"collection_times": [{"days": "Mon-Sat", "time": "9:30am"}, {"days": "Sun", "time": "Closed"}], "id": "4697000007", "name": "USPS COLLECTION BOX - BLUE BOX", "address": {"city": "PERU", "state": "IN", "street": "497 N BROADWAY", "postcode": "46970"}}},
{"geometry": {"type": "Point", "coordinates": [-86.0940830573, 40.7448231916]}, "type": "Feature", "properties": {"collection_times": [{"days": "Mon-Sat", "time": "10:00am"}, {"days": "Sun", "time": "Closed"}], "id": "4697000009", "name": "USPS COLLECTION BOX - BLUE BOX", "address": {"city": "PERU", "state": "IN", "street": "930 W MAIN ST", "postcode": "46970"}}},
{"geometry": {"type": "Point", "coordinates": [-86.0701063527, 40.7549809359]}, "type": "Feature", "properties": {"collection_times": [{"days": "Mon-Fri", "time": "3:00pm"}, {"days": "Sat", "time": "2:00pm"}, {"days": "Sun", "time": "Closed"}], "id": "4697000011", "name": "USPS COLLECTION BOX - BLUE BOX", "address": {"city": "PERU", "state": "IN", "street": "74 N BROADWAY", "postcode": "46970"}}},
{"geometry": {"type": "Point", "coordinates": [-86.0683731039, 40.754376513]}, "type": "Feature", "properties": {"collection_times": [{"days": "Mon-Fri", "time": "3:00pm"}, {"days": "Sat", "time": "2:00pm"}, {"days": "Sun", "time": "Closed"}], "id": "4697000024", "name": "USPS COLLECTION BOX - BLUE BOX", "address": {"city": "PERU", "state": "IN", "street": "25 COURT ST", "postcode": "46970"}}},
{"geometry": {"type": "Point", "coordinates": [-86.0777758412, 40.7499361551]}, "type": "Feature", "properties": {"collection_times": [{"days": "Mon-Sat", "time": "9:00am"}, {"days": "Sun", "time": "Closed"}], "id": "4697000025", "name": "USPS COLLECTION BOX - BLUE BOX", "address": {"city": "PERU", "state": "IN", "street": "286 W MAIN ST", "postcode": "46970"}}},
{"geometry": {"type": "Point", "coordinates": [-86.0677050887, 40.7520610039]}, "type": "Feature", "properties": {"collection_times": [{"days": "Mon-Fri", "time": "5:00pm"}, {"days": "Sat", "time": "3:00pm"}, {"days": "Sun", "time": "Closed"}], "id": "4697000035", "name": "USPS COLLECTION BOX - BLUE BOX", "address": {"city": "PERU", "state": "IN", "street": "101 S BROADWAY", "postcode": "46970"}}},
{"geometry": {"type": "Point", "coordinates": [-86.0691938304, 40.7537612648]}, "type": "Feature", "properties": {"collection_times": [{"days": "Mon-Fri", "time": "3:00pm"}, {"days": "Sat", "time": "2:00pm"}, {"days": "Sun", "time": "Closed"}], "id": "4697000037", "name": "USPS COLLECTION BOX - BLUE BOX", "address": {"city": "PERU", "state": "IN", "street": "2 N BROADWAY", "postcode": "46970"}}},
{"geometry": {"type": "Point", "coordinates": [-86.0600490387, 40.7573257761]}, "type": "Feature", "properties": {"collection_times": [{"days": "Mon-Sat", "time": "9:30am"}, {"days": "Sun", "time": "Closed"}], "id": "4697000038", "name": "USPS COLLECTION BOX - BLUE BOX", "address": {"city": "PERU", "state": "IN", "street": "1435 N FOREMAN DR", "postcode": "46970"}}},
{"geometry": {"type": "Point", "coordinates": [-86.0677050887, 40.7520610039]}, "type": "Feature", "properties": {"collection_times": [{"days": "Mon-Fri", "time": "5:00pm"}, {"days": "Sat", "time": "3:00pm"}, {"days": "Sun", "time": "Closed"}], "id": "4697000040", "name": "USPS COLLECTION BOX - PO LOBBY", "address": {"city": "PERU", "state": "IN", "street": "101 S BROADWAY", "postcode": "46970"}}},
{"geometry": {"type": "Point", "coordinates": [-86.0693520895, 40.7542060976]}, "type": "Feature", "properties": {"collection_times": [{"days": "Mon-Sat", "time": "3:00pm"}, {"days": "Sun", "time": "Closed"}], "id": "4697000041", "name": "USPS COLLECTION BOX - BLUE BOX", "address": {"city": "PERU", "state": "IN", "street": "25 N BROADWAY", "postcode": "46970"}}},
{"geometry": {"type": "Point", "coordinates": [-86.06559772, 40.759557073]}, "type": "Feature", "properties": {"collection_times": [{"days": "Mon-Fri", "time": "3:00pm"}, {"days": "Sat", "time": "2:00pm"}, {"days": "Sun", "time": "Closed"}], "id": "4697000042", "name": "USPS COLLECTION BOX - BLUE BOX", "address": {"city": "PERU", "state": "IN", "street": "252 N TIPPECANOE ST", "postcode": "46970"}}},
{"geometry": {"type": "Point", "coordinates": [-86.0833113073, 40.7572258197]}, "type": "Feature", "properties": {"collection_times": [{"days": "Mon-Fri", "time": "3:00pm"}, {"days": "Sat", "time": "2:00pm"}, {"days": "Sun", "time": "Closed"}], "id": "4697000043", "name": "USPS COLLECTION BOX - BLUE BOX", "address": {"city": "PERU", "state": "IN", "street": "275 W 12TH ST", "postcode": "46970"}}},
{"geometry": {"type": "Point", "coordinates": [-85.9245064215, 40.9122573118]}, "type": "Feature", "properties": {"collection_times": [{"days": "Mon-Fri", "time": "4:00pm"}, {"days": "Sat", "time": "10:00am"}, {"days": "Sun", "time": "Closed"}], "id": "4697400002", "name": "USPS COLLECTION BOX - BLUE BOX", "address": {"city": "ROANN", "state": "IN", "street": "160 N CHIPPEWA ST", "postcode": "46974"}}},
{"geometry": {"type": "Point", "coordinates": [-85.9245064215, 40.9122573118]}, "type": "Feature", "properties": {"collection_times": [{"days": "Mon-Fri", "time": "12:00pm"}, {"days": "Sat", "time": "10:00am"}, {"days": "Sun", "time": "Closed"}], "id": "4697400003", "name": "USPS COLLECTION BOX - PO LOBBY", "address": {"city": "ROANN", "state": "IN", "street": "160 N CHIPPEWA ST", "postcode": "46974"}}},
{"geometry": {"type": "Point", "coordinates": [-86.2144619926, 41.0531049205]}, "type": "Feature", "properties": {"collection_times": [{"days": "Mon-Sat", "time": "10:00am"}, {"days": "Sun", "time": "Closed"}], "id": "4697500006", "name": "USPS COLLECTION BOX - BLUE BOX", "address": {"city": "ROCHESTER", "state": "IN", "street": "141 ROCHESTER PLZ", "postcode": "46975"}}},
{"geometry": {"type": "Point", "coordinates": [-86.2159474686, 41.0670981474]}, "type": "Feature", "properties": {"collection_times": [{"days": "Mon-Fri", "time": "2:00pm"}, {"days": "Sat-Sun", "time": "Closed"}], "id": "4697500012", "name": "USPS COLLECTION BOX - BLUE BOX", "address": {"city": "ROCHESTER", "state": "IN", "street": "815 MAIN ST", "postcode": "46975"}}},
{"geometry": {"type": "Point", "coordinates": [-86.2142689523, 41.0669092137]}, "type": "Feature", "properties": {"collection_times": [{"days": "Mon-Fri", "time": "2:00pm"}, {"days": "Sat", "time": "12:00pm"}, {"days": "Sun", "time": "Closed"}], "id": "4697500016", "name": "USPS COLLECTION BOX - BLUE BOX", "address": {"city": "ROCHESTER", "state": "IN", "street": "716 MADISON ST", "postcode": "46975"}}},
{"geometry": {"type": "Point", "coordinates": [-86.2142689523, 41.0669092137]}, "type": "Feature", "properties": {"collection_times": [{"days": "Mon-Sat", "time": "10:00am"}, {"days": "Sun", "time": "Closed"}], "id": "4697500017", "name": "USPS COLLECTION BOX - BLUE BOX", "address": {"city": "ROCHESTER", "state": "IN", "street": "2040 PEACE TREE VLG", "postcode": "46975"}}},
{"geometry": {"type": "Point", "coordinates": [-86.2157544631, 41.0681097286]}, "type": "Feature", "properties": {"collection_times": [{"days": "Mon-Fri", "time": "2:00pm"}, {"days": "Sat", "time": "12:00pm"}, {"days": "Sun", "time": "Closed"}], "id": "4697500020", "name": "USPS COLLECTION BOX - BLUE BOX", "address": {"city": "ROCHESTER", "state": "IN", "street": "700 MAIN ST", "postcode": "46975"}}},
{"geometry": {"type": "Point", "coordinates": [-86.2086545502, 41.064503593]}, "type": "Feature", "properties": {"collection_times": [{"days": "Mon-Fri", "time": "4:15pm"}, {"days": "Sat", "time": "12:00pm"}, {"days": "Sun", "time": "Closed"}], "id": "4697500022", "name": "USPS COLLECTION BOX - BLUE BOX", "address": {"city": "ROCHESTER", "state": "IN", "street": "601 E 9TH ST", "postcode": "46975"}}},
{"geometry": {"type": "Point", "coordinates": [-86.2086545502, 41.064503593]}, "type": "Feature", "properties": {"collection_times": [{"days": "Mon-Fri", "time": "4:15pm"}, {"days": "Sat", "time": "12:00pm"}, {"days": "Sun", "time": "Closed"}], "id": "4697500024", "name": "USPS COLLECTION BOX - PO LOBBY", "address": {"city": "ROCHESTER", "state": "IN", "street": "601 E 9TH ST", "postcode": "46975"}}},
{"geometry": {"type": "Point", "coordinates": [-86.2156256342, 41.0648929491]}, "type": "Feature", "properties": {"collection_times": [{"days": "Mon-Fri", "time": "2:00pm"}, {"days": "Sat-Sun", "time": "Closed"}], "id": "4697500027", "name": "USPS COLLECTION BOX - BLUE BOX", "address": {"city": "ROCHESTER", "state": "IN", "street": "125 E 9TH ST", "postcode": "46975"}}},
{"geometry": {"type": "Point", "coordinates": [-86.2086545502, 41.064503593]}, "type": "Feature", "properties": {"collection_times": [{"days": "Mon-Fri", "time": "4:15pm"}, {"days": "Sat", "time": "12:00pm"}, {"days": "Sun", "time": "Closed"}], "id": "4697500028", "name": "USPS COLLECTION BOX - BLUE BOX", "address": {"city": "ROCHESTER", "state": "IN", "street": "601 E 9TH ST", "postcode": "46975"}}},
{"geometry": {"type": "Point", "coordinates": [-86.2086545502, 41.064503593]}, "type": "Feature", "properties": {"collection_times": [{"days": "Mon-Fri", "time": "4:15pm"}, {"days": "Sat", "time": "12:00pm"}, {"days": "Sun", "time": "Closed"}], "id": "4697500029", "name": "USPS COLLECTION BOX - BLUE BOX", "address": {"city": "ROCHESTER", "state": "IN", "street": "601 E 9TH ST", "postcode": "46975"}}},
{"geometry": {"type": "Point", "coordinates": [-86.4942342006, 40.8597293882]}, "type": "Feature", "properties": {"collection_times": [{"days": "Mon-Fri", "time": "4:00pm"}, {"days": "Sat", "time": "11:00am"}, {"days": "Sun", "time": "Closed"}], "id": "4697800001", "name": "USPS COLLECTION BOX - BLUE BOX", "address": {"city": "ROYAL CENTER", "state": "IN", "street": "117 S CHICAGO ST", "postcode": "46978"}}},
{"geometry": {"type": "Point", "coordinates": [-86.4942342006, 40.8597293882]}, "type": "Feature", "properties": {"collection_times": [{"days": "Mon-Fri", "time": "4:00pm"}, {"days": "Sat", "time": "11:00am"}, {"days": "Sun", "time": "Closed"}], "id": "4697800002", "name": "USPS COLLECTION BOX - PO LOBBY", "address": {"city": "ROYAL CENTER", "state": "IN", "street": "117 S CHICAGO ST", "postcode": "46978"}}},
{"geometry": {"type": "Point", "coordinates": [-86.271460889, 40.4189230104]}, "type": "Feature", "properties": {"collection_times": [{"days": "Mon-Fri", "time": "4:00pm"}, {"days": "Sat", "time": "11:00am"}, {"days": "Sun", "time": "Closed"}], "id": "4697900001", "name": "USPS COLLECTION BOX - BLUE BOX", "address": {"city": "RUSSIAVILLE", "state": "IN", "street": "225 N UNION ST", "postcode": "46979"}}},
{"geometry": {"type": "Point", "coordinates": [-86.271460889, 40.4189230104]}, "type": "Feature", "properties": {"collection_times": [{"days": "Mon-Fri", "time": "4:30pm"}, {"days": "Sat", "time": "11:00am"}, {"days": "Sun", "time": "Closed"}], "id": "4697900002", "name": "USPS COLLECTION BOX - PO LOBBY", "address": {"city": "RUSSIAVILLE", "state": "IN", "street": "225 N UNION ST", "postcode": "46979"}}},
{"geometry": {"type": "Point", "coordinates": [-85.7404987594, 40.956603407]}, "type": "Feature", "properties": {"collection_times": [{"days": "Mon-Fri", "time": "11:45am"}, {"days": "Sat", "time": "10:30am"}, {"days": "Sun", "time": "Closed"}], "id": "4698000000", "name": "USPS COLLECTION BOX - BLUE BOX", "address": {"city": "SERVIA", "state": "IN", "street": "190 S MAIN ST", "postcode": "46980"}}},
{"geometry": {"type": "Point", "coordinates": [-85.7404987594, 40.956603407]}, "type": "Feature", "properties": {"collection_times": [{"days": "Mon-Fri", "time": "11:45am"}, {"days": "Sat", "time": "10:30am"}, {"days": "Sun", "time": "Closed"}], "id": "4698000001", "name": "USPS COLLECTION BOX - PO LOBBY", "address": {"city": "SERVIA", "state": "IN", "street": "190 S MAIN ST", "postcode": "46980"}}},
{"geometry": {"type": "Point", "coordinates": [-85.8921033562, 41.0718998192]}, "type": "Feature", "properties": {"collection_times": [{"days": "Mon-Fri", "time": "3:15pm"}, {"days": "Sat", "time": "10:00am"}, {"days": "Sun", "time": "Closed"}], "id": "4698200001", "name": "USPS COLLECTION BOX - BLUE BOX", "address": {"city": "SILVER LAKE", "state": "IN", "street": "104 E MAIN ST", "postcode": "46982"}}},
{"geometry": {"type": "Point", "coordinates": [-85.8921033562, 41.0718998192]}, "type": "Feature", "properties": {"collection_times": [{"days": "Mon-Fri", "time": "12:00pm"}, {"days": "Sat", "time": "10:00am"}, {"days": "Sun", "time": "Closed"}], "id": "4698200002", "name": "USPS COLLECTION BOX - PO LOBBY", "address": {"city": "SILVER LAKE", "state": "IN", "street": "104 E MAIN ST", "postcode": "46982"}}},
{"geometry": {"type": "Point", "coordinates": [-85.898956765, 41.0639424228]}, "type": "Feature", "properties": {"collection_times": [{"days": "Mon-Sat", "time": "11:00am"}, {"days": "Sun", "time": "Closed"}], "id": "4698200003", "name": "USPS COLLECTION BOX - BLUE BOX", "address": {"city": "SILVER LAKE", "state": "IN", "street": "604 N JEFFERSON ST", "postcode": "46982"}}},
{"geometry": {"type": "Point", "coordinates": [-85.8271113359, 40.6677495434]}, "type": "Feature", "properties": {"collection_times": [{"days": "Mon-Fri", "time": "4:00pm"}, {"days": "Sat", "time": "10:30am"}, {"days": "Sun", "time": "Closed"}], "id": "4698400001", "name": "USPS COLLECTION BOX - BLUE BOX", "address": {"city": "SOMERSET", "state": "IN", "street": "1 SHOPPING CENTER RD", "postcode": "46984"}}},
{"geometry": {"type": "Point", "coordinates": [-85.8271113359, 40.6677495434]}, "type": "Feature", "properties": {"collection_times": [{"days": "Mon-Fri", "time": "12:00pm"}, {"days": "Sat", "time": "10:30am"}, {"days": "Sun", "time": "Closed"}], "id": "4698400002", "name": "USPS COLLECTION BOX - PO LOBBY", "address": {"city": "SOMERSET", "state": "IN", "street": "1 SHOPPING CENTER RD", "postcode": "46984"}}},
{"geometry": {"type": "Point", "coordinates": [-86.5558355796, 40.972100454]}, "type": "Feature", "properties": {"collection_times": [{"days": "Mon-Fri", "time": "4:15pm"}, {"days": "Sat", "time": "10:15am"}, {"days": "Sun", "time": "Closed"}], "id": "4698500000", "name": "USPS COLLECTION BOX - BLUE BOX", "address": {"city": "STAR CITY", "state": "IN", "street": "5800 S JUDSON ST", "postcode": "46985"}}},
{"geometry": {"type": "Point", "coordinates": [-86.5558355796, 40.972100454]}, "type": "Feature", "properties": {"collection_times": [{"days": "Mon-Fri", "time": "11:45am"}, {"days": "Sat", "time": "10:15am"}, {"days": "Sun", "time": "Closed"}], "id": "4698500001", "name": "USPS COLLECTION BOX - PO LOBBY", "address": {"city": "STAR CITY", "state": "IN", "street": "5800 S JUDSON ST", "postcode": "46985"}}},
{"geometry": {"type": "Point", "coordinates": [-85.8255745944, 40.5123328294]}, "type": "Feature", "properties": {"collection_times": [{"days": "Mon-Fri", "time": "4:15pm"}, {"days": "Sat", "time": "11:15am"}, {"days": "Sun", "time": "Closed"}], "id": "4698600001", "name": "USPS COLLECTION BOX - BLUE BOX", "address": {"city": "SWAYZEE", "state": "IN", "street": "111 N WASHINGTON ST", "postcode": "46986"}}},
{"geometry": {"type": "Point", "coordinates": [-85.8255745944, 40.5123328294]}, "type": "Feature", "properties": {"collection_times": [{"days": "Mon-Fri", "time": "12:00pm"}, {"days": "Sat", "time": "11:15am"}, {"days": "Sun", "time": "Closed"}], "id": "4698600002", "name": "USPS COLLECTION BOX - PO LOBBY", "address": {"city": "SWAYZEE", "state": "IN", "street": "111 N WASHINGTON ST", "postcode": "46986"}}},
{"geometry": {"type": "Point", "coordinates": [-85.8257178785, 40.512426812]}, "type": "Feature", "properties": {"collection_times": [{"days": "Mon-Fri", "time": "1:00pm"}, {"days": "Sat", "time": "11:15am"}, {"days": "Sun", "time": "Closed"}], "id": "4698600003", "name": "USPS COLLECTION BOX - BLUE BOX", "address": {"city": "SWAYZEE", "state": "IN", "street": "102 N WASHINGTON ST", "postcode": "46986"}}},
{"geometry": {"type": "Point", "coordinates": [-85.8285980909, 40.5029022777]}, "type": "Feature", "properties": {"collection_times": [{"days": "Mon-Fri", "time": "12:30pm"}, {"days": "Sat", "time": "11:15am"}, {"days": "Sun", "time": "Closed"}], "id": "4698600004", "name": "USPS COLLECTION BOX - BLUE BOX", "address": {"city": "SWAYZEE", "state": "IN", "street": "204 N WASHINGTON ST", "postcode": "46986"}}},
{"geometry": {"type": "Point", "coordinates": [-85.7668501603, 40.5712526669]}, "type": "Feature", "properties": {"collection_times": [{"days": "Mon-Fri", "time": "4:30pm"}, {"days": "Sat", "time": "11:00am"}, {"days": "Sun", "time": "Closed"}], "id": "4698700001", "name": "USPS COLLECTION BOX - BLUE BOX", "address": {"city": "SWEETSER", "state": "IN", "street": "111 W GREENSBURG ST", "postcode": "46987"}}},
{"geometry": {"type": "Point", "coordinates": [-85.7668501603, 40.5712526669]}, "type": "Feature", "properties": {"collection_times": [{"days": "Mon-Fri", "time": "4:30pm"}, {"days": "Sat", "time": "11:00am"}, {"days": "Sun", "time": "Closed"}], "id": "4698700002", "name": "USPS COLLECTION BOX - PO LOBBY", "address": {"city": "SWEETSER", "state": "IN", "street": "111 W GREENSBURG ST", "postcode": "46987"}}},
{"geometry": {"type": "Point", "coordinates": [-86.2221997945, 40.866351621]}, "type": "Feature", "properties": {"collection_times": [{"days": "Mon-Fri", "time": "4:00pm"}, {"days": "Sat", "time": "10:30am"}, {"days": "Sun", "time": "Closed"}], "id": "4698800001", "name": "USPS COLLECTION BOX - BLUE BOX", "address": {"city": "TWELVE MILE", "state": "IN", "street": "8051 E STATE ROAD 16", "postcode": "46988"}}},
{"geometry": {"type": "Point", "coordinates": [-86.2221997945, 40.866351621]}, "type": "Feature", "properties": {"collection_times": [{"days": "Mon-Fri", "time": "2:00pm"}, {"days": "Sat", "time": "10:30am"}, {"days": "Sun", "time": "Closed"}], "id": "4698800002", "name": "USPS COLLECTION BOX - PO LOBBY", "address": {"city": "TWELVE MILE", "state": "IN", "street": "8051 E STATE ROAD 16", "postcode": "46988"}}},
{"geometry": {"type": "Point", "coordinates": [-85.4944702242, 40.4760733527]}, "type": "Feature", "properties": {"collection_times": [{"days": "Mon-Fri", "time": "4:30pm"}, {"days": "Sat", "time": "11:30am"}, {"days": "Sun", "time": "Closed"}], "id": "4698900002", "name": "USPS COLLECTION BOX - BLUE BOX", "address": {"city": "UPLAND", "state": "IN", "street": "222 N MAIN ST", "postcode": "46989"}}},
{"geometry": {"type": "Point", "coordinates": [-85.4944150815, 40.4754787586]}, "type": "Feature", "properties": {"collection_times": [{"days": "Mon-Fri", "time": "4:30pm"}, {"days": "Sat", "time": "11:30am"}, {"days": "Sun", "time": "Closed"}], "id": "4698900003", "name": "USPS COLLECTION BOX - PO LOBBY", "address": {"city": "UPLAND", "state": "IN", "street": "222 N MAIN ST", "postcode": "46989"}}},
{"geometry": {"type": "Point", "coordinates": [-85.7918301973, 40.8984693277]}, "type": "Feature", "properties": {"collection_times": [{"days": "Mon-Fri", "time": "4:00pm"}, {"days": "Sat", "time": "10:00am"}, {"days": "Sun", "time": "Closed"}], "id": "4699000001", "name": "USPS COLLECTION BOX - BLUE BOX", "address": {"city": "URBANA", "state": "IN", "street": "80 E MILL ST", "postcode": "46990"}}},
{"geometry": {"type": "Point", "coordinates": [-85.7918301973, 40.8984693277]}, "type": "Feature", "properties": {"collection_times": [{"days": "Mon-Fri", "time": "12:30pm"}, {"days": "Sat", "time": "10:00am"}, {"days": "Sun", "time": "Closed"}], "id": "4699000002", "name": "USPS COLLECTION BOX - PO LOBBY", "address": {"city": "URBANA", "state": "IN", "street": "80 E MILL ST", "postcode": "46990"}}},
{"geometry": {"type": "Point", "coordinates": [-85.5051471915, 40.6243321464]}, "type": "Feature", "properties": {"collection_times": [{"days": "Mon-Fri", "time": "4:30pm"}, {"days": "Sat", "time": "10:00am"}, {"days": "Sun", "time": "Closed"}], "id": "4699100000", "name": "USPS COLLECTION BOX - BLUE BOX", "address": {"city": "VAN BUREN", "state": "IN", "street": "113 E MAIN ST", "postcode": "46991"}}},
{"geometry": {"type": "Point", "coordinates": [-85.5051471915, 40.6243321464]}, "type": "Feature", "properties": {"collection_times": [{"days": "Mon-Fri", "time": "4:30pm"}, {"days": "Sat", "time": "10:00am"}, {"days": "Sun", "time": "Closed"}], "id": "4699100001", "name": "USPS COLLECTION BOX - PO LOBBY", "address": {"city": "VAN BUREN", "state": "IN", "street": "113 E MAIN ST", "postcode": "46991"}}},
{"geometry": {"type": "Point", "coordinates": [-85.8226787792, 40.797648571]}, "type": "Feature", "properties": {"collection_times": [{"days": "Mon-Fri", "time": "5:00pm"}, {"days": "Sat", "time": "4:30pm"}, {"days": "Sun", "time": "Closed"}], "id": "4699200002", "name": "USPS COLLECTION BOX - BLUE BOX", "address": {"city": "WABASH", "state": "IN", "street": "111 W MAIN ST", "postcode": "46992"}}},
{"geometry": {"type": "Point", "coordinates": [-85.8226787792, 40.797648571]}, "type": "Feature", "properties": {"collection_times": [{"days": "Mon-Fri", "time": "5:00pm"}, {"days": "Sat", "time": "4:30pm"}, {"days": "Sun", "time": "Closed"}], "id": "4699200003", "name": "USPS COLLECTION BOX - PO LOBBY", "address": {"city": "WABASH", "state": "IN", "street": "111 W MAIN ST", "postcode": "46992"}}},
{"geometry": {"type": "Point", "coordinates": [-85.8225249685, 40.797598646]}, "type": "Feature", "properties": {"collection_times": [{"days": "Mon-Fri", "time": "5:00pm"}, {"days": "Sat", "time": "4:30pm"}, {"days": "Sun", "time": "Closed"}], "id": "4699200005", "name": "USPS COLLECTION BOX - BLUE BOX", "address": {"city": "WABASH", "state": "IN", "street": "110 S MIAMI ST", "postcode": "46992"}}},
{"geometry": {"type": "Point", "coordinates": [-85.8225249685, 40.797598646]}, "type": "Feature", "properties": {"collection_times": [{"days": "Mon-Fri", "time": "5:00pm"}, {"days": "Sat", "time": "4:30pm"}, {"days": "Sun", "time": "Closed"}], "id": "4699200006", "name": "USPS COLLECTION BOX - BLUE BOX", "address": {"city": "WABASH", "state": "IN", "street": "110 S MIAMI ST", "postcode": "46992"}}},
{"geometry": {"type": "Point", "coordinates": [-85.8240701972, 40.8121389833]}, "type": "Feature", "properties": {"collection_times": [{"days": "Mon-Sat", "time": "9:00am"}, {"days": "Sun", "time": "Closed"}], "id": "4699200010", "name": "USPS COLLECTION BOX - BLUE BOX", "address": {"city": "WABASH", "state": "IN", "street": "1205 N MIAMI ST", "postcode": "46992"}}},
{"geometry": {"type": "Point", "coordinates": [-85.8225850516, 40.7807676662]}, "type": "Feature", "properties": {"collection_times": [{"days": "Mon-Sat", "time": "9:15am"}, {"days": "Sun", "time": "Closed"}], "id": "4699200021", "name": "USPS COLLECTION BOX - BLUE BOX", "address": {"city": "WABASH", "state": "IN", "street": "120 HALE DR", "postcode": "46992"}}},
{"geometry": {"type": "Point", "coordinates": [-85.8296643072, 40.7857834874]}, "type": "Feature", "properties": {"collection_times": [{"days": "Mon-Sat", "time": "9:15am"}, {"days": "Sun", "time": "Closed"}], "id": "4699200022", "name": "USPS COLLECTION BOX - BLUE BOX", "address": {"city": "WABASH", "state": "IN", "street": "526 COLUMBUS ST", "postcode": "46992"}}},
{"geometry": {"type": "Point", "coordinates": [-85.8209480409, 40.7987487203]}, "type": "Feature", "properties": {"collection_times": [{"days": "Mon-Fri", "time": "3:15pm"}, {"days": "Sat", "time": "2:00pm"}, {"days": "Sun", "time": "Closed"}], "id": "4699200024", "name": "USPS COLLECTION BOX - BLUE BOX", "address": {"city": "WABASH", "state": "IN", "street": "1 W HILL ST", "postcode": "46992"}}},
{"geometry": {"type": "Point", "coordinates": [-85.8153212634, 40.8069544537]}, "type": "Feature", "properties": {"collection_times": [{"days": "Mon-Fri", "time": "3:00pm"}, {"days": "Sat", "time": "2:00pm"}, {"days": "Sun", "time": "Closed"}], "id": "4699200025", "name": "USPS COLLECTION BOX - BLUE BOX", "address": {"city": "WABASH", "state": "IN", "street": "710 N EAST ST", "postcode": "46992"}}},
{"geometry": {"type": "Point", "coordinates": [-85.8386426494, 40.8119204029]}, "type": "Feature", "properties": {"collection_times": [{"days": "Mon-Sat", "time": "9:15am"}, {"days": "Sun", "time": "Closed"}], "id": "4699200026", "name": "USPS COLLECTION BOX - BLUE BOX", "address": {"city": "WABASH", "state": "IN", "street": "1299 MEADOWBROOK LN", "postcode": "46992"}}},
{"geometry": {"type": "Point", "coordinates": [-85.8361086303, 40.8077834645]}, "type": "Feature", "properties": {"collection_times": [{"days": "Mon-Sat", "time": "9:00am"}, {"days": "Sun", "time": "Closed"}], "id": "4699200028", "name": "USPS COLLECTION BOX - BLUE BOX", "address": {"city": "WABASH", "state": "IN", "street": "800 CROSSPOINTE CT", "postcode": "46992"}}},
{"geometry": {"type": "Point", "coordinates": [-85.8347103303, 40.8116336194]}, "type": "Feature", "properties": {"collection_times": [{"days": "Mon-Sat", "time": "9:15am"}, {"days": "Sun", "time": "Closed"}], "id": "4699200029", "name": "USPS COLLECTION BOX - BLUE BOX", "address": {"city": "WABASH", "state": "IN", "street": "1152 N CASS ST", "postcode": "46992"}}},
{"geometry": {"type": "Point", "coordinates": [-85.8365979832, 40.8137539723]}, "type": "Feature", "properties": {"collection_times": [{"days": "Mon-Sat", "time": "9:15am"}, {"days": "Sun", "time": "Closed"}], "id": "4699200030", "name": "USPS COLLECTION BOX - BLUE BOX", "address": {"city": "WABASH", "state": "IN", "street": "1305 N CASS ST", "postcode": "46992"}}},
{"geometry": {"type": "Point", "coordinates": [-85.8303419631, 40.8141724945]}, "type": "Feature", "properties": {"collection_times": [{"days": "Mon-Sat", "time": "9:15am"}, {"days": "Sun", "time": "Closed"}], "id": "4699200031", "name": "USPS COLLECTION BOX - BLUE BOX", "address": {"city": "WABASH", "state": "IN", "street": "519 BRYAN AVE", "postcode": "46992"}}},
{"geometry": {"type": "Point", "coordinates": [-85.8397375763, 40.8170324758]}, "type": "Feature", "properties": {"collection_times": [{"days": "Mon-Sat", "time": "9:00am"}, {"days": "Sun", "time": "Closed"}], "id": "4699200032", "name": "USPS COLLECTION BOX - BLUE BOX", "address": {"city": "WABASH", "state": "IN", "street": "1439 N CASS ST", "postcode": "46992"}}},
{"geometry": {"type": "Point", "coordinates": [-85.8215539373, 40.7968021827]}, "type": "Feature", "properties": {"collection_times": [{"days": "Mon-Fri", "time": "3:00pm"}, {"days": "Sat", "time": "9:00am"}, {"days": "Sun", "time": "Closed"}], "id": "4699200033", "name": "USPS COLLECTION BOX - BLUE BOX", "address": {"city": "WABASH", "state": "IN", "street": "55 W MARKET ST", "postcode": "46992"}}},
{"geometry": {"type": "Point", "coordinates": [-86.2428628371, 40.6623446311]}, "type": "Feature", "properties": {"collection_times": [{"days": "Mon-Fri", "time": "4:15pm"}, {"days": "Sat", "time": "11:00am"}, {"days": "Sun", "time": "Closed"}], "id": "4699400001", "name": "USPS COLLECTION BOX - BLUE BOX", "address": {"city": "WALTON", "state": "IN", "street": "107 N DEPOT ST", "postcode": "46994"}}},
{"geometry": {"type": "Point", "coordinates": [-86.2428628371, 40.6623446311]}, "type": "Feature", "properties": {"collection_times": [{"days": "Mon-Fri", "time": "4:00pm"}, {"days": "Sat", "time": "11:00am"}, {"days": "Sun", "time": "Closed"}], "id": "4699400002", "name": "USPS COLLECTION BOX - PO LOBBY", "address": {"city": "WALTON", "state": "IN", "street": "107 N DEPOT ST", "postcode": "46994"}}},
{"geometry": {"type": "Point", "coordinates": [-86.2157939948, 40.4393674443]}, "type": "Feature", "properties": {"collection_times": [{"days": "Mon-Fri", "time": "4:45pm"}, {"days": "Sat", "time": "11:00am"}, {"days": "Sun", "time": "Closed"}], "id": "4699500001", "name": "USPS COLLECTION BOX - BLUE BOX", "address": {"city": "WEST MIDDLETON", "state": "IN", "street": "4656 W COUNTY ROAD 250 S", "postcode": "46995"}}},
{"geometry": {"type": "Point", "coordinates": [-86.6032637467, 41.052236588]}, "type": "Feature", "properties": {"collection_times": [{"days": "Mon-Fri", "time": "4:00pm"}, {"days": "Sat", "time": "2:30pm"}, {"days": "Sun", "time": "Closed"}], "id": "4699600003", "name": "USPS COLLECTION BOX - BLUE BOX", "address": {"city": "WINAMAC", "state": "IN", "street": "209 E PEARL ST", "postcode": "46996"}}},
{"geometry": {"type": "Point", "coordinates": [-86.6033554333, 41.060689681]}, "type": "Feature", "properties": {"collection_times": [{"days": "Mon-Sat", "time": "8:30am"}, {"days": "Sun", "time": "Closed"}], "id": "4699600014", "name": "USPS COLLECTION BOX - BLUE BOX", "address": {"city": "WINAMAC", "state": "IN", "street": "850 N PLYMOUTH RD", "postcode": "46996"}}},
{"geometry": {"type": "Point", "coordinates": [-86.6046078431, 41.0575733147]}, "type": "Feature", "properties": {"collection_times": [{"days": "Mon-Sat", "time": "8:15am"}, {"days": "Sun", "time": "Closed"}], "id": "4699600015", "name": "USPS COLLECTION BOX - BLUE BOX", "address": {"city": "WINAMAC", "state": "IN", "street": "317 E 13TH ST", "postcode": "46996"}}},
{"geometry": {"type": "Point", "coordinates": [-86.6027654534, 41.0508797582]}, "type": "Feature", "properties": {"collection_times": [{"days": "Mon-Sat", "time": "9:00am"}, {"days": "Sun", "time": "Closed"}], "id": "4699600018", "name": "USPS COLLECTION BOX - BLUE BOX", "address": {"city": "WINAMAC", "state": "IN", "street": "110 E MERIDIAN ST", "postcode": "46996"}}},
{"geometry": {"type": "Point", "coordinates": [-86.6032637467, 41.052236588]}, "type": "Feature", "properties": {"collection_times": [{"days": "Mon-Fri", "time": "4:00pm"}, {"days": "Sat", "time": "2:30pm"}, {"days": "Sun", "time": "Closed"}], "id": "4699600019", "name": "USPS COLLECTION BOX - PO LOBBY", "address": {"city": "WINAMAC", "state": "IN", "street": "209 E PEARL ST", "postcode": "46996"}}}
]}
