{"type": "FeatureCollection", "features": [
{"geometry": {"type": "Point", "coordinates": [-84.9031528584, 39.0559886043]}, "type": "Feature", "properties": {"collection_times": [{"days": "Mon-Fri", "time": "5:00pm"}, {"days": "Sat", "time": "12:00pm"}, {"days": "Sun", "time": "Closed"}], "id": "4700100001", "name": "USPS COLLECTION BOX - PO LOBBY", "address": {"city": "AURORA", "state": "IN", "street": "501 3RD ST", "postcode": "47001"}}},
{"geometry": {"type": "Point", "coordinates": [-84.8939473945, 39.0697497209]}, "type": "Feature", "properties": {"collection_times": [{"days": "Mon-Sat", "time": "9:30am"}, {"days": "Sun", "time": "Closed"}], "id": "4700100002", "name": "USPS COLLECTION BOX - BLUE BOX", "address": {"city": "AURORA", "state": "IN", "street": "900 GREEN BLVD", "postcode": "47001"}}},
{"geometry": {"type": "Point", "coordinates": [-84.8990763155, 39.0560450199]}, "type": "Feature", "properties": {"collection_times": [{"days": "Mon-Sat", "time": "9:30am"}, {"days": "Sun", "time": "Closed"}], "id": "4700100004", "name": "USPS COLLECTION BOX - BLUE BOX", "address": {"city": "AURORA", "state": "IN", "street": "239 2ND ST", "postcode": "47001"}}},
{"geometry": {"type": "Point", "coordinates": [-84.9004267324, 39.0565505008]}, "type": "Feature", "properties": {"collection_times": [{"days": "Mon-Sat", "time": "9:30am"}, {"days": "Sun", "time": "Closed"}], "id": "4700100005", "name": "USPS COLLECTION BOX - BLUE BOX", "address": {"city": "AURORA", "state": "IN", "street": "340 2ND ST", "postcode": "47001"}}},
{"geometry": {"type": "Point", "coordinates": [-84.9588581683, 39.0239511401]}, "type": "Feature", "properties": {"collection_times": [{"days": "Mon-Sat", "time": "10:00am"}, {"days": "Sun", "time": "Closed"}], "id": "4700100008", "name": "USPS COLLECTION BOX - BLUE BOX", "address": {"city": "AURORA", "state": "IN", "street": "10778 RANDALL AVE", "postcode": "47001"}}},
{"geometry": {"type": "Point", "coordinates": [-84.9031528584, 39.0559886043]}, "type": "Feature", "properties": {"collection_times": [{"days": "Mon-Fri", "time": "5:00pm"}, {"days": "Sat", "time": "12:00pm"}, {"days": "Sun", "time": "Closed"}], "id": "4700100015", "name": "USPS COLLECTION BOX - BLUE BOX", "address": {"city": "AURORA", "state": "IN", "street": "501 3RD ST", "postcode": "47001"}}},
{"geometry": {"type": "Point", "coordinates": [-84.8927540582, 39.0745704453]}, "type": "Feature", "properties": {"collection_times": [{"days": "Mon-Sat", "time": "9:00am"}, {"days": "Sun", "time": "Closed"}], "id": "4700100018", "name": "USPS COLLECTION BOX - BLUE BOX", "address": {"city": "AURORA", "state": "IN", "street": "100 SYCAMORE ESTATES DR", "postcode": "47001"}}},
{"geometry": {"type": "Point", "coordinates": [-84.9031528584, 39.0559886043]}, "type": "Feature", "properties": {"collection_times": [{"days": "Mon-Fri", "time": "5:00pm"}, {"days": "Sat", "time": "12:00pm"}, {"days": "Sun", "time": "Closed"}], "id": "4700100020", "name": "USPS COLLECTION BOX - PO LOBBY", "address": {"city": "AURORA", "state": "IN", "street": "501 3RD ST", "postcode": "47001"}}},
{"geometry": {"type": "Point", "coordinates": [-84.896318309, 39.0638934765]}, "type": "Feature", "properties": {"collection_times": [{"days": "Mon-Sat", "time": "9:00am"}, {"days": "Sun", "time": "Closed"}], "id": "4700100022", "name": "USPS COLLECTION BOX - BLUE BOX", "address": {"city": "AURORA", "state": "IN", "street": "500 GREEN BLVD", "postcode": "47001"}}},
{"geometry": {"type": "Point", "coordinates": [-85.2224895516, 39.2965265714]}, "type": "Feature", "properties": {"collection_times": [{"days": "Mon-Sat", "time": "8:45am"}, {"days": "Sun", "time": "Closed"}], "id": "4700600003", "name": "USPS COLLECTION BOX - BLUE BOX", "address": {"city": "BATESVILLE", "state": "IN", "street": "210 E CATHERINE ST", "postcode": "47006"}}},
{"geometry": {"type": "Point", "coordinates": [-85.2243510811, 39.2939282378]}, "type": "Feature", "properties": {"collection_times": [{"days": "Mon-Sat", "time": "9:15am"}, {"days": "Sun", "time": "Closed"}], "id": "4700600006", "name": "USPS COLLECTION BOX - BLUE BOX", "address": {"city": "BATESVILLE", "state": "IN", "street": "104 BEECHGROVE AVE", "postcode": "47006"}}},
{"geometry": {"type": "Point", "coordinates": [-85.2226602282, 39.299580536]}, "type": "Feature", "properties": {"collection_times": [{"days": "Mon-Sat", "time": "2:00pm"}, {"days": "Sun", "time": "Closed"}], "id": "4700600009", "name": "USPS COLLECTION BOX - BLUE BOX", "address": {"city": "BATESVILLE", "state": "IN", "street": "18 E BOEHRINGER ST", "postcode": "47006"}}},
{"geometry": {"type": "Point", "coordinates": [-85.2199231575, 39.3019452416]}, "type": "Feature", "properties": {"collection_times": [{"days": "Mon-Sat", "time": "9:00am"}, {"days": "Sun", "time": "Closed"}], "id": "4700600010", "name": "USPS COLLECTION BOX - BLUE BOX", "address": {"city": "BATESVILLE", "state": "IN", "street": "508 N MAIN ST", "postcode": "47006"}}},
{"geometry": {"type": "Point", "coordinates": [-85.2143383653, 39.3098915445]}, "type": "Feature", "properties": {"collection_times": [{"days": "Mon-Sat", "time": "10:00am"}, {"days": "Sun", "time": "Closed"}], "id": "4700600011", "name": "USPS COLLECTION BOX - BLUE BOX", "address": {"city": "BATESVILLE", "state": "IN", "street": "210 CROSS COUNTY PLZ", "postcode": "47006"}}},
{"geometry": {"type": "Point", "coordinates": [-85.2239209766, 39.2982121459]}, "type": "Feature", "properties": {"collection_times": [{"days": "Mon-Fri", "time": "5:00pm"}, {"days": "Sat", "time": "3:00pm"}, {"days": "Sun", "time": "Closed"}], "id": "4700600014", "name": "USPS COLLECTION BOX - BLUE BOX", "address": {"city": "BATESVILLE", "state": "IN", "street": "3 W GEORGE ST", "postcode": "47006"}}},
{"geometry": {"type": "Point", "coordinates": [-85.2239209766, 39.2982121459]}, "type": "Feature", "properties": {"collection_times": [{"days": "Mon-Fri", "time": "5:00pm"}, {"days": "Sat", "time": "3:00pm"}, {"days": "Sun", "time": "Closed"}], "id": "4700600015", "name": "USPS COLLECTION BOX - BLUE BOX", "address": {"city": "BATESVILLE", "state": "IN", "street": "3 W GEORGE ST", "postcode": "47006"}}},
{"geometry": {"type": "Point", "coordinates": [-85.2239209766, 39.2982121459]}, "type": "Feature", "properties": {"collection_times": [{"days": "Mon-Fri", "time": "5:00pm"}, {"days": "Sat", "time": "3:00pm"}, {"days": "Sun", "time": "Closed"}], "id": "4700600016", "name": "USPS COLLECTION BOX - PO LOBBY", "address": {"city": "BATESVILLE", "state": "IN", "street": "3 W GEORGE ST", "postcode": "47006"}}},
{"geometry": {"type": "Point", "coordinates": [-85.2266833009, 39.2948094961]}, "type": "Feature", "properties": {"collection_times": [{"days": "Mon-Sat", "time": "2:00pm"}, {"days": "Sun", "time": "Closed"}], "id": "4700600017", "name": "USPS COLLECTION BOX - BLUE BOX", "address": {"city": "BATESVILLE", "state": "IN", "street": "429 S MULBERRY ST", "postcode": "47006"}}},
{"geometry": {"type": "Point", "coordinates": [-85.2328485633, 39.3007837241]}, "type": "Feature", "properties": {"collection_times": [{"days": "Mon-Sat", "time": "12:00pm"}, {"days": "Sun", "time": "Closed"}], "id": "4700600018", "name": "USPS COLLECTION BOX - BLUE BOX", "address": {"city": "BATESVILLE", "state": "IN", "street": "3 S HUNTERSVILLE RD", "postcode": "47006"}}},
{"geometry": {"type": "Point", "coordinates": [-85.2239209766, 39.2982121459]}, "type": "Feature", "properties": {"collection_times": [{"days": "Mon-Fri", "time": "5:00pm"}, {"days": "Sat", "time": "3:00pm"}, {"days": "Sun", "time": "Closed"}], "id": "4700600020", "name": "USPS COLLECTION BOX - PO LOBBY", "address": {"city": "BATESVILLE", "state": "IN", "street": "3 W GEORGE ST", "postcode": "47006"}}},
{"geometry": {"type": "Point", "coordinates": [-85.2239209766, 39.2982121459]}, "type": "Feature", "properties": {"collection_times": [{"days": "Mon-Fri", "time": "5:00pm"}, {"days": "Sat", "time": "3:00pm"}, {"days": "Sun", "time": "Closed"}], "id": "4700600021", "name": "USPS COLLECTION BOX - PO LOBBY", "address": {"city": "BATESVILLE", "state": "IN", "street": "3 W GEORGE ST", "postcode": "47006"}}},
{"geometry": {"type": "Point", "coordinates": [-85.215642531, 39.309512973]}, "type": "Feature", "properties": {"collection_times": [{"days": "Mon-Sat", "time": "10:30am"}, {"days": "Sun", "time": "Closed"}], "id": "4700600023", "name": "USPS COLLECTION BOX - BLUE BOX", "address": {"city": "BATESVILLE", "state": "IN", "street": "1034 STATE ROAD 229", "postcode": "47006"}}},
{"geometry": {"type": "Point", "coordinates": [-84.8517381624, 39.4826457695]}, "type": "Feature", "properties": {"collection_times": [{"days": "Mon-Fri", "time": "12:30pm"}, {"days": "Sat", "time": "11:45am"}, {"days": "Sun", "time": "Closed"}], "id": "4701000000", "name": "USPS COLLECTION BOX - BLUE BOX", "address": {"city": "BATH", "state": "IN", "street": "14201 SPRINGFIELD RD", "postcode": "47010"}}},
{"geometry": {"type": "Point", "coordinates": [-84.8517381624, 39.4826457695]}, "type": "Feature", "properties": {"collection_times": [{"days": "Mon-Fri", "time": "12:30pm"}, {"days": "Sat", "time": "11:45am"}, {"days": "Sun", "time": "Closed"}], "id": "4701000001", "name": "USPS COLLECTION BOX - PO LOBBY", "address": {"city": "BATH", "state": "IN", "street": "14201 SPRINGFIELD RD", "postcode": "47010"}}},
{"geometry": {"type": "Point", "coordinates": [-85.0125653379, 39.4256079114]}, "type": "Feature", "properties": {"collection_times": [{"days": "Mon-Fri", "time": "4:30pm"}, {"days": "Sat", "time": "12:00pm"}, {"days": "Sun", "time": "Closed"}], "id": "4701200001", "name": "USPS COLLECTION BOX - BLUE BOX", "address": {"city": "BROOKVILLE", "state": "IN", "street": "1019 MAIN ST", "postcode": "47012"}}},
{"geometry": {"type": "Point", "coordinates": [-85.0126805048, 39.4213830608]}, "type": "Feature", "properties": {"collection_times": [{"days": "Mon-Sat", "time": "12:00pm"}, {"days": "Sun", "time": "Closed"}], "id": "4701200006", "name": "USPS COLLECTION BOX - BLUE BOX", "address": {"city": "BROOKVILLE", "state": "IN", "street": "653 MAIN ST", "postcode": "47012"}}},
{"geometry": {"type": "Point", "coordinates": [-85.0127001037, 39.4196882064]}, "type": "Feature", "properties": {"collection_times": [{"days": "Mon-Sat", "time": "12:00pm"}, {"days": "Sun", "time": "Closed"}], "id": "4701200007", "name": "USPS COLLECTION BOX - BLUE BOX", "address": {"city": "BROOKVILLE", "state": "IN", "street": "501 MAIN ST", "postcode": "47012"}}},
{"geometry": {"type": "Point", "coordinates": [-85.0053486045, 39.4309158653]}, "type": "Feature", "properties": {"collection_times": [{"days": "Mon-Sat", "time": "9:00am"}, {"days": "Sun", "time": "Closed"}], "id": "4701200009", "name": "USPS COLLECTION BOX - BLUE BOX", "address": {"city": "BROOKVILLE", "state": "IN", "street": "1301 FAIRFIELD AVE", "postcode": "47012"}}},
{"geometry": {"type": "Point", "coordinates": [-85.0090666141, 39.4270026579]}, "type": "Feature", "properties": {"collection_times": [{"days": "Mon-Sat", "time": "9:00am"}, {"days": "Sun", "time": "Closed"}], "id": "4701200010", "name": "USPS COLLECTION BOX - BLUE BOX", "address": {"city": "BROOKVILLE", "state": "IN", "street": "339 E 11TH ST", "postcode": "47012"}}},
{"geometry": {"type": "Point", "coordinates": [-85.0096746584, 39.4284777369]}, "type": "Feature", "properties": {"collection_times": [{"days": "Mon-Sat", "time": "10:00am"}, {"days": "Sun", "time": "Closed"}], "id": "4701200011", "name": "USPS COLLECTION BOX - BLUE BOX", "address": {"city": "BROOKVILLE", "state": "IN", "street": "302 E 12TH ST", "postcode": "47012"}}},
{"geometry": {"type": "Point", "coordinates": [-85.0125653379, 39.4256079114]}, "type": "Feature", "properties": {"collection_times": [{"days": "Mon-Fri", "time": "4:30pm"}, {"days": "Sat", "time": "12:00pm"}, {"days": "Sun", "time": "Closed"}], "id": "4701200015", "name": "USPS COLLECTION BOX - PO LOBBY", "address": {"city": "BROOKVILLE", "state": "IN", "street": "1019 MAIN ST", "postcode": "47012"}}},
{"geometry": {"type": "Point", "coordinates": [-85.010439877, 39.4095855779]}, "type": "Feature", "properties": {"collection_times": [{"days": "Mon-Sat", "time": "12:00pm"}, {"days": "Sun", "time": "Closed"}], "id": "4701200016", "name": "USPS COLLECTION BOX - BLUE BOX", "address": {"city": "BROOKVILLE", "state": "IN", "street": "11153 STATE ROUTE 52", "postcode": "47012"}}},
{"geometry": {"type": "Point", "coordinates": [-85.0140395066, 39.4283516124]}, "type": "Feature", "properties": {"collection_times": [{"days": "Mon-Sat", "time": "10:00am"}, {"days": "Sun", "time": "Closed"}], "id": "4701200017", "name": "USPS COLLECTION BOX - BLUE BOX", "address": {"city": "BROOKVILLE", "state": "IN", "street": "44 METAMORA RD", "postcode": "47012"}}},
{"geometry": {"type": "Point", "coordinates": [-84.9352774693, 39.3565828805]}, "type": "Feature", "properties": {"collection_times": [{"days": "Mon-Fri", "time": "4:00pm"}, {"days": "Sat", "time": "11:45am"}, {"days": "Sun", "time": "Closed"}], "id": "4701600000", "name": "USPS COLLECTION BOX - BLUE BOX", "address": {"city": "CEDAR GROVE", "state": "IN", "street": "204 CENTRAL AVE", "postcode": "47016"}}},
{"geometry": {"type": "Point", "coordinates": [-84.9352774693, 39.3565828805]}, "type": "Feature", "properties": {"collection_times": [{"days": "Mon-Fri", "time": "4:00pm"}, {"days": "Sat", "time": "11:45am"}, {"days": "Sun", "time": "Closed"}], "id": "4701600001", "name": "USPS COLLECTION BOX - PO LOBBY", "address": {"city": "CEDAR GROVE", "state": "IN", "street": "204 CENTRAL AVE", "postcode": "47016"}}},
{"geometry": {"type": "Point", "coordinates": [-85.2047255402, 38.9438224962]}, "type": "Feature", "properties": {"collection_times": [{"days": "Mon-Fri", "time": "3:00pm"}, {"days": "Sat", "time": "11:30am"}, {"days": "Sun", "time": "Closed"}], "id": "4701700000", "name": "USPS COLLECTION BOX - PO LOBBY", "address": {"city": "CROSS PLAINS", "state": "IN", "street": "8911 S STATE ROAD 129", "postcode": "47017"}}},
{"geometry": {"type": "Point", "coordinates": [-85.2047255402, 38.9438224962]}, "type": "Feature", "properties": {"collection_times": [{"days": "Mon-Fri", "time": "2:45pm"}, {"days": "Sat", "time": "11:15am"}, {"days": "Sun", "time": "Closed"}], "id": "4701700001", "name": "USPS COLLECTION BOX - BLUE BOX", "address": {"city": "CROSS PLAINS", "state": "IN", "street": "8911 S STATE ROAD 129", "postcode": "47017"}}},
{"geometry": {"type": "Point", "coordinates": [-85.0694963639, 39.0239973501]}, "type": "Feature", "properties": {"collection_times": [{"days": "Mon-Sat", "time": "10:00am"}, {"days": "Sun", "time": "Closed"}], "id": "4701800002", "name": "USPS COLLECTION BOX - BLUE BOX", "address": {"city": "DILLSBORO", "state": "IN", "street": "10220 MAPLE GLEN DR", "postcode": "47018"}}},
{"geometry": {"type": "Point", "coordinates": [-85.0567629118, 39.0179274206]}, "type": "Feature", "properties": {"collection_times": [{"days": "Mon-Fri", "time": "3:45pm"}, {"days": "Sat", "time": "11:45am"}, {"days": "Sun", "time": "Closed"}], "id": "4701800004", "name": "USPS COLLECTION BOX - PO LOBBY", "address": {"city": "DILLSBORO", "state": "IN", "street": "12830 NORTH ST", "postcode": "47018"}}},
{"geometry": {"type": "Point", "coordinates": [-85.1037666368, 39.0438757263]}, "type": "Feature", "properties": {"collection_times": [{"days": "Mon-Sat", "time": "9:00am"}, {"days": "Sun", "time": "Closed"}], "id": "4701800005", "name": "USPS COLLECTION BOX - BLUE BOX", "address": {"city": "DILLSBORO", "state": "IN", "street": "15313 US 50", "postcode": "47018"}}},
{"geometry": {"type": "Point", "coordinates": [-85.059429039, 39.0193750038]}, "type": "Feature", "properties": {"collection_times": [{"days": "Mon-Sat", "time": "9:30am"}, {"days": "Sun", "time": "Closed"}], "id": "4701800006", "name": "USPS COLLECTION BOX - BLUE BOX", "address": {"city": "DILLSBORO", "state": "IN", "street": "10145 ALPHA DR", "postcode": "47018"}}},
{"geometry": {"type": "Point", "coordinates": [-85.0856576277, 38.9898493295]}, "type": "Feature", "properties": {"collection_times": [{"days": "Mon-Sat", "time": "9:00am"}, {"days": "Sun", "time": "Closed"}], "id": "4701800010", "name": "USPS COLLECTION BOX - BLUE BOX", "address": {"city": "DILLSBORO", "state": "IN", "street": "13030 EXECUTIVE DR", "postcode": "47018"}}},
{"geometry": {"type": "Point", "coordinates": [-84.9880610636, 38.872495329]}, "type": "Feature", "properties": {"collection_times": [{"days": "Mon-Fri", "time": "3:45pm"}, {"days": "Sat", "time": "11:45am"}, {"days": "Sun", "time": "Closed"}], "id": "4701900001", "name": "USPS COLLECTION BOX - BLUE BOX", "address": {"city": "EAST ENTERPRISE", "state": "IN", "street": "2114 US HIGHWAY 56", "postcode": "47019"}}},
{"geometry": {"type": "Point", "coordinates": [-84.9880610636, 38.872495329]}, "type": "Feature", "properties": {"collection_times": [{"days": "Mon-Fri", "time": "4:00pm"}, {"days": "Sat", "time": "11:45am"}, {"days": "Sun", "time": "Closed"}], "id": "4701900002", "name": "USPS COLLECTION BOX - PO LOBBY", "address": {"city": "EAST ENTERPRISE", "state": "IN", "street": "2114 US HIGHWAY 56", "postcode": "47019"}}},
{"geometry": {"type": "Point", "coordinates": [-84.9246070366, 38.7845867156]}, "type": "Feature", "properties": {"collection_times": [{"days": "Mon-Fri", "time": "2:45pm"}, {"days": "Sat", "time": "11:00am"}, {"days": "Sun", "time": "Closed"}], "id": "4702000000", "name": "USPS COLLECTION BOX - BLUE BOX", "address": {"city": "FLORENCE", "state": "IN", "street": "404 5TH ST", "postcode": "47020"}}},
{"geometry": {"type": "Point", "coordinates": [-84.9246070366, 38.7845867156]}, "type": "Feature", "properties": {"collection_times": [{"days": "Mon-Fri", "time": "2:45pm"}, {"days": "Sat", "time": "11:00am"}, {"days": "Sun", "time": "Closed"}], "id": "4702000001", "name": "USPS COLLECTION BOX - PO LOBBY", "address": {"city": "FLORENCE", "state": "IN", "street": "404 5TH ST", "postcode": "47020"}}},
{"geometry": {"type": "Point", "coordinates": [-85.149462241, 38.9700478488]}, "type": "Feature", "properties": {"collection_times": [{"days": "Mon-Fri", "time": "3:45pm"}, {"days": "Sat", "time": "11:15am"}, {"days": "Sun", "time": "Closed"}], "id": "4702100001", "name": "USPS COLLECTION BOX - BLUE BOX", "address": {"city": "FRIENDSHIP", "state": "IN", "street": "5918 E MAIN ST", "postcode": "47021"}}},
{"geometry": {"type": "Point", "coordinates": [-85.149462241, 38.9700478488]}, "type": "Feature", "properties": {"collection_times": [{"days": "Mon-Fri", "time": "3:45pm"}, {"days": "Sat", "time": "11:15am"}, {"days": "Sun", "time": "Closed"}], "id": "4702100002", "name": "USPS COLLECTION BOX - PO LOBBY", "address": {"city": "FRIENDSHIP", "state": "IN", "street": "5918 E MAIN ST", "postcode": "47021"}}},
{"geometry": {"type": "Point", "coordinates": [-84.9110218892, 39.1686118235]}, "type": "Feature", "properties": {"collection_times": [{"days": "Mon-Fri", "time": "4:30pm"}, {"days": "Sat", "time": "11:30am"}, {"days": "Sun", "time": "Closed"}], "id": "4702200001", "name": "USPS COLLECTION BOX - BLUE BOX", "address": {"city": "GUILFORD", "state": "IN", "street": "5026 MAIN ST", "postcode": "47022"}}},
{"geometry": {"type": "Point", "coordinates": [-84.9110218892, 39.1686118235]}, "type": "Feature", "properties": {"collection_times": [{"days": "Mon-Fri", "time": "4:30pm"}, {"days": "Sat", "time": "11:30am"}, {"days": "Sun", "time": "Closed"}], "id": "4702200002", "name": "USPS COLLECTION BOX - PO LOBBY", "address": {"city": "GUILFORD", "state": "IN", "street": "5026 MAIN ST", "postcode": "47022"}}},
{"geometry": {"type": "Point", "coordinates": [-84.9110218892, 39.1686118235]}, "type": "Feature", "properties": {"collection_times": [{"days": "Mon-Fri", "time": "4:30pm"}, {"days": "Sat", "time": "11:30am"}, {"days": "Sun", "time": "Closed"}], "id": "4702200009", "name": "USPS COLLECTION BOX - PO LOBBY", "address": {"city": "GUILFORD", "state": "IN", "street": "5026 MAIN ST", "postcode": "47022"}}},
{"geometry": {"type": "Point", "coordinates": [-85.3867688045, 39.0749341358]}, "type": "Feature", "properties": {"collection_times": [{"days": "Mon-Fri", "time": "3:45pm"}, {"days": "Sat", "time": "11:00am"}, {"days": "Sun", "time": "Closed"}], "id": "4702300002", "name": "USPS COLLECTION BOX - BLUE BOX", "address": {"city": "HOLTON", "state": "IN", "street": "2 S MARION ST", "postcode": "47023"}}},
{"geometry": {"type": "Point", "coordinates": [-85.3867688045, 39.0749341358]}, "type": "Feature", "properties": {"collection_times": [{"days": "Mon-Fri", "time": "3:45pm"}, {"days": "Sat", "time": "11:00am"}, {"days": "Sun", "time": "Closed"}], "id": "4702300003", "name": "USPS COLLECTION BOX - PO LOBBY", "address": {"city": "HOLTON", "state": "IN", "street": "2 S MARION ST", "postcode": "47023"}}},
{"geometry": {"type": "Point", "coordinates": [-85.1847130038, 39.49982372]}, "type": "Feature", "properties": {"collection_times": [{"days": "Mon-Fri", "time": "3:30pm"}, {"days": "Sat", "time": "10:45am"}, {"days": "Sun", "time": "Closed"}], "id": "4702400001", "name": "USPS COLLECTION BOX - PO LOBBY", "address": {"city": "LAUREL", "state": "IN", "street": "123 W PEARL ST", "postcode": "47024"}}},
{"geometry": {"type": "Point", "coordinates": [-85.1847130038, 39.49982372]}, "type": "Feature", "properties": {"collection_times": [{"days": "Mon-Fri", "time": "3:30pm"}, {"days": "Sat", "time": "10:45am"}, {"days": "Sun", "time": "Closed"}], "id": "4702400003", "name": "USPS COLLECTION BOX - BLUE BOX", "address": {"city": "LAUREL", "state": "IN", "street": "123 W PEARL ST", "postcode": "47024"}}},
{"geometry": {"type": "Point", "coordinates": [-84.8225212596, 39.1581450298]}, "type": "Feature", "properties": {"collection_times": [{"days": "Mon-Sat", "time": "11:00am"}, {"days": "Sun", "time": "Closed"}], "id": "4702500000", "name": "USPS COLLECTION BOX - BLUE BOX", "address": {"city": "LAWRENCEBURG", "state": "IN", "street": "19300 ALPINE DR", "postcode": "47025"}}},
{"geometry": {"type": "Point", "coordinates": [-84.8499821373, 39.1063257247]}, "type": "Feature", "properties": {"collection_times": [{"days": "Mon-Sat", "time": "9:30am"}, {"days": "Sun", "time": "Closed"}], "id": "4702500001", "name": "USPS COLLECTION BOX - BLUE BOX", "address": {"city": "LAWRENCEBURG", "state": "IN", "street": "555 E EADS PKWY", "postcode": "47025"}}},
{"geometry": {"type": "Point", "coordinates": [-84.848846428, 39.0921732313]}, "type": "Feature", "properties": {"collection_times": [{"days": "Mon-Sat", "time": "10:00am"}, {"days": "Sun", "time": "Closed"}], "id": "4702500003", "name": "USPS COLLECTION BOX - BLUE BOX", "address": {"city": "LAWRENCEBURG", "state": "IN", "street": "137 VINE ST", "postcode": "47025"}}},
{"geometry": {"type": "Point", "coordinates": [-84.8590790049, 39.0976311969]}, "type": "Feature", "properties": {"collection_times": [{"days": "Mon-Sat", "time": "12:00pm"}, {"days": "Sun", "time": "Closed"}], "id": "4702500004", "name": "USPS COLLECTION BOX - BLUE BOX", "address": {"city": "LAWRENCEBURG", "state": "IN", "street": "556 MAIN ST", "postcode": "47025"}}},
{"geometry": {"type": "Point", "coordinates": [-84.8649320068, 39.1122263953]}, "type": "Feature", "properties": {"collection_times": [{"days": "Mon-Sat", "time": "9:00am"}, {"days": "Sun", "time": "Closed"}], "id": "4702500006", "name": "USPS COLLECTION BOX - BLUE BOX", "address": {"city": "LAWRENCEBURG", "state": "IN", "street": "203 OAKEY AVE", "postcode": "47025"}}},
{"geometry": {"type": "Point", "coordinates": [-84.8603946663, 39.1184263442]}, "type": "Feature", "properties": {"collection_times": [{"days": "Mon-Sat", "time": "12:00pm"}, {"days": "Sun", "time": "Closed"}], "id": "4702500012", "name": "USPS COLLECTION BOX - BLUE BOX", "address": {"city": "LAWRENCEBURG", "state": "IN", "street": "110 PARKSIDE AVE", "postcode": "47025"}}},
{"geometry": {"type": "Point", "coordinates": [-84.8639155419, 39.1243032653]}, "type": "Feature", "properties": {"collection_times": [{"days": "Mon-Sat", "time": "11:00am"}, {"days": "Sun", "time": "Closed"}], "id": "4702500015", "name": "USPS COLLECTION BOX - BLUE BOX", "address": {"city": "LAWRENCEBURG", "state": "IN", "street": "1175 FOREST DR", "postcode": "47025"}}},
{"geometry": {"type": "Point", "coordinates": [-84.8562935666, 39.2197315007]}, "type": "Feature", "properties": {"collection_times": [{"days": "Mon-Sat", "time": "10:30am"}, {"days": "Sun", "time": "Closed"}], "id": "4702500017", "name": "USPS COLLECTION BOX - BLUE BOX", "address": {"city": "LAWRENCEBURG", "state": "IN", "street": "24071 STATELINE RD", "postcode": "47025"}}},
{"geometry": {"type": "Point", "coordinates": [-84.8595681453, 39.0957302878]}, "type": "Feature", "properties": {"collection_times": [{"days": "Mon-Sat", "time": "9:00am"}, {"days": "Sun", "time": "Closed"}], "id": "4702500021", "name": "USPS COLLECTION BOX - BLUE BOX", "address": {"city": "LAWRENCEBURG", "state": "IN", "street": "371 W EADS PKWY", "postcode": "47025"}}},
{"geometry": {"type": "Point", "coordinates": [-84.84796039, 39.098263205]}, "type": "Feature", "properties": {"collection_times": [{"days": "Mon-Sat", "time": "1:30pm"}, {"days": "Sun", "time": "Closed"}], "id": "4702500024", "name": "USPS COLLECTION BOX - BLUE BOX", "address": {"city": "LAWRENCEBURG", "state": "IN", "street": "455 SAINT CLAIR ST", "postcode": "47025"}}},
{"geometry": {"type": "Point", "coordinates": [-84.8579444921, 39.096103636]}, "type": "Feature", "properties": {"collection_times": [{"days": "Mon-Sat", "time": "2:00pm"}, {"days": "Sun", "time": "Closed"}], "id": "4702500031", "name": "USPS COLLECTION BOX - BLUE BOX", "address": {"city": "LAWRENCEBURG", "state": "IN", "street": "215 W EADS PKWY", "postcode": "47025"}}},
{"geometry": {"type": "Point", "coordinates": [-84.849898425, 39.0943004462]}, "type": "Feature", "properties": {"collection_times": [{"days": "Mon-Sat", "time": "11:00am"}, {"days": "Sun", "time": "Closed"}], "id": "4702500033", "name": "USPS COLLECTION BOX - BLUE BOX", "address": {"city": "LAWRENCEBURG", "state": "IN", "street": "301 WALNUT ST", "postcode": "47025"}}},
{"geometry": {"type": "Point", "coordinates": [-84.8474011269, 39.092570185]}, "type": "Feature", "properties": {"collection_times": [{"days": "Mon-Fri", "time": "11:00am"}, {"days": "Sat", "time": "2:00pm"}, {"days": "Sun", "time": "Closed"}], "id": "4702500034", "name": "USPS COLLECTION BOX - BLUE BOX", "address": {"city": "LAWRENCEBURG", "state": "IN", "street": "116 WALNUT ST", "postcode": "47025"}}},
{"geometry": {"type": "Point", "coordinates": [-84.8485845892, 39.0917353808]}, "type": "Feature", "properties": {"collection_times": [{"days": "Mon-Sat", "time": "2:00pm"}, {"days": "Sun", "time": "Closed"}], "id": "4702500036", "name": "USPS COLLECTION BOX - BLUE BOX", "address": {"city": "LAWRENCEBURG", "state": "IN", "street": "123 W HIGH ST", "postcode": "47025"}}},
{"geometry": {"type": "Point", "coordinates": [-84.8720105046, 39.0916121525]}, "type": "Feature", "properties": {"collection_times": [{"days": "Mon-Sat", "time": "9:00am"}, {"days": "Sun", "time": "Closed"}], "id": "4702500037", "name": "USPS COLLECTION BOX - BLUE BOX", "address": {"city": "LAWRENCEBURG", "state": "IN", "street": "708 W EADS PKWY", "postcode": "47025"}}},
{"geometry": {"type": "Point", "coordinates": [-84.8844562019, 39.1288543659]}, "type": "Feature", "properties": {"collection_times": [{"days": "Mon-Sat", "time": "11:00am"}, {"days": "Sun", "time": "Closed"}], "id": "4702500038", "name": "USPS COLLECTION BOX - BLUE BOX", "address": {"city": "LAWRENCEBURG", "state": "IN", "street": "110 CONCORD SQUARE DR", "postcode": "47025"}}},
{"geometry": {"type": "Point", "coordinates": [-84.8505169769, 39.0922522699]}, "type": "Feature", "properties": {"collection_times": [{"days": "Mon-Sat", "time": "9:00am"}, {"days": "Sun", "time": "Closed"}], "id": "4702500040", "name": "USPS COLLECTION BOX - BLUE BOX", "address": {"city": "LAWRENCEBURG", "state": "IN", "street": "230 MARY ST", "postcode": "47025"}}},
{"geometry": {"type": "Point", "coordinates": [-84.8761529321, 39.1552258634]}, "type": "Feature", "properties": {"collection_times": [{"days": "Mon-Fri", "time": "5:00pm"}, {"days": "Sat", "time": "4:15pm"}, {"days": "Sun", "time": "Closed"}], "id": "4702500042", "name": "USPS COLLECTION BOX - BLUE BOX", "address": {"city": "LAWRENCEBURG", "state": "IN", "street": "121 S TANNERS CREEK DR", "postcode": "47025"}}},
{"geometry": {"type": "Point", "coordinates": [-84.8761529321, 39.1552258634]}, "type": "Feature", "properties": {"collection_times": [{"days": "Mon-Fri", "time": "5:00pm"}, {"days": "Sat", "time": "4:15pm"}, {"days": "Sun", "time": "Closed"}], "id": "4702500043", "name": "USPS COLLECTION BOX - BLUE BOX", "address": {"city": "LAWRENCEBURG", "state": "IN", "street": "121 S TANNERS CREEK DR", "postcode": "47025"}}},
{"geometry": {"type": "Point", "coordinates": [-84.8761529321, 39.1552258634]}, "type": "Feature", "properties": {"collection_times": [{"days": "Mon-Fri", "time": "5:00pm"}, {"days": "Sat", "time": "4:15pm"}, {"days": "Sun", "time": "Closed"}], "id": "4702500045", "name": "USPS COLLECTION BOX - PO LOBBY", "address": {"city": "LAWRENCEBURG", "state": "IN", "street": "121 S TANNERS CREEK DR", "postcode": "47025"}}},
{"geometry": {"type": "Point", "coordinates": [-84.8761529321, 39.1552258634]}, "type": "Feature", "properties": {"collection_times": [{"days": "Mon-Fri", "time": "5:00pm"}, {"days": "Sat", "time": "4:15pm"}, {"days": "Sun", "time": "Closed"}], "id": "4702500046", "name": "USPS COLLECTION BOX - PO LOBBY", "address": {"city": "LAWRENCEBURG", "state": "IN", "street": "121 S TANNERS CREEK DR", "postcode": "47025"}}},
{"geometry": {"type": "Point", "coordinates": [-84.8407270075, 39.1277505162]}, "type": "Feature", "properties": {"collection_times": [{"days": "Mon-Sat", "time": "9:30am"}, {"days": "Sun", "time": "Closed"}], "id": "4702500047", "name": "USPS COLLECTION BOX - BLUE BOX", "address": {"city": "LAWRENCEBURG", "state": "IN", "street": "1605 FLOSSIE DR", "postcode": "47025"}}},
{"geometry": {"type": "Point", "coordinates": [-84.8761529321, 39.1552258634]}, "type": "Feature", "properties": {"collection_times": [{"days": "Mon-Fri", "time": "5:00pm"}, {"days": "Sat", "time": "4:15pm"}, {"days": "Sun", "time": "Closed"}], "id": "4702500048", "name": "USPS COLLECTION BOX - PO LOBBY", "address": {"city": "LAWRENCEBURG", "state": "IN", "street": "121 S TANNERS CREEK DR", "postcode": "47025"}}},
{"geometry": {"type": "Point", "coordinates": [-84.8761529321, 39.1552258634]}, "type": "Feature", "properties": {"collection_times": [{"days": "Mon-Fri", "time": "5:00pm"}, {"days": "Sat", "time": "4:15pm"}, {"days": "Sun", "time": "Closed"}], "id": "4702500049", "name": "USPS COLLECTION BOX - PO LOBBY", "address": {"city": "LAWRENCEBURG", "state": "IN", "street": "121 S TANNERS CREEK DR", "postcode": "47025"}}},
{"geometry": {"type": "Point", "coordinates": [-85.1301530363, 39.4459305841]}, "type": "Feature", "properties": {"collection_times": [{"days": "Mon-Fri", "time": "3:30pm"}, {"days": "Sat", "time": "11:00am"}, {"days": "Sun", "time": "Closed"}], "id": "4703000001", "name": "USPS COLLECTION BOX - BLUE BOX", "address": {"city": "METAMORA", "state": "IN", "street": "19048 S MAIN ST", "postcode": "47030"}}},
{"geometry": {"type": "Point", "coordinates": [-85.1301530363, 39.4459305841]}, "type": "Feature", "properties": {"collection_times": [{"days": "Mon-Fri", "time": "3:30pm"}, {"days": "Sat", "time": "11:00am"}, {"days": "Sun", "time": "Closed"}], "id": "4703000002", "name": "USPS COLLECTION BOX - PO LOBBY", "address": {"city": "METAMORA", "state": "IN", "street": "19048 S MAIN ST", "postcode": "47030"}}},
{"geometry": {"type": "Point", "coordinates": [-85.1330481264, 39.1229329893]}, "type": "Feature", "properties": {"collection_times": [{"days": "Mon-Fri", "time": "4:00pm"}, {"days": "Sat", "time": "12:00pm"}, {"days": "Sun", "time": "Closed"}], "id": "4703100001", "name": "USPS COLLECTION BOX - BLUE BOX", "address": {"city": "MILAN", "state": "IN", "street": "301 W CARR ST", "postcode": "47031"}}},
{"geometry": {"type": "Point", "coordinates": [-85.1342256332, 39.1230264336]}, "type": "Feature", "properties": {"collection_times": [{"days": "Mon-Fri", "time": "4:00pm"}, {"days": "Sat", "time": "12:00pm"}, {"days": "Sun", "time": "Closed"}], "id": "4703100004", "name": "USPS COLLECTION BOX - PO LOBBY", "address": {"city": "MILAN", "state": "IN", "street": "300 W CARR ST", "postcode": "47031"}}},
{"geometry": {"type": "Point", "coordinates": [-85.0914890549, 39.1130433448]}, "type": "Feature", "properties": {"collection_times": [{"days": "Mon-Fri", "time": "4:15pm"}, {"days": "Sat", "time": "11:45am"}, {"days": "Sun", "time": "Closed"}], "id": "4703200001", "name": "USPS COLLECTION BOX - BLUE BOX", "address": {"city": "MOORES HILL", "state": "IN", "street": "14549 MAIN ST", "postcode": "47032"}}},
{"geometry": {"type": "Point", "coordinates": [-85.0914890549, 39.1130433448]}, "type": "Feature", "properties": {"collection_times": [{"days": "Mon-Fri", "time": "4:15pm"}, {"days": "Sat", "time": "11:45am"}, {"days": "Sun", "time": "Closed"}], "id": "4703200002", "name": "USPS COLLECTION BOX - PO LOBBY", "address": {"city": "MOORES HILL", "state": "IN", "street": "14549 MAIN ST", "postcode": "47032"}}},
{"geometry": {"type": "Point", "coordinates": [-85.1936983824, 39.2868132881]}, "type": "Feature", "properties": {"collection_times": [{"days": "Mon-Fri", "time": "4:00pm"}, {"days": "Sat", "time": "11:00am"}, {"days": "Sun", "time": "Closed"}], "id": "4703300001", "name": "USPS COLLECTION BOX - BLUE BOX", "address": {"city": "MORRIS", "state": "IN", "street": "4728 E MORRIS MILL ST", "postcode": "47033"}}},
{"geometry": {"type": "Point", "coordinates": [-85.1936983824, 39.2868132881]}, "type": "Feature", "properties": {"collection_times": [{"days": "Mon-Fri", "time": "4:00pm"}, {"days": "Sat", "time": "11:00am"}, {"days": "Sun", "time": "Closed"}], "id": "4703300002", "name": "USPS COLLECTION BOX - PO LOBBY", "address": {"city": "MORRIS", "state": "IN", "street": "4728 E MORRIS MILL ST", "postcode": "47033"}}},
{"geometry": {"type": "Point", "coordinates": [-85.3305824936, 39.2058711659]}, "type": "Feature", "properties": {"collection_times": [{"days": "Mon-Fri", "time": "3:45pm"}, {"days": "Sat", "time": "11:00am"}, {"days": "Sun", "time": "Closed"}], "id": "4703400001", "name": "USPS COLLECTION BOX - BLUE BOX", "address": {"city": "NAPOLEON", "state": "IN", "street": "8949 N US HIGHWAY 421", "postcode": "47034"}}},
{"geometry": {"type": "Point", "coordinates": [-85.3305824936, 39.2058711659]}, "type": "Feature", "properties": {"collection_times": [{"days": "Mon-Fri", "time": "3:45pm"}, {"days": "Sat", "time": "11:00am"}, {"days": "Sun", "time": "Closed"}], "id": "4703400002", "name": "USPS COLLECTION BOX - PO LOBBY", "address": {"city": "NAPOLEON", "state": "IN", "street": "8949 N US HIGHWAY 421", "postcode": "47034"}}},
{"geometry": {"type": "Point", "coordinates": [-85.2005073804, 39.34057077]}, "type": "Feature", "properties": {"collection_times": [{"days": "Mon-Fri", "time": "4:15pm"}, {"days": "Sat", "time": "11:15am"}, {"days": "Sun", "time": "Closed"}], "id": "4703600001", "name": "USPS COLLECTION BOX - BLUE BOX", "address": {"city": "OLDENBURG", "state": "IN", "street": "22133 MAIN ST", "postcode": "47036"}}},
{"geometry": {"type": "Point", "coordinates": [-85.2005073804, 39.34057077]}, "type": "Feature", "properties": {"collection_times": [{"days": "Mon-Fri", "time": "4:15pm"}, {"days": "Sat", "time": "11:15am"}, {"days": "Sun", "time": "Closed"}], "id": "4703600002", "name": "USPS COLLECTION BOX - PO LOBBY", "address": {"city": "OLDENBURG", "state": "IN", "street": "22133 MAIN ST", "postcode": "47036"}}},
{"geometry": {"type": "Point", "coordinates": [-85.2005073804, 39.34057077]}, "type": "Feature", "properties": {"collection_times": [{"days": "Mon-Fri", "time": "4:15pm"}, {"days": "Sat", "time": "11:15am"}, {"days": "Sun", "time": "Closed"}], "id": "4703600003", "name": "USPS COLLECTION BOX - PO LOBBY", "address": {"city": "OLDENBURG", "state": "IN", "street": "22133 MAIN ST", "postcode": "47036"}}},
{"geometry": {"type": "Point", "coordinates": [-85.2929493512, 39.1299858876]}, "type": "Feature", "properties": {"collection_times": [{"days": "Mon-Fri", "time": "4:00pm"}, {"days": "Sat", "time": "11:00am"}, {"days": "Sun", "time": "Closed"}], "id": "4703700009", "name": "USPS COLLECTION BOX - PO LOBBY", "address": {"city": "OSGOOD", "state": "IN", "street": "201 N WALNUT ST", "postcode": "47037"}}},
{"geometry": {"type": "Point", "coordinates": [-85.2929493512, 39.1299858876]}, "type": "Feature", "properties": {"collection_times": [{"days": "Mon-Fri", "time": "4:00pm"}, {"days": "Sat", "time": "11:00am"}, {"days": "Sun", "time": "Closed"}], "id": "4703700010", "name": "USPS COLLECTION BOX - BLUE BOX", "address": {"city": "OSGOOD", "state": "IN", "street": "201 N WALNUT ST", "postcode": "47037"}}},
{"geometry": {"type": "Point", "coordinates": [-85.2055901073, 39.1451592668]}, "type": "Feature", "properties": {"collection_times": [{"days": "Mon-Sat", "time": "11:00am"}, {"days": "Sun", "time": "Closed"}], "id": "4703700011", "name": "USPS COLLECTION BOX - BLUE BOX", "address": {"city": "OSGOOD", "state": "IN", "street": "4900 N STATE ROAD 129", "postcode": "47037"}}},
{"geometry": {"type": "Point", "coordinates": [-84.8309392679, 38.8333502614]}, "type": "Feature", "properties": {"collection_times": [{"days": "Mon-Fri", "time": "4:00pm"}, {"days": "Sat", "time": "11:00am"}, {"days": "Sun", "time": "Closed"}], "id": "4703800001", "name": "USPS COLLECTION BOX - PO LOBBY", "address": {"city": "PATRIOT", "state": "IN", "street": "2797 MAIN ST", "postcode": "47038"}}},
{"geometry": {"type": "Point", "coordinates": [-84.8309392679, 38.8333502614]}, "type": "Feature", "properties": {"collection_times": [{"days": "Mon-Fri", "time": "4:00pm"}, {"days": "Sat", "time": "11:00am"}, {"days": "Sun", "time": "Closed"}], "id": "4703800002", "name": "USPS COLLECTION BOX - BLUE BOX", "address": {"city": "PATRIOT", "state": "IN", "street": "2797 MAIN ST", "postcode": "47038"}}},
{"geometry": {"type": "Point", "coordinates": [-85.1805333884, 39.134120102]}, "type": "Feature", "properties": {"collection_times": [{"days": "Mon-Fri", "time": "2:45pm"}, {"days": "Sat", "time": "11:45am"}, {"days": "Sun", "time": "Closed"}], "id": "4703900001", "name": "USPS COLLECTION BOX - BLUE BOX", "address": {"city": "PIERCEVILLE", "state": "IN", "street": "4499 E STATE ROUTE 350", "postcode": "47039"}}},
{"geometry": {"type": "Point", "coordinates": [-85.1805333884, 39.134120102]}, "type": "Feature", "properties": {"collection_times": [{"days": "Mon-Fri", "time": "2:45pm"}, {"days": "Sat", "time": "11:45am"}, {"days": "Sun", "time": "Closed"}], "id": "4703900002", "name": "USPS COLLECTION BOX - PO LOBBY", "address": {"city": "PIERCEVILLE", "state": "IN", "street": "4499 E STATE ROUTE 350", "postcode": "47039"}}},
{"geometry": {"type": "Point", "coordinates": [-84.8532791572, 38.9488369215]}, "type": "Feature", "properties": {"collection_times": [{"days": "Mon-Sat", "time": "1:00pm"}, {"days": "Sun", "time": "Closed"}], "id": "4704000005", "name": "USPS COLLECTION BOX - BLUE BOX", "address": {"city": "RISING SUN", "state": "IN", "street": "210 MAIN ST", "postcode": "47040"}}},
{"geometry": {"type": "Point", "coordinates": [-84.8538565759, 38.9493030317]}, "type": "Feature", "properties": {"collection_times": [{"days": "Mon-Fri", "time": "4:00pm"}, {"days": "Sat", "time": "12:00pm"}, {"days": "Sun", "time": "Closed"}], "id": "4704000006", "name": "USPS COLLECTION BOX - BLUE BOX", "address": {"city": "RISING SUN", "state": "IN", "street": "111 N WALNUT ST", "postcode": "47040"}}},
{"geometry": {"type": "Point", "coordinates": [-84.8538565759, 38.9493030317]}, "type": "Feature", "properties": {"collection_times": [{"days": "Mon-Fri", "time": "4:00pm"}, {"days": "Sat", "time": "12:00pm"}, {"days": "Sun", "time": "Closed"}], "id": "4704000008", "name": "USPS COLLECTION BOX - PO LOBBY", "address": {"city": "RISING SUN", "state": "IN", "street": "111 N WALNUT ST", "postcode": "47040"}}},
{"geometry": {"type": "Point", "coordinates": [-84.8538565759, 38.9493030317]}, "type": "Feature", "properties": {"collection_times": [{"days": "Mon-Fri", "time": "4:00pm"}, {"days": "Sat", "time": "12:00pm"}, {"days": "Sun", "time": "Closed"}], "id": "4704000009", "name": "USPS COLLECTION BOX - PO LOBBY", "address": {"city": "RISING SUN", "state": "IN", "street": "111 N WALNUT ST", "postcode": "47040"}}},
{"geometry": {"type": "Point", "coordinates": [-84.8572060241, 38.9510227198]}, "type": "Feature", "properties": {"collection_times": [{"days": "Mon-Sat", "time": "12:00pm"}, {"days": "Sun", "time": "Closed"}], "id": "4704000016", "name": "USPS COLLECTION BOX - BLUE BOX", "address": {"city": "RISING SUN", "state": "IN", "street": "412 MAIN ST", "postcode": "47040"}}},
{"geometry": {"type": "Point", "coordinates": [-85.0946066329, 39.2388977236]}, "type": "Feature", "properties": {"collection_times": [{"days": "Mon-Fri", "time": "4:00pm"}, {"days": "Sat", "time": "11:30am"}, {"days": "Sun", "time": "Closed"}], "id": "4704100000", "name": "USPS COLLECTION BOX - BLUE BOX", "address": {"city": "SUNMAN", "state": "IN", "street": "219 N MERIDIAN ST", "postcode": "47041"}}},
{"geometry": {"type": "Point", "coordinates": [-85.0946066329, 39.2388977236]}, "type": "Feature", "properties": {"collection_times": [{"days": "Mon-Fri", "time": "4:00pm"}, {"days": "Sat", "time": "11:30am"}, {"days": "Sun", "time": "Closed"}], "id": "4704100002", "name": "USPS COLLECTION BOX - PO LOBBY", "address": {"city": "SUNMAN", "state": "IN", "street": "219 N MERIDIAN ST", "postcode": "47041"}}},
{"geometry": {"type": "Point", "coordinates": [-85.0983097799, 39.2718788068]}, "type": "Feature", "properties": {"collection_times": [{"days": "Mon-Sat", "time": "11:30am"}, {"days": "Sun", "time": "Closed"}], "id": "4704100003", "name": "USPS COLLECTION BOX - BLUE BOX", "address": {"city": "SUNMAN", "state": "IN", "street": "8845 E STATE ROUTE 46", "postcode": "47041"}}},
{"geometry": {"type": "Point", "coordinates": [-85.0944826881, 39.2419029598]}, "type": "Feature", "properties": {"collection_times": [{"days": "Mon-Sat", "time": "10:30am"}, {"days": "Sun", "time": "Closed"}], "id": "4704100006", "name": "USPS COLLECTION BOX - BLUE BOX", "address": {"city": "SUNMAN", "state": "IN", "street": "604 N MERIDIAN ST", "postcode": "47041"}}},
{"geometry": {"type": "Point", "coordinates": [-85.2522732064, 39.0714465603]}, "type": "Feature", "properties": {"collection_times": [{"days": "Mon-Fri", "time": "4:00pm"}, {"days": "Sat", "time": "12:00pm"}, {"days": "Sun", "time": "Closed"}], "id": "4704200001", "name": "USPS COLLECTION BOX - BLUE BOX", "address": {"city": "VERSAILLES", "state": "IN", "street": "121 S WASHINGTON ST", "postcode": "47042"}}},
{"geometry": {"type": "Point", "coordinates": [-85.2522732064, 39.0714465603]}, "type": "Feature", "properties": {"collection_times": [{"days": "Mon-Fri", "time": "4:00pm"}, {"days": "Sat", "time": "12:00pm"}, {"days": "Sun", "time": "Closed"}], "id": "4704200003", "name": "USPS COLLECTION BOX - PO LOBBY", "address": {"city": "VERSAILLES", "state": "IN", "street": "121 S WASHINGTON ST", "postcode": "47042"}}},
{"geometry": {"type": "Point", "coordinates": [-85.2522732064, 39.0714465603]}, "type": "Feature", "properties": {"collection_times": [{"days": "Mon-Fri", "time": "4:00pm"}, {"days": "Sat", "time": "12:00pm"}, {"days": "Sun", "time": "Closed"}], "id": "4704200004", "name": "USPS COLLECTION BOX - PO LOBBY", "address": {"city": "VERSAILLES", "state": "IN", "street": "121 S WASHINGTON ST", "postcode": "47042"}}},
{"geometry": {"type": "Point", "coordinates": [-85.2522229297, 39.0717487065]}, "type": "Feature", "properties": {"collection_times": [{"days": "Mon-Sat", "time": "11:00am"}, {"days": "Sun", "time": "Closed"}], "id": "4704200005", "name": "USPS COLLECTION BOX - BLUE BOX", "address": {"city": "VERSAILLES", "state": "IN", "street": "108 N WASHINGTON ST", "postcode": "47042"}}},
{"geometry": {"type": "Point", "coordinates": [-85.067176279, 38.7476656986]}, "type": "Feature", "properties": {"collection_times": [{"days": "Mon-Sat", "time": "8:45am"}, {"days": "Sun", "time": "Closed"}], "id": "4704300001", "name": "USPS COLLECTION BOX - BLUE BOX", "address": {"city": "VEVAY", "state": "IN", "street": "102 W MAIN ST", "postcode": "47043"}}},
{"geometry": {"type": "Point", "coordinates": [-85.0682385011, 38.7470147489]}, "type": "Feature", "properties": {"collection_times": [{"days": "Mon-Sat", "time": "9:00am"}, {"days": "Sun", "time": "Closed"}], "id": "4704300002", "name": "USPS COLLECTION BOX - BLUE BOX", "address": {"city": "VEVAY", "state": "IN", "street": "212 W MAIN ST", "postcode": "47043"}}},
{"geometry": {"type": "Point", "coordinates": [-85.06996218, 38.7485176982]}, "type": "Feature", "properties": {"collection_times": [{"days": "Mon-Sat", "time": "11:00am"}, {"days": "Sun", "time": "Closed"}], "id": "4704300005", "name": "USPS COLLECTION BOX - BLUE BOX", "address": {"city": "VEVAY", "state": "IN", "street": "202 W SEMINARY ST", "postcode": "47043"}}},
{"geometry": {"type": "Point", "coordinates": [-85.0680328984, 38.7484796018]}, "type": "Feature", "properties": {"collection_times": [{"days": "Mon-Fri", "time": "4:00pm"}, {"days": "Sat", "time": "11:00am"}, {"days": "Sun", "time": "Closed"}], "id": "4704300008", "name": "USPS COLLECTION BOX - PO LOBBY", "address": {"city": "VEVAY", "state": "IN", "street": "104 W PIKE ST", "postcode": "47043"}}},
{"geometry": {"type": "Point", "coordinates": [-85.0680328984, 38.7484796018]}, "type": "Feature", "properties": {"collection_times": [{"days": "Mon-Fri", "time": "4:00pm"}, {"days": "Sat", "time": "11:00am"}, {"days": "Sun", "time": "Closed"}], "id": "4704300009", "name": "USPS COLLECTION BOX - BLUE BOX", "address": {"city": "VEVAY", "state": "IN", "street": "104 W PIKE ST", "postcode": "47043"}}},
{"geometry": {"type": "Point", "coordinates": [-85.0730173845, 38.743856262]}, "type": "Feature", "properties": {"collection_times": [{"days": "Mon-Sat", "time": "9:00am"}, {"days": "Sun", "time": "Closed"}], "id": "4704300010", "name": "USPS COLLECTION BOX - BLUE BOX", "address": {"city": "VEVAY", "state": "IN", "street": "708 W MAIN ST", "postcode": "47043"}}},
{"geometry": {"type": "Point", "coordinates": [-85.0634244535, 38.7497974872]}, "type": "Feature", "properties": {"collection_times": [{"days": "Mon-Sat", "time": "11:00am"}, {"days": "Sun", "time": "Closed"}], "id": "4704300011", "name": "USPS COLLECTION BOX - BLUE BOX", "address": {"city": "VEVAY", "state": "IN", "street": "314 PEARL ST", "postcode": "47043"}}},
{"geometry": {"type": "Point", "coordinates": [-85.0590993624, 38.752152701]}, "type": "Feature", "properties": {"collection_times": [{"days": "Mon-Sat", "time": "11:00am"}, {"days": "Sun", "time": "Closed"}], "id": "4704300012", "name": "USPS COLLECTION BOX - BLUE BOX", "address": {"city": "VEVAY", "state": "IN", "street": "705 E MAIN ST", "postcode": "47043"}}},
{"geometry": {"type": "Point", "coordinates": [-85.0680328984, 38.7484796018]}, "type": "Feature", "properties": {"collection_times": [{"days": "Mon-Fri", "time": "4:00pm"}, {"days": "Sat", "time": "11:00am"}, {"days": "Sun", "time": "Closed"}], "id": "4704300013", "name": "USPS COLLECTION BOX - PO LOBBY", "address": {"city": "VEVAY", "state": "IN", "street": "104 W PIKE ST", "postcode": "47043"}}}
]}
