{"type": "FeatureCollection", "features": [
{"geometry": {"type": "Point", "coordinates": [-85.8082687162, 38.7416367959]}, "type": "Feature", "properties": {"collection_times": [{"days": "Mon-Fri", "time": "3:30pm"}, {"days": "Sat", "time": "11:00am"}, {"days": "Sun", "time": "Closed"}], "id": "4710200001", "name": "USPS COLLECTION BOX - BLUE BOX", "address": {"city": "AUSTIN", "state": "IN", "street": "55 N 2ND ST", "postcode": "47102"}}},
{"geometry": {"type": "Point", "coordinates": [-85.8082687162, 38.7416367959]}, "type": "Feature", "properties": {"collection_times": [{"days": "Mon-Fri", "time": "3:30pm"}, {"days": "Sat", "time": "11:00am"}, {"days": "Sun", "time": "Closed"}], "id": "4710200015", "name": "USPS COLLECTION BOX - PO LOBBY", "address": {"city": "AUSTIN", "state": "IN", "street": "55 N 2ND ST", "postcode": "47102"}}},
{"geometry": {"type": "Point", "coordinates": [-85.9359597181, 38.4603605824]}, "type": "Feature", "properties": {"collection_times": [{"days": "Mon-Fri", "time": "3:45pm"}, {"days": "Sat", "time": "11:15am"}, {"days": "Sun", "time": "Closed"}], "id": "4710600002", "name": "USPS COLLECTION BOX - PO LOBBY", "address": {"city": "BORDEN", "state": "IN", "street": "1042 E WATER ST", "postcode": "47106"}}},
{"geometry": {"type": "Point", "coordinates": [-85.9359597181, 38.4603605824]}, "type": "Feature", "properties": {"collection_times": [{"days": "Mon-Fri", "time": "3:45pm"}, {"days": "Sat", "time": "11:15am"}, {"days": "Sun", "time": "Closed"}], "id": "4710600004", "name": "USPS COLLECTION BOX - BLUE BOX", "address": {"city": "BORDEN", "state": "IN", "street": "1042 E WATER ST", "postcode": "47106"}}},
{"geometry": {"type": "Point", "coordinates": [-85.952440499, 38.4687803264]}, "type": "Feature", "properties": {"collection_times": [{"days": "Mon-Sat", "time": "10:15am"}, {"days": "Sun", "time": "Closed"}], "id": "4710600005", "name": "USPS COLLECTION BOX - BLUE BOX", "address": {"city": "BORDEN", "state": "IN", "street": "430 W WATER ST", "postcode": "47106"}}},
{"geometry": {"type": "Point", "coordinates": [-86.2618128188, 38.6514329923]}, "type": "Feature", "properties": {"collection_times": [{"days": "Mon-Fri", "time": "11:45am"}, {"days": "Sat", "time": "11:30am"}, {"days": "Sun", "time": "Closed"}], "id": "4710800001", "name": "USPS COLLECTION BOX - BLUE BOX", "address": {"city": "CAMPBELLSBURG", "state": "IN", "street": "55 W OAK ST", "postcode": "47108"}}},
{"geometry": {"type": "Point", "coordinates": [-86.2618128188, 38.6514329923]}, "type": "Feature", "properties": {"collection_times": [{"days": "Mon-Fri", "time": "11:45am"}, {"days": "Sat", "time": "11:30am"}, {"days": "Sun", "time": "Closed"}], "id": "4710800003", "name": "USPS COLLECTION BOX - PO LOBBY", "address": {"city": "CAMPBELLSBURG", "state": "IN", "street": "55 W OAK ST", "postcode": "47108"}}},
{"geometry": {"type": "Point", "coordinates": [-86.2633984463, 38.6518604146]}, "type": "Feature", "properties": {"collection_times": [{"days": "Mon-Sat", "time": "10:00am"}, {"days": "Sun", "time": "Closed"}], "id": "4710800005", "name": "USPS COLLECTION BOX - BLUE BOX", "address": {"city": "CAMPBELLSBURG", "state": "IN", "street": "40 E STATE ROAD 60", "postcode": "47108"}}},
{"geometry": {"type": "Point", "coordinates": [-85.6518389222, 38.4561439868]}, "type": "Feature", "properties": {"collection_times": [{"days": "Mon-Sat", "time": "9:30am"}, {"days": "Sun", "time": "Closed"}], "id": "4711100012", "name": "USPS COLLECTION BOX - BLUE BOX", "address": {"city": "CHARLESTOWN", "state": "IN", "street": "9501 COUNTY ROAD 403", "postcode": "47111"}}},
{"geometry": {"type": "Point", "coordinates": [-85.6518389222, 38.4561439868]}, "type": "Feature", "properties": {"collection_times": [{"days": "Mon-Fri", "time": "5:00pm"}, {"days": "Sat", "time": "3:00pm"}, {"days": "Sun", "time": "Closed"}], "id": "4711100024", "name": "USPS COLLECTION BOX - BLUE BOX", "address": {"city": "CHARLESTOWN", "state": "IN", "street": "361 MAIN CROSS ST", "postcode": "47111"}}},
{"geometry": {"type": "Point", "coordinates": [-85.6518389222, 38.4561439868]}, "type": "Feature", "properties": {"collection_times": [{"days": "Mon-Fri", "time": "5:00pm"}, {"days": "Sat", "time": "3:00pm"}, {"days": "Sun", "time": "Closed"}], "id": "4711100027", "name": "USPS COLLECTION BOX - PO LOBBY", "address": {"city": "CHARLESTOWN", "state": "IN", "street": "361 MAIN CROSS ST", "postcode": "47111"}}},
{"geometry": {"type": "Point", "coordinates": [-85.6518389222, 38.4561439868]}, "type": "Feature", "properties": {"collection_times": [{"days": "Mon-Sat", "time": "9:30am"}, {"days": "Sun", "time": "Closed"}], "id": "4711100029", "name": "USPS COLLECTION BOX - BLUE BOX", "address": {"city": "CHARLESTOWN", "state": "IN", "street": "9616 COUNTY ROAD 403", "postcode": "47111"}}},
{"geometry": {"type": "Point", "coordinates": [-86.2817923943, 39.9198050791]}, "type": "Feature", "properties": {"collection_times": [{"days": "Mon-Sat", "time": "12:00pm"}, {"days": "Sun", "time": "Closed"}], "id": "4711200002", "name": "USPS COLLECTION BOX - BLUE BOX", "address": {"city": "CORYDON", "state": "IN", "street": "1007 OLD FOREST RD NW", "postcode": "47112"}}},
{"geometry": {"type": "Point", "coordinates": [-86.152918651, 38.1921680544]}, "type": "Feature", "properties": {"collection_times": [{"days": "Mon-Sat", "time": "10:00am"}, {"days": "Sun", "time": "Closed"}], "id": "4711200008", "name": "USPS COLLECTION BOX - BLUE BOX", "address": {"city": "CORYDON", "state": "IN", "street": "389 OLD CAPITAL PLZ NW", "postcode": "47112"}}},
{"geometry": {"type": "Point", "coordinates": [-86.1277061826, 38.2122239662]}, "type": "Feature", "properties": {"collection_times": [{"days": "Mon-Fri", "time": "5:00pm"}, {"days": "Sat", "time": "4:45pm"}, {"days": "Sun", "time": "Closed"}], "id": "4711200010", "name": "USPS COLLECTION BOX - BLUE BOX", "address": {"city": "CORYDON", "state": "IN", "street": "245 W HIGHWAY 62", "postcode": "47112"}}},
{"geometry": {"type": "Point", "coordinates": [-86.1277061826, 38.2122239662]}, "type": "Feature", "properties": {"collection_times": [{"days": "Mon-Fri", "time": "5:00pm"}, {"days": "Sat", "time": "4:45pm"}, {"days": "Sun", "time": "Closed"}], "id": "4711200011", "name": "USPS COLLECTION BOX - BLUE BOX", "address": {"city": "CORYDON", "state": "IN", "street": "245 W HIGHWAY 62", "postcode": "47112"}}},
{"geometry": {"type": "Point", "coordinates": [-86.1341421961, 38.231385992]}, "type": "Feature", "properties": {"collection_times": [{"days": "Mon-Sat", "time": "10:00am"}, {"days": "Sun", "time": "Closed"}], "id": "4711200013", "name": "USPS COLLECTION BOX - BLUE BOX", "address": {"city": "CORYDON", "state": "IN", "street": "2131 EDSEL LN NW", "postcode": "47112"}}},
{"geometry": {"type": "Point", "coordinates": [-86.152918651, 38.1921680544]}, "type": "Feature", "properties": {"collection_times": [{"days": "Mon-Fri", "time": "11:00am"}, {"days": "Sat-Sun", "time": "Closed"}], "id": "4711200014", "name": "USPS COLLECTION BOX - BLUE BOX", "address": {"city": "CORYDON", "state": "IN", "street": "1263 HOSPITAL DR NW", "postcode": "47112"}}},
{"geometry": {"type": "Point", "coordinates": [-86.1277061826, 38.2122239662]}, "type": "Feature", "properties": {"collection_times": [{"days": "Mon-Fri", "time": "5:00pm"}, {"days": "Sat", "time": "4:45pm"}, {"days": "Sun", "time": "Closed"}], "id": "4711200015", "name": "USPS COLLECTION BOX - PO LOBBY", "address": {"city": "CORYDON", "state": "IN", "street": "245 W HIGHWAY 62", "postcode": "47112"}}},
{"geometry": {"type": "Point", "coordinates": [-86.123935547, 38.2104687463]}, "type": "Feature", "properties": {"collection_times": [{"days": "Mon-Sat", "time": "11:00am"}, {"days": "Sun", "time": "Closed"}], "id": "4711200017", "name": "USPS COLLECTION BOX - BLUE BOX", "address": {"city": "CORYDON", "state": "IN", "street": "213 E CHESTNUT ST", "postcode": "47112"}}},
{"geometry": {"type": "Point", "coordinates": [-86.0641032063, 38.2901198389]}, "type": "Feature", "properties": {"collection_times": [{"days": "Mon-Fri", "time": "11:45am"}, {"days": "Sat", "time": "12:00pm"}, {"days": "Sun", "time": "Closed"}], "id": "4711400001", "name": "USPS COLLECTION BOX - BLUE BOX", "address": {"city": "CRANDALL", "state": "IN", "street": "6090 WALNUT ST NE", "postcode": "47114"}}},
{"geometry": {"type": "Point", "coordinates": [-86.2189254811, 38.3452619019]}, "type": "Feature", "properties": {"collection_times": [{"days": "Mon-Fri", "time": "12:45pm"}, {"days": "Sat", "time": "11:45am"}, {"days": "Sun", "time": "Closed"}], "id": "4711500001", "name": "USPS COLLECTION BOX - BLUE BOX", "address": {"city": "DEPAUW", "state": "IN", "street": "9055 MAIN ST NW", "postcode": "47115"}}},
{"geometry": {"type": "Point", "coordinates": [-86.2180887289, 38.344112365]}, "type": "Feature", "properties": {"collection_times": [{"days": "Mon-Sat", "time": "9:00am"}, {"days": "Sun", "time": "Closed"}], "id": "4711500004", "name": "USPS COLLECTION BOX - BLUE BOX", "address": {"city": "DEPAUW", "state": "IN", "street": "5015 FRONT ST NW", "postcode": "47115"}}},
{"geometry": {"type": "Point", "coordinates": [-86.6142155688, 38.3226771317]}, "type": "Feature", "properties": {"collection_times": [{"days": "Mon-Fri", "time": "4:00pm"}, {"days": "Sat", "time": "11:30am"}, {"days": "Sun", "time": "Closed"}], "id": "4711600001", "name": "USPS COLLECTION BOX - BLUE BOX", "address": {"city": "ECKERTY", "state": "IN", "street": "7440 W ECKERTY RD", "postcode": "47116"}}},
{"geometry": {"type": "Point", "coordinates": [-86.6129251995, 38.3210923151]}, "type": "Feature", "properties": {"collection_times": [{"days": "Mon-Sat", "time": "12:30pm"}, {"days": "Sun", "time": "Closed"}], "id": "4711600002", "name": "USPS COLLECTION BOX - BLUE BOX", "address": {"city": "ECKERTY", "state": "IN", "street": "7609 W ECKERTY RD", "postcode": "47116"}}},
{"geometry": {"type": "Point", "coordinates": [-86.6142155688, 38.3226771317]}, "type": "Feature", "properties": {"collection_times": [{"days": "Mon-Fri", "time": "4:00pm"}, {"days": "Sat", "time": "11:30am"}, {"days": "Sun", "time": "Closed"}], "id": "4711600003", "name": "USPS COLLECTION BOX - PO LOBBY", "address": {"city": "ECKERTY", "state": "IN", "street": "7440 W ECKERTY RD", "postcode": "47116"}}},
{"geometry": {"type": "Point", "coordinates": [-85.9740836029, 38.1258262349]}, "type": "Feature", "properties": {"collection_times": [{"days": "Mon-Fri", "time": "4:00pm"}, {"days": "Sat", "time": "10:00am"}, {"days": "Sun", "time": "Closed"}], "id": "4711700001", "name": "USPS COLLECTION BOX - BLUE BOX", "address": {"city": "ELIZABETH", "state": "IN", "street": "5465 MAIN ST SE", "postcode": "47117"}}},
{"geometry": {"type": "Point", "coordinates": [-85.9740836029, 38.1258262349]}, "type": "Feature", "properties": {"collection_times": [{"days": "Mon-Fri", "time": "4:00pm"}, {"days": "Sat", "time": "10:00am"}, {"days": "Sun", "time": "Closed"}], "id": "4711700002", "name": "USPS COLLECTION BOX - PO LOBBY", "address": {"city": "ELIZABETH", "state": "IN", "street": "5465 MAIN ST SE", "postcode": "47117"}}},
{"geometry": {"type": "Point", "coordinates": [-86.4793191496, 38.3363826002]}, "type": "Feature", "properties": {"collection_times": [{"days": "Mon-Sat", "time": "1:30pm"}, {"days": "Sun", "time": "Closed"}], "id": "4711800001", "name": "USPS COLLECTION BOX - BLUE BOX", "address": {"city": "ENGLISH", "state": "IN", "street": "715 JUDICIAL PLAZA DR", "postcode": "47118"}}},
{"geometry": {"type": "Point", "coordinates": [-86.443764998, 38.3545408386]}, "type": "Feature", "properties": {"collection_times": [{"days": "Mon-Fri", "time": "4:15pm"}, {"days": "Sat", "time": "11:45am"}, {"days": "Sun", "time": "Closed"}], "id": "4711800003", "name": "USPS COLLECTION BOX - BLUE BOX", "address": {"city": "ENGLISH", "state": "IN", "street": "111 S INDIANA AVE", "postcode": "47118"}}},
{"geometry": {"type": "Point", "coordinates": [-86.443764998, 38.3545408386]}, "type": "Feature", "properties": {"collection_times": [{"days": "Mon-Fri", "time": "4:15pm"}, {"days": "Sat", "time": "11:45am"}, {"days": "Sun", "time": "Closed"}], "id": "4711800004", "name": "USPS COLLECTION BOX - PO LOBBY", "address": {"city": "ENGLISH", "state": "IN", "street": "111 S INDIANA AVE", "postcode": "47118"}}},
{"geometry": {"type": "Point", "coordinates": [-85.9053376202, 38.3202737776]}, "type": "Feature", "properties": {"collection_times": [{"days": "Mon-Sat", "time": "10:00am"}, {"days": "Sun", "time": "Closed"}], "id": "4711900009", "name": "USPS COLLECTION BOX - BLUE BOX", "address": {"city": "FLOYDS KNOBS", "state": "IN", "street": "800 HIGHLANDER POINT DR", "postcode": "47119"}}},
{"geometry": {"type": "Point", "coordinates": [-85.9053376202, 38.3202737776]}, "type": "Feature", "properties": {"collection_times": [{"days": "Mon-Sat", "time": "10:00am"}, {"days": "Sun", "time": "Closed"}], "id": "4711900010", "name": "USPS COLLECTION BOX - BLUE BOX", "address": {"city": "FLOYDS KNOBS", "state": "IN", "street": "800 HIGHLANDER POINT DR", "postcode": "47119"}}},
{"geometry": {"type": "Point", "coordinates": [-85.9310203272, 38.3504374317]}, "type": "Feature", "properties": {"collection_times": [{"days": "Mon-Sat", "time": "10:00am"}, {"days": "Sun", "time": "Closed"}], "id": "4711900011", "name": "USPS COLLECTION BOX - BLUE BOX", "address": {"city": "FLOYDS KNOBS", "state": "IN", "street": "6013 MAY ST", "postcode": "47119"}}},
{"geometry": {"type": "Point", "coordinates": [-85.8684707436, 38.324052885]}, "type": "Feature", "properties": {"collection_times": [{"days": "Mon-Fri", "time": "4:00pm"}, {"days": "Sat", "time": "12:00pm"}, {"days": "Sun", "time": "Closed"}], "id": "4711900012", "name": "USPS COLLECTION BOX - PO LOBBY", "address": {"city": "FLOYDS KNOBS", "state": "IN", "street": "3818 PAOLI PIKE", "postcode": "47119"}}},
{"geometry": {"type": "Point", "coordinates": [-85.8684707436, 38.324052885]}, "type": "Feature", "properties": {"collection_times": [{"days": "Mon-Fri", "time": "4:00pm"}, {"days": "Sat", "time": "12:00pm"}, {"days": "Sun", "time": "Closed"}], "id": "4711900013", "name": "USPS COLLECTION BOX - BLUE BOX", "address": {"city": "FLOYDS KNOBS", "state": "IN", "street": "3818 PAOLI PIKE", "postcode": "47119"}}},
{"geometry": {"type": "Point", "coordinates": [-85.8684707436, 38.324052885]}, "type": "Feature", "properties": {"collection_times": [{"days": "Mon-Fri", "time": "4:00pm"}, {"days": "Sat", "time": "12:00pm"}, {"days": "Sun", "time": "Closed"}], "id": "4711900014", "name": "USPS COLLECTION BOX - BLUE BOX", "address": {"city": "FLOYDS KNOBS", "state": "IN", "street": "3818 PAOLI PIKE", "postcode": "47119"}}},
{"geometry": {"type": "Point", "coordinates": [-85.8968568495, 38.3348320724]}, "type": "Feature", "properties": {"collection_times": [{"days": "Mon-Sat", "time": "10:00am"}, {"days": "Sun", "time": "Closed"}], "id": "4711900015", "name": "USPS COLLECTION BOX - BLUE BOX", "address": {"city": "FLOYDS KNOBS", "state": "IN", "street": "4801 PAOLI PIKE", "postcode": "47119"}}},
{"geometry": {"type": "Point", "coordinates": [-85.9053376202, 38.3202737776]}, "type": "Feature", "properties": {"collection_times": [{"days": "Mon-Sat", "time": "10:00am"}, {"days": "Sun", "time": "Closed"}], "id": "4711900016", "name": "USPS COLLECTION BOX - BLUE BOX", "address": {"city": "FLOYDS KNOBS", "state": "IN", "street": "800 HIGHLANDER POINT DR", "postcode": "47119"}}},
{"geometry": {"type": "Point", "coordinates": [-86.1861207204, 38.4318955826]}, "type": "Feature", "properties": {"collection_times": [{"days": "Mon-Fri", "time": "11:45am"}, {"days": "Sat", "time": "9:45am"}, {"days": "Sun", "time": "Closed"}], "id": "4712000001", "name": "USPS COLLECTION BOX - BLUE BOX", "address": {"city": "FREDERICKSBURG", "state": "IN", "street": "262 E US HIGHWAY 150", "postcode": "47120"}}},
{"geometry": {"type": "Point", "coordinates": [-85.9638912029, 38.2991322592]}, "type": "Feature", "properties": {"collection_times": [{"days": "Mon-Fri", "time": "4:15pm"}, {"days": "Sat", "time": "11:00am"}, {"days": "Sun", "time": "Closed"}], "id": "4712200001", "name": "USPS COLLECTION BOX - BLUE BOX", "address": {"city": "GEORGETOWN", "state": "IN", "street": "1095 MARCI LN", "postcode": "47122"}}},
{"geometry": {"type": "Point", "coordinates": [-85.9134162064, 38.2898530653]}, "type": "Feature", "properties": {"collection_times": [{"days": "Mon-Sat", "time": "11:30am"}, {"days": "Sun", "time": "Closed"}], "id": "4712200006", "name": "USPS COLLECTION BOX - BLUE BOX", "address": {"city": "GEORGETOWN", "state": "IN", "street": "1033 N LUTHER RD", "postcode": "47122"}}},
{"geometry": {"type": "Point", "coordinates": [-85.9638912029, 38.2991322592]}, "type": "Feature", "properties": {"collection_times": [{"days": "Mon-Fri", "time": "4:30pm"}, {"days": "Sat", "time": "11:00am"}, {"days": "Sun", "time": "Closed"}], "id": "4712200009", "name": "USPS COLLECTION BOX - PO LOBBY", "address": {"city": "GEORGETOWN", "state": "IN", "street": "1095 MARCI LN", "postcode": "47122"}}},
{"geometry": {"type": "Point", "coordinates": [-85.9896069003, 38.3736137376]}, "type": "Feature", "properties": {"collection_times": [{"days": "Mon-Fri", "time": "4:15pm"}, {"days": "Sat", "time": "11:15am"}, {"days": "Sun", "time": "Closed"}], "id": "4712400001", "name": "USPS COLLECTION BOX - BLUE BOX", "address": {"city": "GREENVILLE", "state": "IN", "street": "9615 HIGHWAY 150", "postcode": "47124"}}},
{"geometry": {"type": "Point", "coordinates": [-85.9896069003, 38.3736137376]}, "type": "Feature", "properties": {"collection_times": [{"days": "Mon-Fri", "time": "4:15pm"}, {"days": "Sat", "time": "11:15am"}, {"days": "Sun", "time": "Closed"}], "id": "4712400003", "name": "USPS COLLECTION BOX - PO LOBBY", "address": {"city": "GREENVILLE", "state": "IN", "street": "9615 HIGHWAY 150", "postcode": "47124"}}},
{"geometry": {"type": "Point", "coordinates": [-86.2783577658, 38.4606030545]}, "type": "Feature", "properties": {"collection_times": [{"days": "Mon-Fri", "time": "11:45am"}, {"days": "Sat", "time": "11:15am"}, {"days": "Sun", "time": "Closed"}], "id": "4712500001", "name": "USPS COLLECTION BOX - BLUE BOX", "address": {"city": "HARDINSBURG", "state": "IN", "street": "52 E US HIGHWAY 150", "postcode": "47125"}}},
{"geometry": {"type": "Point", "coordinates": [-86.2675957216, 38.4671542308]}, "type": "Feature", "properties": {"collection_times": [{"days": "Mon-Sat", "time": "9:00am"}, {"days": "Sun", "time": "Closed"}], "id": "4712500004", "name": "USPS COLLECTION BOX - BLUE BOX", "address": {"city": "HARDINSBURG", "state": "IN", "street": "671 E US HIGHWAY 150", "postcode": "47125"}}},
{"geometry": {"type": "Point", "coordinates": [-85.7682531219, 38.5414867659]}, "type": "Feature", "properties": {"collection_times": [{"days": "Mon-Fri", "time": "4:30pm"}, {"days": "Sat", "time": "12:00pm"}, {"days": "Sun", "time": "Closed"}], "id": "4712600001", "name": "USPS COLLECTION BOX - BLUE BOX", "address": {"city": "HENRYVILLE", "state": "IN", "street": "102 S FERGUSON ST", "postcode": "47126"}}},
{"geometry": {"type": "Point", "coordinates": [-85.7682531219, 38.5414867659]}, "type": "Feature", "properties": {"collection_times": [{"days": "Mon-Fri", "time": "4:30pm"}, {"days": "Sat", "time": "12:00pm"}, {"days": "Sun", "time": "Closed"}], "id": "4712600004", "name": "USPS COLLECTION BOX - PO LOBBY", "address": {"city": "HENRYVILLE", "state": "IN", "street": "102 S FERGUSON ST", "postcode": "47126"}}},
{"geometry": {"type": "Point", "coordinates": [-85.7398776261, 38.275509595]}, "type": "Feature", "properties": {"collection_times": [{"days": "Mon-Fri", "time": "5:00pm"}, {"days": "Sat", "time": "4:00pm"}, {"days": "Sun", "time": "Closed"}], "id": "4713000002", "name": "USPS COLLECTION BOX - BLUE BOX", "address": {"city": "JEFFERSONVILLE", "state": "IN", "street": "303 E COURT AVE", "postcode": "47130"}}},
{"geometry": {"type": "Point", "coordinates": [-85.7187867669, 38.3099606218]}, "type": "Feature", "properties": {"collection_times": [{"days": "Mon-Fri", "time": "4:30pm"}, {"days": "Sat", "time": "12:00pm"}, {"days": "Sun", "time": "Closed"}], "id": "4713000004", "name": "USPS COLLECTION BOX - BLUE BOX", "address": {"city": "JEFFERSONVILLE", "state": "IN", "street": "757 E LEWIS AND CLARK PKWY", "postcode": "47130"}}},
{"geometry": {"type": "Point", "coordinates": [-85.7325323674, 38.2863532928]}, "type": "Feature", "properties": {"collection_times": [{"days": "Mon-Fri", "time": "9:00am"}, {"days": "Sat-Sun", "time": "Closed"}], "id": "4713000016", "name": "USPS COLLECTION BOX - BLUE BOX", "address": {"city": "JEFFERSONVILLE", "state": "IN", "street": "1201 E 10TH ST", "postcode": "47130"}}},
{"geometry": {"type": "Point", "coordinates": [-85.7248914126, 38.2911956108]}, "type": "Feature", "properties": {"collection_times": [{"days": "Mon-Sat", "time": "9:00am"}, {"days": "Sun", "time": "Closed"}], "id": "4713000018", "name": "USPS COLLECTION BOX - BLUE BOX", "address": {"city": "JEFFERSONVILLE", "state": "IN", "street": "1029 YOUNGSTOWN SHOPPING CTR", "postcode": "47130"}}},
{"geometry": {"type": "Point", "coordinates": [-85.6991852741, 38.3330033688]}, "type": "Feature", "properties": {"collection_times": [{"days": "Mon-Fri", "time": "10:30am"}, {"days": "Sat", "time": "9:00am"}, {"days": "Sun", "time": "Closed"}], "id": "4713000019", "name": "USPS COLLECTION BOX - BLUE BOX", "address": {"city": "JEFFERSONVILLE", "state": "IN", "street": "1200 FOG HORN DR", "postcode": "47130"}}},
{"geometry": {"type": "Point", "coordinates": [-85.7391910412, 38.2757143006]}, "type": "Feature", "properties": {"collection_times": [{"days": "Mon-Sat", "time": "9:00am"}, {"days": "Sun", "time": "Closed"}], "id": "4713000025", "name": "USPS COLLECTION BOX - BLUE BOX", "address": {"city": "JEFFERSONVILLE", "state": "IN", "street": "334 E COURT AVE", "postcode": "47130"}}},
{"geometry": {"type": "Point", "coordinates": [-85.7419237284, 38.2737424286]}, "type": "Feature", "properties": {"collection_times": [{"days": "Mon-Sat", "time": "9:00am"}, {"days": "Sun", "time": "Closed"}], "id": "4713000026", "name": "USPS COLLECTION BOX - BLUE BOX", "address": {"city": "JEFFERSONVILLE", "state": "IN", "street": "443 SPRING ST", "postcode": "47130"}}},
{"geometry": {"type": "Point", "coordinates": [-85.7484091152, 38.281738463]}, "type": "Feature", "properties": {"collection_times": [{"days": "Mon-Sat", "time": "9:00am"}, {"days": "Sun", "time": "Closed"}], "id": "4713000035", "name": "USPS COLLECTION BOX - BLUE BOX", "address": {"city": "JEFFERSONVILLE", "state": "IN", "street": "207 SPARKS AVE", "postcode": "47130"}}},
{"geometry": {"type": "Point", "coordinates": [-85.6991852741, 38.3330033688]}, "type": "Feature", "properties": {"collection_times": [{"days": "Mon-Sat", "time": "9:00am"}, {"days": "Sun", "time": "Closed"}], "id": "4713000039", "name": "USPS COLLECTION BOX - BLUE BOX", "address": {"city": "JEFFERSONVILLE", "state": "IN", "street": "104 S OAK ST", "postcode": "47130"}}},
{"geometry": {"type": "Point", "coordinates": [-85.6991852741, 38.3330033688]}, "type": "Feature", "properties": {"collection_times": [{"days": "Mon-Sat", "time": "9:00am"}, {"days": "Sun", "time": "Closed"}], "id": "4713000040", "name": "USPS COLLECTION BOX - BLUE BOX", "address": {"city": "JEFFERSONVILLE", "state": "IN", "street": "300 W STANSIFER AVE", "postcode": "47130"}}},
{"geometry": {"type": "Point", "coordinates": [-85.6991852741, 38.3330033688]}, "type": "Feature", "properties": {"collection_times": [{"days": "Mon-Sat", "time": "9:00am"}, {"days": "Sun", "time": "Closed"}], "id": "4713000042", "name": "USPS COLLECTION BOX - BLUE BOX", "address": {"city": "JEFFERSONVILLE", "state": "IN", "street": "100 W BOWNE BLVD", "postcode": "47130"}}},
{"geometry": {"type": "Point", "coordinates": [-85.6991852741, 38.3330033688]}, "type": "Feature", "properties": {"collection_times": [{"days": "Mon-Sat", "time": "9:00am"}, {"days": "Sun", "time": "Closed"}], "id": "4713000044", "name": "USPS COLLECTION BOX - BLUE BOX", "address": {"city": "JEFFERSONVILLE", "state": "IN", "street": "431 W HARRISON AVE", "postcode": "47130"}}},
{"geometry": {"type": "Point", "coordinates": [-85.7077517045, 38.2887547916]}, "type": "Feature", "properties": {"collection_times": [{"days": "Mon-Sat", "time": "9:00am"}, {"days": "Sun", "time": "Closed"}], "id": "4713000046", "name": "USPS COLLECTION BOX - BLUE BOX", "address": {"city": "JEFFERSONVILLE", "state": "IN", "street": "457 VIKING PL", "postcode": "47130"}}},
{"geometry": {"type": "Point", "coordinates": [-85.7187867669, 38.3099606218]}, "type": "Feature", "properties": {"collection_times": [{"days": "Mon-Sat", "time": "9:00am"}, {"days": "Sun", "time": "Closed"}], "id": "4713000047", "name": "USPS COLLECTION BOX - BLUE BOX", "address": {"city": "JEFFERSONVILLE", "state": "IN", "street": "1710 E 10TH ST", "postcode": "47130"}}},
{"geometry": {"type": "Point", "coordinates": [-85.7373876459, 38.2879561285]}, "type": "Feature", "properties": {"collection_times": [{"days": "Mon-Sat", "time": "9:00am"}, {"days": "Sun", "time": "Closed"}], "id": "4713000048", "name": "USPS COLLECTION BOX - BLUE BOX", "address": {"city": "JEFFERSONVILLE", "state": "IN", "street": "228 AMERICA PL STE A", "postcode": "47130"}}},
{"geometry": {"type": "Point", "coordinates": [-85.7502039268, 38.2721508865]}, "type": "Feature", "properties": {"collection_times": [{"days": "Mon-Sat", "time": "9:00am"}, {"days": "Sun", "time": "Closed"}], "id": "4713000051", "name": "USPS COLLECTION BOX - BLUE BOX", "address": {"city": "JEFFERSONVILLE", "state": "IN", "street": "400 MISSOURI AVE", "postcode": "47130"}}},
{"geometry": {"type": "Point", "coordinates": [-85.6991852741, 38.3330033688]}, "type": "Feature", "properties": {"collection_times": [{"days": "Mon-Sat", "time": "9:00am"}, {"days": "Sun", "time": "Closed"}], "id": "4713000053", "name": "USPS COLLECTION BOX - BLUE BOX", "address": {"city": "JEFFERSONVILLE", "state": "IN", "street": "2120 LOMBARDY DR", "postcode": "47130"}}},
{"geometry": {"type": "Point", "coordinates": [-85.6991852741, 38.3330033688]}, "type": "Feature", "properties": {"collection_times": [{"days": "Mon-Sat", "time": "9:00am"}, {"days": "Sun", "time": "Closed"}], "id": "4713000058", "name": "USPS COLLECTION BOX - BLUE BOX", "address": {"city": "JEFFERSONVILLE", "state": "IN", "street": "600 CAMBRIDGE BLVD", "postcode": "47130"}}},
{"geometry": {"type": "Point", "coordinates": [-85.7488767828, 38.2741450131]}, "type": "Feature", "properties": {"collection_times": [{"days": "Mon-Sat", "time": "9:00am"}, {"days": "Sun", "time": "Closed"}], "id": "4713000059", "name": "USPS COLLECTION BOX - BLUE BOX", "address": {"city": "JEFFERSONVILLE", "state": "IN", "street": "700 HIGHWAY 31 E", "postcode": "47130"}}},
{"geometry": {"type": "Point", "coordinates": [-85.6991852741, 38.3330033688]}, "type": "Feature", "properties": {"collection_times": [{"days": "Mon-Sat", "time": "9:00am"}, {"days": "Sun", "time": "Closed"}], "id": "4713000067", "name": "USPS COLLECTION BOX - BLUE BOX", "address": {"city": "JEFFERSONVILLE", "state": "IN", "street": "999 EASTERN BLVD", "postcode": "47130"}}},
{"geometry": {"type": "Point", "coordinates": [-85.7158600023, 38.2936138358]}, "type": "Feature", "properties": {"collection_times": [{"days": "Mon-Sat", "time": "9:00am"}, {"days": "Sun", "time": "Closed"}], "id": "4713000068", "name": "USPS COLLECTION BOX - BLUE BOX", "address": {"city": "JEFFERSONVILLE", "state": "IN", "street": "1821 E 8TH ST", "postcode": "47130"}}},
{"geometry": {"type": "Point", "coordinates": [-85.7132375704, 38.3218339842]}, "type": "Feature", "properties": {"collection_times": [{"days": "Mon-Sat", "time": "9:00am"}, {"days": "Sun", "time": "Closed"}], "id": "4713000072", "name": "USPS COLLECTION BOX - BLUE BOX", "address": {"city": "JEFFERSONVILLE", "state": "IN", "street": "2958 E 10TH ST", "postcode": "47130"}}},
{"geometry": {"type": "Point", "coordinates": [-85.6991852741, 38.3330033688]}, "type": "Feature", "properties": {"collection_times": [{"days": "Mon-Sat", "time": "9:00am"}, {"days": "Sun", "time": "Closed"}], "id": "4713000073", "name": "USPS COLLECTION BOX - BLUE BOX", "address": {"city": "JEFFERSONVILLE", "state": "IN", "street": "1350 PROGRESS WAY", "postcode": "47130"}}},
{"geometry": {"type": "Point", "coordinates": [-85.7496897115, 38.3158932228]}, "type": "Feature", "properties": {"collection_times": [{"days": "Mon-Fri", "time": "9:00am"}, {"days": "Sat-Sun", "time": "Closed"}], "id": "4713000074", "name": "USPS COLLECTION BOX - BLUE BOX", "address": {"city": "JEFFERSONVILLE", "state": "IN", "street": "1301 FABRICON BLVD", "postcode": "47130"}}},
{"geometry": {"type": "Point", "coordinates": [-85.7437696895, 38.2834463901]}, "type": "Feature", "properties": {"collection_times": [{"days": "Mon-Sat", "time": "9:00am"}, {"days": "Sun", "time": "Closed"}], "id": "4713000076", "name": "USPS COLLECTION BOX - BLUE BOX", "address": {"city": "JEFFERSONVILLE", "state": "IN", "street": "200 E 12TH ST", "postcode": "47130"}}},
{"geometry": {"type": "Point", "coordinates": [-85.6991852741, 38.3330033688]}, "type": "Feature", "properties": {"collection_times": [{"days": "Mon-Sat", "time": "9:00am"}, {"days": "Sun", "time": "Closed"}], "id": "4713000077", "name": "USPS COLLECTION BOX - BLUE BOX", "address": {"city": "JEFFERSONVILLE", "state": "IN", "street": "1051 N CLARK BLVD", "postcode": "47130"}}},
{"geometry": {"type": "Point", "coordinates": [-85.7496241948, 38.3209346391]}, "type": "Feature", "properties": {"collection_times": [{"days": "Mon-Sat", "time": "9:00am"}, {"days": "Sun", "time": "Closed"}], "id": "4713000078", "name": "USPS COLLECTION BOX - BLUE BOX", "address": {"city": "JEFFERSONVILLE", "state": "IN", "street": "1410 CHARLESTOWN NEW ALBANY RD", "postcode": "47130"}}},
{"geometry": {"type": "Point", "coordinates": [-85.7428293303, 38.3247219047]}, "type": "Feature", "properties": {"collection_times": [{"days": "Mon-Fri", "time": "11:00am"}, {"days": "Sat", "time": "9:00am"}, {"days": "Sun", "time": "Closed"}], "id": "4713000079", "name": "USPS COLLECTION BOX - BLUE BOX", "address": {"city": "JEFFERSONVILLE", "state": "IN", "street": "1712 CHARLESTOWN NEW ALBANY RD", "postcode": "47130"}}},
{"geometry": {"type": "Point", "coordinates": [-85.6991852741, 38.3330033688]}, "type": "Feature", "properties": {"collection_times": [{"days": "Mon-Sat", "time": "9:00am"}, {"days": "Sun", "time": "Closed"}], "id": "4713000082", "name": "USPS COLLECTION BOX - BLUE BOX", "address": {"city": "JEFFERSONVILLE", "state": "IN", "street": "2100 GREENTREE N", "postcode": "47130"}}},
{"geometry": {"type": "Point", "coordinates": [-85.6954461854, 38.3713065976]}, "type": "Feature", "properties": {"collection_times": [{"days": "Mon-Sat", "time": "9:00am"}, {"days": "Sun", "time": "Closed"}], "id": "4713000097", "name": "USPS COLLECTION BOX - BLUE BOX", "address": {"city": "JEFFERSONVILLE", "state": "IN", "street": "6200 E HIGHWAY 62", "postcode": "47130"}}},
{"geometry": {"type": "Point", "coordinates": [-85.6728859253, 38.3152113669]}, "type": "Feature", "properties": {"collection_times": [{"days": "Mon-Fri", "time": "9:30am"}, {"days": "Sat", "time": "9:00am"}, {"days": "Sun", "time": "Closed"}], "id": "4713000100", "name": "USPS COLLECTION BOX - BLUE BOX", "address": {"city": "JEFFERSONVILLE", "state": "IN", "street": "701 PORT RD", "postcode": "47130"}}},
{"geometry": {"type": "Point", "coordinates": [-85.7398776261, 38.275509595]}, "type": "Feature", "properties": {"collection_times": [{"days": "Mon-Fri", "time": "5:00pm"}, {"days": "Sat", "time": "4:00pm"}, {"days": "Sun", "time": "Closed"}], "id": "4713000101", "name": "USPS COLLECTION BOX - PO LOBBY", "address": {"city": "JEFFERSONVILLE", "state": "IN", "street": "303 E COURT AVE", "postcode": "47130"}}},
{"geometry": {"type": "Point", "coordinates": [-85.7485828949, 38.2843808435]}, "type": "Feature", "properties": {"collection_times": [{"days": "Mon-Sat", "time": "9:00am"}, {"days": "Sun", "time": "Closed"}], "id": "4713000105", "name": "USPS COLLECTION BOX - BLUE BOX", "address": {"city": "JEFFERSONVILLE", "state": "IN", "street": "1407 SPRING ST", "postcode": "47130"}}},
{"geometry": {"type": "Point", "coordinates": [-85.7056837949, 38.3270026469]}, "type": "Feature", "properties": {"collection_times": [{"days": "Mon-Fri", "time": "9:30am"}, {"days": "Sat", "time": "9:00am"}, {"days": "Sun", "time": "Closed"}], "id": "4713000106", "name": "USPS COLLECTION BOX - BLUE BOX", "address": {"city": "JEFFERSONVILLE", "state": "IN", "street": "3250 AUTUMN RIDGE CT", "postcode": "47130"}}},
{"geometry": {"type": "Point", "coordinates": [-85.7502039268, 38.2721508865]}, "type": "Feature", "properties": {"collection_times": [{"days": "Mon-Sat", "time": "9:00am"}, {"days": "Sun", "time": "Closed"}], "id": "4713000107", "name": "USPS COLLECTION BOX - BLUE BOX", "address": {"city": "JEFFERSONVILLE", "state": "IN", "street": "400 MISSOURI AVE", "postcode": "47130"}}},
{"geometry": {"type": "Point", "coordinates": [-85.6527437312, 38.3361017235]}, "type": "Feature", "properties": {"collection_times": [{"days": "Mon-Sat", "time": "9:00am"}, {"days": "Sun", "time": "Closed"}], "id": "4713000108", "name": "USPS COLLECTION BOX - BLUE BOX", "address": {"city": "JEFFERSONVILLE", "state": "IN", "street": "107 N 4TH ST", "postcode": "47130"}}},
{"geometry": {"type": "Point", "coordinates": [-85.7033269534, 38.3122226616]}, "type": "Feature", "properties": {"collection_times": [{"days": "Mon-Sat", "time": "9:00am"}, {"days": "Sun", "time": "Closed"}], "id": "4713000109", "name": "USPS COLLECTION BOX - BLUE BOX", "address": {"city": "JEFFERSONVILLE", "state": "IN", "street": "1750 ALLISON LN", "postcode": "47130"}}},
{"geometry": {"type": "Point", "coordinates": [-85.7398776261, 38.275509595]}, "type": "Feature", "properties": {"collection_times": [{"days": "Mon-Fri", "time": "5:00pm"}, {"days": "Sat", "time": "4:00pm"}, {"days": "Sun", "time": "Closed"}], "id": "4713000111", "name": "USPS COLLECTION BOX - APC", "address": {"city": "JEFFERSONVILLE", "state": "IN", "street": "303 E COURT AVE", "postcode": "47130"}}},
{"geometry": {"type": "Point", "coordinates": [-85.6991852741, 38.3330033688]}, "type": "Feature", "properties": {"collection_times": [{"days": "Mon-Sat", "time": "9:00am"}, {"days": "Sun", "time": "Closed"}], "id": "4713000112", "name": "USPS COLLECTION BOX - BLUE BOX", "address": {"city": "JEFFERSONVILLE", "state": "IN", "street": "233 QUARTERMASTER CT", "postcode": "47130"}}},
{"geometry": {"type": "Point", "coordinates": [-85.7187867669, 38.3099606218]}, "type": "Feature", "properties": {"collection_times": [{"days": "Mon-Fri", "time": "4:30pm"}, {"days": "Sat", "time": "12:00pm"}, {"days": "Sun", "time": "Closed"}], "id": "4713000114", "name": "USPS COLLECTION BOX - PO LOBBY", "address": {"city": "JEFFERSONVILLE", "state": "IN", "street": "757 E LEWIS AND CLARK PKWY", "postcode": "47130"}}},
{"geometry": {"type": "Point", "coordinates": [-85.7187867669, 38.3099606218]}, "type": "Feature", "properties": {"collection_times": [{"days": "Mon-Fri", "time": "4:30pm"}, {"days": "Sat", "time": "12:00pm"}, {"days": "Sun", "time": "Closed"}], "id": "4713000115", "name": "USPS COLLECTION BOX - PO LOBBY", "address": {"city": "JEFFERSONVILLE", "state": "IN", "street": "757 E LEWIS AND CLARK PKWY", "postcode": "47130"}}},
{"geometry": {"type": "Point", "coordinates": [-86.0855828524, 38.0305067228]}, "type": "Feature", "properties": {"collection_times": [{"days": "Mon-Sat", "time": "11:45am"}, {"days": "Sun", "time": "Closed"}], "id": "4713500001", "name": "USPS COLLECTION BOX - BLUE BOX", "address": {"city": "LACONIA", "state": "IN", "street": "11525 MAIN ST SE", "postcode": "47135"}}},
{"geometry": {"type": "Point", "coordinates": [-85.9616795675, 38.2334432798]}, "type": "Feature", "properties": {"collection_times": [{"days": "Mon-Fri", "time": "4:15pm"}, {"days": "Sat", "time": "10:45am"}, {"days": "Sun", "time": "Closed"}], "id": "4713600001", "name": "USPS COLLECTION BOX - BLUE BOX", "address": {"city": "LANESVILLE", "state": "IN", "street": "2415 BARRON AVE NE", "postcode": "47136"}}},
{"geometry": {"type": "Point", "coordinates": [-85.9616795675, 38.2334432798]}, "type": "Feature", "properties": {"collection_times": [{"days": "Mon-Fri", "time": "4:15pm"}, {"days": "Sat", "time": "10:45am"}, {"days": "Sun", "time": "Closed"}], "id": "4713600002", "name": "USPS COLLECTION BOX - PO LOBBY", "address": {"city": "LANESVILLE", "state": "IN", "street": "2415 BARRON AVE NE", "postcode": "47136"}}},
{"geometry": {"type": "Point", "coordinates": [-85.9616795675, 38.2334432798]}, "type": "Feature", "properties": {"collection_times": [{"days": "Mon-Fri", "time": "4:15pm"}, {"days": "Sat", "time": "10:45am"}, {"days": "Sun", "time": "Closed"}], "id": "4713600003", "name": "USPS COLLECTION BOX - PO LOBBY", "address": {"city": "LANESVILLE", "state": "IN", "street": "2415 BARRON AVE NE", "postcode": "47136"}}},
{"geometry": {"type": "Point", "coordinates": [-86.3910152242, 38.1768420465]}, "type": "Feature", "properties": {"collection_times": [{"days": "Mon-Fri", "time": "12:00pm"}, {"days": "Sat", "time": "11:00am"}, {"days": "Sun", "time": "Closed"}], "id": "4713700001", "name": "USPS COLLECTION BOX - BLUE BOX", "address": {"city": "LEAVENWORTH", "state": "IN", "street": "176 N EAST ST", "postcode": "47137"}}},
{"geometry": {"type": "Point", "coordinates": [-86.3613916647, 38.2387031204]}, "type": "Feature", "properties": {"collection_times": [{"days": "Mon-Sat", "time": "9:00am"}, {"days": "Sun", "time": "Closed"}], "id": "4713700002", "name": "USPS COLLECTION BOX - BLUE BOX", "address": {"city": "LEAVENWORTH", "state": "IN", "street": "6921 S STATE ROAD 66", "postcode": "47137"}}},
{"geometry": {"type": "Point", "coordinates": [-85.625761936, 38.6531054977]}, "type": "Feature", "properties": {"collection_times": [{"days": "Mon-Fri", "time": "3:45pm"}, {"days": "Sat", "time": "10:45am"}, {"days": "Sun", "time": "Closed"}], "id": "4713800001", "name": "USPS COLLECTION BOX - BLUE BOX", "address": {"city": "LEXINGTON", "state": "IN", "street": "2765 S CHERRY ST", "postcode": "47138"}}},
{"geometry": {"type": "Point", "coordinates": [-85.625761936, 38.6531054977]}, "type": "Feature", "properties": {"collection_times": [{"days": "Mon-Fri", "time": "3:45pm"}, {"days": "Sat", "time": "10:45am"}, {"days": "Sun", "time": "Closed"}], "id": "4713800002", "name": "USPS COLLECTION BOX - PO LOBBY", "address": {"city": "LEXINGTON", "state": "IN", "street": "2765 S CHERRY ST", "postcode": "47138"}}},
{"geometry": {"type": "Point", "coordinates": [-86.3415784865, 38.369864648]}, "type": "Feature", "properties": {"collection_times": [{"days": "Mon-Fri", "time": "4:15pm"}, {"days": "Sat", "time": "11:30am"}, {"days": "Sun", "time": "Closed"}], "id": "4714000001", "name": "USPS COLLECTION BOX - BLUE BOX", "address": {"city": "MARENGO", "state": "IN", "street": "168 E PLEASANT AVE", "postcode": "47140"}}},
{"geometry": {"type": "Point", "coordinates": [-86.3415784865, 38.369864648]}, "type": "Feature", "properties": {"collection_times": [{"days": "Mon-Fri", "time": "4:15pm"}, {"days": "Sat", "time": "11:30am"}, {"days": "Sun", "time": "Closed"}], "id": "4714000002", "name": "USPS COLLECTION BOX - PO LOBBY", "address": {"city": "MARENGO", "state": "IN", "street": "168 E PLEASANT AVE", "postcode": "47140"}}},
{"geometry": {"type": "Point", "coordinates": [-85.6521213619, 38.5940026116]}, "type": "Feature", "properties": {"collection_times": [{"days": "Mon-Fri", "time": "11:45am"}, {"days": "Sat", "time": "11:00am"}, {"days": "Sun", "time": "Closed"}], "id": "4714100001", "name": "USPS COLLECTION BOX - BLUE BOX", "address": {"city": "MARYSVILLE", "state": "IN", "street": "10110 HIGHWAY 3", "postcode": "47141"}}},
{"geometry": {"type": "Point", "coordinates": [-86.1998725119, 38.0287749212]}, "type": "Feature", "properties": {"collection_times": [{"days": "Mon-Fri", "time": "12:15pm"}, {"days": "Sat", "time": "11:15am"}, {"days": "Sun", "time": "Closed"}], "id": "4714200001", "name": "USPS COLLECTION BOX - BLUE BOX", "address": {"city": "MAUCKPORT", "state": "IN", "street": "12010 MAIN ST SW", "postcode": "47142"}}},
{"geometry": {"type": "Point", "coordinates": [-85.7625655463, 38.4824767132]}, "type": "Feature", "properties": {"collection_times": [{"days": "Mon-Fri", "time": "4:00pm"}, {"days": "Sat", "time": "11:00am"}, {"days": "Sun", "time": "Closed"}], "id": "4714300001", "name": "USPS COLLECTION BOX - BLUE BOX", "address": {"city": "MEMPHIS", "state": "IN", "street": "1016 MILL LN", "postcode": "47143"}}},
{"geometry": {"type": "Point", "coordinates": [-85.7651060382, 38.4860605374]}, "type": "Feature", "properties": {"collection_times": [{"days": "Mon-Sat", "time": "10:00am"}, {"days": "Sun", "time": "Closed"}], "id": "4714300002", "name": "USPS COLLECTION BOX - BLUE BOX", "address": {"city": "MEMPHIS", "state": "IN", "street": "13615 BLUE LICK RD", "postcode": "47143"}}},
{"geometry": {"type": "Point", "coordinates": [-85.7741160669, 38.4740540995]}, "type": "Feature", "properties": {"collection_times": [{"days": "Mon-Sat", "time": "10:00am"}, {"days": "Sun", "time": "Closed"}], "id": "4714300003", "name": "USPS COLLECTION BOX - BLUE BOX", "address": {"city": "MEMPHIS", "state": "IN", "street": "14013 BLUE LICK RD", "postcode": "47143"}}},
{"geometry": {"type": "Point", "coordinates": [-85.7625655463, 38.4824767132]}, "type": "Feature", "properties": {"collection_times": [{"days": "Mon-Fri", "time": "4:00pm"}, {"days": "Sat", "time": "11:00am"}, {"days": "Sun", "time": "Closed"}], "id": "4714300004", "name": "USPS COLLECTION BOX - PO LOBBY", "address": {"city": "MEMPHIS", "state": "IN", "street": "1016 MILL LN", "postcode": "47143"}}},
{"geometry": {"type": "Point", "coordinates": [-86.2753156045, 38.3456144127]}, "type": "Feature", "properties": {"collection_times": [{"days": "Mon-Fri", "time": "4:15pm"}, {"days": "Sat", "time": "11:00am"}, {"days": "Sun", "time": "Closed"}], "id": "4714500001", "name": "USPS COLLECTION BOX - BLUE BOX", "address": {"city": "MILLTOWN", "state": "IN", "street": "301 W MAIN ST", "postcode": "47145"}}},
{"geometry": {"type": "Point", "coordinates": [-86.2753156045, 38.3456144127]}, "type": "Feature", "properties": {"collection_times": [{"days": "Mon-Fri", "time": "4:15pm"}, {"days": "Sat", "time": "11:00am"}, {"days": "Sun", "time": "Closed"}], "id": "4714500002", "name": "USPS COLLECTION BOX - PO LOBBY", "address": {"city": "MILLTOWN", "state": "IN", "street": "301 W MAIN ST", "postcode": "47145"}}},
{"geometry": {"type": "Point", "coordinates": [-85.6298741581, 38.6055209747]}, "type": "Feature", "properties": {"collection_times": [{"days": "Mon-Fri", "time": "11:15am"}, {"days": "Sat", "time": "10:45am"}, {"days": "Sun", "time": "Closed"}], "id": "4714700001", "name": "USPS COLLECTION BOX - BLUE BOX", "address": {"city": "NABB", "state": "IN", "street": "146 POSTAL DR", "postcode": "47147"}}},
{"geometry": {"type": "Point", "coordinates": [-85.8069985753, 38.292687248]}, "type": "Feature", "properties": {"collection_times": [{"days": "Mon-Fri", "time": "12:00pm"}, {"days": "Sat", "time": "9:00am"}, {"days": "Sun", "time": "Closed"}], "id": "4715000003", "name": "USPS COLLECTION BOX - BLUE BOX", "address": {"city": "NEW ALBANY", "state": "IN", "street": "1702 E SPRING ST", "postcode": "47150"}}},
{"geometry": {"type": "Point", "coordinates": [-85.8347351243, 38.3002670045]}, "type": "Feature", "properties": {"collection_times": [{"days": "Mon-Fri", "time": "2:00pm"}, {"days": "Sat-Sun", "time": "Closed"}], "id": "4715000009", "name": "USPS COLLECTION BOX - BLUE BOX", "address": {"city": "NEW ALBANY", "state": "IN", "street": "1850 STATE ST", "postcode": "47150"}}},
{"geometry": {"type": "Point", "coordinates": [-85.8378380697, 38.3031329671]}, "type": "Feature", "properties": {"collection_times": [{"days": "Mon-Fri", "time": "2:00pm"}, {"days": "Sat", "time": "9:00am"}, {"days": "Sun", "time": "Closed"}], "id": "4715000011", "name": "USPS COLLECTION BOX - BLUE BOX", "address": {"city": "NEW ALBANY", "state": "IN", "street": "2125 STATE ST", "postcode": "47150"}}},
{"geometry": {"type": "Point", "coordinates": [-85.8354505234, 38.3007327473]}, "type": "Feature", "properties": {"collection_times": [{"days": "Mon-Fri", "time": "2:00pm"}, {"days": "Sat", "time": "9:00am"}, {"days": "Sun", "time": "Closed"}], "id": "4715000014", "name": "USPS COLLECTION BOX - BLUE BOX", "address": {"city": "NEW ALBANY", "state": "IN", "street": "1919 STATE ST", "postcode": "47150"}}},
{"geometry": {"type": "Point", "coordinates": [-85.8248292313, 38.2854117697]}, "type": "Feature", "properties": {"collection_times": [{"days": "Mon-Fri", "time": "12:00pm"}, {"days": "Sat", "time": "9:00am"}, {"days": "Sun", "time": "Closed"}], "id": "4715000018", "name": "USPS COLLECTION BOX - BLUE BOX", "address": {"city": "NEW ALBANY", "state": "IN", "street": "121 W SPRING ST", "postcode": "47150"}}},
{"geometry": {"type": "Point", "coordinates": [-85.822668474, 38.284907693]}, "type": "Feature", "properties": {"collection_times": [{"days": "Mon-Fri", "time": "12:00pm"}, {"days": "Sat", "time": "9:00am"}, {"days": "Sun", "time": "Closed"}], "id": "4715000020", "name": "USPS COLLECTION BOX - BLUE BOX", "address": {"city": "NEW ALBANY", "state": "IN", "street": "123 E MARKET ST", "postcode": "47150"}}},
{"geometry": {"type": "Point", "coordinates": [-85.836558842, 38.3196348712]}, "type": "Feature", "properties": {"collection_times": [{"days": "Mon-Fri", "time": "2:00pm"}, {"days": "Sat", "time": "9:00am"}, {"days": "Sun", "time": "Closed"}], "id": "4715000025", "name": "USPS COLLECTION BOX - BLUE BOX", "address": {"city": "NEW ALBANY", "state": "IN", "street": "100 MILLS LN", "postcode": "47150"}}},
{"geometry": {"type": "Point", "coordinates": [-85.8046192523, 38.3157780705]}, "type": "Feature", "properties": {"collection_times": [{"days": "Mon-Fri", "time": "12:00pm"}, {"days": "Sat", "time": "9:00am"}, {"days": "Sun", "time": "Closed"}], "id": "4715000028", "name": "USPS COLLECTION BOX - BLUE BOX", "address": {"city": "NEW ALBANY", "state": "IN", "street": "2614 CHARLESTOWN RD", "postcode": "47150"}}},
{"geometry": {"type": "Point", "coordinates": [-85.8278966414, 38.3331048189]}, "type": "Feature", "properties": {"collection_times": [{"days": "Mon-Fri", "time": "2:00pm"}, {"days": "Sat", "time": "9:00am"}, {"days": "Sun", "time": "Closed"}], "id": "4715000032", "name": "USPS COLLECTION BOX - BLUE BOX", "address": {"city": "NEW ALBANY", "state": "IN", "street": "595 INDUSTRIAL BLVD", "postcode": "47150"}}},
{"geometry": {"type": "Point", "coordinates": [-85.8329289882, 38.3393597083]}, "type": "Feature", "properties": {"collection_times": [{"days": "Mon-Fri", "time": "2:00pm"}, {"days": "Sat", "time": "9:00am"}, {"days": "Sun", "time": "Closed"}], "id": "4715000034", "name": "USPS COLLECTION BOX - BLUE BOX", "address": {"city": "NEW ALBANY", "state": "IN", "street": "200 HAUSFELDT LN", "postcode": "47150"}}},
{"geometry": {"type": "Point", "coordinates": [-85.8212593766, 38.3104820224]}, "type": "Feature", "properties": {"collection_times": [{"days": "Mon-Fri", "time": "1:00pm"}, {"days": "Sat", "time": "9:00am"}, {"days": "Sun", "time": "Closed"}], "id": "4715000037", "name": "USPS COLLECTION BOX - BLUE BOX", "address": {"city": "NEW ALBANY", "state": "IN", "street": "4202 GRANT LINE RD", "postcode": "47150"}}},
{"geometry": {"type": "Point", "coordinates": [-85.8212593766, 38.3104820224]}, "type": "Feature", "properties": {"collection_times": [{"days": "Mon-Fri", "time": "3:00pm"}, {"days": "Sat", "time": "9:00am"}, {"days": "Sun", "time": "Closed"}], "id": "4715000042", "name": "USPS COLLECTION BOX - BLUE BOX", "address": {"city": "NEW ALBANY", "state": "IN", "street": "2820 GRANT LINE RD", "postcode": "47150"}}},
{"geometry": {"type": "Point", "coordinates": [-85.8005141466, 38.3399798691]}, "type": "Feature", "properties": {"collection_times": [{"days": "Mon-Fri", "time": "12:00pm"}, {"days": "Sat", "time": "9:00am"}, {"days": "Sun", "time": "Closed"}], "id": "4715000076", "name": "USPS COLLECTION BOX - BLUE BOX", "address": {"city": "NEW ALBANY", "state": "IN", "street": "3010 SAINT JOSEPH RD", "postcode": "47150"}}},
{"geometry": {"type": "Point", "coordinates": [-85.8247070839, 38.2842679162]}, "type": "Feature", "properties": {"collection_times": [{"days": "Mon-Fri", "time": "4:00pm"}, {"days": "Sat", "time": "9:00am"}, {"days": "Sun", "time": "Closed"}], "id": "4715000080", "name": "USPS COLLECTION BOX - BLUE BOX", "address": {"city": "NEW ALBANY", "state": "IN", "street": "311 HAUSS SQ", "postcode": "47150"}}},
{"geometry": {"type": "Point", "coordinates": [-85.8234434121, 38.2872566552]}, "type": "Feature", "properties": {"collection_times": [{"days": "Mon-Fri", "time": "5:30pm"}, {"days": "Sat", "time": "4:00pm"}, {"days": "Sun", "time": "Closed"}], "id": "4715000085", "name": "USPS COLLECTION BOX - BLUE BOX", "address": {"city": "NEW ALBANY", "state": "IN", "street": "145 E ELM ST", "postcode": "47150"}}},
{"geometry": {"type": "Point", "coordinates": [-85.8234434121, 38.2872566552]}, "type": "Feature", "properties": {"collection_times": [{"days": "Mon-Fri", "time": "5:30pm"}, {"days": "Sat", "time": "4:00pm"}, {"days": "Sun", "time": "Closed"}], "id": "4715000086", "name": "USPS COLLECTION BOX - BLUE BOX", "address": {"city": "NEW ALBANY", "state": "IN", "street": "145 E ELM ST", "postcode": "47150"}}},
{"geometry": {"type": "Point", "coordinates": [-85.8247070839, 38.2842679162]}, "type": "Feature", "properties": {"collection_times": [{"days": "Mon-Fri", "time": "4:00pm"}, {"days": "Sat-Sun", "time": "Closed"}], "id": "4715000090", "name": "USPS COLLECTION BOX - BLUE BOX", "address": {"city": "NEW ALBANY", "state": "IN", "street": "311 HAUSS SQ", "postcode": "47150"}}},
{"geometry": {"type": "Point", "coordinates": [-85.8234434121, 38.2872566552]}, "type": "Feature", "properties": {"collection_times": [{"days": "Mon-Fri", "time": "5:30pm"}, {"days": "Sat", "time": "4:00pm"}, {"days": "Sun", "time": "Closed"}], "id": "4715000099", "name": "USPS COLLECTION BOX - BLUE BOX", "address": {"city": "NEW ALBANY", "state": "IN", "street": "145 E ELM ST", "postcode": "47150"}}},
{"geometry": {"type": "Point", "coordinates": [-85.8234434121, 38.2872566552]}, "type": "Feature", "properties": {"collection_times": [{"days": "Mon-Fri", "time": "5:30pm"}, {"days": "Sat", "time": "4:00pm"}, {"days": "Sun", "time": "Closed"}], "id": "4715000103", "name": "USPS COLLECTION BOX - BLUE BOX", "address": {"city": "NEW ALBANY", "state": "IN", "street": "145 E ELM ST", "postcode": "47150"}}},
{"geometry": {"type": "Point", "coordinates": [-85.817489618, 38.3320239762]}, "type": "Feature", "properties": {"collection_times": [{"days": "Mon-Fri", "time": "3:00pm"}, {"days": "Sat", "time": "9:00am"}, {"days": "Sun", "time": "Closed"}], "id": "4715000104", "name": "USPS COLLECTION BOX - BLUE BOX", "address": {"city": "NEW ALBANY", "state": "IN", "street": "819 MOUNT TABOR RD", "postcode": "47150"}}},
{"geometry": {"type": "Point", "coordinates": [-85.7988551034, 38.3073584032]}, "type": "Feature", "properties": {"collection_times": [{"days": "Mon-Fri", "time": "12:00pm"}, {"days": "Sat", "time": "9:00am"}, {"days": "Sun", "time": "Closed"}], "id": "4715000105", "name": "USPS COLLECTION BOX - BLUE BOX", "address": {"city": "NEW ALBANY", "state": "IN", "street": "1452 SLATE RUN RD", "postcode": "47150"}}},
{"geometry": {"type": "Point", "coordinates": [-85.8212593766, 38.3104820224]}, "type": "Feature", "properties": {"collection_times": [{"days": "Mon-Fri", "time": "1:00pm"}, {"days": "Sat", "time": "9:00am"}, {"days": "Sun", "time": "Closed"}], "id": "4715000106", "name": "USPS COLLECTION BOX - BLUE BOX", "address": {"city": "NEW ALBANY", "state": "IN", "street": "4201 GRANT LINE RD", "postcode": "47150"}}},
{"geometry": {"type": "Point", "coordinates": [-85.8168632613, 38.3286667323]}, "type": "Feature", "properties": {"collection_times": [{"days": "Mon-Fri", "time": "1:00pm"}, {"days": "Sat", "time": "9:00am"}, {"days": "Sun", "time": "Closed"}], "id": "4715000108", "name": "USPS COLLECTION BOX - BLUE BOX", "address": {"city": "NEW ALBANY", "state": "IN", "street": "824 UNIVERSITY WOODS DR", "postcode": "47150"}}},
{"geometry": {"type": "Point", "coordinates": [-85.8234434121, 38.2872566552]}, "type": "Feature", "properties": {"collection_times": [{"days": "Mon-Fri", "time": "5:30pm"}, {"days": "Sat", "time": "4:00pm"}, {"days": "Sun", "time": "Closed"}], "id": "4715000118", "name": "USPS COLLECTION BOX - PO LOBBY", "address": {"city": "NEW ALBANY", "state": "IN", "street": "145 E ELM ST", "postcode": "47150"}}},
{"geometry": {"type": "Point", "coordinates": [-85.8215464825, 38.3252033748]}, "type": "Feature", "properties": {"collection_times": [{"days": "Mon-Fri", "time": "1:00pm"}, {"days": "Sat", "time": "9:00am"}, {"days": "Sun", "time": "Closed"}], "id": "4715000123", "name": "USPS COLLECTION BOX - BLUE BOX", "address": {"city": "NEW ALBANY", "state": "IN", "street": "731 ROLLING CREEK DR", "postcode": "47150"}}},
{"geometry": {"type": "Point", "coordinates": [-85.8174791349, 38.3327473898]}, "type": "Feature", "properties": {"collection_times": [{"days": "Mon-Fri", "time": "1:00pm"}, {"days": "Sat", "time": "9:00am"}, {"days": "Sun", "time": "Closed"}], "id": "4715000126", "name": "USPS COLLECTION BOX - BLUE BOX", "address": {"city": "NEW ALBANY", "state": "IN", "street": "825 NORTHGATE BLVD", "postcode": "47150"}}},
{"geometry": {"type": "Point", "coordinates": [-85.8234434121, 38.2872566552]}, "type": "Feature", "properties": {"collection_times": [{"days": "Mon-Fri", "time": "5:30pm"}, {"days": "Sat", "time": "4:00pm"}, {"days": "Sun", "time": "Closed"}], "id": "4715000128", "name": "USPS COLLECTION BOX - APC", "address": {"city": "NEW ALBANY", "state": "IN", "street": "145 E ELM ST", "postcode": "47150"}}},
{"geometry": {"type": "Point", "coordinates": [-85.7994938446, 38.3320352725]}, "type": "Feature", "properties": {"collection_times": [{"days": "Mon-Fri", "time": "12:00pm"}, {"days": "Sat", "time": "9:00am"}, {"days": "Sun", "time": "Closed"}], "id": "4715000131", "name": "USPS COLLECTION BOX - BLUE BOX", "address": {"city": "NEW ALBANY", "state": "IN", "street": "2864 CHARLESTOWN RD", "postcode": "47150"}}},
{"geometry": {"type": "Point", "coordinates": [-85.779623502, 38.364884187]}, "type": "Feature", "properties": {"collection_times": [{"days": "Mon-Sat", "time": "10:00am"}, {"days": "Sun", "time": "Closed"}], "id": "4715000132", "name": "USPS COLLECTION BOX - BLUE BOX", "address": {"city": "NEW ALBANY", "state": "IN", "street": "5150 CHARLESTOWN RD", "postcode": "47150"}}},
{"geometry": {"type": "Point", "coordinates": [-86.048969956, 38.1637932582]}, "type": "Feature", "properties": {"collection_times": [{"days": "Mon-Fri", "time": "9:30am"}, {"days": "Sat", "time": "9:45am"}, {"days": "Sun", "time": "Closed"}], "id": "4716000001", "name": "USPS COLLECTION BOX - BLUE BOX", "address": {"city": "NEW MIDDLETOWN", "state": "IN", "street": "3975 MAIN ST SE", "postcode": "47160"}}},
{"geometry": {"type": "Point", "coordinates": [-86.0952437723, 38.312976633]}, "type": "Feature", "properties": {"collection_times": [{"days": "Mon-Fri", "time": "3:45pm"}, {"days": "Sat", "time": "11:15am"}, {"days": "Sun", "time": "Closed"}], "id": "4716100001", "name": "USPS COLLECTION BOX - BLUE BOX", "address": {"city": "NEW SALISBURY", "state": "IN", "street": "7735 HIGHWAY 135 NE", "postcode": "47161"}}},
{"geometry": {"type": "Point", "coordinates": [-86.0952437723, 38.312976633]}, "type": "Feature", "properties": {"collection_times": [{"days": "Mon-Fri", "time": "4:00pm"}, {"days": "Sat", "time": "11:30am"}, {"days": "Sun", "time": "Closed"}], "id": "4716100003", "name": "USPS COLLECTION BOX - PO LOBBY", "address": {"city": "NEW SALISBURY", "state": "IN", "street": "7735 HIGHWAY 135 NE", "postcode": "47161"}}},
{"geometry": {"type": "Point", "coordinates": [-85.5393573175, 38.5631493918]}, "type": "Feature", "properties": {"collection_times": [{"days": "Mon-Fri", "time": "12:15pm"}, {"days": "Sat", "time": "10:45am"}, {"days": "Sun", "time": "Closed"}], "id": "4716200001", "name": "USPS COLLECTION BOX - BLUE BOX", "address": {"city": "NEW WASHINGTON", "state": "IN", "street": "310 E MAIN ST", "postcode": "47162"}}},
{"geometry": {"type": "Point", "coordinates": [-85.6687887886, 38.5422533058]}, "type": "Feature", "properties": {"collection_times": [{"days": "Mon-Sat", "time": "11:45am"}, {"days": "Sun", "time": "Closed"}], "id": "4716300001", "name": "USPS COLLECTION BOX - BLUE BOX", "address": {"city": "OTISCO", "state": "IN", "street": "701 W RAILROAD ST", "postcode": "47163"}}},
{"geometry": {"type": "Point", "coordinates": [-85.6687887886, 38.5422533058]}, "type": "Feature", "properties": {"collection_times": [{"days": "Mon-Sat", "time": "11:45am"}, {"days": "Sun", "time": "Closed"}], "id": "4716300002", "name": "USPS COLLECTION BOX - PO LOBBY", "address": {"city": "OTISCO", "state": "IN", "street": "701 W RAILROAD ST", "postcode": "47163"}}},
{"geometry": {"type": "Point", "coordinates": [-85.6687887886, 38.5422533058]}, "type": "Feature", "properties": {"collection_times": [{"days": "Mon-Sat", "time": "11:00am"}, {"days": "Sun", "time": "Closed"}], "id": "4716300004", "name": "USPS COLLECTION BOX - BLUE BOX", "address": {"city": "OTISCO", "state": "IN", "street": "7001 HIGHWAY 3", "postcode": "47163"}}},
{"geometry": {"type": "Point", "coordinates": [-86.0921487445, 38.4023919238]}, "type": "Feature", "properties": {"collection_times": [{"days": "Mon-Fri", "time": "4:25pm"}, {"days": "Sat", "time": "11:30am"}, {"days": "Sun", "time": "Closed"}], "id": "4716400001", "name": "USPS COLLECTION BOX - BLUE BOX", "address": {"city": "PALMYRA", "state": "IN", "street": "805 MAIN ST NE", "postcode": "47164"}}},
{"geometry": {"type": "Point", "coordinates": [-86.0921487445, 38.4023919238]}, "type": "Feature", "properties": {"collection_times": [{"days": "Mon-Fri", "time": "4:25pm"}, {"days": "Sat", "time": "11:30am"}, {"days": "Sun", "time": "Closed"}], "id": "4716400002", "name": "USPS COLLECTION BOX - PO LOBBY", "address": {"city": "PALMYRA", "state": "IN", "street": "805 MAIN ST NE", "postcode": "47164"}}},
{"geometry": {"type": "Point", "coordinates": [-86.0158928808, 38.5051644933]}, "type": "Feature", "properties": {"collection_times": [{"days": "Mon-Fri", "time": "4:30pm"}, {"days": "Sat", "time": "11:30am"}, {"days": "Sun", "time": "Closed"}], "id": "4716500001", "name": "USPS COLLECTION BOX - BLUE BOX", "address": {"city": "PEKIN", "state": "IN", "street": "31 E MAIN ST", "postcode": "47165"}}},
{"geometry": {"type": "Point", "coordinates": [-86.0158928808, 38.5051644933]}, "type": "Feature", "properties": {"collection_times": [{"days": "Mon-Fri", "time": "4:30pm"}, {"days": "Sat", "time": "11:30am"}, {"days": "Sun", "time": "Closed"}], "id": "4716500002", "name": "USPS COLLECTION BOX - PO LOBBY", "address": {"city": "PEKIN", "state": "IN", "street": "31 E MAIN ST", "postcode": "47165"}}},
{"geometry": {"type": "Point", "coordinates": [-86.1480834113, 38.3217938853]}, "type": "Feature", "properties": {"collection_times": [{"days": "Mon-Fri", "time": "4:00pm"}, {"days": "Sat", "time": "9:45am"}, {"days": "Sun", "time": "Closed"}], "id": "4716600001", "name": "USPS COLLECTION BOX - BLUE BOX", "address": {"city": "RAMSEY", "state": "IN", "street": "1310 HIGHWAY 64 NW", "postcode": "47166"}}},
{"geometry": {"type": "Point", "coordinates": [-86.1480834113, 38.3217938853]}, "type": "Feature", "properties": {"collection_times": [{"days": "Mon-Fri", "time": "4:00pm"}, {"days": "Sat", "time": "9:45am"}, {"days": "Sun", "time": "Closed"}], "id": "4716600002", "name": "USPS COLLECTION BOX - PO LOBBY", "address": {"city": "RAMSEY", "state": "IN", "street": "1310 HIGHWAY 64 NW", "postcode": "47166"}}},
{"geometry": {"type": "Point", "coordinates": [-86.1005823584, 38.606809509]}, "type": "Feature", "properties": {"collection_times": [{"days": "Mon-Fri", "time": "4:30pm"}, {"days": "Sat", "time": "4:00pm"}, {"days": "Sun", "time": "Closed"}], "id": "4716700001", "name": "USPS COLLECTION BOX - BLUE BOX", "address": {"city": "SALEM", "state": "IN", "street": "118 E WALNUT ST", "postcode": "47167"}}},
{"geometry": {"type": "Point", "coordinates": [-86.1005823584, 38.606809509]}, "type": "Feature", "properties": {"collection_times": [{"days": "Mon-Fri", "time": "4:30pm"}, {"days": "Sat", "time": "4:00pm"}, {"days": "Sun", "time": "Closed"}], "id": "4716700014", "name": "USPS COLLECTION BOX - BLUE BOX", "address": {"city": "SALEM", "state": "IN", "street": "118 E WALNUT ST", "postcode": "47167"}}},
{"geometry": {"type": "Point", "coordinates": [-86.1005823584, 38.606809509]}, "type": "Feature", "properties": {"collection_times": [{"days": "Mon-Fri", "time": "4:30pm"}, {"days": "Sat", "time": "4:00pm"}, {"days": "Sun", "time": "Closed"}], "id": "4716700015", "name": "USPS COLLECTION BOX - PO LOBBY", "address": {"city": "SALEM", "state": "IN", "street": "118 E WALNUT ST", "postcode": "47167"}}},
{"geometry": {"type": "Point", "coordinates": [-85.7933422988, 38.6850405369]}, "type": "Feature", "properties": {"collection_times": [{"days": "Mon-Sat", "time": "1:00pm"}, {"days": "Sun", "time": "Closed"}], "id": "4717000014", "name": "USPS COLLECTION BOX - BLUE BOX", "address": {"city": "SCOTTSBURG", "state": "IN", "street": "1620 W MCCLAIN AVE", "postcode": "47170"}}},
{"geometry": {"type": "Point", "coordinates": [-85.7810396795, 38.685556282]}, "type": "Feature", "properties": {"collection_times": [{"days": "Mon-Sat", "time": "10:30am"}, {"days": "Sun", "time": "Closed"}], "id": "4717000020", "name": "USPS COLLECTION BOX - BLUE BOX", "address": {"city": "SCOTTSBURG", "state": "IN", "street": "913 W MCCLAIN AVE", "postcode": "47170"}}},
{"geometry": {"type": "Point", "coordinates": [-85.7726099503, 38.6857498908]}, "type": "Feature", "properties": {"collection_times": [{"days": "Mon-Sat", "time": "4:00pm"}, {"days": "Sun", "time": "Closed"}], "id": "4717000022", "name": "USPS COLLECTION BOX - BLUE BOX", "address": {"city": "SCOTTSBURG", "state": "IN", "street": "202 W MCCLAIN AVE", "postcode": "47170"}}},
{"geometry": {"type": "Point", "coordinates": [-85.7726099503, 38.6857498908]}, "type": "Feature", "properties": {"collection_times": [{"days": "Mon-Sat", "time": "4:00pm"}, {"days": "Sun", "time": "Closed"}], "id": "4717000024", "name": "USPS COLLECTION BOX - BLUE BOX", "address": {"city": "SCOTTSBURG", "state": "IN", "street": "202 W MCCLAIN AVE", "postcode": "47170"}}},
{"geometry": {"type": "Point", "coordinates": [-85.7726099503, 38.6857498908]}, "type": "Feature", "properties": {"collection_times": [{"days": "Mon-Sat", "time": "4:00pm"}, {"days": "Sun", "time": "Closed"}], "id": "4717000025", "name": "USPS COLLECTION BOX - PO LOBBY", "address": {"city": "SCOTTSBURG", "state": "IN", "street": "202 W MCCLAIN AVE", "postcode": "47170"}}},
{"geometry": {"type": "Point", "coordinates": [-85.7542042548, 38.3978730981]}, "type": "Feature", "properties": {"collection_times": [{"days": "Mon-Fri", "time": "5:00pm"}, {"days": "Sat", "time": "4:00pm"}, {"days": "Sun", "time": "Closed"}], "id": "4717200001", "name": "USPS COLLECTION BOX - BLUE BOX", "address": {"city": "SELLERSBURG", "state": "IN", "street": "315 E UTICA ST", "postcode": "47172"}}},
{"geometry": {"type": "Point", "coordinates": [-85.7685739405, 38.3806797857]}, "type": "Feature", "properties": {"collection_times": [{"days": "Mon-Sat", "time": "9:30am"}, {"days": "Sun", "time": "Closed"}], "id": "4717200009", "name": "USPS COLLECTION BOX - BLUE BOX", "address": {"city": "SELLERSBURG", "state": "IN", "street": "7520 HIGHWAY 311", "postcode": "47172"}}},
{"geometry": {"type": "Point", "coordinates": [-85.7692640741, 38.3951314558]}, "type": "Feature", "properties": {"collection_times": [{"days": "Mon-Sat", "time": "9:00am"}, {"days": "Sun", "time": "Closed"}], "id": "4717200012", "name": "USPS COLLECTION BOX - BLUE BOX", "address": {"city": "SELLERSBURG", "state": "IN", "street": "115 HERITAGE SQ", "postcode": "47172"}}},
{"geometry": {"type": "Point", "coordinates": [-85.7718624125, 38.3825581176]}, "type": "Feature", "properties": {"collection_times": [{"days": "Mon-Sat", "time": "9:30am"}, {"days": "Sun", "time": "Closed"}], "id": "4717200016", "name": "USPS COLLECTION BOX - BLUE BOX", "address": {"city": "SELLERSBURG", "state": "IN", "street": "103 HUNTER STATION WAY", "postcode": "47172"}}},
{"geometry": {"type": "Point", "coordinates": [-85.7542042548, 38.3978730981]}, "type": "Feature", "properties": {"collection_times": [{"days": "Mon-Fri", "time": "5:00pm"}, {"days": "Sat", "time": "4:00pm"}, {"days": "Sun", "time": "Closed"}], "id": "4717200019", "name": "USPS COLLECTION BOX - PO LOBBY", "address": {"city": "SELLERSBURG", "state": "IN", "street": "315 E UTICA ST", "postcode": "47172"}}},
{"geometry": {"type": "Point", "coordinates": [-85.7709163692, 38.3619306872]}, "type": "Feature", "properties": {"collection_times": [{"days": "Mon-Sat", "time": "10:30am"}, {"days": "Sun", "time": "Closed"}], "id": "4717200022", "name": "USPS COLLECTION BOX - BLUE BOX", "address": {"city": "SELLERSBURG", "state": "IN", "street": "8104 COUNTY LINE RD", "postcode": "47172"}}},
{"geometry": {"type": "Point", "coordinates": [-85.7542042548, 38.3978730981]}, "type": "Feature", "properties": {"collection_times": [{"days": "Mon-Fri", "time": "5:00pm"}, {"days": "Sat", "time": "4:00pm"}, {"days": "Sun", "time": "Closed"}], "id": "4717200023", "name": "USPS COLLECTION BOX - BLUE BOX", "address": {"city": "SELLERSBURG", "state": "IN", "street": "315 E UTICA ST", "postcode": "47172"}}}
]}
