{"type": "FeatureCollection", "features": [
{"geometry": {"type": "Point", "coordinates": [-85.9204791809, 39.2014694932]}, "type": "Feature", "properties": {"collection_times": [{"days": "Mon-Fri", "time": "4:30pm"}, {"days": "Sat-Sun", "time": "Closed"}], "id": "4720100012", "name": "USPS COLLECTION BOX - BLUE BOX", "address": {"city": "COLUMBUS", "state": "IN", "street": "440 3RD ST", "postcode": "47201"}}},
{"geometry": {"type": "Point", "coordinates": [-85.9204791809, 39.2014694932]}, "type": "Feature", "properties": {"collection_times": [{"days": "Mon-Fri", "time": "4:30pm"}, {"days": "Sat-Sun", "time": "Closed"}], "id": "4720100013", "name": "USPS COLLECTION BOX - BLUE BOX", "address": {"city": "COLUMBUS", "state": "IN", "street": "440 3RD ST", "postcode": "47201"}}},
{"geometry": {"type": "Point", "coordinates": [-85.9445793227, 39.1954423277]}, "type": "Feature", "properties": {"collection_times": [{"days": "Mon-Sat", "time": "4:00pm"}, {"days": "Sun", "time": "Closed"}], "id": "4720100016", "name": "USPS COLLECTION BOX - BLUE BOX", "address": {"city": "COLUMBUS", "state": "IN", "street": "1149 N NATIONAL RD", "postcode": "47201"}}},
{"geometry": {"type": "Point", "coordinates": [-85.8946669647, 39.2011065212]}, "type": "Feature", "properties": {"collection_times": [{"days": "Mon-Sat", "time": "4:00pm"}, {"days": "Sun", "time": "Closed"}], "id": "4720100026", "name": "USPS COLLECTION BOX - BLUE BOX", "address": {"city": "COLUMBUS", "state": "IN", "street": "286 N GLADSTONE AVE", "postcode": "47201"}}},
{"geometry": {"type": "Point", "coordinates": [-85.9144510644, 39.2230237755]}, "type": "Feature", "properties": {"collection_times": [{"days": "Mon-Fri", "time": "3:00pm"}, {"days": "Sat-Sun", "time": "Closed"}], "id": "4720100030", "name": "USPS COLLECTION BOX - BLUE BOX", "address": {"city": "COLUMBUS", "state": "IN", "street": "2502 CALIFORNIA ST", "postcode": "47201"}}},
{"geometry": {"type": "Point", "coordinates": [-85.9046393229, 39.2230598207]}, "type": "Feature", "properties": {"collection_times": [{"days": "Mon-Sat", "time": "3:30pm"}, {"days": "Sun", "time": "Closed"}], "id": "4720100039", "name": "USPS COLLECTION BOX - BLUE BOX", "address": {"city": "COLUMBUS", "state": "IN", "street": "1840 25TH ST", "postcode": "47201"}}},
{"geometry": {"type": "Point", "coordinates": [-85.9046393229, 39.2230598207]}, "type": "Feature", "properties": {"collection_times": [{"days": "Mon-Sat", "time": "3:30pm"}, {"days": "Sun", "time": "Closed"}], "id": "4720100040", "name": "USPS COLLECTION BOX - BLUE BOX", "address": {"city": "COLUMBUS", "state": "IN", "street": "1840 25TH ST", "postcode": "47201"}}},
{"geometry": {"type": "Point", "coordinates": [-85.919935811, 39.20620843]}, "type": "Feature", "properties": {"collection_times": [{"days": "Mon-Fri", "time": "4:30pm"}, {"days": "Sat", "time": "4:00pm"}, {"days": "Sun", "time": "Closed"}], "id": "4720100042", "name": "USPS COLLECTION BOX - BLUE BOX", "address": {"city": "COLUMBUS", "state": "IN", "street": "724 FRANKLIN ST", "postcode": "47201"}}},
{"geometry": {"type": "Point", "coordinates": [-85.9252916046, 39.2027578975]}, "type": "Feature", "properties": {"collection_times": [{"days": "Mon-Fri", "time": "4:30pm"}, {"days": "Sat", "time": "4:00pm"}, {"days": "Sun", "time": "Closed"}], "id": "4720100046", "name": "USPS COLLECTION BOX - BLUE BOX", "address": {"city": "COLUMBUS", "state": "IN", "street": "450 LINDSAY ST", "postcode": "47201"}}},
{"geometry": {"type": "Point", "coordinates": [-85.906289069, 39.2301681626]}, "type": "Feature", "properties": {"collection_times": [{"days": "Mon-Sat", "time": "3:00pm"}, {"days": "Sun", "time": "Closed"}], "id": "4720100048", "name": "USPS COLLECTION BOX - BLUE BOX", "address": {"city": "COLUMBUS", "state": "IN", "street": "3110 N NATIONAL RD", "postcode": "47201"}}},
{"geometry": {"type": "Point", "coordinates": [-85.897345724, 39.223058053]}, "type": "Feature", "properties": {"collection_times": [{"days": "Mon-Fri", "time": "3:30pm"}, {"days": "Sat-Sun", "time": "Closed"}], "id": "4720100049", "name": "USPS COLLECTION BOX - BLUE BOX", "address": {"city": "COLUMBUS", "state": "IN", "street": "2394 25TH ST", "postcode": "47201"}}},
{"geometry": {"type": "Point", "coordinates": [-85.9225398011, 39.2028980336]}, "type": "Feature", "properties": {"collection_times": [{"days": "Mon-Fri", "time": "6:00pm"}, {"days": "Sat", "time": "5:15pm"}, {"days": "Sun", "time": "Closed"}], "id": "4720100054", "name": "USPS COLLECTION BOX - PO LOBBY", "address": {"city": "COLUMBUS", "state": "IN", "street": "450 JACKSON ST", "postcode": "47201"}}},
{"geometry": {"type": "Point", "coordinates": [-85.8939621887, 39.2243283961]}, "type": "Feature", "properties": {"collection_times": [{"days": "Mon-Sat", "time": "3:30pm"}, {"days": "Sun", "time": "Closed"}], "id": "4720100059", "name": "USPS COLLECTION BOX - BLUE BOX", "address": {"city": "COLUMBUS", "state": "IN", "street": "2630 EASTBROOK PLZ", "postcode": "47201"}}},
{"geometry": {"type": "Point", "coordinates": [-85.8939621887, 39.2243283961]}, "type": "Feature", "properties": {"collection_times": [{"days": "Mon-Sat", "time": "3:30pm"}, {"days": "Sun", "time": "Closed"}], "id": "4720100060", "name": "USPS COLLECTION BOX - BLUE BOX", "address": {"city": "COLUMBUS", "state": "IN", "street": "2630 EASTBROOK PLZ", "postcode": "47201"}}},
{"geometry": {"type": "Point", "coordinates": [-85.919935811, 39.20620843]}, "type": "Feature", "properties": {"collection_times": [{"days": "Mon-Fri", "time": "4:30pm"}, {"days": "Sat", "time": "4:00pm"}, {"days": "Sun", "time": "Closed"}], "id": "4720100061", "name": "USPS COLLECTION BOX - BLUE BOX", "address": {"city": "COLUMBUS", "state": "IN", "street": "724 FRANKLIN ST", "postcode": "47201"}}},
{"geometry": {"type": "Point", "coordinates": [-85.9724742503, 39.199760577]}, "type": "Feature", "properties": {"collection_times": [{"days": "Mon-Fri", "time": "1:30pm"}, {"days": "Sat", "time": "12:00pm"}, {"days": "Sun", "time": "Closed"}], "id": "4720100064", "name": "USPS COLLECTION BOX - BLUE BOX", "address": {"city": "COLUMBUS", "state": "IN", "street": "4100 W JONATHAN MOORE PIKE", "postcode": "47201"}}},
{"geometry": {"type": "Point", "coordinates": [-85.9724742503, 39.199760577]}, "type": "Feature", "properties": {"collection_times": [{"days": "Mon-Fri", "time": "1:30pm"}, {"days": "Sat", "time": "12:00pm"}, {"days": "Sun", "time": "Closed"}], "id": "4720100065", "name": "USPS COLLECTION BOX - BLUE BOX", "address": {"city": "COLUMBUS", "state": "IN", "street": "4100 W JONATHAN MOORE PIKE", "postcode": "47201"}}},
{"geometry": {"type": "Point", "coordinates": [-85.9046393229, 39.2230598207]}, "type": "Feature", "properties": {"collection_times": [{"days": "Mon-Sat", "time": "3:30pm"}, {"days": "Sun", "time": "Closed"}], "id": "4720100069", "name": "USPS COLLECTION BOX - BLUE BOX", "address": {"city": "COLUMBUS", "state": "IN", "street": "1840 25TH ST", "postcode": "47201"}}},
{"geometry": {"type": "Point", "coordinates": [-85.9074210779, 39.2115160545]}, "type": "Feature", "properties": {"collection_times": [{"days": "Mon-Fri", "time": "4:15pm"}, {"days": "Sat-Sun", "time": "Closed"}], "id": "4720100071", "name": "USPS COLLECTION BOX - BLUE BOX", "address": {"city": "COLUMBUS", "state": "IN", "street": "1532 13TH ST", "postcode": "47201"}}},
{"geometry": {"type": "Point", "coordinates": [-85.9225398011, 39.2028980336]}, "type": "Feature", "properties": {"collection_times": [{"days": "Mon-Fri", "time": "6:00pm"}, {"days": "Sat", "time": "5:15pm"}, {"days": "Sun", "time": "Closed"}], "id": "4720100075", "name": "USPS COLLECTION BOX - APC", "address": {"city": "COLUMBUS", "state": "IN", "street": "450 JACKSON ST", "postcode": "47201"}}},
{"geometry": {"type": "Point", "coordinates": [-85.9074210779, 39.2115160545]}, "type": "Feature", "properties": {"collection_times": [{"days": "Mon-Fri", "time": "4:15pm"}, {"days": "Sat-Sun", "time": "Closed"}], "id": "4720100076", "name": "USPS COLLECTION BOX - BLUE BOX", "address": {"city": "COLUMBUS", "state": "IN", "street": "1532 13TH ST", "postcode": "47201"}}},
{"geometry": {"type": "Point", "coordinates": [-85.9046393229, 39.2230598207]}, "type": "Feature", "properties": {"collection_times": [{"days": "Mon-Sat", "time": "3:30pm"}, {"days": "Sun", "time": "Closed"}], "id": "4720100079", "name": "USPS COLLECTION BOX - BLUE BOX", "address": {"city": "COLUMBUS", "state": "IN", "street": "1840 25TH ST", "postcode": "47201"}}},
{"geometry": {"type": "Point", "coordinates": [-85.9252916046, 39.2027578975]}, "type": "Feature", "properties": {"collection_times": [{"days": "Mon-Fri", "time": "4:30pm"}, {"days": "Sat", "time": "4:00pm"}, {"days": "Sun", "time": "Closed"}], "id": "4720100081", "name": "USPS COLLECTION BOX - BLUE BOX", "address": {"city": "COLUMBUS", "state": "IN", "street": "450 LINDSAY ST", "postcode": "47201"}}},
{"geometry": {"type": "Point", "coordinates": [-85.9724742503, 39.199760577]}, "type": "Feature", "properties": {"collection_times": [{"days": "Mon-Fri", "time": "1:30pm"}, {"days": "Sat", "time": "12:00pm"}, {"days": "Sun", "time": "Closed"}], "id": "4720100082", "name": "USPS COLLECTION BOX - BLUE BOX", "address": {"city": "COLUMBUS", "state": "IN", "street": "4100 W JONATHAN MOORE PIKE", "postcode": "47201"}}},
{"geometry": {"type": "Point", "coordinates": [-85.8836746677, 39.2166414172]}, "type": "Feature", "properties": {"collection_times": [{"days": "Mon-Sat", "time": "4:00pm"}, {"days": "Sun", "time": "Closed"}], "id": "4720100083", "name": "USPS COLLECTION BOX - BLUE BOX", "address": {"city": "COLUMBUS", "state": "IN", "street": "1647 N NATIONAL RD", "postcode": "47201"}}},
{"geometry": {"type": "Point", "coordinates": [-85.9112393086, 39.2375664523]}, "type": "Feature", "properties": {"collection_times": [{"days": "Mon-Sat", "time": "3:00pm"}, {"days": "Sun", "time": "Closed"}], "id": "4720300001", "name": "USPS COLLECTION BOX - BLUE BOX", "address": {"city": "COLUMBUS", "state": "IN", "street": "1302 ROCKY FORD RD", "postcode": "47203"}}},
{"geometry": {"type": "Point", "coordinates": [-85.8731474323, 39.23281372]}, "type": "Feature", "properties": {"collection_times": [{"days": "Mon-Sat", "time": "3:45pm"}, {"days": "Sun", "time": "Closed"}], "id": "4720300002", "name": "USPS COLLECTION BOX - BLUE BOX", "address": {"city": "COLUMBUS", "state": "IN", "street": "3850 25TH ST", "postcode": "47203"}}},
{"geometry": {"type": "Point", "coordinates": [-85.8776083267, 39.2235021249]}, "type": "Feature", "properties": {"collection_times": [{"days": "Mon-Sat", "time": "3:45pm"}, {"days": "Sun", "time": "Closed"}], "id": "4720300003", "name": "USPS COLLECTION BOX - BLUE BOX", "address": {"city": "COLUMBUS", "state": "IN", "street": "3850 25TH ST", "postcode": "47203"}}},
{"geometry": {"type": "Point", "coordinates": [-85.8776083267, 39.2235021249]}, "type": "Feature", "properties": {"collection_times": [{"days": "Mon-Sat", "time": "3:45pm"}, {"days": "Sun", "time": "Closed"}], "id": "4720300004", "name": "USPS COLLECTION BOX - BLUE BOX", "address": {"city": "COLUMBUS", "state": "IN", "street": "3850 25TH ST", "postcode": "47203"}}},
{"geometry": {"type": "Point", "coordinates": [-85.8969361968, 39.2489593251]}, "type": "Feature", "properties": {"collection_times": [{"days": "Mon-Fri", "time": "3:00pm"}, {"days": "Sat-Sun", "time": "Closed"}], "id": "4720300005", "name": "USPS COLLECTION BOX - BLUE BOX", "address": {"city": "COLUMBUS", "state": "IN", "street": "4401 RAY BOLL BLVD", "postcode": "47203"}}},
{"geometry": {"type": "Point", "coordinates": [-85.8969361968, 39.2489593251]}, "type": "Feature", "properties": {"collection_times": [{"days": "Mon-Fri", "time": "3:00pm"}, {"days": "Sat-Sun", "time": "Closed"}], "id": "4720300006", "name": "USPS COLLECTION BOX - BLUE BOX", "address": {"city": "COLUMBUS", "state": "IN", "street": "4401 RAY BOLL BLVD", "postcode": "47203"}}},
{"geometry": {"type": "Point", "coordinates": [-86.0415588705, 38.8769025724]}, "type": "Feature", "properties": {"collection_times": [{"days": "Mon-Fri", "time": "5:00pm"}, {"days": "Sat", "time": "2:30pm"}, {"days": "Sun", "time": "Closed"}], "id": "4722000001", "name": "USPS COLLECTION BOX - BLUE BOX", "address": {"city": "BROWNSTOWN", "state": "IN", "street": "201 S SUGAR ST", "postcode": "47220"}}},
{"geometry": {"type": "Point", "coordinates": [-86.0418307302, 38.8791895764]}, "type": "Feature", "properties": {"collection_times": [{"days": "Mon-Sat", "time": "1:45pm"}, {"days": "Sun", "time": "Closed"}], "id": "4722000004", "name": "USPS COLLECTION BOX - BLUE BOX", "address": {"city": "BROWNSTOWN", "state": "IN", "street": "100 N MAIN ST", "postcode": "47220"}}},
{"geometry": {"type": "Point", "coordinates": [-86.0415588705, 38.8769025724]}, "type": "Feature", "properties": {"collection_times": [{"days": "Mon-Fri", "time": "4:45pm"}, {"days": "Sat", "time": "2:30pm"}, {"days": "Sun", "time": "Closed"}], "id": "4722000007", "name": "USPS COLLECTION BOX - PO LOBBY", "address": {"city": "BROWNSTOWN", "state": "IN", "street": "201 S SUGAR ST", "postcode": "47220"}}},
{"geometry": {"type": "Point", "coordinates": [-85.5126693418, 39.0329344404]}, "type": "Feature", "properties": {"collection_times": [{"days": "Mon-Fri", "time": "3:30pm"}, {"days": "Sat", "time": "10:00am"}, {"days": "Sun", "time": "Closed"}], "id": "4722300001", "name": "USPS COLLECTION BOX - BLUE BOX", "address": {"city": "BUTLERVILLE", "state": "IN", "street": "5270 E US HIGHWAY 50", "postcode": "47223"}}},
{"geometry": {"type": "Point", "coordinates": [-85.5126693418, 39.0329344404]}, "type": "Feature", "properties": {"collection_times": [{"days": "Mon-Fri", "time": "11:45am"}, {"days": "Sat", "time": "10:00am"}, {"days": "Sun", "time": "Closed"}], "id": "4722300002", "name": "USPS COLLECTION BOX - PO LOBBY", "address": {"city": "BUTLERVILLE", "state": "IN", "street": "5270 E US HIGHWAY 50", "postcode": "47223"}}},
{"geometry": {"type": "Point", "coordinates": [-85.2320396867, 38.881807154]}, "type": "Feature", "properties": {"collection_times": [{"days": "Mon-Fri", "time": "4:00pm"}, {"days": "Sat", "time": "11:45am"}, {"days": "Sun", "time": "Closed"}], "id": "4722400001", "name": "USPS COLLECTION BOX - BLUE BOX", "address": {"city": "CANAAN", "state": "IN", "street": "8988 N MAIN ST", "postcode": "47224"}}},
{"geometry": {"type": "Point", "coordinates": [-85.2320396867, 38.881807154]}, "type": "Feature", "properties": {"collection_times": [{"days": "Mon-Sat", "time": "11:45am"}, {"days": "Sun", "time": "Closed"}], "id": "4722400002", "name": "USPS COLLECTION BOX - PO LOBBY", "address": {"city": "CANAAN", "state": "IN", "street": "8988 N MAIN ST", "postcode": "47224"}}},
{"geometry": {"type": "Point", "coordinates": [-85.3475891994, 39.4335901776]}, "type": "Feature", "properties": {"collection_times": [{"days": "Mon-Fri", "time": "3:45pm"}, {"days": "Sat", "time": "11:45am"}, {"days": "Sun", "time": "Closed"}], "id": "4722500001", "name": "USPS COLLECTION BOX - BLUE BOX", "address": {"city": "CLARKSBURG", "state": "IN", "street": "6656 N COUNTY ROAD 700 E", "postcode": "47225"}}},
{"geometry": {"type": "Point", "coordinates": [-85.3475891994, 39.4335901776]}, "type": "Feature", "properties": {"collection_times": [{"days": "Mon-Fri", "time": "9:45am"}, {"days": "Sat", "time": "11:45am"}, {"days": "Sun", "time": "Closed"}], "id": "4722500002", "name": "USPS COLLECTION BOX - PO LOBBY", "address": {"city": "CLARKSBURG", "state": "IN", "street": "6656 N COUNTY ROAD 700 E", "postcode": "47225"}}},
{"geometry": {"type": "Point", "coordinates": [-85.8677368002, 39.2831176088]}, "type": "Feature", "properties": {"collection_times": [{"days": "Mon-Fri", "time": "4:15pm"}, {"days": "Sat", "time": "11:15am"}, {"days": "Sun", "time": "Closed"}], "id": "4722600001", "name": "USPS COLLECTION BOX - BLUE BOX", "address": {"city": "CLIFFORD", "state": "IN", "street": "4832 MILL ST", "postcode": "47226"}}},
{"geometry": {"type": "Point", "coordinates": [-85.8682288861, 39.2835329692]}, "type": "Feature", "properties": {"collection_times": [{"days": "Mon-Fri", "time": "3:45pm"}, {"days": "Sat", "time": "11:30am"}, {"days": "Sun", "time": "Closed"}], "id": "4722600002", "name": "USPS COLLECTION BOX - PO LOBBY", "address": {"city": "CLIFFORD", "state": "IN", "street": "4832 MILL ST", "postcode": "47226"}}},
{"geometry": {"type": "Point", "coordinates": [-85.6438410183, 38.8607066042]}, "type": "Feature", "properties": {"collection_times": [{"days": "Mon-Fri", "time": "4:00pm"}, {"days": "Sat", "time": "11:00am"}, {"days": "Sun", "time": "Closed"}], "id": "4722700001", "name": "USPS COLLECTION BOX - BLUE BOX", "address": {"city": "COMMISKEY", "state": "IN", "street": "1780 W COUNTY ROAD 850 S", "postcode": "47227"}}},
{"geometry": {"type": "Point", "coordinates": [-85.6438410183, 38.8607066042]}, "type": "Feature", "properties": {"collection_times": [{"days": "Mon-Fri", "time": "11:45am"}, {"days": "Sat", "time": "11:00am"}, {"days": "Sun", "time": "Closed"}], "id": "4722700002", "name": "USPS COLLECTION BOX - PO LOBBY", "address": {"city": "COMMISKEY", "state": "IN", "street": "1780 W COUNTY ROAD 850 S", "postcode": "47227"}}},
{"geometry": {"type": "Point", "coordinates": [-85.9642413715, 38.9728004242]}, "type": "Feature", "properties": {"collection_times": [{"days": "Mon-Fri", "time": "2:00pm"}, {"days": "Sat", "time": "11:00am"}, {"days": "Sun", "time": "Closed"}], "id": "4722800000", "name": "USPS COLLECTION BOX - BLUE BOX", "address": {"city": "CORTLAND", "state": "IN", "street": "3993 E STATE ROAD 258", "postcode": "47228"}}},
{"geometry": {"type": "Point", "coordinates": [-85.8390935456, 38.7953744068]}, "type": "Feature", "properties": {"collection_times": [{"days": "Mon-Fri", "time": "3:45pm"}, {"days": "Sat", "time": "10:45am"}, {"days": "Sun", "time": "Closed"}], "id": "4722900001", "name": "USPS COLLECTION BOX - BLUE BOX", "address": {"city": "CROTHERSVILLE", "state": "IN", "street": "302 E MAIN ST", "postcode": "47229"}}},
{"geometry": {"type": "Point", "coordinates": [-85.8401036001, 38.7957249081]}, "type": "Feature", "properties": {"collection_times": [{"days": "Mon-Sat", "time": "8:00am"}, {"days": "Sun", "time": "Closed"}], "id": "4722900006", "name": "USPS COLLECTION BOX - BLUE BOX", "address": {"city": "CROTHERSVILLE", "state": "IN", "street": "110 S ARMSTRONG ST", "postcode": "47229"}}},
{"geometry": {"type": "Point", "coordinates": [-85.8390935456, 38.7953744068]}, "type": "Feature", "properties": {"collection_times": [{"days": "Mon-Fri", "time": "3:45pm"}, {"days": "Sat", "time": "10:45am"}, {"days": "Sun", "time": "Closed"}], "id": "4722900010", "name": "USPS COLLECTION BOX - PO LOBBY", "address": {"city": "CROTHERSVILLE", "state": "IN", "street": "302 E MAIN ST", "postcode": "47229"}}},
{"geometry": {"type": "Point", "coordinates": [-85.8390935456, 38.7953744068]}, "type": "Feature", "properties": {"collection_times": [{"days": "Mon-Fri", "time": "3:45pm"}, {"days": "Sat", "time": "10:45am"}, {"days": "Sun", "time": "Closed"}], "id": "4722900011", "name": "USPS COLLECTION BOX - PO LOBBY", "address": {"city": "CROTHERSVILLE", "state": "IN", "street": "302 E MAIN ST", "postcode": "47229"}}},
{"geometry": {"type": "Point", "coordinates": [-85.6492095303, 38.7369062651]}, "type": "Feature", "properties": {"collection_times": [{"days": "Mon-Fri", "time": "3:45pm"}, {"days": "Sat", "time": "10:30am"}, {"days": "Sun", "time": "Closed"}], "id": "4723000001", "name": "USPS COLLECTION BOX - BLUE BOX", "address": {"city": "DEPUTY", "state": "IN", "street": "14165 W MAIN ST", "postcode": "47230"}}},
{"geometry": {"type": "Point", "coordinates": [-85.6492095303, 38.7369062651]}, "type": "Feature", "properties": {"collection_times": [{"days": "Mon-Fri", "time": "11:15am"}, {"days": "Sat", "time": "11:00am"}, {"days": "Sun", "time": "Closed"}], "id": "4723000003", "name": "USPS COLLECTION BOX - PO LOBBY", "address": {"city": "DEPUTY", "state": "IN", "street": "14165 W MAIN ST", "postcode": "47230"}}},
{"geometry": {"type": "Point", "coordinates": [-85.5161485531, 38.8895202588]}, "type": "Feature", "properties": {"collection_times": [{"days": "Mon-Fri", "time": "3:45pm"}, {"days": "Sat", "time": "12:00pm"}, {"days": "Sun", "time": "Closed"}], "id": "4723100001", "name": "USPS COLLECTION BOX - BLUE BOX", "address": {"city": "DUPONT", "state": "IN", "street": "10545 NW FRONT ST", "postcode": "47231"}}},
{"geometry": {"type": "Point", "coordinates": [-85.5161485531, 38.8895202588]}, "type": "Feature", "properties": {"collection_times": [{"days": "Mon-Fri", "time": "11:45am"}, {"days": "Sat", "time": "12:00pm"}, {"days": "Sun", "time": "Closed"}], "id": "4723100002", "name": "USPS COLLECTION BOX - PO LOBBY", "address": {"city": "DUPONT", "state": "IN", "street": "10545 NW FRONT ST", "postcode": "47231"}}},
{"geometry": {"type": "Point", "coordinates": [-85.5161485531, 38.8895202588]}, "type": "Feature", "properties": {"collection_times": [{"days": "Mon-Fri", "time": "11:45am"}, {"days": "Sat", "time": "12:00pm"}, {"days": "Sun", "time": "Closed"}], "id": "4723100003", "name": "USPS COLLECTION BOX - PO LOBBY", "address": {"city": "DUPONT", "state": "IN", "street": "10545 NW FRONT ST", "postcode": "47231"}}},
{"geometry": {"type": "Point", "coordinates": [-85.8125704532, 39.1361806087]}, "type": "Feature", "properties": {"collection_times": [{"days": "Mon-Fri", "time": "3:45pm"}, {"days": "Sat", "time": "11:00am"}, {"days": "Sun", "time": "Closed"}], "id": "4723200001", "name": "USPS COLLECTION BOX - BLUE BOX", "address": {"city": "ELIZABETHTOWN", "state": "IN", "street": "102 SECOND ST", "postcode": "47232"}}},
{"geometry": {"type": "Point", "coordinates": [-85.8125704532, 39.1361806087]}, "type": "Feature", "properties": {"collection_times": [{"days": "Mon-Fri", "time": "4:00pm"}, {"days": "Sat", "time": "11:15am"}, {"days": "Sun", "time": "Closed"}], "id": "4723200002", "name": "USPS COLLECTION BOX - PO LOBBY", "address": {"city": "ELIZABETHTOWN", "state": "IN", "street": "102 SECOND ST", "postcode": "47232"}}},
{"geometry": {"type": "Point", "coordinates": [-85.8125704532, 39.1361806087]}, "type": "Feature", "properties": {"collection_times": [{"days": "Mon-Fri", "time": "4:00pm"}, {"days": "Sat", "time": "11:15am"}, {"days": "Sun", "time": "Closed"}], "id": "4723200003", "name": "USPS COLLECTION BOX - PO LOBBY", "address": {"city": "ELIZABETHTOWN", "state": "IN", "street": "102 SECOND ST", "postcode": "47232"}}},
{"geometry": {"type": "Point", "coordinates": [-85.8303014658, 39.3644476363]}, "type": "Feature", "properties": {"collection_times": [{"days": "Mon-Fri", "time": "4:30pm"}, {"days": "Sat", "time": "10:30am"}, {"days": "Sun", "time": "Closed"}], "id": "4723400000", "name": "USPS COLLECTION BOX - BLUE BOX", "address": {"city": "FLAT ROCK", "state": "IN", "street": "2732 W STATE ROAD 252", "postcode": "47234"}}},
{"geometry": {"type": "Point", "coordinates": [-85.8305519753, 39.364464206]}, "type": "Feature", "properties": {"collection_times": [{"days": "Mon-Fri", "time": "11:15am"}, {"days": "Sat", "time": "10:30am"}, {"days": "Sun", "time": "Closed"}], "id": "4723400001", "name": "USPS COLLECTION BOX - PO LOBBY", "address": {"city": "FLAT ROCK", "state": "IN", "street": "2732 W STATE ROAD 252", "postcode": "47234"}}},
{"geometry": {"type": "Point", "coordinates": [-86.1363594017, 39.0034078809]}, "type": "Feature", "properties": {"collection_times": [{"days": "Mon-Fri", "time": "3:30pm"}, {"days": "Sat", "time": "10:45am"}, {"days": "Sun", "time": "Closed"}], "id": "4723500001", "name": "USPS COLLECTION BOX - BLUE BOX", "address": {"city": "FREETOWN", "state": "IN", "street": "6683 N UNION ST", "postcode": "47235"}}},
{"geometry": {"type": "Point", "coordinates": [-86.1363594017, 39.0034078809]}, "type": "Feature", "properties": {"collection_times": [{"days": "Mon-Fri", "time": "11:15am"}, {"days": "Sat", "time": "10:45am"}, {"days": "Sun", "time": "Closed"}], "id": "4723500002", "name": "USPS COLLECTION BOX - PO LOBBY", "address": {"city": "FREETOWN", "state": "IN", "street": "6683 N UNION ST", "postcode": "47235"}}},
{"geometry": {"type": "Point", "coordinates": [-86.1363594017, 39.0034078809]}, "type": "Feature", "properties": {"collection_times": [{"days": "Mon-Fri", "time": "11:15am"}, {"days": "Sat", "time": "10:45am"}, {"days": "Sun", "time": "Closed"}], "id": "4723500003", "name": "USPS COLLECTION BOX - PO LOBBY", "address": {"city": "FREETOWN", "state": "IN", "street": "6683 N UNION ST", "postcode": "47235"}}},
{"geometry": {"type": "Point", "coordinates": [-85.4828750257, 39.3377385931]}, "type": "Feature", "properties": {"collection_times": [{"days": "Mon-Fri", "time": "5:00pm"}, {"days": "Sat", "time": "2:45pm"}, {"days": "Sun", "time": "Closed"}], "id": "4724000004", "name": "USPS COLLECTION BOX - BLUE BOX", "address": {"city": "GREENSBURG", "state": "IN", "street": "231 N FRANKLIN ST", "postcode": "47240"}}},
{"geometry": {"type": "Point", "coordinates": [-85.4828750257, 39.3377385931]}, "type": "Feature", "properties": {"collection_times": [{"days": "Mon-Fri", "time": "5:00pm"}, {"days": "Sat", "time": "2:45pm"}, {"days": "Sun", "time": "Closed"}], "id": "4724000005", "name": "USPS COLLECTION BOX - BLUE BOX", "address": {"city": "GREENSBURG", "state": "IN", "street": "231 N FRANKLIN ST", "postcode": "47240"}}},
{"geometry": {"type": "Point", "coordinates": [-85.4843022544, 39.3377296047]}, "type": "Feature", "properties": {"collection_times": [{"days": "Mon-Sat", "time": "9:00am"}, {"days": "Sun", "time": "Closed"}], "id": "4724000009", "name": "USPS COLLECTION BOX - BLUE BOX", "address": {"city": "GREENSBURG", "state": "IN", "street": "201 N BROADWAY ST", "postcode": "47240"}}},
{"geometry": {"type": "Point", "coordinates": [-85.4845354461, 39.3365254285]}, "type": "Feature", "properties": {"collection_times": [{"days": "Mon-Sat", "time": "9:15am"}, {"days": "Sun", "time": "Closed"}], "id": "4724000011", "name": "USPS COLLECTION BOX - BLUE BOX", "address": {"city": "GREENSBURG", "state": "IN", "street": "115 W MAIN ST", "postcode": "47240"}}},
{"geometry": {"type": "Point", "coordinates": [-85.4950410145, 39.3469513044]}, "type": "Feature", "properties": {"collection_times": [{"days": "Mon-Fri", "time": "1:00pm"}, {"days": "Sat", "time": "12:00pm"}, {"days": "Sun", "time": "Closed"}], "id": "4724000012", "name": "USPS COLLECTION BOX - BLUE BOX", "address": {"city": "GREENSBURG", "state": "IN", "street": "916 W 4TH ST", "postcode": "47240"}}},
{"geometry": {"type": "Point", "coordinates": [-85.6199747535, 39.3520082884]}, "type": "Feature", "properties": {"collection_times": [{"days": "Mon-Sat", "time": "9:30am"}, {"days": "Sun", "time": "Closed"}], "id": "4724000014", "name": "USPS COLLECTION BOX - BLUE BOX", "address": {"city": "GREENSBURG", "state": "IN", "street": "1919 N GREENSBURG XING", "postcode": "47240"}}},
{"geometry": {"type": "Point", "coordinates": [-85.479905261, 39.3538383688]}, "type": "Feature", "properties": {"collection_times": [{"days": "Mon-Sat", "time": "10:00am"}, {"days": "Sun", "time": "Closed"}], "id": "4724000015", "name": "USPS COLLECTION BOX - BLUE BOX", "address": {"city": "GREENSBURG", "state": "IN", "street": "1809 N LINCOLN ST", "postcode": "47240"}}},
{"geometry": {"type": "Point", "coordinates": [-85.4792760953, 39.3495921954]}, "type": "Feature", "properties": {"collection_times": [{"days": "Mon-Sat", "time": "10:15am"}, {"days": "Sun", "time": "Closed"}], "id": "4724000016", "name": "USPS COLLECTION BOX - BLUE BOX", "address": {"city": "GREENSBURG", "state": "IN", "street": "1305 N LINCOLN ST", "postcode": "47240"}}},
{"geometry": {"type": "Point", "coordinates": [-85.4917198442, 39.3555021428]}, "type": "Feature", "properties": {"collection_times": [{"days": "Mon-Sat", "time": "9:30am"}, {"days": "Sun", "time": "Closed"}], "id": "4724000025", "name": "USPS COLLECTION BOX - BLUE BOX", "address": {"city": "GREENSBURG", "state": "IN", "street": "1923 N CARVER ST", "postcode": "47240"}}},
{"geometry": {"type": "Point", "coordinates": [-85.4828750257, 39.3377385931]}, "type": "Feature", "properties": {"collection_times": [{"days": "Mon-Fri", "time": "5:00pm"}, {"days": "Sat", "time": "2:45pm"}, {"days": "Sun", "time": "Closed"}], "id": "4724000036", "name": "USPS COLLECTION BOX - PO LOBBY", "address": {"city": "GREENSBURG", "state": "IN", "street": "231 N FRANKLIN ST", "postcode": "47240"}}},
{"geometry": {"type": "Point", "coordinates": [-85.4828750257, 39.3377385931]}, "type": "Feature", "properties": {"collection_times": [{"days": "Mon-Fri", "time": "5:00pm"}, {"days": "Sat", "time": "2:45pm"}, {"days": "Sun", "time": "Closed"}], "id": "4724000037", "name": "USPS COLLECTION BOX - PO LOBBY", "address": {"city": "GREENSBURG", "state": "IN", "street": "231 N FRANKLIN ST", "postcode": "47240"}}},
{"geometry": {"type": "Point", "coordinates": [-85.4683243353, 38.7139421608]}, "type": "Feature", "properties": {"collection_times": [{"days": "Mon-Fri", "time": "4:00pm"}, {"days": "Sat", "time": "12:00pm"}, {"days": "Sun", "time": "Closed"}], "id": "4724300001", "name": "USPS COLLECTION BOX - BLUE BOX", "address": {"city": "HANOVER", "state": "IN", "street": "264 E MAIN ST", "postcode": "47243"}}},
{"geometry": {"type": "Point", "coordinates": [-85.4683243353, 38.7139421608]}, "type": "Feature", "properties": {"collection_times": [{"days": "Mon-Fri", "time": "4:00pm"}, {"days": "Sat", "time": "12:00pm"}, {"days": "Sun", "time": "Closed"}], "id": "4724300004", "name": "USPS COLLECTION BOX - PO LOBBY", "address": {"city": "HANOVER", "state": "IN", "street": "264 E MAIN ST", "postcode": "47243"}}},
{"geometry": {"type": "Point", "coordinates": [-85.6991126792, 39.26805497]}, "type": "Feature", "properties": {"collection_times": [{"days": "Mon-Fri", "time": "4:30pm"}, {"days": "Sat", "time": "11:45am"}, {"days": "Sun", "time": "Closed"}], "id": "4724400001", "name": "USPS COLLECTION BOX - BLUE BOX", "address": {"city": "HARTSVILLE", "state": "IN", "street": "110 N WASHINGTON ST", "postcode": "47244"}}},
{"geometry": {"type": "Point", "coordinates": [-85.6991126792, 39.26805497]}, "type": "Feature", "properties": {"collection_times": [{"days": "Mon-Sat", "time": "11:45am"}, {"days": "Sun", "time": "Closed"}], "id": "4724400002", "name": "USPS COLLECTION BOX - PO LOBBY", "address": {"city": "HARTSVILLE", "state": "IN", "street": "110 N WASHINGTON ST", "postcode": "47244"}}},
{"geometry": {"type": "Point", "coordinates": [-85.7362535551, 38.9814468069]}, "type": "Feature", "properties": {"collection_times": [{"days": "Mon-Fri", "time": "3:15pm"}, {"days": "Sat", "time": "12:45pm"}, {"days": "Sun", "time": "Closed"}], "id": "4724500001", "name": "USPS COLLECTION BOX - BLUE BOX", "address": {"city": "HAYDEN", "state": "IN", "street": "60 S COUNTY ROAD 675 W", "postcode": "47245"}}},
{"geometry": {"type": "Point", "coordinates": [-85.7362535551, 38.9814468069]}, "type": "Feature", "properties": {"collection_times": [{"days": "Mon-Fri", "time": "1:45pm"}, {"days": "Sat", "time": "12:45pm"}, {"days": "Sun", "time": "Closed"}], "id": "4724500002", "name": "USPS COLLECTION BOX - PO LOBBY", "address": {"city": "HAYDEN", "state": "IN", "street": "60 S COUNTY ROAD 675 W", "postcode": "47245"}}},
{"geometry": {"type": "Point", "coordinates": [-85.7714417453, 39.3030180363]}, "type": "Feature", "properties": {"collection_times": [{"days": "Mon-Sat", "time": "3:00pm"}, {"days": "Sun", "time": "Closed"}], "id": "4724600001", "name": "USPS COLLECTION BOX - BLUE BOX", "address": {"city": "HOPE", "state": "IN", "street": "605 MAIN ST", "postcode": "47246"}}},
{"geometry": {"type": "Point", "coordinates": [-85.7708802995, 39.3040669407]}, "type": "Feature", "properties": {"collection_times": [{"days": "Mon-Sat", "time": "3:00pm"}, {"days": "Sun", "time": "Closed"}], "id": "4724600002", "name": "USPS COLLECTION BOX - BLUE BOX", "address": {"city": "HOPE", "state": "IN", "street": "344 JACKSON ST", "postcode": "47246"}}},
{"geometry": {"type": "Point", "coordinates": [-85.7714202355, 39.3044846886]}, "type": "Feature", "properties": {"collection_times": [{"days": "Mon-Sat", "time": "4:00pm"}, {"days": "Sun", "time": "Closed"}], "id": "4724600005", "name": "USPS COLLECTION BOX - BLUE BOX", "address": {"city": "HOPE", "state": "IN", "street": "739 MAIN ST", "postcode": "47246"}}},
{"geometry": {"type": "Point", "coordinates": [-85.7714202355, 39.3044846886]}, "type": "Feature", "properties": {"collection_times": [{"days": "Mon-Sat", "time": "4:00pm"}, {"days": "Sun", "time": "Closed"}], "id": "4724600008", "name": "USPS COLLECTION BOX - PO LOBBY", "address": {"city": "HOPE", "state": "IN", "street": "739 MAIN ST", "postcode": "47246"}}},
{"geometry": {"type": "Point", "coordinates": [-85.3772861815, 38.7340728152]}, "type": "Feature", "properties": {"collection_times": [{"days": "Mon-Fri", "time": "4:30pm"}, {"days": "Sat", "time": "4:00pm"}, {"days": "Sun", "time": "Closed"}], "id": "4725000009", "name": "USPS COLLECTION BOX - BLUE BOX", "address": {"city": "MADISON", "state": "IN", "street": "207 JEFFERSON ST", "postcode": "47250"}}},
{"geometry": {"type": "Point", "coordinates": [-85.3953192162, 38.7748736841]}, "type": "Feature", "properties": {"collection_times": [{"days": "Mon-Sat", "time": "9:00am"}, {"days": "Sun", "time": "Closed"}], "id": "4725000013", "name": "USPS COLLECTION BOX - BLUE BOX", "address": {"city": "MADISON", "state": "IN", "street": "445 CLIFTY DR", "postcode": "47250"}}},
{"geometry": {"type": "Point", "coordinates": [-85.3745634242, 38.7816383611]}, "type": "Feature", "properties": {"collection_times": [{"days": "Mon-Sat", "time": "11:00am"}, {"days": "Sun", "time": "Closed"}], "id": "4725000029", "name": "USPS COLLECTION BOX - BLUE BOX", "address": {"city": "MADISON", "state": "IN", "street": "567 IVY TECH DR", "postcode": "47250"}}},
{"geometry": {"type": "Point", "coordinates": [-85.3852526394, 38.7751676839]}, "type": "Feature", "properties": {"collection_times": [{"days": "Mon-Sat", "time": "9:30am"}, {"days": "Sun", "time": "Closed"}], "id": "4725000031", "name": "USPS COLLECTION BOX - BLUE BOX", "address": {"city": "MADISON", "state": "IN", "street": "435 E CLIFTY DR", "postcode": "47250"}}},
{"geometry": {"type": "Point", "coordinates": [-85.3972825206, 38.7748110405]}, "type": "Feature", "properties": {"collection_times": [{"days": "Mon-Sat", "time": "10:00am"}, {"days": "Sun", "time": "Closed"}], "id": "4725000033", "name": "USPS COLLECTION BOX - BLUE BOX", "address": {"city": "MADISON", "state": "IN", "street": "525 CLIFTY DR", "postcode": "47250"}}},
{"geometry": {"type": "Point", "coordinates": [-85.4032117418, 38.7753808468]}, "type": "Feature", "properties": {"collection_times": [{"days": "Mon-Fri", "time": "9:30am"}, {"days": "Sat", "time": "9:00am"}, {"days": "Sun", "time": "Closed"}], "id": "4725000035", "name": "USPS COLLECTION BOX - BLUE BOX", "address": {"city": "MADISON", "state": "IN", "street": "750 JEFFERSON CT", "postcode": "47250"}}},
{"geometry": {"type": "Point", "coordinates": [-85.4157697611, 38.7718324234]}, "type": "Feature", "properties": {"collection_times": [{"days": "Mon-Sat", "time": "10:00am"}, {"days": "Sun", "time": "Closed"}], "id": "4725000037", "name": "USPS COLLECTION BOX - BLUE BOX", "address": {"city": "MADISON", "state": "IN", "street": "1315 CLIFTY DR", "postcode": "47250"}}},
{"geometry": {"type": "Point", "coordinates": [-85.4004053467, 38.7616148194]}, "type": "Feature", "properties": {"collection_times": [{"days": "Mon-Fri", "time": "2:00pm"}, {"days": "Sat", "time": "12:00pm"}, {"days": "Sun", "time": "Closed"}], "id": "4725000039", "name": "USPS COLLECTION BOX - BLUE BOX", "address": {"city": "MADISON", "state": "IN", "street": "641 GREEN RD", "postcode": "47250"}}},
{"geometry": {"type": "Point", "coordinates": [-85.4017661739, 38.740283383]}, "type": "Feature", "properties": {"collection_times": [{"days": "Mon-Sat", "time": "9:00am"}, {"days": "Sun", "time": "Closed"}], "id": "4725000055", "name": "USPS COLLECTION BOX - BLUE BOX", "address": {"city": "MADISON", "state": "IN", "street": "1203 W MAIN ST", "postcode": "47250"}}},
{"geometry": {"type": "Point", "coordinates": [-85.4004053467, 38.7616148194]}, "type": "Feature", "properties": {"collection_times": [{"days": "Mon-Fri", "time": "4:00pm"}, {"days": "Sat", "time": "12:00pm"}, {"days": "Sun", "time": "Closed"}], "id": "4725000063", "name": "USPS COLLECTION BOX - PO LOBBY", "address": {"city": "MADISON", "state": "IN", "street": "641 GREEN RD", "postcode": "47250"}}},
{"geometry": {"type": "Point", "coordinates": [-85.3772861815, 38.7340728152]}, "type": "Feature", "properties": {"collection_times": [{"days": "Mon-Fri", "time": "4:30pm"}, {"days": "Sat", "time": "12:00pm"}, {"days": "Sun", "time": "Closed"}], "id": "4725000065", "name": "USPS COLLECTION BOX - PO LOBBY", "address": {"city": "MADISON", "state": "IN", "street": "207 JEFFERSON ST", "postcode": "47250"}}},
{"geometry": {"type": "Point", "coordinates": [-85.3772861815, 38.7340728152]}, "type": "Feature", "properties": {"collection_times": [{"days": "Mon-Fri", "time": "4:30pm"}, {"days": "Sat", "time": "12:00pm"}, {"days": "Sun", "time": "Closed"}], "id": "4725000066", "name": "USPS COLLECTION BOX - PO LOBBY", "address": {"city": "MADISON", "state": "IN", "street": "207 JEFFERSON ST", "postcode": "47250"}}},
{"geometry": {"type": "Point", "coordinates": [-85.3901208925, 38.7751511102]}, "type": "Feature", "properties": {"collection_times": [{"days": "Mon-Sat", "time": "9:00am"}, {"days": "Sun", "time": "Closed"}], "id": "4725000067", "name": "USPS COLLECTION BOX - BLUE BOX", "address": {"city": "MADISON", "state": "IN", "street": "220 CLIFTY DR", "postcode": "47250"}}},
{"geometry": {"type": "Point", "coordinates": [-85.4157697611, 38.7718324234]}, "type": "Feature", "properties": {"collection_times": [{"days": "Mon-Sat", "time": "10:00am"}, {"days": "Sun", "time": "Closed"}], "id": "4725000068", "name": "USPS COLLECTION BOX - BLUE BOX", "address": {"city": "MADISON", "state": "IN", "street": "1315 CLIFTY DR", "postcode": "47250"}}},
{"geometry": {"type": "Point", "coordinates": [-86.1701333773, 38.8249114057]}, "type": "Feature", "properties": {"collection_times": [{"days": "Mon-Fri", "time": "3:45pm"}, {"days": "Sat", "time": "10:45am"}, {"days": "Sun", "time": "Closed"}], "id": "4726000001", "name": "USPS COLLECTION BOX - BLUE BOX", "address": {"city": "MEDORA", "state": "IN", "street": "17 S PERRY ST", "postcode": "47260"}}},
{"geometry": {"type": "Point", "coordinates": [-86.1701333773, 38.8249114057]}, "type": "Feature", "properties": {"collection_times": [{"days": "Mon-Fri", "time": "2:15pm"}, {"days": "Sat", "time": "10:45am"}, {"days": "Sun", "time": "Closed"}], "id": "4726000002", "name": "USPS COLLECTION BOX - PO LOBBY", "address": {"city": "MEDORA", "state": "IN", "street": "17 S PERRY ST", "postcode": "47260"}}},
{"geometry": {"type": "Point", "coordinates": [-86.1701333773, 38.8249114057]}, "type": "Feature", "properties": {"collection_times": [{"days": "Mon-Fri", "time": "2:15pm"}, {"days": "Sat", "time": "10:45am"}, {"days": "Sun", "time": "Closed"}], "id": "4726000003", "name": "USPS COLLECTION BOX - PO LOBBY", "address": {"city": "MEDORA", "state": "IN", "street": "17 S PERRY ST", "postcode": "47260"}}},
{"geometry": {"type": "Point", "coordinates": [-85.3296277261, 39.3091437662]}, "type": "Feature", "properties": {"collection_times": [{"days": "Mon-Fri", "time": "3:30pm"}, {"days": "Sat", "time": "11:15am"}, {"days": "Sun", "time": "Closed"}], "id": "4726300002", "name": "USPS COLLECTION BOX - BLUE BOX", "address": {"city": "NEW POINT", "state": "IN", "street": "8348 E COUNTY ROAD 200 S", "postcode": "47263"}}},
{"geometry": {"type": "Point", "coordinates": [-85.3296277261, 39.3091437662]}, "type": "Feature", "properties": {"collection_times": [{"days": "Mon-Fri", "time": "11:45am"}, {"days": "Sat", "time": "11:15am"}, {"days": "Sun", "time": "Closed"}], "id": "4726300003", "name": "USPS COLLECTION BOX - PO LOBBY", "address": {"city": "NEW POINT", "state": "IN", "street": "8348 E COUNTY ROAD 200 S", "postcode": "47263"}}},
{"geometry": {"type": "Point", "coordinates": [-86.266376172, 38.9590727037]}, "type": "Feature", "properties": {"collection_times": [{"days": "Mon-Fri", "time": "4:00pm"}, {"days": "Sat", "time": "11:00am"}, {"days": "Sun", "time": "Closed"}], "id": "4726400001", "name": "USPS COLLECTION BOX - BLUE BOX", "address": {"city": "NORMAN", "state": "IN", "street": "12718 W STATE ROAD 58", "postcode": "47264"}}},
{"geometry": {"type": "Point", "coordinates": [-86.266376172, 38.9590727037]}, "type": "Feature", "properties": {"collection_times": [{"days": "Mon-Fri", "time": "11:15am"}, {"days": "Sat", "time": "11:00am"}, {"days": "Sun", "time": "Closed"}], "id": "4726400002", "name": "USPS COLLECTION BOX - PO LOBBY", "address": {"city": "NORMAN", "state": "IN", "street": "12718 W STATE ROAD 58", "postcode": "47264"}}},
{"geometry": {"type": "Point", "coordinates": [-86.266376172, 38.9590727037]}, "type": "Feature", "properties": {"collection_times": [{"days": "Mon-Fri", "time": "11:15am"}, {"days": "Sat", "time": "11:00am"}, {"days": "Sun", "time": "Closed"}], "id": "4726400003", "name": "USPS COLLECTION BOX - PO LOBBY", "address": {"city": "NORMAN", "state": "IN", "street": "12718 W STATE ROAD 58", "postcode": "47264"}}},
{"geometry": {"type": "Point", "coordinates": [-85.6365132804, 39.0117732952]}, "type": "Feature", "properties": {"collection_times": [{"days": "Mon-Sat", "time": "9:00am"}, {"days": "Sun", "time": "Closed"}], "id": "4726500000", "name": "USPS COLLECTION BOX - BLUE BOX", "address": {"city": "NORTH VERNON", "state": "IN", "street": "1359 N STATE ST", "postcode": "47265"}}},
{"geometry": {"type": "Point", "coordinates": [-85.6220258203, 39.0057111974]}, "type": "Feature", "properties": {"collection_times": [{"days": "Mon-Sat", "time": "9:00am"}, {"days": "Sun", "time": "Closed"}], "id": "4726500003", "name": "USPS COLLECTION BOX - BLUE BOX", "address": {"city": "NORTH VERNON", "state": "IN", "street": "620 BUCKEYE ST", "postcode": "47265"}}},
{"geometry": {"type": "Point", "coordinates": [-85.6647738696, 39.035940249]}, "type": "Feature", "properties": {"collection_times": [{"days": "Mon-Sat", "time": "11:00am"}, {"days": "Sun", "time": "Closed"}], "id": "4726500010", "name": "USPS COLLECTION BOX - BLUE BOX", "address": {"city": "NORTH VERNON", "state": "IN", "street": "3500 N STATE HIGHWAY 7", "postcode": "47265"}}},
{"geometry": {"type": "Point", "coordinates": [-85.6307398415, 39.0072066399]}, "type": "Feature", "properties": {"collection_times": [{"days": "Mon-Sat", "time": "1:45pm"}, {"days": "Sun", "time": "Closed"}], "id": "4726500012", "name": "USPS COLLECTION BOX - BLUE BOX", "address": {"city": "NORTH VERNON", "state": "IN", "street": "524 N STATE ST", "postcode": "47265"}}},
{"geometry": {"type": "Point", "coordinates": [-85.6422880475, 39.0166778075]}, "type": "Feature", "properties": {"collection_times": [{"days": "Mon-Sat", "time": "10:00am"}, {"days": "Sun", "time": "Closed"}], "id": "4726500014", "name": "USPS COLLECTION BOX - BLUE BOX", "address": {"city": "NORTH VERNON", "state": "IN", "street": "2130 N STATE HIGHWAY 7", "postcode": "47265"}}},
{"geometry": {"type": "Point", "coordinates": [-85.6290538395, 39.010291756]}, "type": "Feature", "properties": {"collection_times": [{"days": "Mon-Sat", "time": "1:45pm"}, {"days": "Sun", "time": "Closed"}], "id": "4726500018", "name": "USPS COLLECTION BOX - BLUE BOX", "address": {"city": "NORTH VERNON", "state": "IN", "street": "703 N MADISON AVE", "postcode": "47265"}}},
{"geometry": {"type": "Point", "coordinates": [-85.6172446772, 38.9976889399]}, "type": "Feature", "properties": {"collection_times": [{"days": "Mon-Sat", "time": "11:00am"}, {"days": "Sun", "time": "Closed"}], "id": "4726500021", "name": "USPS COLLECTION BOX - BLUE BOX", "address": {"city": "NORTH VERNON", "state": "IN", "street": "121 DAVID DR", "postcode": "47265"}}},
{"geometry": {"type": "Point", "coordinates": [-85.6251191396, 39.0071202635]}, "type": "Feature", "properties": {"collection_times": [{"days": "Mon-Fri", "time": "4:00pm"}, {"days": "Sat", "time": "3:30pm"}, {"days": "Sun", "time": "Closed"}], "id": "4726500022", "name": "USPS COLLECTION BOX - PO LOBBY", "address": {"city": "NORTH VERNON", "state": "IN", "street": "330 E O AND M AVE", "postcode": "47265"}}},
{"geometry": {"type": "Point", "coordinates": [-85.6251191396, 39.0071202635]}, "type": "Feature", "properties": {"collection_times": [{"days": "Mon-Fri", "time": "4:00pm"}, {"days": "Sat", "time": "3:30pm"}, {"days": "Sun", "time": "Closed"}], "id": "4726500023", "name": "USPS COLLECTION BOX - BLUE BOX", "address": {"city": "NORTH VERNON", "state": "IN", "street": "330 E O AND M AVE", "postcode": "47265"}}},
{"geometry": {"type": "Point", "coordinates": [-85.6454764874, 39.0138153255]}, "type": "Feature", "properties": {"collection_times": [{"days": "Mon-Sat", "time": "9:00am"}, {"days": "Sun", "time": "Closed"}], "id": "4726500025", "name": "USPS COLLECTION BOX - BLUE BOX", "address": {"city": "NORTH VERNON", "state": "IN", "street": "1 PINE BROOK CT", "postcode": "47265"}}},
{"geometry": {"type": "Point", "coordinates": [-85.6212417649, 38.9991134054]}, "type": "Feature", "properties": {"collection_times": [{"days": "Mon-Sat", "time": "11:30am"}, {"days": "Sun", "time": "Closed"}], "id": "4726500026", "name": "USPS COLLECTION BOX - BLUE BOX", "address": {"city": "NORTH VERNON", "state": "IN", "street": "532 S STATE ST", "postcode": "47265"}}},
{"geometry": {"type": "Point", "coordinates": [-85.7593072127, 38.8764934181]}, "type": "Feature", "properties": {"collection_times": [{"days": "Mon-Sat", "time": "11:45am"}, {"days": "Sun", "time": "Closed"}], "id": "4727000001", "name": "USPS COLLECTION BOX - BLUE BOX", "address": {"city": "PARIS CROSSING", "state": "IN", "street": "1975 W STATE HIGHWAY 250", "postcode": "47270"}}},
{"geometry": {"type": "Point", "coordinates": [-85.7593072127, 38.8764934181]}, "type": "Feature", "properties": {"collection_times": [{"days": "Mon-Sat", "time": "11:45am"}, {"days": "Sun", "time": "Closed"}], "id": "4727000002", "name": "USPS COLLECTION BOX - PO LOBBY", "address": {"city": "PARIS CROSSING", "state": "IN", "street": "1975 W STATE HIGHWAY 250", "postcode": "47270"}}},
{"geometry": {"type": "Point", "coordinates": [-85.6300008213, 39.4282712199]}, "type": "Feature", "properties": {"collection_times": [{"days": "Mon-Fri", "time": "4:00pm"}, {"days": "Sat", "time": "11:00am"}, {"days": "Sun", "time": "Closed"}], "id": "4727200001", "name": "USPS COLLECTION BOX - BLUE BOX", "address": {"city": "SAINT PAUL", "state": "IN", "street": "109 E WASHINGTON ST", "postcode": "47272"}}},
{"geometry": {"type": "Point", "coordinates": [-85.6300008213, 39.4282712199]}, "type": "Feature", "properties": {"collection_times": [{"days": "Mon-Fri", "time": "4:00pm"}, {"days": "Sat", "time": "11:15am"}, {"days": "Sun", "time": "Closed"}], "id": "4727200002", "name": "USPS COLLECTION BOX - PO LOBBY", "address": {"city": "SAINT PAUL", "state": "IN", "street": "109 E WASHINGTON ST", "postcode": "47272"}}},
{"geometry": {"type": "Point", "coordinates": [-85.6300008213, 39.4282712199]}, "type": "Feature", "properties": {"collection_times": [{"days": "Mon-Fri", "time": "4:00pm"}, {"days": "Sat", "time": "11:15am"}, {"days": "Sun", "time": "Closed"}], "id": "4727200003", "name": "USPS COLLECTION BOX - PO LOBBY", "address": {"city": "SAINT PAUL", "state": "IN", "street": "109 E WASHINGTON ST", "postcode": "47272"}}},
{"geometry": {"type": "Point", "coordinates": [-85.7166104668, 39.0788093664]}, "type": "Feature", "properties": {"collection_times": [{"days": "Mon-Fri", "time": "4:15pm"}, {"days": "Sat", "time": "11:00am"}, {"days": "Sun", "time": "Closed"}], "id": "4727300001", "name": "USPS COLLECTION BOX - BLUE BOX", "address": {"city": "SCIPIO", "state": "IN", "street": "6545 N STATE HIGHWAY 7", "postcode": "47273"}}},
{"geometry": {"type": "Point", "coordinates": [-85.7166104668, 39.0788093664]}, "type": "Feature", "properties": {"collection_times": [{"days": "Mon-Fri", "time": "11:45am"}, {"days": "Sat", "time": "11:00am"}, {"days": "Sun", "time": "Closed"}], "id": "4727300002", "name": "USPS COLLECTION BOX - PO LOBBY", "address": {"city": "SCIPIO", "state": "IN", "street": "6545 N STATE HIGHWAY 7", "postcode": "47273"}}},
{"geometry": {"type": "Point", "coordinates": [-85.7166104668, 39.0788093664]}, "type": "Feature", "properties": {"collection_times": [{"days": "Mon-Fri", "time": "11:45am"}, {"days": "Sat", "time": "11:00am"}, {"days": "Sun", "time": "Closed"}], "id": "4727300003", "name": "USPS COLLECTION BOX - PO LOBBY", "address": {"city": "SCIPIO", "state": "IN", "street": "6545 N STATE HIGHWAY 7", "postcode": "47273"}}},
{"geometry": {"type": "Point", "coordinates": [-85.8643128762, 38.9580713131]}, "type": "Feature", "properties": {"collection_times": [{"days": "Mon-Sat", "time": "11:00am"}, {"days": "Sun", "time": "Closed"}], "id": "4727400003", "name": "USPS COLLECTION BOX - BLUE BOX", "address": {"city": "SEYMOUR", "state": "IN", "street": "1600 E TIPTON ST", "postcode": "47274"}}},
{"geometry": {"type": "Point", "coordinates": [-85.8671084971, 38.9581794484]}, "type": "Feature", "properties": {"collection_times": [{"days": "Mon-Sat", "time": "1:00pm"}, {"days": "Sun", "time": "Closed"}], "id": "4727400028", "name": "USPS COLLECTION BOX - BLUE BOX", "address": {"city": "SEYMOUR", "state": "IN", "street": "1501 E TIPTON ST", "postcode": "47274"}}},
{"geometry": {"type": "Point", "coordinates": [-85.8972578678, 38.9614029514]}, "type": "Feature", "properties": {"collection_times": [{"days": "Mon-Sat", "time": "11:00am"}, {"days": "Sun", "time": "Closed"}], "id": "4727400031", "name": "USPS COLLECTION BOX - BLUE BOX", "address": {"city": "SEYMOUR", "state": "IN", "street": "2690 PEBBLEBROOK DR", "postcode": "47274"}}},
{"geometry": {"type": "Point", "coordinates": [-85.8708813893, 38.958103644]}, "type": "Feature", "properties": {"collection_times": [{"days": "Mon-Sat", "time": "11:00am"}, {"days": "Sun", "time": "Closed"}], "id": "4727400034", "name": "USPS COLLECTION BOX - BLUE BOX", "address": {"city": "SEYMOUR", "state": "IN", "street": "1224 E TIPTON ST", "postcode": "47274"}}},
{"geometry": {"type": "Point", "coordinates": [-85.8932309962, 38.9554861343]}, "type": "Feature", "properties": {"collection_times": [{"days": "Mon-Sat", "time": "2:00pm"}, {"days": "Sun", "time": "Closed"}], "id": "4727400037", "name": "USPS COLLECTION BOX - BLUE BOX", "address": {"city": "SEYMOUR", "state": "IN", "street": "225 S PINE ST", "postcode": "47274"}}},
{"geometry": {"type": "Point", "coordinates": [-85.839714255, 38.9609051613]}, "type": "Feature", "properties": {"collection_times": [{"days": "Mon-Sat", "time": "12:00pm"}, {"days": "Sun", "time": "Closed"}], "id": "4727400039", "name": "USPS COLLECTION BOX - BLUE BOX", "address": {"city": "SEYMOUR", "state": "IN", "street": "357 TANGER BLVD", "postcode": "47274"}}},
{"geometry": {"type": "Point", "coordinates": [-85.8908374068, 38.9601511142]}, "type": "Feature", "properties": {"collection_times": [{"days": "Mon-Sat", "time": "4:15pm"}, {"days": "Sun", "time": "Closed"}], "id": "4727400043", "name": "USPS COLLECTION BOX - PO LOBBY", "address": {"city": "SEYMOUR", "state": "IN", "street": "321 N CHESTNUT ST", "postcode": "47274"}}},
{"geometry": {"type": "Point", "coordinates": [-85.8908374068, 38.9601511142]}, "type": "Feature", "properties": {"collection_times": [{"days": "Mon-Sat", "time": "4:15pm"}, {"days": "Sun", "time": "Closed"}], "id": "4727400044", "name": "USPS COLLECTION BOX - PO LOBBY", "address": {"city": "SEYMOUR", "state": "IN", "street": "321 N CHESTNUT ST", "postcode": "47274"}}},
{"geometry": {"type": "Point", "coordinates": [-85.8908374068, 38.9601511142]}, "type": "Feature", "properties": {"collection_times": [{"days": "Mon-Sat", "time": "4:15pm"}, {"days": "Sun", "time": "Closed"}], "id": "4727400048", "name": "USPS COLLECTION BOX - BLUE BOX", "address": {"city": "SEYMOUR", "state": "IN", "street": "321 N CHESTNUT ST", "postcode": "47274"}}},
{"geometry": {"type": "Point", "coordinates": [-85.8908374068, 38.9601511142]}, "type": "Feature", "properties": {"collection_times": [{"days": "Mon-Sat", "time": "4:15pm"}, {"days": "Sun", "time": "Closed"}], "id": "4727400049", "name": "USPS COLLECTION BOX - BLUE BOX", "address": {"city": "SEYMOUR", "state": "IN", "street": "321 N CHESTNUT ST", "postcode": "47274"}}},
{"geometry": {"type": "Point", "coordinates": [-85.8908374068, 38.9601511142]}, "type": "Feature", "properties": {"collection_times": [{"days": "Mon-Sat", "time": "4:15pm"}, {"days": "Sun", "time": "Closed"}], "id": "4727400058", "name": "USPS COLLECTION BOX - PO LOBBY", "address": {"city": "SEYMOUR", "state": "IN", "street": "321 N CHESTNUT ST", "postcode": "47274"}}},
{"geometry": {"type": "Point", "coordinates": [-85.9512058953, 39.2953660704]}, "type": "Feature", "properties": {"collection_times": [{"days": "Mon-Fri", "time": "4:00pm"}, {"days": "Sat", "time": "12:00pm"}, {"days": "Sun", "time": "Closed"}], "id": "4728000000", "name": "USPS COLLECTION BOX - BLUE BOX", "address": {"city": "TAYLORSVILLE", "state": "IN", "street": "9427 MAIN ST", "postcode": "47280"}}},
{"geometry": {"type": "Point", "coordinates": [-85.9512058953, 39.2953660704]}, "type": "Feature", "properties": {"collection_times": [{"days": "Mon-Fri", "time": "4:00pm"}, {"days": "Sat", "time": "12:00pm"}, {"days": "Sun", "time": "Closed"}], "id": "4728000001", "name": "USPS COLLECTION BOX - PO LOBBY", "address": {"city": "TAYLORSVILLE", "state": "IN", "street": "9427 MAIN ST", "postcode": "47280"}}},
{"geometry": {"type": "Point", "coordinates": [-86.0974134647, 38.8457433449]}, "type": "Feature", "properties": {"collection_times": [{"days": "Mon-Fri", "time": "3:45pm"}, {"days": "Sat", "time": "10:45am"}, {"days": "Sun", "time": "Closed"}], "id": "4728100001", "name": "USPS COLLECTION BOX - BLUE BOX", "address": {"city": "VALLONIA", "state": "IN", "street": "2380 S MAIN ST", "postcode": "47281"}}},
{"geometry": {"type": "Point", "coordinates": [-86.0974134647, 38.8457433449]}, "type": "Feature", "properties": {"collection_times": [{"days": "Mon-Fri", "time": "11:15am"}, {"days": "Sat", "time": "10:45am"}, {"days": "Sun", "time": "Closed"}], "id": "4728100002", "name": "USPS COLLECTION BOX - PO LOBBY", "address": {"city": "VALLONIA", "state": "IN", "street": "2380 S MAIN ST", "postcode": "47281"}}},
{"geometry": {"type": "Point", "coordinates": [-85.6092414164, 38.9851622649]}, "type": "Feature", "properties": {"collection_times": [{"days": "Mon-Fri", "time": "4:15pm"}, {"days": "Sat", "time": "12:00pm"}, {"days": "Sun", "time": "Closed"}], "id": "4728200001", "name": "USPS COLLECTION BOX - BLUE BOX", "address": {"city": "VERNON", "state": "IN", "street": "55 N PIKE ST", "postcode": "47282"}}},
{"geometry": {"type": "Point", "coordinates": [-85.60922556, 38.9859246157]}, "type": "Feature", "properties": {"collection_times": [{"days": "Mon-Fri", "time": "4:15pm"}, {"days": "Sat", "time": "12:00pm"}, {"days": "Sun", "time": "Closed"}], "id": "4728200002", "name": "USPS COLLECTION BOX - PO LOBBY", "address": {"city": "VERNON", "state": "IN", "street": "55 N PIKE ST", "postcode": "47282"}}},
{"geometry": {"type": "Point", "coordinates": [-85.6092414164, 38.9851622649]}, "type": "Feature", "properties": {"collection_times": [{"days": "Mon-Fri", "time": "4:15pm"}, {"days": "Sat", "time": "12:00pm"}, {"days": "Sun", "time": "Closed"}], "id": "4728200003", "name": "USPS COLLECTION BOX - PO LOBBY", "address": {"city": "VERNON", "state": "IN", "street": "55 N PIKE ST", "postcode": "47282"}}},
{"geometry": {"type": "Point", "coordinates": [-85.5749738208, 39.1758283031]}, "type": "Feature", "properties": {"collection_times": [{"days": "Mon-Fri", "time": "3:30pm"}, {"days": "Sat", "time": "12:00pm"}, {"days": "Sun", "time": "Closed"}], "id": "4728300001", "name": "USPS COLLECTION BOX - BLUE BOX", "address": {"city": "WESTPORT", "state": "IN", "street": "211 E MAIN ST", "postcode": "47283"}}},
{"geometry": {"type": "Point", "coordinates": [-85.5749738208, 39.1758283031]}, "type": "Feature", "properties": {"collection_times": [{"days": "Mon-Fri", "time": "3:30pm"}, {"days": "Sat", "time": "12:00pm"}, {"days": "Sun", "time": "Closed"}], "id": "4728300002", "name": "USPS COLLECTION BOX - PO LOBBY", "address": {"city": "WESTPORT", "state": "IN", "street": "211 E MAIN ST", "postcode": "47283"}}},
{"geometry": {"type": "Point", "coordinates": [-85.5749738208, 39.1758283031]}, "type": "Feature", "properties": {"collection_times": [{"days": "Mon-Fri", "time": "3:30pm"}, {"days": "Sat", "time": "12:00pm"}, {"days": "Sun", "time": "Closed"}], "id": "4728300003", "name": "USPS COLLECTION BOX - PO LOBBY", "address": {"city": "WESTPORT", "state": "IN", "street": "211 E MAIN ST", "postcode": "47283"}}}
]}
