{"type": "FeatureCollection", "features": [
{"geometry": {"type": "Point", "coordinates": [-85.3479254946, 40.178361612]}, "type": "Feature", "properties": {"collection_times": [{"days": "Mon-Sat", "time": "2:00pm"}, {"days": "Sun", "time": "Closed"}], "id": "4730200005", "name": "USPS COLLECTION BOX - BLUE BOX", "address": {"city": "MUNCIE", "state": "IN", "street": "3303 E MEMORIAL DR", "postcode": "47302"}}},
{"geometry": {"type": "Point", "coordinates": [-85.4047434437, 40.1541384094]}, "type": "Feature", "properties": {"collection_times": [{"days": "Mon-Fri", "time": "6:30pm"}, {"days": "Sat", "time": "6:00pm"}, {"days": "Sun", "time": "Closed"}], "id": "4730200091", "name": "USPS COLLECTION BOX - BLUE BOX", "address": {"city": "MUNCIE", "state": "IN", "street": "4300 S COWAN RD", "postcode": "47302"}}},
{"geometry": {"type": "Point", "coordinates": [-85.3918321996, 40.1783746245]}, "type": "Feature", "properties": {"collection_times": [{"days": "Mon-Fri", "time": "5:15pm"}, {"days": "Sat", "time": "3:45pm"}, {"days": "Sun", "time": "Closed"}], "id": "4730200102", "name": "USPS COLLECTION BOX - BLUE BOX", "address": {"city": "MUNCIE", "state": "IN", "street": "501 W MEMORIAL DR", "postcode": "47302"}}},
{"geometry": {"type": "Point", "coordinates": [-85.3918321996, 40.1783746245]}, "type": "Feature", "properties": {"collection_times": [{"days": "Mon-Fri", "time": "5:15pm"}, {"days": "Sat", "time": "3:45pm"}, {"days": "Sun", "time": "Closed"}], "id": "4730200131", "name": "USPS COLLECTION BOX - BLUE BOX", "address": {"city": "MUNCIE", "state": "IN", "street": "501 W MEMORIAL DR", "postcode": "47302"}}},
{"geometry": {"type": "Point", "coordinates": [-85.3918321996, 40.1783746245]}, "type": "Feature", "properties": {"collection_times": [{"days": "Mon-Fri", "time": "5:15pm"}, {"days": "Sat", "time": "3:45pm"}, {"days": "Sun", "time": "Closed"}], "id": "4730200132", "name": "USPS COLLECTION BOX - BLUE BOX", "address": {"city": "MUNCIE", "state": "IN", "street": "501 W MEMORIAL DR", "postcode": "47302"}}},
{"geometry": {"type": "Point", "coordinates": [-85.3918321996, 40.1783746245]}, "type": "Feature", "properties": {"collection_times": [{"days": "Mon-Fri", "time": "5:15pm"}, {"days": "Sat", "time": "3:45pm"}, {"days": "Sun", "time": "Closed"}], "id": "4730200133", "name": "USPS COLLECTION BOX - BLUE BOX", "address": {"city": "MUNCIE", "state": "IN", "street": "501 W MEMORIAL DR", "postcode": "47302"}}},
{"geometry": {"type": "Point", "coordinates": [-85.3918321996, 40.1783746245]}, "type": "Feature", "properties": {"collection_times": [{"days": "Mon-Fri", "time": "5:15pm"}, {"days": "Sat", "time": "3:45pm"}, {"days": "Sun", "time": "Closed"}], "id": "4730200134", "name": "USPS COLLECTION BOX - BLUE BOX", "address": {"city": "MUNCIE", "state": "IN", "street": "501 W MEMORIAL DR", "postcode": "47302"}}},
{"geometry": {"type": "Point", "coordinates": [-85.4039041811, 40.1977031765]}, "type": "Feature", "properties": {"collection_times": [{"days": "Mon-Sat", "time": "2:00pm"}, {"days": "Sun", "time": "Closed"}], "id": "4730300001", "name": "USPS COLLECTION BOX - BLUE BOX", "address": {"city": "MUNCIE", "state": "IN", "street": "1524 W UNIVERSITY AVE", "postcode": "47303"}}},
{"geometry": {"type": "Point", "coordinates": [-85.4146029767, 40.1976201839]}, "type": "Feature", "properties": {"collection_times": [{"days": "Mon-Sat", "time": "2:00pm"}, {"days": "Sun", "time": "Closed"}], "id": "4730300002", "name": "USPS COLLECTION BOX - BLUE BOX", "address": {"city": "MUNCIE", "state": "IN", "street": "2401 W UNIVERSITY AVE", "postcode": "47303"}}},
{"geometry": {"type": "Point", "coordinates": [-85.3478521512, 40.1929853507]}, "type": "Feature", "properties": {"collection_times": [{"days": "Mon-Sat", "time": "2:00pm"}, {"days": "Sun", "time": "Closed"}], "id": "4730300003", "name": "USPS COLLECTION BOX - BLUE BOX", "address": {"city": "MUNCIE", "state": "IN", "street": "3310 E JACKSON ST", "postcode": "47303"}}},
{"geometry": {"type": "Point", "coordinates": [-85.4009043119, 40.2189430193]}, "type": "Feature", "properties": {"collection_times": [{"days": "Mon-Sat", "time": "2:00pm"}, {"days": "Sun", "time": "Closed"}], "id": "4730300004", "name": "USPS COLLECTION BOX - BLUE BOX", "address": {"city": "MUNCIE", "state": "IN", "street": "1301 E MCGALLIARD RD", "postcode": "47303"}}},
{"geometry": {"type": "Point", "coordinates": [-85.3753194302, 40.2177806388]}, "type": "Feature", "properties": {"collection_times": [{"days": "Mon-Sat", "time": "2:00pm"}, {"days": "Sun", "time": "Closed"}], "id": "4730300005", "name": "USPS COLLECTION BOX - BLUE BOX", "address": {"city": "MUNCIE", "state": "IN", "street": "3040 N GRANVILLE AVE", "postcode": "47303"}}},
{"geometry": {"type": "Point", "coordinates": [-85.3888842658, 40.219700113]}, "type": "Feature", "properties": {"collection_times": [{"days": "Mon-Sat", "time": "2:00pm"}, {"days": "Sun", "time": "Closed"}], "id": "4730300006", "name": "USPS COLLECTION BOX - BLUE BOX", "address": {"city": "MUNCIE", "state": "IN", "street": "3320 N FRANKLIN ST", "postcode": "47303"}}},
{"geometry": {"type": "Point", "coordinates": [-85.3888842658, 40.219700113]}, "type": "Feature", "properties": {"collection_times": [{"days": "Mon-Sat", "time": "2:00pm"}, {"days": "Sun", "time": "Closed"}], "id": "4730300008", "name": "USPS COLLECTION BOX - BLUE BOX", "address": {"city": "MUNCIE", "state": "IN", "street": "3320 N FRANKLIN ST", "postcode": "47303"}}},
{"geometry": {"type": "Point", "coordinates": [-85.3867526784, 40.2095333393]}, "type": "Feature", "properties": {"collection_times": [{"days": "Mon-Sat", "time": "2:00pm"}, {"days": "Sun", "time": "Closed"}], "id": "4730300009", "name": "USPS COLLECTION BOX - BLUE BOX", "address": {"city": "MUNCIE", "state": "IN", "street": "1900 N WALNUT ST", "postcode": "47303"}}},
{"geometry": {"type": "Point", "coordinates": [-85.4191995272, 40.1881343199]}, "type": "Feature", "properties": {"collection_times": [{"days": "Mon-Sat", "time": "2:00pm"}, {"days": "Sun", "time": "Closed"}], "id": "4730400001", "name": "USPS COLLECTION BOX - BLUE BOX", "address": {"city": "MUNCIE", "state": "IN", "street": "715 S TILLOTSON AVE", "postcode": "47304"}}},
{"geometry": {"type": "Point", "coordinates": [-85.4366246433, 40.2185438442]}, "type": "Feature", "properties": {"collection_times": [{"days": "Mon-Fri", "time": "4:30pm"}, {"days": "Sat", "time": "2:00pm"}, {"days": "Sun", "time": "Closed"}], "id": "4730400002", "name": "USPS COLLECTION BOX - BLUE BOX", "address": {"city": "MUNCIE", "state": "IN", "street": "4319 W CLARA LN", "postcode": "47304"}}},
{"geometry": {"type": "Point", "coordinates": [-85.4337988454, 40.2234019613]}, "type": "Feature", "properties": {"collection_times": [{"days": "Mon-Sat", "time": "9:00am"}, {"days": "Sun", "time": "Closed"}], "id": "4730400003", "name": "USPS COLLECTION BOX - BLUE BOX", "address": {"city": "MUNCIE", "state": "IN", "street": "3701 N CHADAM LN", "postcode": "47304"}}},
{"geometry": {"type": "Point", "coordinates": [-85.4106566256, 40.2327564311]}, "type": "Feature", "properties": {"collection_times": [{"days": "Mon-Fri", "time": "5:00pm"}, {"days": "Sat", "time": "2:45pm"}, {"days": "Sun", "time": "Closed"}], "id": "4730400004", "name": "USPS COLLECTION BOX - BLUE BOX", "address": {"city": "MUNCIE", "state": "IN", "street": "4801 N WHEELING AVE", "postcode": "47304"}}},
{"geometry": {"type": "Point", "coordinates": [-85.4043365164, 40.2188246485]}, "type": "Feature", "properties": {"collection_times": [{"days": "Mon-Sat", "time": "2:00pm"}, {"days": "Sun", "time": "Closed"}], "id": "4730400005", "name": "USPS COLLECTION BOX - BLUE BOX", "address": {"city": "MUNCIE", "state": "IN", "street": "1515 W MCGALLIARD RD", "postcode": "47304"}}},
{"geometry": {"type": "Point", "coordinates": [-85.4085392463, 40.2160994405]}, "type": "Feature", "properties": {"collection_times": [{"days": "Mon-Fri", "time": "3:30pm"}, {"days": "Sat", "time": "2:00pm"}, {"days": "Sun", "time": "Closed"}], "id": "4730400006", "name": "USPS COLLECTION BOX - BLUE BOX", "address": {"city": "MUNCIE", "state": "IN", "street": "1926 W ROYALE DR", "postcode": "47304"}}},
{"geometry": {"type": "Point", "coordinates": [-85.4212245582, 40.1929189442]}, "type": "Feature", "properties": {"collection_times": [{"days": "Mon-Fri", "time": "4:00pm"}, {"days": "Sat", "time": "12:30pm"}, {"days": "Sun", "time": "Closed"}], "id": "4730400008", "name": "USPS COLLECTION BOX - BLUE BOX", "address": {"city": "MUNCIE", "state": "IN", "street": "2903 W JACKSON ST", "postcode": "47304"}}},
{"geometry": {"type": "Point", "coordinates": [-85.4191621006, 40.1942108962]}, "type": "Feature", "properties": {"collection_times": [{"days": "Mon-Fri", "time": "4:00pm"}, {"days": "Sat", "time": "12:30pm"}, {"days": "Sun", "time": "Closed"}], "id": "4730400009", "name": "USPS COLLECTION BOX - BLUE BOX", "address": {"city": "MUNCIE", "state": "IN", "street": "100 N TILLOTSON AVE", "postcode": "47304"}}},
{"geometry": {"type": "Point", "coordinates": [-85.4247564032, 40.2214145392]}, "type": "Feature", "properties": {"collection_times": [{"days": "Mon-Fri", "time": "4:00pm"}, {"days": "Sat", "time": "1:15pm"}, {"days": "Sun", "time": "Closed"}], "id": "4730400010", "name": "USPS COLLECTION BOX - BLUE BOX", "address": {"city": "MUNCIE", "state": "IN", "street": "3600 W FOX RIDGE LN", "postcode": "47304"}}},
{"geometry": {"type": "Point", "coordinates": [-85.4321048546, 40.2198503488]}, "type": "Feature", "properties": {"collection_times": [{"days": "Mon-Fri", "time": "4:00pm"}, {"days": "Sat", "time": "1:15pm"}, {"days": "Sun", "time": "Closed"}], "id": "4730400011", "name": "USPS COLLECTION BOX - BLUE BOX", "address": {"city": "MUNCIE", "state": "IN", "street": "3910 W BETHEL AVE", "postcode": "47304"}}},
{"geometry": {"type": "Point", "coordinates": [-85.4078116093, 40.2262040214]}, "type": "Feature", "properties": {"collection_times": [{"days": "Mon-Fri", "time": "5:00pm"}, {"days": "Sat", "time": "2:45pm"}, {"days": "Sun", "time": "Closed"}], "id": "4730400012", "name": "USPS COLLECTION BOX - BLUE BOX", "address": {"city": "MUNCIE", "state": "IN", "street": "1803 W PURDUE AVE", "postcode": "47304"}}},
{"geometry": {"type": "Point", "coordinates": [-85.4045750336, 40.2190045331]}, "type": "Feature", "properties": {"collection_times": [{"days": "Mon-Sat", "time": "2:00pm"}, {"days": "Sun", "time": "Closed"}], "id": "4730400013", "name": "USPS COLLECTION BOX - BLUE BOX", "address": {"city": "MUNCIE", "state": "IN", "street": "1500 W MCGALLIARD RD", "postcode": "47304"}}},
{"geometry": {"type": "Point", "coordinates": [-85.4587725294, 40.218384826]}, "type": "Feature", "properties": {"collection_times": [{"days": "Mon-Fri", "time": "4:30pm"}, {"days": "Sat", "time": "2:00pm"}, {"days": "Sun", "time": "Closed"}], "id": "4730400014", "name": "USPS COLLECTION BOX - BLUE BOX", "address": {"city": "MUNCIE", "state": "IN", "street": "6260 W MCGALLIARD RD", "postcode": "47304"}}},
{"geometry": {"type": "Point", "coordinates": [-85.4247564032, 40.2214145392]}, "type": "Feature", "properties": {"collection_times": [{"days": "Mon-Fri", "time": "4:00pm"}, {"days": "Sat", "time": "1:15pm"}, {"days": "Sun", "time": "Closed"}], "id": "4730400015", "name": "USPS COLLECTION BOX - BLUE BOX", "address": {"city": "MUNCIE", "state": "IN", "street": "3600 W FOX RIDGE LN", "postcode": "47304"}}},
{"geometry": {"type": "Point", "coordinates": [-85.4085392463, 40.2160994405]}, "type": "Feature", "properties": {"collection_times": [{"days": "Mon-Fri", "time": "3:30pm"}, {"days": "Sat", "time": "2:00pm"}, {"days": "Sun", "time": "Closed"}], "id": "4730400016", "name": "USPS COLLECTION BOX - BLUE BOX", "address": {"city": "MUNCIE", "state": "IN", "street": "1926 W ROYALE DR", "postcode": "47304"}}},
{"geometry": {"type": "Point", "coordinates": [-85.3876425277, 40.1902659809]}, "type": "Feature", "properties": {"collection_times": [{"days": "Mon-Sat", "time": "9:00am"}, {"days": "Sun", "time": "Closed"}], "id": "4730500001", "name": "USPS COLLECTION BOX - BLUE BOX", "address": {"city": "MUNCIE", "state": "IN", "street": "420 S HIGH ST", "postcode": "47305"}}},
{"geometry": {"type": "Point", "coordinates": [-85.3888002758, 40.1931450501]}, "type": "Feature", "properties": {"collection_times": [{"days": "Mon-Fri", "time": "5:15pm"}, {"days": "Sat", "time": "3:30pm"}, {"days": "Sun", "time": "Closed"}], "id": "4730500002", "name": "USPS COLLECTION BOX - BLUE BOX", "address": {"city": "MUNCIE", "state": "IN", "street": "125 S FRANKLIN ST", "postcode": "47305"}}},
{"geometry": {"type": "Point", "coordinates": [-85.3888002758, 40.1931450501]}, "type": "Feature", "properties": {"collection_times": [{"days": "Mon-Fri", "time": "5:15pm"}, {"days": "Sat", "time": "3:30pm"}, {"days": "Sun", "time": "Closed"}], "id": "4730500003", "name": "USPS COLLECTION BOX - BLUE BOX", "address": {"city": "MUNCIE", "state": "IN", "street": "125 S FRANKLIN ST", "postcode": "47305"}}},
{"geometry": {"type": "Point", "coordinates": [-85.3871015467, 40.1936608203]}, "type": "Feature", "properties": {"collection_times": [{"days": "Mon-Sat", "time": "9:00am"}, {"days": "Sun", "time": "Closed"}], "id": "4730500005", "name": "USPS COLLECTION BOX - BLUE BOX", "address": {"city": "MUNCIE", "state": "IN", "street": "100 W MAIN ST", "postcode": "47305"}}},
{"geometry": {"type": "Point", "coordinates": [-85.38669354, 40.195391008]}, "type": "Feature", "properties": {"collection_times": [{"days": "Mon-Sat", "time": "9:00am"}, {"days": "Sun", "time": "Closed"}], "id": "4730500006", "name": "USPS COLLECTION BOX - BLUE BOX", "address": {"city": "MUNCIE", "state": "IN", "street": "125 W GILBERT ST", "postcode": "47305"}}},
{"geometry": {"type": "Point", "coordinates": [-85.3888002758, 40.1931450501]}, "type": "Feature", "properties": {"collection_times": [{"days": "Mon-Fri", "time": "5:15pm"}, {"days": "Sat", "time": "3:30pm"}, {"days": "Sun", "time": "Closed"}], "id": "4730500007", "name": "USPS COLLECTION BOX - BLUE BOX", "address": {"city": "MUNCIE", "state": "IN", "street": "125 S FRANKLIN ST", "postcode": "47305"}}},
{"geometry": {"type": "Point", "coordinates": [-85.3884394733, 40.1936809306]}, "type": "Feature", "properties": {"collection_times": [{"days": "Mon-Fri", "time": "5:00pm"}, {"days": "Sat", "time": "3:15pm"}, {"days": "Sun", "time": "Closed"}], "id": "4730500008", "name": "USPS COLLECTION BOX - BLUE BOX", "address": {"city": "MUNCIE", "state": "IN", "street": "221 E MAIN ST", "postcode": "47305"}}},
{"geometry": {"type": "Point", "coordinates": [-85.408851218, 40.197623695]}, "type": "Feature", "properties": {"collection_times": [{"days": "Mon-Sat", "time": "9:00am"}, {"days": "Sun", "time": "Closed"}], "id": "4730600001", "name": "USPS COLLECTION BOX - BLUE BOX", "address": {"city": "MUNCIE", "state": "IN", "street": "2001 W UNIVERSITY AVE", "postcode": "47306"}}},
{"geometry": {"type": "Point", "coordinates": [-85.2357542872, 40.2998759543]}, "type": "Feature", "properties": {"collection_times": [{"days": "Mon-Fri", "time": "4:00pm"}, {"days": "Sat", "time": "11:00am"}, {"days": "Sun", "time": "Closed"}], "id": "4732000000", "name": "USPS COLLECTION BOX - BLUE BOX", "address": {"city": "ALBANY", "state": "IN", "street": "230 E STATE ST", "postcode": "47320"}}},
{"geometry": {"type": "Point", "coordinates": [-85.2470122466, 40.2996427728]}, "type": "Feature", "properties": {"collection_times": [{"days": "Mon-Fri", "time": "8:00am"}, {"days": "Sat-Sun", "time": "Closed"}], "id": "4732000002", "name": "USPS COLLECTION BOX - BLUE BOX", "address": {"city": "ALBANY", "state": "IN", "street": "913 W STATE ST", "postcode": "47320"}}},
{"geometry": {"type": "Point", "coordinates": [-85.2357542872, 40.2998759543]}, "type": "Feature", "properties": {"collection_times": [{"days": "Mon-Fri", "time": "4:00pm"}, {"days": "Sat", "time": "11:00am"}, {"days": "Sun", "time": "Closed"}], "id": "4732000007", "name": "USPS COLLECTION BOX - PO LOBBY", "address": {"city": "ALBANY", "state": "IN", "street": "230 E STATE ST", "postcode": "47320"}}},
{"geometry": {"type": "Point", "coordinates": [-85.2426984159, 39.744908475]}, "type": "Feature", "properties": {"collection_times": [{"days": "Mon-Fri", "time": "4:00pm"}, {"days": "Sat", "time": "9:30am"}, {"days": "Sun", "time": "Closed"}], "id": "4732200001", "name": "USPS COLLECTION BOX - BLUE BOX", "address": {"city": "BENTONVILLE", "state": "IN", "street": "7029 N COUNTY ROAD 550 W", "postcode": "47322"}}},
{"geometry": {"type": "Point", "coordinates": [-84.8518800437, 39.7407543339]}, "type": "Feature", "properties": {"collection_times": [{"days": "Mon-Fri", "time": "4:00pm"}, {"days": "Sat", "time": "10:00am"}, {"days": "Sun", "time": "Closed"}], "id": "4732400001", "name": "USPS COLLECTION BOX - BLUE BOX", "address": {"city": "BOSTON", "state": "IN", "street": "103 S SALEM ST", "postcode": "47324"}}},
{"geometry": {"type": "Point", "coordinates": [-84.8518800437, 39.7407543339]}, "type": "Feature", "properties": {"collection_times": [{"days": "Mon-Fri", "time": "10:45am"}, {"days": "Sat", "time": "10:00am"}, {"days": "Sun", "time": "Closed"}], "id": "4732400002", "name": "USPS COLLECTION BOX - PO LOBBY", "address": {"city": "BOSTON", "state": "IN", "street": "103 S SALEM ST", "postcode": "47324"}}},
{"geometry": {"type": "Point", "coordinates": [-85.0042674924, 39.6657624859]}, "type": "Feature", "properties": {"collection_times": [{"days": "Mon-Fri", "time": "1:30pm"}, {"days": "Sat", "time": "11:15am"}, {"days": "Sun", "time": "Closed"}], "id": "4732500000", "name": "USPS COLLECTION BOX - BLUE BOX", "address": {"city": "BROWNSVILLE", "state": "IN", "street": "104 N MAIN ST", "postcode": "47325"}}},
{"geometry": {"type": "Point", "coordinates": [-85.0042674924, 39.6657624859]}, "type": "Feature", "properties": {"collection_times": [{"days": "Mon-Fri", "time": "1:30pm"}, {"days": "Sat", "time": "11:15am"}, {"days": "Sun", "time": "Closed"}], "id": "4732500001", "name": "USPS COLLECTION BOX - PO LOBBY", "address": {"city": "BROWNSVILLE", "state": "IN", "street": "104 N MAIN ST", "postcode": "47325"}}},
{"geometry": {"type": "Point", "coordinates": [-84.9643563514, 40.5409369044]}, "type": "Feature", "properties": {"collection_times": [{"days": "Mon-Fri", "time": "12:30pm"}, {"days": "Sat-Sun", "time": "Closed"}], "id": "4732600000", "name": "USPS COLLECTION BOX - BLUE BOX", "address": {"city": "BRYANT", "state": "IN", "street": "893 E STATE ROAD 18", "postcode": "47326"}}},
{"geometry": {"type": "Point", "coordinates": [-84.9643708097, 40.5337924217]}, "type": "Feature", "properties": {"collection_times": [{"days": "Mon-Fri", "time": "4:00pm"}, {"days": "Sat", "time": "10:00am"}, {"days": "Sun", "time": "Closed"}], "id": "4732600001", "name": "USPS COLLECTION BOX - BLUE BOX", "address": {"city": "BRYANT", "state": "IN", "street": "104 E MAIN ST", "postcode": "47326"}}},
{"geometry": {"type": "Point", "coordinates": [-84.9643708097, 40.5337924217]}, "type": "Feature", "properties": {"collection_times": [{"days": "Mon-Fri", "time": "4:00pm"}, {"days": "Sat", "time": "10:15am"}, {"days": "Sun", "time": "Closed"}], "id": "4732600002", "name": "USPS COLLECTION BOX - PO LOBBY", "address": {"city": "BRYANT", "state": "IN", "street": "104 E MAIN ST", "postcode": "47326"}}},
{"geometry": {"type": "Point", "coordinates": [-85.1746705076, 39.8124049754]}, "type": "Feature", "properties": {"collection_times": [{"days": "Mon-Fri", "time": "4:45pm"}, {"days": "Sat", "time": "1:45pm"}, {"days": "Sun", "time": "Closed"}], "id": "4732700005", "name": "USPS COLLECTION BOX - BLUE BOX", "address": {"city": "CAMBRIDGE CITY", "state": "IN", "street": "227 W MAIN ST", "postcode": "47327"}}},
{"geometry": {"type": "Point", "coordinates": [-85.1747639613, 39.8124014266]}, "type": "Feature", "properties": {"collection_times": [{"days": "Mon-Fri", "time": "4:45pm"}, {"days": "Sat", "time": "1:45pm"}, {"days": "Sun", "time": "Closed"}], "id": "4732700006", "name": "USPS COLLECTION BOX - BLUE BOX", "address": {"city": "CAMBRIDGE CITY", "state": "IN", "street": "238 W MAIN ST", "postcode": "47327"}}},
{"geometry": {"type": "Point", "coordinates": [-85.1746705076, 39.8124049754]}, "type": "Feature", "properties": {"collection_times": [{"days": "Mon-Fri", "time": "4:45pm"}, {"days": "Sat", "time": "1:45pm"}, {"days": "Sun", "time": "Closed"}], "id": "4732700011", "name": "USPS COLLECTION BOX - PO LOBBY", "address": {"city": "CAMBRIDGE CITY", "state": "IN", "street": "227 W MAIN ST", "postcode": "47327"}}},
{"geometry": {"type": "Point", "coordinates": [-84.9931657857, 39.8178137517]}, "type": "Feature", "properties": {"collection_times": [{"days": "Mon-Fri", "time": "4:15pm"}, {"days": "Sat", "time": "2:15pm"}, {"days": "Sun", "time": "Closed"}], "id": "4733000002", "name": "USPS COLLECTION BOX - BLUE BOX", "address": {"city": "CENTERVILLE", "state": "IN", "street": "300 E MAIN ST", "postcode": "47330"}}},
{"geometry": {"type": "Point", "coordinates": [-84.993050095, 39.8177232873]}, "type": "Feature", "properties": {"collection_times": [{"days": "Mon-Fri", "time": "4:00pm"}, {"days": "Sat", "time": "2:15pm"}, {"days": "Sun", "time": "Closed"}], "id": "4733000003", "name": "USPS COLLECTION BOX - BLUE BOX", "address": {"city": "CENTERVILLE", "state": "IN", "street": "301 E MAIN ST", "postcode": "47330"}}},
{"geometry": {"type": "Point", "coordinates": [-84.9931657857, 39.8178137517]}, "type": "Feature", "properties": {"collection_times": [{"days": "Mon-Fri", "time": "4:15pm"}, {"days": "Sat", "time": "11:30am"}, {"days": "Sun", "time": "Closed"}], "id": "4733000007", "name": "USPS COLLECTION BOX - PO LOBBY", "address": {"city": "CENTERVILLE", "state": "IN", "street": "300 E MAIN ST", "postcode": "47330"}}},
{"geometry": {"type": "Point", "coordinates": [-85.137255426, 39.64425054]}, "type": "Feature", "properties": {"collection_times": [{"days": "Mon-Fri", "time": "4:45pm"}, {"days": "Sat", "time": "2:30pm"}, {"days": "Sun", "time": "Closed"}], "id": "4733100005", "name": "USPS COLLECTION BOX - BLUE BOX", "address": {"city": "CONNERSVILLE", "state": "IN", "street": "801 N CENTRAL AVE", "postcode": "47331"}}},
{"geometry": {"type": "Point", "coordinates": [-85.1294473167, 39.6388751623]}, "type": "Feature", "properties": {"collection_times": [{"days": "Mon-Sat", "time": "2:15pm"}, {"days": "Sun", "time": "Closed"}], "id": "4733100007", "name": "USPS COLLECTION BOX - BLUE BOX", "address": {"city": "CONNERSVILLE", "state": "IN", "street": "100 VINE ST", "postcode": "47331"}}},
{"geometry": {"type": "Point", "coordinates": [-85.1348729442, 39.6717038274]}, "type": "Feature", "properties": {"collection_times": [{"days": "Mon-Sat", "time": "2:15pm"}, {"days": "Sun", "time": "Closed"}], "id": "4733100024", "name": "USPS COLLECTION BOX - BLUE BOX", "address": {"city": "CONNERSVILLE", "state": "IN", "street": "522 W 30TH ST", "postcode": "47331"}}},
{"geometry": {"type": "Point", "coordinates": [-85.1320505433, 39.6560366788]}, "type": "Feature", "properties": {"collection_times": [{"days": "Mon-Sat", "time": "2:15pm"}, {"days": "Sun", "time": "Closed"}], "id": "4733100030", "name": "USPS COLLECTION BOX - BLUE BOX", "address": {"city": "CONNERSVILLE", "state": "IN", "street": "1941 VIRGINIA AVE", "postcode": "47331"}}},
{"geometry": {"type": "Point", "coordinates": [-85.1477650369, 39.6401831146]}, "type": "Feature", "properties": {"collection_times": [{"days": "Mon-Sat", "time": "2:00pm"}, {"days": "Sun", "time": "Closed"}], "id": "4733100036", "name": "USPS COLLECTION BOX - BLUE BOX", "address": {"city": "CONNERSVILLE", "state": "IN", "street": "513 W 3RD ST", "postcode": "47331"}}},
{"geometry": {"type": "Point", "coordinates": [-85.1384450721, 39.6846498847]}, "type": "Feature", "properties": {"collection_times": [{"days": "Mon-Sat", "time": "2:00pm"}, {"days": "Sun", "time": "Closed"}], "id": "4733100039", "name": "USPS COLLECTION BOX - BLUE BOX", "address": {"city": "CONNERSVILLE", "state": "IN", "street": "4200 WESTERN AVE", "postcode": "47331"}}},
{"geometry": {"type": "Point", "coordinates": [-85.1282887241, 39.6717328867]}, "type": "Feature", "properties": {"collection_times": [{"days": "Mon-Sat", "time": "2:00pm"}, {"days": "Sun", "time": "Closed"}], "id": "4733100041", "name": "USPS COLLECTION BOX - BLUE BOX", "address": {"city": "CONNERSVILLE", "state": "IN", "street": "200 E 30TH ST", "postcode": "47331"}}},
{"geometry": {"type": "Point", "coordinates": [-85.1404737187, 39.6398252793]}, "type": "Feature", "properties": {"collection_times": [{"days": "Mon-Sat", "time": "2:15pm"}, {"days": "Sun", "time": "Closed"}], "id": "4733100043", "name": "USPS COLLECTION BOX - BLUE BOX", "address": {"city": "CONNERSVILLE", "state": "IN", "street": "400 N CENTRAL AVE", "postcode": "47331"}}},
{"geometry": {"type": "Point", "coordinates": [-85.137255426, 39.64425054]}, "type": "Feature", "properties": {"collection_times": [{"days": "Mon-Fri", "time": "4:45pm"}, {"days": "Sat", "time": "2:45pm"}, {"days": "Sun", "time": "Closed"}], "id": "4733100045", "name": "USPS COLLECTION BOX - PO LOBBY", "address": {"city": "CONNERSVILLE", "state": "IN", "street": "801 N CENTRAL AVE", "postcode": "47331"}}},
{"geometry": {"type": "Point", "coordinates": [-85.137255426, 39.64425054]}, "type": "Feature", "properties": {"collection_times": [{"days": "Mon-Fri", "time": "4:45pm"}, {"days": "Sat", "time": "2:30pm"}, {"days": "Sun", "time": "Closed"}], "id": "4733100046", "name": "USPS COLLECTION BOX - BLUE BOX", "address": {"city": "CONNERSVILLE", "state": "IN", "street": "801 N CENTRAL AVE", "postcode": "47331"}}},
{"geometry": {"type": "Point", "coordinates": [-85.137255426, 39.64425054]}, "type": "Feature", "properties": {"collection_times": [{"days": "Mon-Fri", "time": "4:45pm"}, {"days": "Sat", "time": "2:30pm"}, {"days": "Sun", "time": "Closed"}], "id": "4733100047", "name": "USPS COLLECTION BOX - BLUE BOX", "address": {"city": "CONNERSVILLE", "state": "IN", "street": "801 N CENTRAL AVE", "postcode": "47331"}}},
{"geometry": {"type": "Point", "coordinates": [-85.137255426, 39.64425054]}, "type": "Feature", "properties": {"collection_times": [{"days": "Mon-Fri", "time": "4:45pm"}, {"days": "Sat", "time": "2:30pm"}, {"days": "Sun", "time": "Closed"}], "id": "4733100048", "name": "USPS COLLECTION BOX - BLUE BOX", "address": {"city": "CONNERSVILLE", "state": "IN", "street": "801 N CENTRAL AVE", "postcode": "47331"}}},
{"geometry": {"type": "Point", "coordinates": [-85.5376087276, 40.1178913403]}, "type": "Feature", "properties": {"collection_times": [{"days": "Mon-Fri", "time": "4:00pm"}, {"days": "Sat", "time": "10:00am"}, {"days": "Sun", "time": "Closed"}], "id": "4733400000", "name": "USPS COLLECTION BOX - BLUE BOX", "address": {"city": "DALEVILLE", "state": "IN", "street": "8109 S WALNUT ST", "postcode": "47334"}}},
{"geometry": {"type": "Point", "coordinates": [-85.5571126965, 40.122089853]}, "type": "Feature", "properties": {"collection_times": [{"days": "Mon-Fri", "time": "4:00pm"}, {"days": "Sat", "time": "10:00am"}, {"days": "Sun", "time": "Closed"}], "id": "4733400001", "name": "USPS COLLECTION BOX - PO LOBBY", "address": {"city": "DALEVILLE", "state": "IN", "street": "7924 S WALNUT ST", "postcode": "47334"}}},
{"geometry": {"type": "Point", "coordinates": [-85.2073563887, 39.8121343386]}, "type": "Feature", "properties": {"collection_times": [{"days": "Mon-Fri", "time": "4:00pm"}, {"days": "Sat", "time": "11:00am"}, {"days": "Sun", "time": "Closed"}], "id": "4733500001", "name": "USPS COLLECTION BOX - BLUE BOX", "address": {"city": "DUBLIN", "state": "IN", "street": "2183 E CUMBERLAND ST", "postcode": "47335"}}},
{"geometry": {"type": "Point", "coordinates": [-85.2073563887, 39.8121343386]}, "type": "Feature", "properties": {"collection_times": [{"days": "Mon-Fri", "time": "11:45am"}, {"days": "Sat", "time": "11:00am"}, {"days": "Sun", "time": "Closed"}], "id": "4733500002", "name": "USPS COLLECTION BOX - PO LOBBY", "address": {"city": "DUBLIN", "state": "IN", "street": "2183 E CUMBERLAND ST", "postcode": "47335"}}},
{"geometry": {"type": "Point", "coordinates": [-85.2105923661, 40.3744444967]}, "type": "Feature", "properties": {"collection_times": [{"days": "Mon-Fri", "time": "4:15pm"}, {"days": "Sat", "time": "11:00am"}, {"days": "Sun", "time": "Closed"}], "id": "4733600009", "name": "USPS COLLECTION BOX - PO LOBBY", "address": {"city": "DUNKIRK", "state": "IN", "street": "123 W COMMERCE ST", "postcode": "47336"}}},
{"geometry": {"type": "Point", "coordinates": [-85.2105923661, 40.3744444967]}, "type": "Feature", "properties": {"collection_times": [{"days": "Mon-Fri", "time": "4:15pm"}, {"days": "Sat", "time": "11:00am"}, {"days": "Sun", "time": "Closed"}], "id": "4733600010", "name": "USPS COLLECTION BOX - BLUE BOX", "address": {"city": "DUNKIRK", "state": "IN", "street": "123 W COMMERCE ST", "postcode": "47336"}}},
{"geometry": {"type": "Point", "coordinates": [-85.4391773545, 39.8042589273]}, "type": "Feature", "properties": {"collection_times": [{"days": "Mon-Fri", "time": "4:00pm"}, {"days": "Sat", "time": "9:45am"}, {"days": "Sun", "time": "Closed"}], "id": "4733700001", "name": "USPS COLLECTION BOX - BLUE BOX", "address": {"city": "DUNREITH", "state": "IN", "street": "205 WASHINGTON ST", "postcode": "47337"}}},
{"geometry": {"type": "Point", "coordinates": [-85.4391773545, 39.8042589273]}, "type": "Feature", "properties": {"collection_times": [{"days": "Mon-Fri", "time": "11:15am"}, {"days": "Sat", "time": "9:45am"}, {"days": "Sun", "time": "Closed"}], "id": "4733700002", "name": "USPS COLLECTION BOX - PO LOBBY", "address": {"city": "DUNREITH", "state": "IN", "street": "205 WASHINGTON ST", "postcode": "47337"}}},
{"geometry": {"type": "Point", "coordinates": [-85.354389141, 40.3418416964]}, "type": "Feature", "properties": {"collection_times": [{"days": "Mon-Fri", "time": "3:30pm"}, {"days": "Sat", "time": "10:15am"}, {"days": "Sun", "time": "Closed"}], "id": "4733800001", "name": "USPS COLLECTION BOX - BLUE BOX", "address": {"city": "EATON", "state": "IN", "street": "119 E HARRIS ST", "postcode": "47338"}}},
{"geometry": {"type": "Point", "coordinates": [-85.3452466441, 40.3398038062]}, "type": "Feature", "properties": {"collection_times": [{"days": "Mon-Sat", "time": "9:00am"}, {"days": "Sun", "time": "Closed"}], "id": "4733800002", "name": "USPS COLLECTION BOX - BLUE BOX", "address": {"city": "EATON", "state": "IN", "street": "17000 N STATE ROAD 3N", "postcode": "47338"}}},
{"geometry": {"type": "Point", "coordinates": [-85.354389141, 40.3418416964]}, "type": "Feature", "properties": {"collection_times": [{"days": "Mon-Fri", "time": "3:30pm"}, {"days": "Sat", "time": "10:15am"}, {"days": "Sun", "time": "Closed"}], "id": "4733800003", "name": "USPS COLLECTION BOX - PO LOBBY", "address": {"city": "EATON", "state": "IN", "street": "119 E HARRIS ST", "postcode": "47338"}}},
{"geometry": {"type": "Point", "coordinates": [-85.088057801, 39.9778772755]}, "type": "Feature", "properties": {"collection_times": [{"days": "Mon-Fri", "time": "4:15pm"}, {"days": "Sat", "time": "10:00am"}, {"days": "Sun", "time": "Closed"}], "id": "4733900001", "name": "USPS COLLECTION BOX - BLUE BOX", "address": {"city": "ECONOMY", "state": "IN", "street": "218 MAIN ST", "postcode": "47339"}}},
{"geometry": {"type": "Point", "coordinates": [-85.088057801, 39.9778772755]}, "type": "Feature", "properties": {"collection_times": [{"days": "Mon-Fri", "time": "4:15pm"}, {"days": "Sat", "time": "10:00am"}, {"days": "Sun", "time": "Closed"}], "id": "4733900002", "name": "USPS COLLECTION BOX - PO LOBBY", "address": {"city": "ECONOMY", "state": "IN", "street": "218 MAIN ST", "postcode": "47339"}}},
{"geometry": {"type": "Point", "coordinates": [-85.1276696407, 40.188331445]}, "type": "Feature", "properties": {"collection_times": [{"days": "Mon-Fri", "time": "4:00pm"}, {"days": "Sat", "time": "10:00am"}, {"days": "Sun", "time": "Closed"}], "id": "4734000001", "name": "USPS COLLECTION BOX - BLUE BOX", "address": {"city": "FARMLAND", "state": "IN", "street": "111 S MAIN ST", "postcode": "47340"}}},
{"geometry": {"type": "Point", "coordinates": [-85.1276696407, 40.188331445]}, "type": "Feature", "properties": {"collection_times": [{"days": "Mon-Fri", "time": "2:15pm"}, {"days": "Sat", "time": "10:00am"}, {"days": "Sun", "time": "Closed"}], "id": "4734000004", "name": "USPS COLLECTION BOX - PO LOBBY", "address": {"city": "FARMLAND", "state": "IN", "street": "111 S MAIN ST", "postcode": "47340"}}},
{"geometry": {"type": "Point", "coordinates": [-84.9179920714, 39.9548675406]}, "type": "Feature", "properties": {"collection_times": [{"days": "Mon-Fri", "time": "4:30pm"}, {"days": "Sat", "time": "11:30am"}, {"days": "Sun", "time": "Closed"}], "id": "4734100001", "name": "USPS COLLECTION BOX - BLUE BOX", "address": {"city": "FOUNTAIN CITY", "state": "IN", "street": "104 S WALNUT ST", "postcode": "47341"}}},
{"geometry": {"type": "Point", "coordinates": [-84.9179920714, 39.9548675406]}, "type": "Feature", "properties": {"collection_times": [{"days": "Mon-Fri", "time": "4:30pm"}, {"days": "Sat", "time": "11:30am"}, {"days": "Sun", "time": "Closed"}], "id": "4734100002", "name": "USPS COLLECTION BOX - PO LOBBY", "address": {"city": "FOUNTAIN CITY", "state": "IN", "street": "104 S WALNUT ST", "postcode": "47341"}}},
{"geometry": {"type": "Point", "coordinates": [-85.5010634632, 40.3136990167]}, "type": "Feature", "properties": {"collection_times": [{"days": "Mon-Fri", "time": "3:30pm"}, {"days": "Sat", "time": "10:00am"}, {"days": "Sun", "time": "Closed"}], "id": "4734200001", "name": "USPS COLLECTION BOX - BLUE BOX", "address": {"city": "GASTON", "state": "IN", "street": "111 W ELM ST", "postcode": "47342"}}},
{"geometry": {"type": "Point", "coordinates": [-85.5010634632, 40.3136990167]}, "type": "Feature", "properties": {"collection_times": [{"days": "Mon-Fri", "time": "2:45pm"}, {"days": "Sat", "time": "10:30am"}, {"days": "Sun", "time": "Closed"}], "id": "4734200002", "name": "USPS COLLECTION BOX - PO LOBBY", "address": {"city": "GASTON", "state": "IN", "street": "111 W ELM ST", "postcode": "47342"}}},
{"geometry": {"type": "Point", "coordinates": [-85.4647102819, 39.8779337341]}, "type": "Feature", "properties": {"collection_times": [{"days": "Mon-Fri", "time": "4:00pm"}, {"days": "Sat", "time": "10:15am"}, {"days": "Sun", "time": "Closed"}], "id": "4734400000", "name": "USPS COLLECTION BOX - BLUE BOX", "address": {"city": "GREENSBORO", "state": "IN", "street": "260 N HIGH ST", "postcode": "47344"}}},
{"geometry": {"type": "Point", "coordinates": [-85.4647102819, 39.8779337341]}, "type": "Feature", "properties": {"collection_times": [{"days": "Mon-Fri", "time": "4:00pm"}, {"days": "Sat", "time": "10:15am"}, {"days": "Sun", "time": "Closed"}], "id": "4734400001", "name": "USPS COLLECTION BOX - PO LOBBY", "address": {"city": "GREENSBORO", "state": "IN", "street": "260 N HIGH ST", "postcode": "47344"}}},
{"geometry": {"type": "Point", "coordinates": [-85.4644388349, 39.8800804993]}, "type": "Feature", "properties": {"collection_times": [{"days": "Mon-Sat", "time": "9:00am"}, {"days": "Sun", "time": "Closed"}], "id": "4734400002", "name": "USPS COLLECTION BOX - BLUE BOX", "address": {"city": "GREENSBORO", "state": "IN", "street": "210 N HIGH ST", "postcode": "47344"}}},
{"geometry": {"type": "Point", "coordinates": [-85.042827365, 39.89235644]}, "type": "Feature", "properties": {"collection_times": [{"days": "Mon-Fri", "time": "4:30pm"}, {"days": "Sat", "time": "10:15am"}, {"days": "Sun", "time": "Closed"}], "id": "4734500001", "name": "USPS COLLECTION BOX - BLUE BOX", "address": {"city": "GREENS FORK", "state": "IN", "street": "15 S MAIN ST", "postcode": "47345"}}},
{"geometry": {"type": "Point", "coordinates": [-85.042827365, 39.89235644]}, "type": "Feature", "properties": {"collection_times": [{"days": "Mon-Fri", "time": "11:45am"}, {"days": "Sat", "time": "10:15am"}, {"days": "Sun", "time": "Closed"}], "id": "4734500002", "name": "USPS COLLECTION BOX - PO LOBBY", "address": {"city": "GREENS FORK", "state": "IN", "street": "15 S MAIN ST", "postcode": "47345"}}},
{"geometry": {"type": "Point", "coordinates": [-85.1614734174, 39.910836625]}, "type": "Feature", "properties": {"collection_times": [{"days": "Mon-Fri", "time": "4:30pm"}, {"days": "Sat", "time": "11:00am"}, {"days": "Sun", "time": "Closed"}], "id": "4734600000", "name": "USPS COLLECTION BOX - BLUE BOX", "address": {"city": "HAGERSTOWN", "state": "IN", "street": "10 W MAIN ST", "postcode": "47346"}}},
{"geometry": {"type": "Point", "coordinates": [-85.1614734174, 39.910836625]}, "type": "Feature", "properties": {"collection_times": [{"days": "Mon-Fri", "time": "4:30pm"}, {"days": "Sat", "time": "11:00am"}, {"days": "Sun", "time": "Closed"}], "id": "4734600002", "name": "USPS COLLECTION BOX - PO LOBBY", "address": {"city": "HAGERSTOWN", "state": "IN", "street": "10 W MAIN ST", "postcode": "47346"}}},
{"geometry": {"type": "Point", "coordinates": [-85.3684410951, 40.4510747556]}, "type": "Feature", "properties": {"collection_times": [{"days": "Mon-Fri", "time": "4:00pm"}, {"days": "Sat", "time": "3:00pm"}, {"days": "Sun", "time": "Closed"}], "id": "4734800000", "name": "USPS COLLECTION BOX - BLUE BOX", "address": {"city": "HARTFORD CITY", "state": "IN", "street": "123 S HIGH ST", "postcode": "47348"}}},
{"geometry": {"type": "Point", "coordinates": [-85.3684410951, 40.4510747556]}, "type": "Feature", "properties": {"collection_times": [{"days": "Mon-Fri", "time": "4:00pm"}, {"days": "Sat", "time": "3:00pm"}, {"days": "Sun", "time": "Closed"}], "id": "4734800001", "name": "USPS COLLECTION BOX - BLUE BOX", "address": {"city": "HARTFORD CITY", "state": "IN", "street": "123 S HIGH ST", "postcode": "47348"}}},
{"geometry": {"type": "Point", "coordinates": [-85.3701445327, 40.4652846493]}, "type": "Feature", "properties": {"collection_times": [{"days": "Mon-Sat", "time": "12:00pm"}, {"days": "Sun", "time": "Closed"}], "id": "4734800002", "name": "USPS COLLECTION BOX - BLUE BOX", "address": {"city": "HARTFORD CITY", "state": "IN", "street": "1711 N WALNUT ST", "postcode": "47348"}}},
{"geometry": {"type": "Point", "coordinates": [-85.370041665, 40.4563863038]}, "type": "Feature", "properties": {"collection_times": [{"days": "Mon-Sat", "time": "7:30am"}, {"days": "Sun", "time": "Closed"}], "id": "4734800006", "name": "USPS COLLECTION BOX - BLUE BOX", "address": {"city": "HARTFORD CITY", "state": "IN", "street": "700 N WALNUT ST", "postcode": "47348"}}},
{"geometry": {"type": "Point", "coordinates": [-85.3684410951, 40.4510747556]}, "type": "Feature", "properties": {"collection_times": [{"days": "Mon-Fri", "time": "4:00pm"}, {"days": "Sat", "time": "3:00pm"}, {"days": "Sun", "time": "Closed"}], "id": "4734800019", "name": "USPS COLLECTION BOX - PO LOBBY", "address": {"city": "HARTFORD CITY", "state": "IN", "street": "123 S HIGH ST", "postcode": "47348"}}},
{"geometry": {"type": "Point", "coordinates": [-85.3684410951, 40.4510747556]}, "type": "Feature", "properties": {"collection_times": [{"days": "Mon-Fri", "time": "4:00pm"}, {"days": "Sat", "time": "3:00pm"}, {"days": "Sun", "time": "Closed"}], "id": "4734800020", "name": "USPS COLLECTION BOX - PO LOBBY", "address": {"city": "HARTFORD CITY", "state": "IN", "street": "123 S HIGH ST", "postcode": "47348"}}},
{"geometry": {"type": "Point", "coordinates": [-85.5192804048, 39.9041979647]}, "type": "Feature", "properties": {"collection_times": [{"days": "Mon-Fri", "time": "4:00pm"}, {"days": "Sat", "time": "10:45am"}, {"days": "Sun", "time": "Closed"}], "id": "4735100000", "name": "USPS COLLECTION BOX - BLUE BOX", "address": {"city": "KENNARD", "state": "IN", "street": "100 N MAIN ST", "postcode": "47351"}}},
{"geometry": {"type": "Point", "coordinates": [-85.5192804048, 39.9041979647]}, "type": "Feature", "properties": {"collection_times": [{"days": "Mon-Fri", "time": "4:00pm"}, {"days": "Sat", "time": "10:45am"}, {"days": "Sun", "time": "Closed"}], "id": "4735100001", "name": "USPS COLLECTION BOX - PO LOBBY", "address": {"city": "KENNARD", "state": "IN", "street": "100 N MAIN ST", "postcode": "47351"}}},
{"geometry": {"type": "Point", "coordinates": [-85.3524959076, 39.8069720753]}, "type": "Feature", "properties": {"collection_times": [{"days": "Mon-Fri", "time": "4:00pm"}, {"days": "Sat", "time": "10:45am"}, {"days": "Sun", "time": "Closed"}], "id": "4735200001", "name": "USPS COLLECTION BOX - BLUE BOX", "address": {"city": "LEWISVILLE", "state": "IN", "street": "116 W MAIN ST", "postcode": "47352"}}},
{"geometry": {"type": "Point", "coordinates": [-85.3524959076, 39.8069720753]}, "type": "Feature", "properties": {"collection_times": [{"days": "Mon-Fri", "time": "4:00pm"}, {"days": "Sat", "time": "10:45am"}, {"days": "Sun", "time": "Closed"}], "id": "4735200002", "name": "USPS COLLECTION BOX - PO LOBBY", "address": {"city": "LEWISVILLE", "state": "IN", "street": "116 W MAIN ST", "postcode": "47352"}}},
{"geometry": {"type": "Point", "coordinates": [-84.9316532749, 39.6372492698]}, "type": "Feature", "properties": {"collection_times": [{"days": "Mon-Fri", "time": "2:00pm"}, {"days": "Sat", "time": "12:30pm"}, {"days": "Sun", "time": "Closed"}], "id": "4735300005", "name": "USPS COLLECTION BOX - BLUE BOX", "address": {"city": "LIBERTY", "state": "IN", "street": "101 BROWNSVILLE AVE", "postcode": "47353"}}},
{"geometry": {"type": "Point", "coordinates": [-84.9355768207, 39.6355185247]}, "type": "Feature", "properties": {"collection_times": [{"days": "Mon-Sat", "time": "12:00pm"}, {"days": "Sun", "time": "Closed"}], "id": "4735300006", "name": "USPS COLLECTION BOX - BLUE BOX", "address": {"city": "LIBERTY", "state": "IN", "street": "302 W UNION ST", "postcode": "47353"}}},
{"geometry": {"type": "Point", "coordinates": [-84.9297485008, 39.6354006486]}, "type": "Feature", "properties": {"collection_times": [{"days": "Mon-Fri", "time": "2:00pm"}, {"days": "Sat", "time": "12:30pm"}, {"days": "Sun", "time": "Closed"}], "id": "4735300008", "name": "USPS COLLECTION BOX - BLUE BOX", "address": {"city": "LIBERTY", "state": "IN", "street": "1 W UNION ST", "postcode": "47353"}}},
{"geometry": {"type": "Point", "coordinates": [-84.9291365839, 39.6354048423]}, "type": "Feature", "properties": {"collection_times": [{"days": "Mon-Fri", "time": "4:00pm"}, {"days": "Sat", "time": "11:00am"}, {"days": "Sun", "time": "Closed"}], "id": "4735300009", "name": "USPS COLLECTION BOX - BLUE BOX", "address": {"city": "LIBERTY", "state": "IN", "street": "29 E UNION ST", "postcode": "47353"}}},
{"geometry": {"type": "Point", "coordinates": [-84.9291365839, 39.6354048423]}, "type": "Feature", "properties": {"collection_times": [{"days": "Mon-Fri", "time": "4:00pm"}, {"days": "Sat", "time": "11:00am"}, {"days": "Sun", "time": "Closed"}], "id": "4735300012", "name": "USPS COLLECTION BOX - PO LOBBY", "address": {"city": "LIBERTY", "state": "IN", "street": "29 E UNION ST", "postcode": "47353"}}},
{"geometry": {"type": "Point", "coordinates": [-84.9291365839, 39.6354048423]}, "type": "Feature", "properties": {"collection_times": [{"days": "Mon-Fri", "time": "4:00pm"}, {"days": "Sat", "time": "11:00am"}, {"days": "Sun", "time": "Closed"}], "id": "4735300013", "name": "USPS COLLECTION BOX - BLUE BOX", "address": {"city": "LIBERTY", "state": "IN", "street": "29 E UNION ST", "postcode": "47353"}}},
{"geometry": {"type": "Point", "coordinates": [-85.1825314131, 40.0250128737]}, "type": "Feature", "properties": {"collection_times": [{"days": "Mon-Fri", "time": "4:15pm"}, {"days": "Sat", "time": "9:45am"}, {"days": "Sun", "time": "Closed"}], "id": "4735400001", "name": "USPS COLLECTION BOX - BLUE BOX", "address": {"city": "LOSANTVILLE", "state": "IN", "street": "25 N MAIN ST", "postcode": "47354"}}},
{"geometry": {"type": "Point", "coordinates": [-85.1825314131, 40.0250128737]}, "type": "Feature", "properties": {"collection_times": [{"days": "Mon-Fri", "time": "11:15am"}, {"days": "Sat", "time": "9:45am"}, {"days": "Sun", "time": "Closed"}], "id": "4735400002", "name": "USPS COLLECTION BOX - PO LOBBY", "address": {"city": "LOSANTVILLE", "state": "IN", "street": "25 N MAIN ST", "postcode": "47354"}}},
{"geometry": {"type": "Point", "coordinates": [-84.9400494892, 40.0482225148]}, "type": "Feature", "properties": {"collection_times": [{"days": "Mon-Fri", "time": "4:00pm"}, {"days": "Sat", "time": "10:30am"}, {"days": "Sun", "time": "Closed"}], "id": "4735500001", "name": "USPS COLLECTION BOX - BLUE BOX", "address": {"city": "LYNN", "state": "IN", "street": "116 S MAIN ST", "postcode": "47355"}}},
{"geometry": {"type": "Point", "coordinates": [-84.9400494892, 40.0482225148]}, "type": "Feature", "properties": {"collection_times": [{"days": "Mon-Fri", "time": "4:00pm"}, {"days": "Sat", "time": "10:30am"}, {"days": "Sun", "time": "Closed"}], "id": "4735500002", "name": "USPS COLLECTION BOX - PO LOBBY", "address": {"city": "LYNN", "state": "IN", "street": "116 S MAIN ST", "postcode": "47355"}}},
{"geometry": {"type": "Point", "coordinates": [-85.5379607866, 40.0625430831]}, "type": "Feature", "properties": {"collection_times": [{"days": "Mon-Fri", "time": "4:00pm"}, {"days": "Sat", "time": "12:00pm"}, {"days": "Sun", "time": "Closed"}], "id": "4735600001", "name": "USPS COLLECTION BOX - BLUE BOX", "address": {"city": "MIDDLETOWN", "state": "IN", "street": "816 W MILL ST", "postcode": "47356"}}},
{"geometry": {"type": "Point", "coordinates": [-85.5379607866, 40.0625430831]}, "type": "Feature", "properties": {"collection_times": [{"days": "Mon-Fri", "time": "4:00pm"}, {"days": "Sat", "time": "12:00pm"}, {"days": "Sun", "time": "Closed"}], "id": "4735600002", "name": "USPS COLLECTION BOX - BLUE BOX", "address": {"city": "MIDDLETOWN", "state": "IN", "street": "816 W MILL ST", "postcode": "47356"}}},
{"geometry": {"type": "Point", "coordinates": [-85.5379607866, 40.0625430831]}, "type": "Feature", "properties": {"collection_times": [{"days": "Mon-Fri", "time": "4:00pm"}, {"days": "Sat", "time": "12:00pm"}, {"days": "Sun", "time": "Closed"}], "id": "4735600009", "name": "USPS COLLECTION BOX - PO LOBBY", "address": {"city": "MIDDLETOWN", "state": "IN", "street": "816 W MILL ST", "postcode": "47356"}}},
{"geometry": {"type": "Point", "coordinates": [-85.1555763669, 39.7846456604]}, "type": "Feature", "properties": {"collection_times": [{"days": "Mon-Fri", "time": "4:15pm"}, {"days": "Sat", "time": "10:00am"}, {"days": "Sun", "time": "Closed"}], "id": "4735700001", "name": "USPS COLLECTION BOX - BLUE BOX", "address": {"city": "MILTON", "state": "IN", "street": "307 S CENTRAL AVE", "postcode": "47357"}}},
{"geometry": {"type": "Point", "coordinates": [-85.1555763669, 39.7846456604]}, "type": "Feature", "properties": {"collection_times": [{"days": "Mon-Fri", "time": "4:15pm"}, {"days": "Sat", "time": "10:00am"}, {"days": "Sun", "time": "Closed"}], "id": "4735700002", "name": "USPS COLLECTION BOX - PO LOBBY", "address": {"city": "MILTON", "state": "IN", "street": "307 S CENTRAL AVE", "postcode": "47357"}}},
{"geometry": {"type": "Point", "coordinates": [-85.1266085409, 40.0461949088]}, "type": "Feature", "properties": {"collection_times": [{"days": "Mon-Fri", "time": "4:15pm"}, {"days": "Sat", "time": "9:45am"}, {"days": "Sun", "time": "Closed"}], "id": "4735800001", "name": "USPS COLLECTION BOX - BLUE BOX", "address": {"city": "MODOC", "state": "IN", "street": "107 E CONLEY ST", "postcode": "47358"}}},
{"geometry": {"type": "Point", "coordinates": [-85.1266085409, 40.0461949088]}, "type": "Feature", "properties": {"collection_times": [{"days": "Mon-Fri", "time": "10:45am"}, {"days": "Sat", "time": "9:45am"}, {"days": "Sun", "time": "Closed"}], "id": "4735800002", "name": "USPS COLLECTION BOX - PO LOBBY", "address": {"city": "MODOC", "state": "IN", "street": "107 E CONLEY ST", "postcode": "47358"}}},
{"geometry": {"type": "Point", "coordinates": [-85.2755887783, 40.5520398686]}, "type": "Feature", "properties": {"collection_times": [{"days": "Mon-Sat", "time": "10:00am"}, {"days": "Sun", "time": "Closed"}], "id": "4735900001", "name": "USPS COLLECTION BOX - BLUE BOX", "address": {"city": "MONTPELIER", "state": "IN", "street": "329 S WASHINGTON ST", "postcode": "47359"}}},
{"geometry": {"type": "Point", "coordinates": [-85.277079733, 40.5522163647]}, "type": "Feature", "properties": {"collection_times": [{"days": "Mon-Sat", "time": "10:00am"}, {"days": "Sun", "time": "Closed"}], "id": "4735900002", "name": "USPS COLLECTION BOX - BLUE BOX", "address": {"city": "MONTPELIER", "state": "IN", "street": "453 S ADAMS ST", "postcode": "47359"}}},
{"geometry": {"type": "Point", "coordinates": [-85.2756818707, 40.5552151473]}, "type": "Feature", "properties": {"collection_times": [{"days": "Mon-Sat", "time": "8:45am"}, {"days": "Sun", "time": "Closed"}], "id": "4735900003", "name": "USPS COLLECTION BOX - BLUE BOX", "address": {"city": "MONTPELIER", "state": "IN", "street": "134 N ADAMS ST", "postcode": "47359"}}},
{"geometry": {"type": "Point", "coordinates": [-85.2792889096, 40.5543068292]}, "type": "Feature", "properties": {"collection_times": [{"days": "Mon-Fri", "time": "3:45pm"}, {"days": "Sat", "time": "10:45am"}, {"days": "Sun", "time": "Closed"}], "id": "4735900006", "name": "USPS COLLECTION BOX - BLUE BOX", "address": {"city": "MONTPELIER", "state": "IN", "street": "215 S JEFFERSON ST", "postcode": "47359"}}},
{"geometry": {"type": "Point", "coordinates": [-85.2792889096, 40.5543068292]}, "type": "Feature", "properties": {"collection_times": [{"days": "Mon-Fri", "time": "3:45pm"}, {"days": "Sat", "time": "11:00am"}, {"days": "Sun", "time": "Closed"}], "id": "4735900007", "name": "USPS COLLECTION BOX - PO LOBBY", "address": {"city": "MONTPELIER", "state": "IN", "street": "215 S JEFFERSON ST", "postcode": "47359"}}},
{"geometry": {"type": "Point", "coordinates": [-85.2512328637, 39.9975988017]}, "type": "Feature", "properties": {"collection_times": [{"days": "Mon-Fri", "time": "4:00pm"}, {"days": "Sat", "time": "9:45am"}, {"days": "Sun", "time": "Closed"}], "id": "4736000001", "name": "USPS COLLECTION BOX - BLUE BOX", "address": {"city": "MOORELAND", "state": "IN", "street": "111 N BROAD ST", "postcode": "47360"}}},
{"geometry": {"type": "Point", "coordinates": [-85.2512328637, 39.9975988017]}, "type": "Feature", "properties": {"collection_times": [{"days": "Mon-Fri", "time": "11:15am"}, {"days": "Sat", "time": "9:45am"}, {"days": "Sun", "time": "Closed"}], "id": "4736000002", "name": "USPS COLLECTION BOX - PO LOBBY", "address": {"city": "MOORELAND", "state": "IN", "street": "111 N BROAD ST", "postcode": "47360"}}},
{"geometry": {"type": "Point", "coordinates": [-85.384775682, 40.004563229]}, "type": "Feature", "properties": {"collection_times": [{"days": "Mon-Fri", "time": "4:30pm"}, {"days": "Sat", "time": "10:15am"}, {"days": "Sun", "time": "Closed"}], "id": "4736100001", "name": "USPS COLLECTION BOX - BLUE BOX", "address": {"city": "MOUNT SUMMIT", "state": "IN", "street": "106 W MAIN ST", "postcode": "47361"}}},
{"geometry": {"type": "Point", "coordinates": [-85.384775682, 40.004563229]}, "type": "Feature", "properties": {"collection_times": [{"days": "Mon-Fri", "time": "11:45am"}, {"days": "Sat", "time": "10:30am"}, {"days": "Sun", "time": "Closed"}], "id": "4736100002", "name": "USPS COLLECTION BOX - PO LOBBY", "address": {"city": "MOUNT SUMMIT", "state": "IN", "street": "106 W MAIN ST", "postcode": "47361"}}},
{"geometry": {"type": "Point", "coordinates": [-85.368801184, 39.928806961]}, "type": "Feature", "properties": {"collection_times": [{"days": "Mon-Fri", "time": "5:00pm"}, {"days": "Sat", "time": "4:15pm"}, {"days": "Sun", "time": "Closed"}], "id": "4736200000", "name": "USPS COLLECTION BOX - BLUE BOX", "address": {"city": "NEW CASTLE", "state": "IN", "street": "305 S 14TH ST", "postcode": "47362"}}},
{"geometry": {"type": "Point", "coordinates": [-85.368801184, 39.928806961]}, "type": "Feature", "properties": {"collection_times": [{"days": "Mon-Fri", "time": "5:00pm"}, {"days": "Sat", "time": "4:30pm"}, {"days": "Sun", "time": "Closed"}], "id": "4736200001", "name": "USPS COLLECTION BOX - PO LOBBY", "address": {"city": "NEW CASTLE", "state": "IN", "street": "305 S 14TH ST", "postcode": "47362"}}},
{"geometry": {"type": "Point", "coordinates": [-85.389401892, 39.8908067396]}, "type": "Feature", "properties": {"collection_times": [{"days": "Mon-Sat", "time": "11:00am"}, {"days": "Sun", "time": "Closed"}], "id": "4736200004", "name": "USPS COLLECTION BOX - BLUE BOX", "address": {"city": "NEW CASTLE", "state": "IN", "street": "1001 W COLONIAL DR", "postcode": "47362"}}},
{"geometry": {"type": "Point", "coordinates": [-85.385306792, 39.9024181973]}, "type": "Feature", "properties": {"collection_times": [{"days": "Mon-Fri", "time": "1:30pm"}, {"days": "Sat", "time": "11:00am"}, {"days": "Sun", "time": "Closed"}], "id": "4736200005", "name": "USPS COLLECTION BOX - BLUE BOX", "address": {"city": "NEW CASTLE", "state": "IN", "street": "2000 S MEMORIAL DR", "postcode": "47362"}}},
{"geometry": {"type": "Point", "coordinates": [-85.3853151392, 39.9020986533]}, "type": "Feature", "properties": {"collection_times": [{"days": "Mon-Sat", "time": "11:15am"}, {"days": "Sun", "time": "Closed"}], "id": "4736200006", "name": "USPS COLLECTION BOX - BLUE BOX", "address": {"city": "NEW CASTLE", "state": "IN", "street": "2020 S MEMORIAL DR", "postcode": "47362"}}},
{"geometry": {"type": "Point", "coordinates": [-85.3709043014, 39.9096854898]}, "type": "Feature", "properties": {"collection_times": [{"days": "Mon-Fri", "time": "1:45pm"}, {"days": "Sat", "time": "10:15am"}, {"days": "Sun", "time": "Closed"}], "id": "4736200009", "name": "USPS COLLECTION BOX - BLUE BOX", "address": {"city": "NEW CASTLE", "state": "IN", "street": "2400 S MAIN ST", "postcode": "47362"}}},
{"geometry": {"type": "Point", "coordinates": [-85.3627868606, 39.931145113]}, "type": "Feature", "properties": {"collection_times": [{"days": "Mon-Sat", "time": "8:30am"}, {"days": "Sun", "time": "Closed"}], "id": "4736200010", "name": "USPS COLLECTION BOX - BLUE BOX", "address": {"city": "NEW CASTLE", "state": "IN", "street": "1819 BROAD ST", "postcode": "47362"}}},
{"geometry": {"type": "Point", "coordinates": [-85.3818079643, 39.9261227847]}, "type": "Feature", "properties": {"collection_times": [{"days": "Mon-Fri", "time": "1:30pm"}, {"days": "Sat", "time": "12:00pm"}, {"days": "Sun", "time": "Closed"}], "id": "4736200012", "name": "USPS COLLECTION BOX - BLUE BOX", "address": {"city": "NEW CASTLE", "state": "IN", "street": "445 S MEMORIAL DR", "postcode": "47362"}}},
{"geometry": {"type": "Point", "coordinates": [-85.381582022, 39.9311331538]}, "type": "Feature", "properties": {"collection_times": [{"days": "Mon-Fri", "time": "1:30pm"}, {"days": "Sat", "time": "11:45am"}, {"days": "Sun", "time": "Closed"}], "id": "4736200013", "name": "USPS COLLECTION BOX - BLUE BOX", "address": {"city": "NEW CASTLE", "state": "IN", "street": "120 S MEMORIAL DR", "postcode": "47362"}}},
{"geometry": {"type": "Point", "coordinates": [-85.3702761303, 39.9325241217]}, "type": "Feature", "properties": {"collection_times": [{"days": "Mon-Sat", "time": "2:00pm"}, {"days": "Sun", "time": "Closed"}], "id": "4736200014", "name": "USPS COLLECTION BOX - BLUE BOX", "address": {"city": "NEW CASTLE", "state": "IN", "street": "227 N MAIN ST", "postcode": "47362"}}},
{"geometry": {"type": "Point", "coordinates": [-85.3851049597, 39.9069083175]}, "type": "Feature", "properties": {"collection_times": [{"days": "Mon-Fri", "time": "10:15am"}, {"days": "Sat", "time": "9:00am"}, {"days": "Sun", "time": "Closed"}], "id": "4736200016", "name": "USPS COLLECTION BOX - BLUE BOX", "address": {"city": "NEW CASTLE", "state": "IN", "street": "1711 S MEMORIAL DR", "postcode": "47362"}}},
{"geometry": {"type": "Point", "coordinates": [-85.3699056767, 39.9297868211]}, "type": "Feature", "properties": {"collection_times": [{"days": "Mon-Fri", "time": "4:45pm"}, {"days": "Sat", "time": "4:00pm"}, {"days": "Sun", "time": "Closed"}], "id": "4736200017", "name": "USPS COLLECTION BOX - BLUE BOX", "address": {"city": "NEW CASTLE", "state": "IN", "street": "1324 CHURCH ST", "postcode": "47362"}}},
{"geometry": {"type": "Point", "coordinates": [-85.3692875595, 39.9234740692]}, "type": "Feature", "properties": {"collection_times": [{"days": "Mon-Fri", "time": "1:45pm"}, {"days": "Sat", "time": "9:15am"}, {"days": "Sun", "time": "Closed"}], "id": "4736200018", "name": "USPS COLLECTION BOX - BLUE BOX", "address": {"city": "NEW CASTLE", "state": "IN", "street": "1007 N 16TH ST", "postcode": "47362"}}},
{"geometry": {"type": "Point", "coordinates": [-85.3571446476, 39.9329235943]}, "type": "Feature", "properties": {"collection_times": [{"days": "Mon-Sat", "time": "11:00am"}, {"days": "Sun", "time": "Closed"}], "id": "4736200019", "name": "USPS COLLECTION BOX - BLUE BOX", "address": {"city": "NEW CASTLE", "state": "IN", "street": "2237 SPRING ST", "postcode": "47362"}}},
{"geometry": {"type": "Point", "coordinates": [-85.3602923832, 39.9036912865]}, "type": "Feature", "properties": {"collection_times": [{"days": "Mon-Fri", "time": "1:45pm"}, {"days": "Sat", "time": "10:15am"}, {"days": "Sun", "time": "Closed"}], "id": "4736200020", "name": "USPS COLLECTION BOX - BLUE BOX", "address": {"city": "NEW CASTLE", "state": "IN", "street": "2915 S 14TH ST", "postcode": "47362"}}},
{"geometry": {"type": "Point", "coordinates": [-85.3713837158, 39.9306431294]}, "type": "Feature", "properties": {"collection_times": [{"days": "Mon-Sat", "time": "2:00pm"}, {"days": "Sun", "time": "Closed"}], "id": "4736200032", "name": "USPS COLLECTION BOX - BLUE BOX", "address": {"city": "NEW CASTLE", "state": "IN", "street": "1215 RACE ST", "postcode": "47362"}}},
{"geometry": {"type": "Point", "coordinates": [-85.3845005362, 39.9139885234]}, "type": "Feature", "properties": {"collection_times": [{"days": "Mon-Fri", "time": "12:30pm"}, {"days": "Sat", "time": "10:45am"}, {"days": "Sun", "time": "Closed"}], "id": "4736200035", "name": "USPS COLLECTION BOX - BLUE BOX", "address": {"city": "NEW CASTLE", "state": "IN", "street": "309 PARKVIEW DR", "postcode": "47362"}}},
{"geometry": {"type": "Point", "coordinates": [-85.3699056767, 39.9297868211]}, "type": "Feature", "properties": {"collection_times": [{"days": "Mon-Fri", "time": "4:45pm"}, {"days": "Sat", "time": "4:00pm"}, {"days": "Sun", "time": "Closed"}], "id": "4736200037", "name": "USPS COLLECTION BOX - BLUE BOX", "address": {"city": "NEW CASTLE", "state": "IN", "street": "1324 CHURCH ST", "postcode": "47362"}}},
{"geometry": {"type": "Point", "coordinates": [-85.3701737091, 39.9312601399]}, "type": "Feature", "properties": {"collection_times": [{"days": "Mon-Sat", "time": "2:00pm"}, {"days": "Sun", "time": "Closed"}], "id": "4736200038", "name": "USPS COLLECTION BOX - BLUE BOX", "address": {"city": "NEW CASTLE", "state": "IN", "street": "102 N MAIN ST", "postcode": "47362"}}},
{"geometry": {"type": "Point", "coordinates": [-85.3699139843, 39.9302748037]}, "type": "Feature", "properties": {"collection_times": [{"days": "Mon-Sat", "time": "2:00pm"}, {"days": "Sun", "time": "Closed"}], "id": "4736200039", "name": "USPS COLLECTION BOX - BLUE BOX", "address": {"city": "NEW CASTLE", "state": "IN", "street": "1324 CENTRAL AVE", "postcode": "47362"}}},
{"geometry": {"type": "Point", "coordinates": [-85.3944519967, 39.9754305574]}, "type": "Feature", "properties": {"collection_times": [{"days": "Mon-Sat", "time": "10:00am"}, {"days": "Sun", "time": "Closed"}], "id": "4736200040", "name": "USPS COLLECTION BOX - BLUE BOX", "address": {"city": "NEW CASTLE", "state": "IN", "street": "3000 N GARY ST", "postcode": "47362"}}},
{"geometry": {"type": "Point", "coordinates": [-85.3713837158, 39.9306431294]}, "type": "Feature", "properties": {"collection_times": [{"days": "Mon-Sat", "time": "2:00pm"}, {"days": "Sun", "time": "Closed"}], "id": "4736200041", "name": "USPS COLLECTION BOX - BLUE BOX", "address": {"city": "NEW CASTLE", "state": "IN", "street": "1215 RACE ST", "postcode": "47362"}}},
{"geometry": {"type": "Point", "coordinates": [-85.2628764046, 39.8628251063]}, "type": "Feature", "properties": {"collection_times": [{"days": "Mon-Fri", "time": "3:30pm"}, {"days": "Sat", "time": "11:00am"}, {"days": "Sun", "time": "Closed"}], "id": "4736600001", "name": "USPS COLLECTION BOX - BLUE BOX", "address": {"city": "NEW LISBON", "state": "IN", "street": "6625 E COUNTY ROAD 500 S", "postcode": "47366"}}},
{"geometry": {"type": "Point", "coordinates": [-85.2628764046, 39.8628251063]}, "type": "Feature", "properties": {"collection_times": [{"days": "Mon-Fri", "time": "10:15am"}, {"days": "Sat", "time": "11:00am"}, {"days": "Sun", "time": "Closed"}], "id": "4736600002", "name": "USPS COLLECTION BOX - PO LOBBY", "address": {"city": "NEW LISBON", "state": "IN", "street": "6625 E COUNTY ROAD 500 S", "postcode": "47366"}}},
{"geometry": {"type": "Point", "coordinates": [-85.3904756858, 40.0791538323]}, "type": "Feature", "properties": {"collection_times": [{"days": "Mon-Fri", "time": "4:30pm"}, {"days": "Sat", "time": "9:30am"}, {"days": "Sun", "time": "Closed"}], "id": "4736700001", "name": "USPS COLLECTION BOX - BLUE BOX", "address": {"city": "OAKVILLE", "state": "IN", "street": "551 W OAKVILLE RD", "postcode": "47367"}}},
{"geometry": {"type": "Point", "coordinates": [-85.3904756858, 40.0791538323]}, "type": "Feature", "properties": {"collection_times": [{"days": "Mon-Fri", "time": "11:45am"}, {"days": "Sat", "time": "9:30am"}, {"days": "Sun", "time": "Closed"}], "id": "4736700002", "name": "USPS COLLECTION BOX - PO LOBBY", "address": {"city": "OAKVILLE", "state": "IN", "street": "551 W OAKVILLE RD", "postcode": "47367"}}},
{"geometry": {"type": "Point", "coordinates": [-85.2038024232, 40.1871544601]}, "type": "Feature", "properties": {"collection_times": [{"days": "Mon-Fri", "time": "4:00pm"}, {"days": "Sat", "time": "10:45am"}, {"days": "Sun", "time": "Closed"}], "id": "4736800001", "name": "USPS COLLECTION BOX - BLUE BOX", "address": {"city": "PARKER CITY", "state": "IN", "street": "220 S MAIN ST", "postcode": "47368"}}},
{"geometry": {"type": "Point", "coordinates": [-85.2038024232, 40.1871544601]}, "type": "Feature", "properties": {"collection_times": [{"days": "Mon-Fri", "time": "4:00pm"}, {"days": "Sat", "time": "10:45am"}, {"days": "Sun", "time": "Closed"}], "id": "4736800003", "name": "USPS COLLECTION BOX - PO LOBBY", "address": {"city": "PARKER CITY", "state": "IN", "street": "220 S MAIN ST", "postcode": "47368"}}},
{"geometry": {"type": "Point", "coordinates": [-85.1481453218, 40.4922219805]}, "type": "Feature", "properties": {"collection_times": [{"days": "Mon-Fri", "time": "4:00pm"}, {"days": "Sat", "time": "11:15am"}, {"days": "Sun", "time": "Closed"}], "id": "4736900001", "name": "USPS COLLECTION BOX - BLUE BOX", "address": {"city": "PENNVILLE", "state": "IN", "street": "125 S UNION ST", "postcode": "47369"}}},
{"geometry": {"type": "Point", "coordinates": [-85.1481453218, 40.4922219805]}, "type": "Feature", "properties": {"collection_times": [{"days": "Mon-Fri", "time": "11:45am"}, {"days": "Sat", "time": "11:15am"}, {"days": "Sun", "time": "Closed"}], "id": "4736900002", "name": "USPS COLLECTION BOX - PO LOBBY", "address": {"city": "PENNVILLE", "state": "IN", "street": "125 S UNION ST", "postcode": "47369"}}},
{"geometry": {"type": "Point", "coordinates": [-85.1636658288, 39.8129740226]}, "type": "Feature", "properties": {"collection_times": [{"days": "Mon-Fri", "time": "4:30pm"}, {"days": "Sat", "time": "10:15am"}, {"days": "Sun", "time": "Closed"}], "id": "4737000001", "name": "USPS COLLECTION BOX - BLUE BOX", "address": {"city": "PERSHING", "state": "IN", "street": "401 E MAIN ST", "postcode": "47370"}}},
{"geometry": {"type": "Point", "coordinates": [-85.1636658288, 39.8129740226]}, "type": "Feature", "properties": {"collection_times": [{"days": "Mon-Fri", "time": "11:45am"}, {"days": "Sat", "time": "10:15am"}, {"days": "Sun", "time": "Closed"}], "id": "4737000002", "name": "USPS COLLECTION BOX - PO LOBBY", "address": {"city": "PERSHING", "state": "IN", "street": "401 E MAIN ST", "postcode": "47370"}}},
{"geometry": {"type": "Point", "coordinates": [-84.9794797471, 40.4332834389]}, "type": "Feature", "properties": {"collection_times": [{"days": "Mon-Sat", "time": "2:00pm"}, {"days": "Sun", "time": "Closed"}], "id": "4737100000", "name": "USPS COLLECTION BOX - BLUE BOX", "address": {"city": "PORTLAND", "state": "IN", "street": "205 W MAIN ST", "postcode": "47371"}}},
{"geometry": {"type": "Point", "coordinates": [-84.9796864297, 40.44674802]}, "type": "Feature", "properties": {"collection_times": [{"days": "Mon-Sat", "time": "9:00am"}, {"days": "Sun", "time": "Closed"}], "id": "4737100005", "name": "USPS COLLECTION BOX - BLUE BOX", "address": {"city": "PORTLAND", "state": "IN", "street": "218 W LINCOLN AVE", "postcode": "47371"}}},
{"geometry": {"type": "Point", "coordinates": [-84.9777871458, 40.4257501024]}, "type": "Feature", "properties": {"collection_times": [{"days": "Mon-Sat", "time": "1:30pm"}, {"days": "Sun", "time": "Closed"}], "id": "4737100006", "name": "USPS COLLECTION BOX - BLUE BOX", "address": {"city": "PORTLAND", "state": "IN", "street": "729 S MERIDIAN ST", "postcode": "47371"}}},
{"geometry": {"type": "Point", "coordinates": [-84.9792315361, 40.433370189]}, "type": "Feature", "properties": {"collection_times": [{"days": "Mon-Sat", "time": "3:30pm"}, {"days": "Sun", "time": "Closed"}], "id": "4737100008", "name": "USPS COLLECTION BOX - BLUE BOX", "address": {"city": "PORTLAND", "state": "IN", "street": "117 W MAIN ST", "postcode": "47371"}}},
{"geometry": {"type": "Point", "coordinates": [-84.9838273968, 40.4394276362]}, "type": "Feature", "properties": {"collection_times": [{"days": "Mon-Sat", "time": "9:00am"}, {"days": "Sun", "time": "Closed"}], "id": "4737100012", "name": "USPS COLLECTION BOX - BLUE BOX", "address": {"city": "PORTLAND", "state": "IN", "street": "500 W VOTAW ST", "postcode": "47371"}}},
{"geometry": {"type": "Point", "coordinates": [-84.9785500653, 40.4335570407]}, "type": "Feature", "properties": {"collection_times": [{"days": "Mon-Sat", "time": "3:30pm"}, {"days": "Sun", "time": "Closed"}], "id": "4737100014", "name": "USPS COLLECTION BOX - BLUE BOX", "address": {"city": "PORTLAND", "state": "IN", "street": "120 N COURT ST", "postcode": "47371"}}},
{"geometry": {"type": "Point", "coordinates": [-84.9779051286, 40.4360923427]}, "type": "Feature", "properties": {"collection_times": [{"days": "Mon-Sat", "time": "8:30am"}, {"days": "Sun", "time": "Closed"}], "id": "4737100015", "name": "USPS COLLECTION BOX - BLUE BOX", "address": {"city": "PORTLAND", "state": "IN", "street": "325 N MERIDIAN ST", "postcode": "47371"}}},
{"geometry": {"type": "Point", "coordinates": [-84.9778986493, 40.4331595575]}, "type": "Feature", "properties": {"collection_times": [{"days": "Mon-Sat", "time": "4:30pm"}, {"days": "Sun", "time": "Closed"}], "id": "4737100018", "name": "USPS COLLECTION BOX - PO LOBBY", "address": {"city": "PORTLAND", "state": "IN", "street": "119 S MERIDIAN ST", "postcode": "47371"}}},
{"geometry": {"type": "Point", "coordinates": [-84.9792308602, 40.4332605446]}, "type": "Feature", "properties": {"collection_times": [{"days": "Mon-Sat", "time": "3:30pm"}, {"days": "Sun", "time": "Closed"}], "id": "4737100019", "name": "USPS COLLECTION BOX - BLUE BOX", "address": {"city": "PORTLAND", "state": "IN", "street": "116 W MAIN ST", "postcode": "47371"}}},
{"geometry": {"type": "Point", "coordinates": [-84.9772912924, 40.4333213894]}, "type": "Feature", "properties": {"collection_times": [{"days": "Mon-Sat", "time": "4:30pm"}, {"days": "Sun", "time": "Closed"}], "id": "4737100020", "name": "USPS COLLECTION BOX - BLUE BOX", "address": {"city": "PORTLAND", "state": "IN", "street": "129 E MAIN ST", "postcode": "47371"}}},
{"geometry": {"type": "Point", "coordinates": [-84.9772912924, 40.4333213894]}, "type": "Feature", "properties": {"collection_times": [{"days": "Mon-Sat", "time": "4:30pm"}, {"days": "Sun", "time": "Closed"}], "id": "4737100021", "name": "USPS COLLECTION BOX - BLUE BOX", "address": {"city": "PORTLAND", "state": "IN", "street": "129 E MAIN ST", "postcode": "47371"}}},
{"geometry": {"type": "Point", "coordinates": [-85.1540403789, 40.3495686334]}, "type": "Feature", "properties": {"collection_times": [{"days": "Mon-Fri", "time": "4:00pm"}, {"days": "Sat", "time": "11:00am"}, {"days": "Sun", "time": "Closed"}], "id": "4737300001", "name": "USPS COLLECTION BOX - BLUE BOX", "address": {"city": "REDKEY", "state": "IN", "street": "133 W HIGH ST", "postcode": "47373"}}},
{"geometry": {"type": "Point", "coordinates": [-85.1540403789, 40.3495686334]}, "type": "Feature", "properties": {"collection_times": [{"days": "Mon-Fri", "time": "2:15pm"}, {"days": "Sat", "time": "11:00am"}, {"days": "Sun", "time": "Closed"}], "id": "4737300002", "name": "USPS COLLECTION BOX - PO LOBBY", "address": {"city": "REDKEY", "state": "IN", "street": "133 W HIGH ST", "postcode": "47373"}}},
{"geometry": {"type": "Point", "coordinates": [-84.9161419235, 39.8291343811]}, "type": "Feature", "properties": {"collection_times": [{"days": "Mon-Sat", "time": "3:00pm"}, {"days": "Sun", "time": "Closed"}], "id": "4737400004", "name": "USPS COLLECTION BOX - BLUE BOX", "address": {"city": "RICHMOND", "state": "IN", "street": "1000 E MAIN ST", "postcode": "47374"}}},
{"geometry": {"type": "Point", "coordinates": [-84.8987500608, 39.8281359637]}, "type": "Feature", "properties": {"collection_times": [{"days": "Mon-Sat", "time": "4:00pm"}, {"days": "Sun", "time": "Closed"}], "id": "4737400008", "name": "USPS COLLECTION BOX - BLUE BOX", "address": {"city": "RICHMOND", "state": "IN", "street": "50 S 2ND ST", "postcode": "47374"}}},
{"geometry": {"type": "Point", "coordinates": [-84.8942975944, 39.8273472226]}, "type": "Feature", "properties": {"collection_times": [{"days": "Mon-Sat", "time": "3:45pm"}, {"days": "Sun", "time": "Closed"}], "id": "4737400011", "name": "USPS COLLECTION BOX - BLUE BOX", "address": {"city": "RICHMOND", "state": "IN", "street": "98 S 6TH ST", "postcode": "47374"}}},
{"geometry": {"type": "Point", "coordinates": [-84.9149222928, 39.8291320152]}, "type": "Feature", "properties": {"collection_times": [{"days": "Mon-Sat", "time": "3:00pm"}, {"days": "Sun", "time": "Closed"}], "id": "4737400012", "name": "USPS COLLECTION BOX - BLUE BOX", "address": {"city": "RICHMOND", "state": "IN", "street": "900 E MAIN ST", "postcode": "47374"}}},
{"geometry": {"type": "Point", "coordinates": [-84.891364848, 39.8290456592]}, "type": "Feature", "properties": {"collection_times": [{"days": "Mon-Sat", "time": "3:45pm"}, {"days": "Sun", "time": "Closed"}], "id": "4737400013", "name": "USPS COLLECTION BOX - BLUE BOX", "address": {"city": "RICHMOND", "state": "IN", "street": "800 E MAIN ST", "postcode": "47374"}}},
{"geometry": {"type": "Point", "coordinates": [-84.892806875, 39.8268926739]}, "type": "Feature", "properties": {"collection_times": [{"days": "Mon-Sat", "time": "3:45pm"}, {"days": "Sun", "time": "Closed"}], "id": "4737400016", "name": "USPS COLLECTION BOX - BLUE BOX", "address": {"city": "RICHMOND", "state": "IN", "street": "111 S 7TH ST", "postcode": "47374"}}},
{"geometry": {"type": "Point", "coordinates": [-84.8926270652, 39.8290338296]}, "type": "Feature", "properties": {"collection_times": [{"days": "Mon-Sat", "time": "3:45pm"}, {"days": "Sun", "time": "Closed"}], "id": "4737400017", "name": "USPS COLLECTION BOX - BLUE BOX", "address": {"city": "RICHMOND", "state": "IN", "street": "700 E MAIN ST", "postcode": "47374"}}},
{"geometry": {"type": "Point", "coordinates": [-84.92693879, 39.8294194742]}, "type": "Feature", "properties": {"collection_times": [{"days": "Mon-Sat", "time": "1:30pm"}, {"days": "Sun", "time": "Closed"}], "id": "4737400020", "name": "USPS COLLECTION BOX - BLUE BOX", "address": {"city": "RICHMOND", "state": "IN", "street": "2 NW 18TH ST", "postcode": "47374"}}},
{"geometry": {"type": "Point", "coordinates": [-84.8962871403, 39.8306805085]}, "type": "Feature", "properties": {"collection_times": [{"days": "Mon-Fri", "time": "5:15pm"}, {"days": "Sat", "time": "5:00pm"}, {"days": "Sun", "time": "Closed"}], "id": "4737400023", "name": "USPS COLLECTION BOX - BLUE BOX", "address": {"city": "RICHMOND", "state": "IN", "street": "400 N A ST", "postcode": "47374"}}},
{"geometry": {"type": "Point", "coordinates": [-84.8394873656, 39.8311489602]}, "type": "Feature", "properties": {"collection_times": [{"days": "Mon-Sat", "time": "3:30pm"}, {"days": "Sun", "time": "Closed"}], "id": "4737400026", "name": "USPS COLLECTION BOX - BLUE BOX", "address": {"city": "RICHMOND", "state": "IN", "street": "4575 NATIONAL RD E", "postcode": "47374"}}},
{"geometry": {"type": "Point", "coordinates": [-84.8394873656, 39.8311489602]}, "type": "Feature", "properties": {"collection_times": [{"days": "Mon-Sat", "time": "3:30pm"}, {"days": "Sun", "time": "Closed"}], "id": "4737400027", "name": "USPS COLLECTION BOX - BLUE BOX", "address": {"city": "RICHMOND", "state": "IN", "street": "4575 NATIONAL RD E", "postcode": "47374"}}},
{"geometry": {"type": "Point", "coordinates": [-84.8394873656, 39.8311489602]}, "type": "Feature", "properties": {"collection_times": [{"days": "Mon-Sat", "time": "3:30pm"}, {"days": "Sun", "time": "Closed"}], "id": "4737400028", "name": "USPS COLLECTION BOX - BLUE BOX", "address": {"city": "RICHMOND", "state": "IN", "street": "4575 NATIONAL RD E", "postcode": "47374"}}},
{"geometry": {"type": "Point", "coordinates": [-84.8450165158, 39.8311134715]}, "type": "Feature", "properties": {"collection_times": [{"days": "Mon-Sat", "time": "3:15pm"}, {"days": "Sun", "time": "Closed"}], "id": "4737400032", "name": "USPS COLLECTION BOX - BLUE BOX", "address": {"city": "RICHMOND", "state": "IN", "street": "3801 NATIONAL RD E", "postcode": "47374"}}},
{"geometry": {"type": "Point", "coordinates": [-84.849938808, 39.8310129199]}, "type": "Feature", "properties": {"collection_times": [{"days": "Mon-Sat", "time": "3:15pm"}, {"days": "Sun", "time": "Closed"}], "id": "4737400033", "name": "USPS COLLECTION BOX - BLUE BOX", "address": {"city": "RICHMOND", "state": "IN", "street": "3741 NATIONAL RD E", "postcode": "47374"}}},
{"geometry": {"type": "Point", "coordinates": [-84.8531254296, 39.8309161397]}, "type": "Feature", "properties": {"collection_times": [{"days": "Mon-Sat", "time": "3:15pm"}, {"days": "Sun", "time": "Closed"}], "id": "4737400034", "name": "USPS COLLECTION BOX - BLUE BOX", "address": {"city": "RICHMOND", "state": "IN", "street": "3581 NATIONAL RD E", "postcode": "47374"}}},
{"geometry": {"type": "Point", "coordinates": [-84.8727521717, 39.8218580005]}, "type": "Feature", "properties": {"collection_times": [{"days": "Mon-Sat", "time": "1:45pm"}, {"days": "Sun", "time": "Closed"}], "id": "4737400035", "name": "USPS COLLECTION BOX - BLUE BOX", "address": {"city": "RICHMOND", "state": "IN", "street": "433 S 22ND ST", "postcode": "47374"}}},
{"geometry": {"type": "Point", "coordinates": [-84.8899689564, 39.8173899645]}, "type": "Feature", "properties": {"collection_times": [{"days": "Mon-Sat", "time": "1:45pm"}, {"days": "Sun", "time": "Closed"}], "id": "4737400039", "name": "USPS COLLECTION BOX - BLUE BOX", "address": {"city": "RICHMOND", "state": "IN", "street": "800 S 9TH ST", "postcode": "47374"}}},
{"geometry": {"type": "Point", "coordinates": [-84.90783521, 39.847999897]}, "type": "Feature", "properties": {"collection_times": [{"days": "Mon-Sat", "time": "9:30am"}, {"days": "Sun", "time": "Closed"}], "id": "4737400045", "name": "USPS COLLECTION BOX - BLUE BOX", "address": {"city": "RICHMOND", "state": "IN", "street": "1435 NW 5TH ST", "postcode": "47374"}}},
{"geometry": {"type": "Point", "coordinates": [-84.9078446494, 39.8512320546]}, "type": "Feature", "properties": {"collection_times": [{"days": "Mon-Sat", "time": "9:30am"}, {"days": "Sun", "time": "Closed"}], "id": "4737400046", "name": "USPS COLLECTION BOX - BLUE BOX", "address": {"city": "RICHMOND", "state": "IN", "street": "1700 NW 5TH ST", "postcode": "47374"}}},
{"geometry": {"type": "Point", "coordinates": [-84.8956603882, 39.8306484319]}, "type": "Feature", "properties": {"collection_times": [{"days": "Mon-Fri", "time": "5:15pm"}, {"days": "Sat", "time": "5:00pm"}, {"days": "Sun", "time": "Closed"}], "id": "4737400047", "name": "USPS COLLECTION BOX - BLUE BOX", "address": {"city": "RICHMOND", "state": "IN", "street": "400 N A ST", "postcode": "47374"}}},
{"geometry": {"type": "Point", "coordinates": [-84.8913672139, 39.8306000673]}, "type": "Feature", "properties": {"collection_times": [{"days": "Mon-Sat", "time": "3:45pm"}, {"days": "Sun", "time": "Closed"}], "id": "4737400049", "name": "USPS COLLECTION BOX - BLUE BOX", "address": {"city": "RICHMOND", "state": "IN", "street": "801 N A ST", "postcode": "47374"}}},
{"geometry": {"type": "Point", "coordinates": [-84.8913672139, 39.8306000673]}, "type": "Feature", "properties": {"collection_times": [{"days": "Mon-Sat", "time": "3:45pm"}, {"days": "Sun", "time": "Closed"}], "id": "4737400050", "name": "USPS COLLECTION BOX - BLUE BOX", "address": {"city": "RICHMOND", "state": "IN", "street": "801 N A ST", "postcode": "47374"}}},
{"geometry": {"type": "Point", "coordinates": [-84.8958411647, 39.8290705013]}, "type": "Feature", "properties": {"collection_times": [{"days": "Mon-Sat", "time": "4:00pm"}, {"days": "Sun", "time": "Closed"}], "id": "4737400052", "name": "USPS COLLECTION BOX - BLUE BOX", "address": {"city": "RICHMOND", "state": "IN", "street": "401 E MAIN ST", "postcode": "47374"}}},
{"geometry": {"type": "Point", "coordinates": [-84.8958411647, 39.8290705013]}, "type": "Feature", "properties": {"collection_times": [{"days": "Mon-Sat", "time": "4:00pm"}, {"days": "Sun", "time": "Closed"}], "id": "4737400053", "name": "USPS COLLECTION BOX - BLUE BOX", "address": {"city": "RICHMOND", "state": "IN", "street": "401 E MAIN ST", "postcode": "47374"}}},
{"geometry": {"type": "Point", "coordinates": [-84.8958411647, 39.8290705013]}, "type": "Feature", "properties": {"collection_times": [{"days": "Mon-Sat", "time": "4:00pm"}, {"days": "Sun", "time": "Closed"}], "id": "4737400054", "name": "USPS COLLECTION BOX - BLUE BOX", "address": {"city": "RICHMOND", "state": "IN", "street": "401 E MAIN ST", "postcode": "47374"}}},
{"geometry": {"type": "Point", "coordinates": [-84.8884275609, 39.868602624]}, "type": "Feature", "properties": {"collection_times": [{"days": "Mon-Sat", "time": "2:30pm"}, {"days": "Sun", "time": "Closed"}], "id": "4737400055", "name": "USPS COLLECTION BOX - BLUE BOX", "address": {"city": "RICHMOND", "state": "IN", "street": "2505 CHESTER BLVD", "postcode": "47374"}}},
{"geometry": {"type": "Point", "coordinates": [-84.8962871403, 39.8306805085]}, "type": "Feature", "properties": {"collection_times": [{"days": "Mon-Fri", "time": "5:15pm"}, {"days": "Sat", "time": "5:00pm"}, {"days": "Sun", "time": "Closed"}], "id": "4737400056", "name": "USPS COLLECTION BOX - PO LOBBY", "address": {"city": "RICHMOND", "state": "IN", "street": "400 N A ST", "postcode": "47374"}}},
{"geometry": {"type": "Point", "coordinates": [-84.8962871403, 39.8306805085]}, "type": "Feature", "properties": {"collection_times": [{"days": "Mon-Fri", "time": "5:15pm"}, {"days": "Sat", "time": "5:00pm"}, {"days": "Sun", "time": "Closed"}], "id": "4737400057", "name": "USPS COLLECTION BOX - PO LOBBY", "address": {"city": "RICHMOND", "state": "IN", "street": "400 N A ST", "postcode": "47374"}}},
{"geometry": {"type": "Point", "coordinates": [-84.8962871403, 39.8306805085]}, "type": "Feature", "properties": {"collection_times": [{"days": "Mon-Fri", "time": "5:15pm"}, {"days": "Sat", "time": "5:00pm"}, {"days": "Sun", "time": "Closed"}], "id": "4737400058", "name": "USPS COLLECTION BOX - APC", "address": {"city": "RICHMOND", "state": "IN", "street": "400 N A ST", "postcode": "47374"}}},
{"geometry": {"type": "Point", "coordinates": [-84.8962871403, 39.8306805085]}, "type": "Feature", "properties": {"collection_times": [{"days": "Mon-Fri", "time": "5:15pm"}, {"days": "Sat", "time": "5:00pm"}, {"days": "Sun", "time": "Closed"}], "id": "4737400059", "name": "USPS COLLECTION BOX - PO LOBBY", "address": {"city": "RICHMOND", "state": "IN", "street": "400 N A ST", "postcode": "47374"}}},
{"geometry": {"type": "Point", "coordinates": [-84.8962871403, 39.8306805085]}, "type": "Feature", "properties": {"collection_times": [{"days": "Mon-Fri", "time": "5:15pm"}, {"days": "Sat", "time": "5:00pm"}, {"days": "Sun", "time": "Closed"}], "id": "4737400060", "name": "USPS COLLECTION BOX - PO LOBBY", "address": {"city": "RICHMOND", "state": "IN", "street": "400 N A ST", "postcode": "47374"}}},
{"geometry": {"type": "Point", "coordinates": [-85.0268906577, 40.2930890197]}, "type": "Feature", "properties": {"collection_times": [{"days": "Mon-Sat", "time": "9:15am"}, {"days": "Sun", "time": "Closed"}], "id": "4738000001", "name": "USPS COLLECTION BOX - BLUE BOX", "address": {"city": "RIDGEVILLE", "state": "IN", "street": "502 N PORTLAND ST", "postcode": "47380"}}},
{"geometry": {"type": "Point", "coordinates": [-85.0236999301, 40.2912937239]}, "type": "Feature", "properties": {"collection_times": [{"days": "Mon-Sat", "time": "9:45am"}, {"days": "Sun", "time": "Closed"}], "id": "4738000002", "name": "USPS COLLECTION BOX - BLUE BOX", "address": {"city": "RIDGEVILLE", "state": "IN", "street": "311 PIERCE ST", "postcode": "47380"}}},
{"geometry": {"type": "Point", "coordinates": [-85.0290105201, 40.2872377747]}, "type": "Feature", "properties": {"collection_times": [{"days": "Mon-Fri", "time": "4:00pm"}, {"days": "Sat", "time": "10:00am"}, {"days": "Sun", "time": "Closed"}], "id": "4738000003", "name": "USPS COLLECTION BOX - BLUE BOX", "address": {"city": "RIDGEVILLE", "state": "IN", "street": "301 S WALNUT ST", "postcode": "47380"}}},
{"geometry": {"type": "Point", "coordinates": [-85.0290105201, 40.2872377747]}, "type": "Feature", "properties": {"collection_times": [{"days": "Mon-Fri", "time": "4:00pm"}, {"days": "Sat", "time": "10:00am"}, {"days": "Sun", "time": "Closed"}], "id": "4738000004", "name": "USPS COLLECTION BOX - PO LOBBY", "address": {"city": "RIDGEVILLE", "state": "IN", "street": "301 S WALNUT ST", "postcode": "47380"}}},
{"geometry": {"type": "Point", "coordinates": [-84.9181222104, 40.2369883229]}, "type": "Feature", "properties": {"collection_times": [{"days": "Mon-Fri", "time": "4:00pm"}, {"days": "Sat", "time": "9:45am"}, {"days": "Sun", "time": "Closed"}], "id": "4738200001", "name": "USPS COLLECTION BOX - BLUE BOX", "address": {"city": "SARATOGA", "state": "IN", "street": "209 E MAIN ST", "postcode": "47382"}}},
{"geometry": {"type": "Point", "coordinates": [-84.9181222104, 40.2369883229]}, "type": "Feature", "properties": {"collection_times": [{"days": "Mon-Fri", "time": "4:00pm"}, {"days": "Sat", "time": "10:00am"}, {"days": "Sun", "time": "Closed"}], "id": "4738200002", "name": "USPS COLLECTION BOX - PO LOBBY", "address": {"city": "SARATOGA", "state": "IN", "street": "209 E MAIN ST", "postcode": "47382"}}},
{"geometry": {"type": "Point", "coordinates": [-84.9175286477, 40.236970561]}, "type": "Feature", "properties": {"collection_times": [{"days": "Mon-Sat", "time": "12:30pm"}, {"days": "Sun", "time": "Closed"}], "id": "4738200003", "name": "USPS COLLECTION BOX - BLUE BOX", "address": {"city": "SARATOGA", "state": "IN", "street": "101 E WASHINGTON ST", "postcode": "47382"}}},
{"geometry": {"type": "Point", "coordinates": [-85.2686329382, 40.191593008]}, "type": "Feature", "properties": {"collection_times": [{"days": "Mon-Fri", "time": "3:45pm"}, {"days": "Sat", "time": "9:45am"}, {"days": "Sun", "time": "Closed"}], "id": "4738300001", "name": "USPS COLLECTION BOX - BLUE BOX", "address": {"city": "SELMA", "state": "IN", "street": "211 S ALBANY ST", "postcode": "47383"}}},
{"geometry": {"type": "Point", "coordinates": [-85.2686329382, 40.191593008]}, "type": "Feature", "properties": {"collection_times": [{"days": "Mon-Fri", "time": "4:00pm"}, {"days": "Sat", "time": "10:00am"}, {"days": "Sun", "time": "Closed"}], "id": "4738300002", "name": "USPS COLLECTION BOX - PO LOBBY", "address": {"city": "SELMA", "state": "IN", "street": "211 S ALBANY ST", "postcode": "47383"}}},
{"geometry": {"type": "Point", "coordinates": [-85.5765725722, 39.8912761345]}, "type": "Feature", "properties": {"collection_times": [{"days": "Mon-Fri", "time": "4:00pm"}, {"days": "Sat", "time": "11:15am"}, {"days": "Sun", "time": "Closed"}], "id": "4738400001", "name": "USPS COLLECTION BOX - BLUE BOX", "address": {"city": "SHIRLEY", "state": "IN", "street": "330 MAIN ST", "postcode": "47384"}}},
{"geometry": {"type": "Point", "coordinates": [-85.5765725722, 39.8912761345]}, "type": "Feature", "properties": {"collection_times": [{"days": "Mon-Fri", "time": "3:15pm"}, {"days": "Sat", "time": "11:15am"}, {"days": "Sun", "time": "Closed"}], "id": "4738400002", "name": "USPS COLLECTION BOX - PO LOBBY", "address": {"city": "SHIRLEY", "state": "IN", "street": "330 MAIN ST", "postcode": "47384"}}},
{"geometry": {"type": "Point", "coordinates": [-85.4388250431, 39.8384327168]}, "type": "Feature", "properties": {"collection_times": [{"days": "Mon-Fri", "time": "4:00pm"}, {"days": "Sat", "time": "10:30am"}, {"days": "Sun", "time": "Closed"}], "id": "4738500000", "name": "USPS COLLECTION BOX - BLUE BOX", "address": {"city": "SPICELAND", "state": "IN", "street": "102 E MAIN ST", "postcode": "47385"}}},
{"geometry": {"type": "Point", "coordinates": [-85.4388250431, 39.8384327168]}, "type": "Feature", "properties": {"collection_times": [{"days": "Mon-Fri", "time": "4:00pm"}, {"days": "Sat", "time": "10:30am"}, {"days": "Sun", "time": "Closed"}], "id": "4738500001", "name": "USPS COLLECTION BOX - PO LOBBY", "address": {"city": "SPICELAND", "state": "IN", "street": "102 E MAIN ST", "postcode": "47385"}}},
{"geometry": {"type": "Point", "coordinates": [-85.4148278485, 39.8515873258]}, "type": "Feature", "properties": {"collection_times": [{"days": "Mon-Sat", "time": "8:30am"}, {"days": "Sun", "time": "Closed"}], "id": "4738500003", "name": "USPS COLLECTION BOX - BLUE BOX", "address": {"city": "SPICELAND", "state": "IN", "street": "5300 S STATE ROAD 3", "postcode": "47385"}}},
{"geometry": {"type": "Point", "coordinates": [-85.431305378, 39.8385253814]}, "type": "Feature", "properties": {"collection_times": [{"days": "Mon-Sat", "time": "8:30am"}, {"days": "Sun", "time": "Closed"}], "id": "4738500006", "name": "USPS COLLECTION BOX - BLUE BOX", "address": {"city": "SPICELAND", "state": "IN", "street": "6409 S STATE ROAD 3", "postcode": "47385"}}},
{"geometry": {"type": "Point", "coordinates": [-85.3905431999, 40.0473705982]}, "type": "Feature", "properties": {"collection_times": [{"days": "Mon-Fri", "time": "4:15pm"}, {"days": "Sat", "time": "10:15am"}, {"days": "Sun", "time": "Closed"}], "id": "4738600001", "name": "USPS COLLECTION BOX - BLUE BOX", "address": {"city": "SPRINGPORT", "state": "IN", "street": "312 W MAIN ST", "postcode": "47386"}}},
{"geometry": {"type": "Point", "coordinates": [-85.3905431999, 40.0473705982]}, "type": "Feature", "properties": {"collection_times": [{"days": "Mon-Fri", "time": "1:30pm"}, {"days": "Sat", "time": "10:15am"}, {"days": "Sun", "time": "Closed"}], "id": "4738600002", "name": "USPS COLLECTION BOX - PO LOBBY", "address": {"city": "SPRINGPORT", "state": "IN", "street": "312 W MAIN ST", "postcode": "47386"}}},
{"geometry": {"type": "Point", "coordinates": [-85.2908839537, 39.8091537527]}, "type": "Feature", "properties": {"collection_times": [{"days": "Mon-Fri", "time": "3:45pm"}, {"days": "Sat", "time": "10:45am"}, {"days": "Sun", "time": "Closed"}], "id": "4738700001", "name": "USPS COLLECTION BOX - BLUE BOX", "address": {"city": "STRAUGHN", "state": "IN", "street": "5004 E US HIGHWAY 40", "postcode": "47387"}}},
{"geometry": {"type": "Point", "coordinates": [-85.2908839537, 39.8091537527]}, "type": "Feature", "properties": {"collection_times": [{"days": "Mon-Fri", "time": "3:45pm"}, {"days": "Sat", "time": "10:45am"}, {"days": "Sun", "time": "Closed"}], "id": "4738700002", "name": "USPS COLLECTION BOX - PO LOBBY", "address": {"city": "STRAUGHN", "state": "IN", "street": "5004 E US HIGHWAY 40", "postcode": "47387"}}},
{"geometry": {"type": "Point", "coordinates": [-85.2961393919, 39.8311818074]}, "type": "Feature", "properties": {"collection_times": [{"days": "Mon-Sat", "time": "8:00am"}, {"days": "Sun", "time": "Closed"}], "id": "4738700003", "name": "USPS COLLECTION BOX - BLUE BOX", "address": {"city": "STRAUGHN", "state": "IN", "street": "5884 S WILBUR WRIGHT RD", "postcode": "47387"}}},
{"geometry": {"type": "Point", "coordinates": [-85.4427989355, 40.0048553009]}, "type": "Feature", "properties": {"collection_times": [{"days": "Mon-Fri", "time": "4:15pm"}, {"days": "Sat", "time": "10:45am"}, {"days": "Sun", "time": "Closed"}], "id": "4738800001", "name": "USPS COLLECTION BOX - BLUE BOX", "address": {"city": "SULPHUR SPRINGS", "state": "IN", "street": "105 N MERIDIAN ST", "postcode": "47388"}}},
{"geometry": {"type": "Point", "coordinates": [-85.4427989355, 40.0048553009]}, "type": "Feature", "properties": {"collection_times": [{"days": "Mon-Fri", "time": "4:15pm"}, {"days": "Sat", "time": "10:45am"}, {"days": "Sun", "time": "Closed"}], "id": "4738800002", "name": "USPS COLLECTION BOX - PO LOBBY", "address": {"city": "SULPHUR SPRINGS", "state": "IN", "street": "105 N MERIDIAN ST", "postcode": "47388"}}},
{"geometry": {"type": "Point", "coordinates": [-84.8059625733, 40.199251548]}, "type": "Feature", "properties": {"collection_times": [{"days": "Mon-Fri", "time": "4:45pm"}, {"days": "Sat", "time": "4:30pm"}, {"days": "Sun", "time": "Closed"}], "id": "4739000002", "name": "USPS COLLECTION BOX - BLUE BOX", "address": {"city": "UNION CITY", "state": "IN", "street": "102 W PEARL ST", "postcode": "47390"}}},
{"geometry": {"type": "Point", "coordinates": [-84.8063942183, 40.199366153]}, "type": "Feature", "properties": {"collection_times": [{"days": "Mon-Fri", "time": "4:45pm"}, {"days": "Sat", "time": "4:30pm"}, {"days": "Sun", "time": "Closed"}], "id": "4739000003", "name": "USPS COLLECTION BOX - BLUE BOX", "address": {"city": "UNION CITY", "state": "IN", "street": "218 N UNION ST", "postcode": "47390"}}},
{"geometry": {"type": "Point", "coordinates": [-84.8063942183, 40.199366153]}, "type": "Feature", "properties": {"collection_times": [{"days": "Mon-Fri", "time": "4:45pm"}, {"days": "Sat", "time": "4:30pm"}, {"days": "Sun", "time": "Closed"}], "id": "4739000004", "name": "USPS COLLECTION BOX - BLUE BOX", "address": {"city": "UNION CITY", "state": "IN", "street": "218 N UNION ST", "postcode": "47390"}}},
{"geometry": {"type": "Point", "coordinates": [-84.8182451322, 40.1935174182]}, "type": "Feature", "properties": {"collection_times": [{"days": "Mon-Sat", "time": "8:45am"}, {"days": "Sun", "time": "Closed"}], "id": "4739000005", "name": "USPS COLLECTION BOX - BLUE BOX", "address": {"city": "UNION CITY", "state": "IN", "street": "901 MOSS AVE", "postcode": "47390"}}},
{"geometry": {"type": "Point", "coordinates": [-84.8114154938, 40.2114666212]}, "type": "Feature", "properties": {"collection_times": [{"days": "Mon-Sat", "time": "9:15am"}, {"days": "Sun", "time": "Closed"}], "id": "4739000012", "name": "USPS COLLECTION BOX - BLUE BOX", "address": {"city": "UNION CITY", "state": "IN", "street": "360 W DEERFIELD RD", "postcode": "47390"}}},
{"geometry": {"type": "Point", "coordinates": [-84.8059625733, 40.199251548]}, "type": "Feature", "properties": {"collection_times": [{"days": "Mon-Fri", "time": "4:45pm"}, {"days": "Sat", "time": "4:30pm"}, {"days": "Sun", "time": "Closed"}], "id": "4739000015", "name": "USPS COLLECTION BOX - PO LOBBY", "address": {"city": "UNION CITY", "state": "IN", "street": "102 W PEARL ST", "postcode": "47390"}}},
{"geometry": {"type": "Point", "coordinates": [-84.9338183334, 39.896736403]}, "type": "Feature", "properties": {"collection_times": [{"days": "Mon-Fri", "time": "4:00pm"}, {"days": "Sat", "time": "9:45am"}, {"days": "Sun", "time": "Closed"}], "id": "4739200001", "name": "USPS COLLECTION BOX - BLUE BOX", "address": {"city": "WEBSTER", "state": "IN", "street": "3231 WEBSTER RD", "postcode": "47392"}}},
{"geometry": {"type": "Point", "coordinates": [-84.9338183334, 39.896736403]}, "type": "Feature", "properties": {"collection_times": [{"days": "Mon-Fri", "time": "11:45am"}, {"days": "Sat", "time": "10:00am"}, {"days": "Sun", "time": "Closed"}], "id": "4739200002", "name": "USPS COLLECTION BOX - PO LOBBY", "address": {"city": "WEBSTER", "state": "IN", "street": "3231 WEBSTER RD", "postcode": "47392"}}},
{"geometry": {"type": "Point", "coordinates": [-84.9979884884, 39.9496767167]}, "type": "Feature", "properties": {"collection_times": [{"days": "Mon-Fri", "time": "4:00pm"}, {"days": "Sat", "time": "10:00am"}, {"days": "Sun", "time": "Closed"}], "id": "4739300001", "name": "USPS COLLECTION BOX - BLUE BOX", "address": {"city": "WILLIAMSBURG", "state": "IN", "street": "8293 MAIN ST", "postcode": "47393"}}},
{"geometry": {"type": "Point", "coordinates": [-84.9979884884, 39.9496767167]}, "type": "Feature", "properties": {"collection_times": [{"days": "Mon-Fri", "time": "11:15am"}, {"days": "Sat", "time": "10:00am"}, {"days": "Sun", "time": "Closed"}], "id": "4739300002", "name": "USPS COLLECTION BOX - PO LOBBY", "address": {"city": "WILLIAMSBURG", "state": "IN", "street": "8293 MAIN ST", "postcode": "47393"}}},
{"geometry": {"type": "Point", "coordinates": [-84.9824206575, 40.1729002205]}, "type": "Feature", "properties": {"collection_times": [{"days": "Mon-Fri", "time": "5:00pm"}, {"days": "Sat", "time": "4:45pm"}, {"days": "Sun", "time": "Closed"}], "id": "4739400001", "name": "USPS COLLECTION BOX - BLUE BOX", "address": {"city": "WINCHESTER", "state": "IN", "street": "130 N MERIDIAN ST", "postcode": "47394"}}},
{"geometry": {"type": "Point", "coordinates": [-84.9824206575, 40.1729002205]}, "type": "Feature", "properties": {"collection_times": [{"days": "Mon-Fri", "time": "5:00pm"}, {"days": "Sat", "time": "4:45pm"}, {"days": "Sun", "time": "Closed"}], "id": "4739400002", "name": "USPS COLLECTION BOX - BLUE BOX", "address": {"city": "WINCHESTER", "state": "IN", "street": "130 N MERIDIAN ST", "postcode": "47394"}}},
{"geometry": {"type": "Point", "coordinates": [-84.9824206575, 40.1729002205]}, "type": "Feature", "properties": {"collection_times": [{"days": "Mon-Fri", "time": "5:00pm"}, {"days": "Sat", "time": "4:45pm"}, {"days": "Sun", "time": "Closed"}], "id": "4739400003", "name": "USPS COLLECTION BOX - BLUE BOX", "address": {"city": "WINCHESTER", "state": "IN", "street": "130 N MERIDIAN ST", "postcode": "47394"}}},
{"geometry": {"type": "Point", "coordinates": [-84.9824206575, 40.1729002205]}, "type": "Feature", "properties": {"collection_times": [{"days": "Mon-Fri", "time": "5:00pm"}, {"days": "Sat", "time": "4:45pm"}, {"days": "Sun", "time": "Closed"}], "id": "4739400004", "name": "USPS COLLECTION BOX - BLUE BOX", "address": {"city": "WINCHESTER", "state": "IN", "street": "130 N MERIDIAN ST", "postcode": "47394"}}},
{"geometry": {"type": "Point", "coordinates": [-84.9746766738, 40.1784475762]}, "type": "Feature", "properties": {"collection_times": [{"days": "Mon-Sat", "time": "11:00am"}, {"days": "Sun", "time": "Closed"}], "id": "4739400005", "name": "USPS COLLECTION BOX - BLUE BOX", "address": {"city": "WINCHESTER", "state": "IN", "street": "501 E FOURTH ST", "postcode": "47394"}}},
{"geometry": {"type": "Point", "coordinates": [-84.9831295404, 40.1724429305]}, "type": "Feature", "properties": {"collection_times": [{"days": "Mon-Fri", "time": "2:00pm"}, {"days": "Sat-Sun", "time": "Closed"}], "id": "4739400008", "name": "USPS COLLECTION BOX - BLUE BOX", "address": {"city": "WINCHESTER", "state": "IN", "street": "123 W FRANKLIN ST", "postcode": "47394"}}},
{"geometry": {"type": "Point", "coordinates": [-84.973372816, 40.1701029928]}, "type": "Feature", "properties": {"collection_times": [{"days": "Mon-Sat", "time": "2:00pm"}, {"days": "Sun", "time": "Closed"}], "id": "4739400013", "name": "USPS COLLECTION BOX - BLUE BOX", "address": {"city": "WINCHESTER", "state": "IN", "street": "325 S OAK ST", "postcode": "47394"}}},
{"geometry": {"type": "Point", "coordinates": [-84.9824206575, 40.1729002205]}, "type": "Feature", "properties": {"collection_times": [{"days": "Mon-Fri", "time": "5:00pm"}, {"days": "Sat", "time": "4:45pm"}, {"days": "Sun", "time": "Closed"}], "id": "4739400018", "name": "USPS COLLECTION BOX - PO LOBBY", "address": {"city": "WINCHESTER", "state": "IN", "street": "130 N MERIDIAN ST", "postcode": "47394"}}},
{"geometry": {"type": "Point", "coordinates": [-84.9686940874, 40.1670097075]}, "type": "Feature", "properties": {"collection_times": [{"days": "Mon-Sat", "time": "2:00pm"}, {"days": "Sun", "time": "Closed"}], "id": "4739400020", "name": "USPS COLLECTION BOX - BLUE BOX", "address": {"city": "WINCHESTER", "state": "IN", "street": "409 E GREENVILLE AVE", "postcode": "47394"}}},
{"geometry": {"type": "Point", "coordinates": [-84.9582440973, 40.1616701938]}, "type": "Feature", "properties": {"collection_times": [{"days": "Mon-Sat", "time": "10:00am"}, {"days": "Sun", "time": "Closed"}], "id": "4739400021", "name": "USPS COLLECTION BOX - BLUE BOX", "address": {"city": "WINCHESTER", "state": "IN", "street": "950 E GREENVILLE PIKE", "postcode": "47394"}}},
{"geometry": {"type": "Point", "coordinates": [-85.4960431451, 40.1729453751]}, "type": "Feature", "properties": {"collection_times": [{"days": "Mon-Fri", "time": "4:00pm"}, {"days": "Sat", "time": "12:00pm"}, {"days": "Sun", "time": "Closed"}], "id": "4739600002", "name": "USPS COLLECTION BOX - BLUE BOX", "address": {"city": "YORKTOWN", "state": "IN", "street": "9301 W SMITH ST", "postcode": "47396"}}},
{"geometry": {"type": "Point", "coordinates": [-85.4960431451, 40.1729453751]}, "type": "Feature", "properties": {"collection_times": [{"days": "Mon-Fri", "time": "4:00pm"}, {"days": "Sat", "time": "12:00pm"}, {"days": "Sun", "time": "Closed"}], "id": "4739600003", "name": "USPS COLLECTION BOX - PO LOBBY", "address": {"city": "YORKTOWN", "state": "IN", "street": "9301 W SMITH ST", "postcode": "47396"}}}
]}
