{"type": "FeatureCollection", "features": [
{"geometry": {"type": "Point", "coordinates": [-86.5314450649, 39.1221214022]}, "type": "Feature", "properties": {"collection_times": [{"days": "Mon-Sat", "time": "9:30am"}, {"days": "Sun", "time": "Closed"}], "id": "4740100057", "name": "USPS COLLECTION BOX - BLUE BOX", "address": {"city": "BLOOMINGTON", "state": "IN", "street": "3910 S OLD STATE ROAD 37", "postcode": "47401"}}},
{"geometry": {"type": "Point", "coordinates": [-86.5307191987, 39.1372039978]}, "type": "Feature", "properties": {"collection_times": [{"days": "Mon-Sat", "time": "10:00am"}, {"days": "Sun", "time": "Closed"}], "id": "4740100073", "name": "USPS COLLECTION BOX - BLUE BOX", "address": {"city": "BLOOMINGTON", "state": "IN", "street": "2478 S WALNUT ST", "postcode": "47401"}}},
{"geometry": {"type": "Point", "coordinates": [-86.4976872778, 39.1551009199]}, "type": "Feature", "properties": {"collection_times": [{"days": "Mon-Sat", "time": "12:30pm"}, {"days": "Sun", "time": "Closed"}], "id": "4740100087", "name": "USPS COLLECTION BOX - BLUE BOX", "address": {"city": "BLOOMINGTON", "state": "IN", "street": "2700 E COVENANTER DR", "postcode": "47401"}}},
{"geometry": {"type": "Point", "coordinates": [-86.5023445804, 39.1641851686]}, "type": "Feature", "properties": {"collection_times": [{"days": "Mon-Sat", "time": "12:15pm"}, {"days": "Sun", "time": "Closed"}], "id": "4740100089", "name": "USPS COLLECTION BOX - BLUE BOX", "address": {"city": "BLOOMINGTON", "state": "IN", "street": "2510 E 3RD ST", "postcode": "47401"}}},
{"geometry": {"type": "Point", "coordinates": [-86.5337800711, 39.1503762412]}, "type": "Feature", "properties": {"collection_times": [{"days": "Mon-Sat", "time": "12:00pm"}, {"days": "Sun", "time": "Closed"}], "id": "4740100094", "name": "USPS COLLECTION BOX - BLUE BOX", "address": {"city": "BLOOMINGTON", "state": "IN", "street": "1516 S WALNUT ST", "postcode": "47401"}}},
{"geometry": {"type": "Point", "coordinates": [-86.4807820856, 39.1629798236]}, "type": "Feature", "properties": {"collection_times": [{"days": "Mon-Sat", "time": "10:00am"}, {"days": "Sun", "time": "Closed"}], "id": "4740100104", "name": "USPS COLLECTION BOX - BLUE BOX", "address": {"city": "BLOOMINGTON", "state": "IN", "street": "3901 E HAGAN ST", "postcode": "47401"}}},
{"geometry": {"type": "Point", "coordinates": [-86.5312831451, 39.121201409]}, "type": "Feature", "properties": {"collection_times": [{"days": "Mon-Sat", "time": "1:00pm"}, {"days": "Sun", "time": "Closed"}], "id": "4740100157", "name": "USPS COLLECTION BOX - BLUE BOX", "address": {"city": "BLOOMINGTON", "state": "IN", "street": "4025 S OLD STATE ROAD 37", "postcode": "47401"}}},
{"geometry": {"type": "Point", "coordinates": [-86.5336755328, 39.160531224]}, "type": "Feature", "properties": {"collection_times": [{"days": "Mon-Fri", "time": "5:00pm"}, {"days": "Sat", "time": "2:45pm"}, {"days": "Sun", "time": "Closed"}], "id": "4740100159", "name": "USPS COLLECTION BOX - BLUE BOX", "address": {"city": "BLOOMINGTON", "state": "IN", "street": "520 S WALNUT ST", "postcode": "47401"}}},
{"geometry": {"type": "Point", "coordinates": [-86.5337207288, 39.160920447]}, "type": "Feature", "properties": {"collection_times": [{"days": "Mon-Fri", "time": "5:00pm"}, {"days": "Sat", "time": "2:45pm"}, {"days": "Sun", "time": "Closed"}], "id": "4740100161", "name": "USPS COLLECTION BOX - APC", "address": {"city": "BLOOMINGTON", "state": "IN", "street": "520 S WALNUT ST", "postcode": "47401"}}},
{"geometry": {"type": "Point", "coordinates": [-86.5337207288, 39.160920447]}, "type": "Feature", "properties": {"collection_times": [{"days": "Mon-Fri", "time": "5:00pm"}, {"days": "Sat", "time": "2:45pm"}, {"days": "Sun", "time": "Closed"}], "id": "4740100162", "name": "USPS COLLECTION BOX - PO LOBBY", "address": {"city": "BLOOMINGTON", "state": "IN", "street": "520 S WALNUT ST", "postcode": "47401"}}},
{"geometry": {"type": "Point", "coordinates": [-86.5712184462, 39.1524296084]}, "type": "Feature", "properties": {"collection_times": [{"days": "Mon-Sat", "time": "10:00am"}, {"days": "Sun", "time": "Closed"}], "id": "4740300005", "name": "USPS COLLECTION BOX - BLUE BOX", "address": {"city": "BLOOMINGTON", "state": "IN", "street": "1000 S BASSWOOD CIR", "postcode": "47403"}}},
{"geometry": {"type": "Point", "coordinates": [-86.5399466477, 39.1613445161]}, "type": "Feature", "properties": {"collection_times": [{"days": "Mon-Fri", "time": "11:00am"}, {"days": "Sat", "time": "9:30am"}, {"days": "Sun", "time": "Closed"}], "id": "4740300007", "name": "USPS COLLECTION BOX - BLUE BOX", "address": {"city": "BLOOMINGTON", "state": "IN", "street": "605 W 2ND ST", "postcode": "47403"}}},
{"geometry": {"type": "Point", "coordinates": [-86.5826703425, 39.1348609458]}, "type": "Feature", "properties": {"collection_times": [{"days": "Mon-Sat", "time": "10:00am"}, {"days": "Sun", "time": "Closed"}], "id": "4740300008", "name": "USPS COLLECTION BOX - BLUE BOX", "address": {"city": "BLOOMINGTON", "state": "IN", "street": "2910 S LEONARD SPRINGS RD", "postcode": "47403"}}},
{"geometry": {"type": "Point", "coordinates": [-86.5540537694, 39.1603758575]}, "type": "Feature", "properties": {"collection_times": [{"days": "Mon-Sat", "time": "9:30am"}, {"days": "Sun", "time": "Closed"}], "id": "4740300009", "name": "USPS COLLECTION BOX - BLUE BOX", "address": {"city": "BLOOMINGTON", "state": "IN", "street": "321 S LANDMARK AVE", "postcode": "47403"}}},
{"geometry": {"type": "Point", "coordinates": [-86.577858625, 39.1462498074]}, "type": "Feature", "properties": {"collection_times": [{"days": "Mon-Sat", "time": "9:30am"}, {"days": "Sun", "time": "Closed"}], "id": "4740300010", "name": "USPS COLLECTION BOX - BLUE BOX", "address": {"city": "BLOOMINGTON", "state": "IN", "street": "2100 S LIBERTY DR", "postcode": "47403"}}},
{"geometry": {"type": "Point", "coordinates": [-86.5338543928, 39.1684862676]}, "type": "Feature", "properties": {"collection_times": [{"days": "Mon-Sat", "time": "1:30pm"}, {"days": "Sun", "time": "Closed"}], "id": "4740400000", "name": "USPS COLLECTION BOX - BLUE BOX", "address": {"city": "BLOOMINGTON", "state": "IN", "street": "119 W 7TH ST", "postcode": "47404"}}},
{"geometry": {"type": "Point", "coordinates": [-86.534962168, 39.1665615381]}, "type": "Feature", "properties": {"collection_times": [{"days": "Mon-Sat", "time": "2:00pm"}, {"days": "Sun", "time": "Closed"}], "id": "4740400002", "name": "USPS COLLECTION BOX - BLUE BOX", "address": {"city": "BLOOMINGTON", "state": "IN", "street": "100 S COLLEGE AVE", "postcode": "47404"}}},
{"geometry": {"type": "Point", "coordinates": [-86.5367307099, 39.1694859562]}, "type": "Feature", "properties": {"collection_times": [{"days": "Mon-Sat", "time": "1:30pm"}, {"days": "Sun", "time": "Closed"}], "id": "4740400003", "name": "USPS COLLECTION BOX - BLUE BOX", "address": {"city": "BLOOMINGTON", "state": "IN", "street": "320 W 8TH ST", "postcode": "47404"}}},
{"geometry": {"type": "Point", "coordinates": [-86.5377935556, 39.1869703358]}, "type": "Feature", "properties": {"collection_times": [{"days": "Mon-Sat", "time": "10:00am"}, {"days": "Sun", "time": "Closed"}], "id": "4740400008", "name": "USPS COLLECTION BOX - BLUE BOX", "address": {"city": "BLOOMINGTON", "state": "IN", "street": "1825 N KINSER PIKE", "postcode": "47404"}}},
{"geometry": {"type": "Point", "coordinates": [-86.5349700012, 39.1654260922]}, "type": "Feature", "properties": {"collection_times": [{"days": "Mon-Sat", "time": "2:00pm"}, {"days": "Sun", "time": "Closed"}], "id": "4740400009", "name": "USPS COLLECTION BOX - BLUE BOX", "address": {"city": "BLOOMINGTON", "state": "IN", "street": "216 S COLLEGE AVE", "postcode": "47404"}}},
{"geometry": {"type": "Point", "coordinates": [-86.593404783, 39.2146578701]}, "type": "Feature", "properties": {"collection_times": [{"days": "Mon-Sat", "time": "11:00am"}, {"days": "Sun", "time": "Closed"}], "id": "4740400011", "name": "USPS COLLECTION BOX - BLUE BOX", "address": {"city": "BLOOMINGTON", "state": "IN", "street": "4673 W RICHLAND PLAZA DR", "postcode": "47404"}}},
{"geometry": {"type": "Point", "coordinates": [-86.5782932312, 39.1646501271]}, "type": "Feature", "properties": {"collection_times": [{"days": "Mon-Sat", "time": "2:30pm"}, {"days": "Sun", "time": "Closed"}], "id": "4740400012", "name": "USPS COLLECTION BOX - BLUE BOX", "address": {"city": "BLOOMINGTON", "state": "IN", "street": "3516 W 3RD ST", "postcode": "47404"}}},
{"geometry": {"type": "Point", "coordinates": [-86.5775903135, 39.1645312654]}, "type": "Feature", "properties": {"collection_times": [{"days": "Mon-Sat", "time": "2:30pm"}, {"days": "Sun", "time": "Closed"}], "id": "4740400013", "name": "USPS COLLECTION BOX - BLUE BOX", "address": {"city": "BLOOMINGTON", "state": "IN", "street": "3443 W 3RD ST", "postcode": "47404"}}},
{"geometry": {"type": "Point", "coordinates": [-86.534715177, 39.1766892956]}, "type": "Feature", "properties": {"collection_times": [{"days": "Mon-Sat", "time": "1:30pm"}, {"days": "Sun", "time": "Closed"}], "id": "4740400015", "name": "USPS COLLECTION BOX - BLUE BOX", "address": {"city": "BLOOMINGTON", "state": "IN", "street": "1022 N COLLEGE AVE", "postcode": "47404"}}},
{"geometry": {"type": "Point", "coordinates": [-86.537699988, 39.169556734]}, "type": "Feature", "properties": {"collection_times": [{"days": "Mon-Sat", "time": "1:30pm"}, {"days": "Sun", "time": "Closed"}], "id": "4740400016", "name": "USPS COLLECTION BOX - BLUE BOX", "address": {"city": "BLOOMINGTON", "state": "IN", "street": "320 W 8TH ST", "postcode": "47404"}}},
{"geometry": {"type": "Point", "coordinates": [-86.5955928293, 39.1825367263]}, "type": "Feature", "properties": {"collection_times": [{"days": "Mon-Sat", "time": "6:00pm"}, {"days": "Sun", "time": "Closed"}], "id": "4740400018", "name": "USPS COLLECTION BOX - BLUE BOX", "address": {"city": "BLOOMINGTON", "state": "IN", "street": "4738 W VERNAL PIKE", "postcode": "47404"}}},
{"geometry": {"type": "Point", "coordinates": [-86.518251193, 39.1715469586]}, "type": "Feature", "properties": {"collection_times": [{"days": "Mon-Sat", "time": "12:00pm"}, {"days": "Sun", "time": "Closed"}], "id": "4740500002", "name": "USPS COLLECTION BOX - BLUE BOX", "address": {"city": "BLOOMINGTON", "state": "IN", "street": "1320 E 10TH ST", "postcode": "47405"}}},
{"geometry": {"type": "Point", "coordinates": [-86.523433106, 39.1684350109]}, "type": "Feature", "properties": {"collection_times": [{"days": "Mon-Sat", "time": "12:00pm"}, {"days": "Sun", "time": "Closed"}], "id": "4740500003", "name": "USPS COLLECTION BOX - BLUE BOX", "address": {"city": "BLOOMINGTON", "state": "IN", "street": "900 E 7TH ST", "postcode": "47405"}}},
{"geometry": {"type": "Point", "coordinates": [-86.5239737598, 39.1630661877]}, "type": "Feature", "properties": {"collection_times": [{"days": "Mon-Sat", "time": "10:00am"}, {"days": "Sun", "time": "Closed"}], "id": "4740500004", "name": "USPS COLLECTION BOX - BLUE BOX", "address": {"city": "BLOOMINGTON", "state": "IN", "street": "800 E ATWATER AVE", "postcode": "47405"}}},
{"geometry": {"type": "Point", "coordinates": [-86.494462859, 39.1714286973]}, "type": "Feature", "properties": {"collection_times": [{"days": "Mon-Sat", "time": "5:00pm"}, {"days": "Sun", "time": "Closed"}], "id": "4740800005", "name": "USPS COLLECTION BOX - BLUE BOX", "address": {"city": "BLOOMINGTON", "state": "IN", "street": "3210 E 10TH ST", "postcode": "47408"}}},
{"geometry": {"type": "Point", "coordinates": [-86.5276302091, 39.1769428271]}, "type": "Feature", "properties": {"collection_times": [{"days": "Mon-Sat", "time": "10:00am"}, {"days": "Sun", "time": "Closed"}], "id": "4740800021", "name": "USPS COLLECTION BOX - BLUE BOX", "address": {"city": "BLOOMINGTON", "state": "IN", "street": "512 E 15TH ST", "postcode": "47408"}}},
{"geometry": {"type": "Point", "coordinates": [-86.494462859, 39.1714286973]}, "type": "Feature", "properties": {"collection_times": [{"days": "Mon-Sat", "time": "5:00pm"}, {"days": "Sun", "time": "Closed"}], "id": "4740800023", "name": "USPS COLLECTION BOX - PO LOBBY", "address": {"city": "BLOOMINGTON", "state": "IN", "street": "3210 E 10TH ST", "postcode": "47408"}}},
{"geometry": {"type": "Point", "coordinates": [-86.494462859, 39.1714286973]}, "type": "Feature", "properties": {"collection_times": [{"days": "Mon-Sat", "time": "5:00pm"}, {"days": "Sun", "time": "Closed"}], "id": "4740800027", "name": "USPS COLLECTION BOX - APC", "address": {"city": "BLOOMINGTON", "state": "IN", "street": "3210 E 10TH ST", "postcode": "47408"}}},
{"geometry": {"type": "Point", "coordinates": [-86.462161534, 39.211058161]}, "type": "Feature", "properties": {"collection_times": [{"days": "Mon-Sat", "time": "12:00pm"}, {"days": "Sun", "time": "Closed"}], "id": "4740800029", "name": "USPS COLLECTION BOX - BLUE BOX", "address": {"city": "BLOOMINGTON", "state": "IN", "street": "6050 E STATE ROAD 45", "postcode": "47408"}}},
{"geometry": {"type": "Point", "coordinates": [-86.5529832948, 38.9153589921]}, "type": "Feature", "properties": {"collection_times": [{"days": "Mon-Fri", "time": "4:00pm"}, {"days": "Sat", "time": "10:30am"}, {"days": "Sun", "time": "Closed"}], "id": "4742000001", "name": "USPS COLLECTION BOX - BLUE BOX", "address": {"city": "AVOCA", "state": "IN", "street": "8464 STATE ROAD 54 W", "postcode": "47420"}}},
{"geometry": {"type": "Point", "coordinates": [-86.5529832948, 38.9153589921]}, "type": "Feature", "properties": {"collection_times": [{"days": "Mon-Fri", "time": "10:45am"}, {"days": "Sat", "time": "10:30am"}, {"days": "Sun", "time": "Closed"}], "id": "4742000002", "name": "USPS COLLECTION BOX - PO LOBBY", "address": {"city": "AVOCA", "state": "IN", "street": "8464 STATE ROAD 54 W", "postcode": "47420"}}},
{"geometry": {"type": "Point", "coordinates": [-86.4782763483, 38.8636924677]}, "type": "Feature", "properties": {"collection_times": [{"days": "Mon-Fri", "time": "5:00pm"}, {"days": "Sat", "time": "4:00pm"}, {"days": "Sun", "time": "Closed"}], "id": "4742100001", "name": "USPS COLLECTION BOX - BLUE BOX", "address": {"city": "BEDFORD", "state": "IN", "street": "1720 H ST", "postcode": "47421"}}},
{"geometry": {"type": "Point", "coordinates": [-86.4981288538, 38.8475545902]}, "type": "Feature", "properties": {"collection_times": [{"days": "Mon-Sat", "time": "9:00am"}, {"days": "Sun", "time": "Closed"}], "id": "4742100003", "name": "USPS COLLECTION BOX - BLUE BOX", "address": {"city": "BEDFORD", "state": "IN", "street": "2801 WASHINGTON AVE", "postcode": "47421"}}},
{"geometry": {"type": "Point", "coordinates": [-86.4901332058, 38.8723989085]}, "type": "Feature", "properties": {"collection_times": [{"days": "Mon-Sat", "time": "1:30pm"}, {"days": "Sun", "time": "Closed"}], "id": "4742100004", "name": "USPS COLLECTION BOX - BLUE BOX", "address": {"city": "BEDFORD", "state": "IN", "street": "629 LINCOLN AVE", "postcode": "47421"}}},
{"geometry": {"type": "Point", "coordinates": [-86.5191163595, 38.8649935667]}, "type": "Feature", "properties": {"collection_times": [{"days": "Mon-Sat", "time": "10:00am"}, {"days": "Sun", "time": "Closed"}], "id": "4742100006", "name": "USPS COLLECTION BOX - BLUE BOX", "address": {"city": "BEDFORD", "state": "IN", "street": "1320 JAMES AVE", "postcode": "47421"}}},
{"geometry": {"type": "Point", "coordinates": [-86.5075002091, 38.861099347]}, "type": "Feature", "properties": {"collection_times": [{"days": "Mon-Sat", "time": "10:00am"}, {"days": "Sun", "time": "Closed"}], "id": "4742100007", "name": "USPS COLLECTION BOX - BLUE BOX", "address": {"city": "BEDFORD", "state": "IN", "street": "2649 16TH ST", "postcode": "47421"}}},
{"geometry": {"type": "Point", "coordinates": [-86.5211596943, 38.8608844928]}, "type": "Feature", "properties": {"collection_times": [{"days": "Mon-Sat", "time": "11:00am"}, {"days": "Sun", "time": "Closed"}], "id": "4742100008", "name": "USPS COLLECTION BOX - BLUE BOX", "address": {"city": "BEDFORD", "state": "IN", "street": "3750 16TH ST", "postcode": "47421"}}},
{"geometry": {"type": "Point", "coordinates": [-86.5122006414, 38.8609403014]}, "type": "Feature", "properties": {"collection_times": [{"days": "Mon-Fri", "time": "1:00pm"}, {"days": "Sat", "time": "12:00pm"}, {"days": "Sun", "time": "Closed"}], "id": "4742100012", "name": "USPS COLLECTION BOX - BLUE BOX", "address": {"city": "BEDFORD", "state": "IN", "street": "2900 16TH ST", "postcode": "47421"}}},
{"geometry": {"type": "Point", "coordinates": [-86.4932397132, 38.8534375235]}, "type": "Feature", "properties": {"collection_times": [{"days": "Mon-Sat", "time": "9:00am"}, {"days": "Sun", "time": "Closed"}], "id": "4742100013", "name": "USPS COLLECTION BOX - BLUE BOX", "address": {"city": "BEDFORD", "state": "IN", "street": "1600 23RD ST", "postcode": "47421"}}},
{"geometry": {"type": "Point", "coordinates": [-86.485578087, 38.8609918204]}, "type": "Feature", "properties": {"collection_times": [{"days": "Mon-Sat", "time": "9:00am"}, {"days": "Sun", "time": "Closed"}], "id": "4742100015", "name": "USPS COLLECTION BOX - BLUE BOX", "address": {"city": "BEDFORD", "state": "IN", "street": "1094 16TH ST", "postcode": "47421"}}},
{"geometry": {"type": "Point", "coordinates": [-86.4915596619, 38.8525594599]}, "type": "Feature", "properties": {"collection_times": [{"days": "Mon-Sat", "time": "9:00am"}, {"days": "Sun", "time": "Closed"}], "id": "4742100016", "name": "USPS COLLECTION BOX - BLUE BOX", "address": {"city": "BEDFORD", "state": "IN", "street": "2409 MITCHELL RD", "postcode": "47421"}}},
{"geometry": {"type": "Point", "coordinates": [-86.4857580922, 38.8644571502]}, "type": "Feature", "properties": {"collection_times": [{"days": "Mon-Sat", "time": "9:00am"}, {"days": "Sun", "time": "Closed"}], "id": "4742100017", "name": "USPS COLLECTION BOX - BLUE BOX", "address": {"city": "BEDFORD", "state": "IN", "street": "1305 K ST", "postcode": "47421"}}},
{"geometry": {"type": "Point", "coordinates": [-86.4856880444, 38.862229616]}, "type": "Feature", "properties": {"collection_times": [{"days": "Mon-Sat", "time": "10:00am"}, {"days": "Sun", "time": "Closed"}], "id": "4742100018", "name": "USPS COLLECTION BOX - BLUE BOX", "address": {"city": "BEDFORD", "state": "IN", "street": "1101 15TH ST", "postcode": "47421"}}},
{"geometry": {"type": "Point", "coordinates": [-86.4826652464, 38.8609877767]}, "type": "Feature", "properties": {"collection_times": [{"days": "Mon-Sat", "time": "9:00am"}, {"days": "Sun", "time": "Closed"}], "id": "4742100020", "name": "USPS COLLECTION BOX - BLUE BOX", "address": {"city": "BEDFORD", "state": "IN", "street": "1602 I ST", "postcode": "47421"}}},
{"geometry": {"type": "Point", "coordinates": [-86.4826690713, 38.8621986682]}, "type": "Feature", "properties": {"collection_times": [{"days": "Mon-Sat", "time": "10:00am"}, {"days": "Sun", "time": "Closed"}], "id": "4742100022", "name": "USPS COLLECTION BOX - BLUE BOX", "address": {"city": "BEDFORD", "state": "IN", "street": "899 15TH ST", "postcode": "47421"}}},
{"geometry": {"type": "Point", "coordinates": [-86.4841773623, 38.8622036749]}, "type": "Feature", "properties": {"collection_times": [{"days": "Mon-Sat", "time": "10:00am"}, {"days": "Sun", "time": "Closed"}], "id": "4742100025", "name": "USPS COLLECTION BOX - BLUE BOX", "address": {"city": "BEDFORD", "state": "IN", "street": "1003 15TH ST", "postcode": "47421"}}},
{"geometry": {"type": "Point", "coordinates": [-86.4834562888, 38.860993788]}, "type": "Feature", "properties": {"collection_times": [{"days": "Mon-Sat", "time": "9:00am"}, {"days": "Sun", "time": "Closed"}], "id": "4742100026", "name": "USPS COLLECTION BOX - BLUE BOX", "address": {"city": "BEDFORD", "state": "IN", "street": "950 16TH ST", "postcode": "47421"}}},
{"geometry": {"type": "Point", "coordinates": [-86.4949193103, 38.8515338698]}, "type": "Feature", "properties": {"collection_times": [{"days": "Mon-Sat", "time": "9:00am"}, {"days": "Sun", "time": "Closed"}], "id": "4742100046", "name": "USPS COLLECTION BOX - BLUE BOX", "address": {"city": "BEDFORD", "state": "IN", "street": "2516 Q ST", "postcode": "47421"}}},
{"geometry": {"type": "Point", "coordinates": [-86.5030246332, 38.8611488125]}, "type": "Feature", "properties": {"collection_times": [{"days": "Mon-Sat", "time": "10:00am"}, {"days": "Sun", "time": "Closed"}], "id": "4742100051", "name": "USPS COLLECTION BOX - BLUE BOX", "address": {"city": "BEDFORD", "state": "IN", "street": "2137 16TH ST", "postcode": "47421"}}},
{"geometry": {"type": "Point", "coordinates": [-86.5169479055, 38.8572417183]}, "type": "Feature", "properties": {"collection_times": [{"days": "Mon-Sat", "time": "12:00pm"}, {"days": "Sun", "time": "Closed"}], "id": "4742100053", "name": "USPS COLLECTION BOX - BLUE BOX", "address": {"city": "BEDFORD", "state": "IN", "street": "3326 MICHAEL AVE", "postcode": "47421"}}},
{"geometry": {"type": "Point", "coordinates": [-86.5020467326, 38.8728415453]}, "type": "Feature", "properties": {"collection_times": [{"days": "Mon-Fri", "time": "2:00pm"}, {"days": "Sat", "time": "12:00pm"}, {"days": "Sun", "time": "Closed"}], "id": "4742100055", "name": "USPS COLLECTION BOX - BLUE BOX", "address": {"city": "BEDFORD", "state": "IN", "street": "615 X ST", "postcode": "47421"}}},
{"geometry": {"type": "Point", "coordinates": [-86.5094043809, 38.8463746743]}, "type": "Feature", "properties": {"collection_times": [{"days": "Mon-Sat", "time": "11:00am"}, {"days": "Sun", "time": "Closed"}], "id": "4742100057", "name": "USPS COLLECTION BOX - BLUE BOX", "address": {"city": "BEDFORD", "state": "IN", "street": "2901 TED JONES DR", "postcode": "47421"}}},
{"geometry": {"type": "Point", "coordinates": [-86.9359111497, 39.0277853604]}, "type": "Feature", "properties": {"collection_times": [{"days": "Mon-Fri", "time": "4:00pm"}, {"days": "Sat", "time": "12:00pm"}, {"days": "Sun", "time": "Closed"}], "id": "4742400001", "name": "USPS COLLECTION BOX - BLUE BOX", "address": {"city": "BLOOMFIELD", "state": "IN", "street": "127 E INDIANA AVE", "postcode": "47424"}}},
{"geometry": {"type": "Point", "coordinates": [-86.9359111497, 39.0277853604]}, "type": "Feature", "properties": {"collection_times": [{"days": "Mon-Fri", "time": "4:00pm"}, {"days": "Sat", "time": "12:00pm"}, {"days": "Sun", "time": "Closed"}], "id": "4742400002", "name": "USPS COLLECTION BOX - BLUE BOX", "address": {"city": "BLOOMFIELD", "state": "IN", "street": "127 E INDIANA AVE", "postcode": "47424"}}},
{"geometry": {"type": "Point", "coordinates": [-86.9477974382, 39.0270470051]}, "type": "Feature", "properties": {"collection_times": [{"days": "Mon-Sat", "time": "11:00am"}, {"days": "Sun", "time": "Closed"}], "id": "4742400011", "name": "USPS COLLECTION BOX - BLUE BOX", "address": {"city": "BLOOMFIELD", "state": "IN", "street": "668 S US HIGHWAY 231", "postcode": "47424"}}},
{"geometry": {"type": "Point", "coordinates": [-86.9373840983, 39.0275302345]}, "type": "Feature", "properties": {"collection_times": [{"days": "Mon-Fri", "time": "4:00pm"}, {"days": "Sat", "time": "12:00pm"}, {"days": "Sun", "time": "Closed"}], "id": "4742400013", "name": "USPS COLLECTION BOX - PO LOBBY", "address": {"city": "BLOOMFIELD", "state": "IN", "street": "55 N WASHINGTON ST", "postcode": "47424"}}},
{"geometry": {"type": "Point", "coordinates": [-86.9373840983, 39.0275302345]}, "type": "Feature", "properties": {"collection_times": [{"days": "Mon-Fri", "time": "4:00pm"}, {"days": "Sat", "time": "12:00pm"}, {"days": "Sun", "time": "Closed"}], "id": "4742400014", "name": "USPS COLLECTION BOX - PO LOBBY", "address": {"city": "BLOOMFIELD", "state": "IN", "street": "55 N WASHINGTON ST", "postcode": "47424"}}},
{"geometry": {"type": "Point", "coordinates": [-86.539539827, 39.1203143341]}, "type": "Feature", "properties": {"collection_times": [{"days": "Mon-Fri", "time": "4:30pm"}, {"days": "Sat", "time": "12:00pm"}, {"days": "Sun", "time": "Closed"}], "id": "4742600001", "name": "USPS COLLECTION BOX - BLUE BOX", "address": {"city": "CLEAR CREEK", "state": "IN", "street": "4888 S ROGERS ST", "postcode": "47426"}}},
{"geometry": {"type": "Point", "coordinates": [-86.539539827, 39.1203143341]}, "type": "Feature", "properties": {"collection_times": [{"days": "Mon-Fri", "time": "4:30pm"}, {"days": "Sat", "time": "12:00pm"}, {"days": "Sun", "time": "Closed"}], "id": "4742600002", "name": "USPS COLLECTION BOX - PO LOBBY", "address": {"city": "CLEAR CREEK", "state": "IN", "street": "4888 S ROGERS ST", "postcode": "47426"}}},
{"geometry": {"type": "Point", "coordinates": [-86.9885590392, 39.2349574767]}, "type": "Feature", "properties": {"collection_times": [{"days": "Mon-Fri", "time": "3:15pm"}, {"days": "Sat", "time": "10:30am"}, {"days": "Sun", "time": "Closed"}], "id": "4742700001", "name": "USPS COLLECTION BOX - BLUE BOX", "address": {"city": "COAL CITY", "state": "IN", "street": "4225 MAIN ST", "postcode": "47427"}}},
{"geometry": {"type": "Point", "coordinates": [-86.9885590392, 39.2349574767]}, "type": "Feature", "properties": {"collection_times": [{"days": "Mon-Fri", "time": "11:15am"}, {"days": "Sat", "time": "10:30am"}, {"days": "Sun", "time": "Closed"}], "id": "4742700002", "name": "USPS COLLECTION BOX - PO LOBBY", "address": {"city": "COAL CITY", "state": "IN", "street": "4225 MAIN ST", "postcode": "47427"}}},
{"geometry": {"type": "Point", "coordinates": [-86.6246600709, 39.2337620077]}, "type": "Feature", "properties": {"collection_times": [{"days": "Mon-Fri", "time": "4:00pm"}, {"days": "Sat", "time": "11:00am"}, {"days": "Sun", "time": "Closed"}], "id": "4742900001", "name": "USPS COLLECTION BOX - BLUE BOX", "address": {"city": "ELLETTSVILLE", "state": "IN", "street": "104 N SALE ST", "postcode": "47429"}}},
{"geometry": {"type": "Point", "coordinates": [-86.6165541019, 39.2281052915]}, "type": "Feature", "properties": {"collection_times": [{"days": "Mon-Sat", "time": "9:30am"}, {"days": "Sun", "time": "Closed"}], "id": "4742900002", "name": "USPS COLLECTION BOX - BLUE BOX", "address": {"city": "ELLETTSVILLE", "state": "IN", "street": "599 E TEMPERANCE ST", "postcode": "47429"}}},
{"geometry": {"type": "Point", "coordinates": [-86.6246600709, 39.2337620077]}, "type": "Feature", "properties": {"collection_times": [{"days": "Mon-Fri", "time": "4:00pm"}, {"days": "Sat", "time": "11:00am"}, {"days": "Sun", "time": "Closed"}], "id": "4742900003", "name": "USPS COLLECTION BOX - PO LOBBY", "address": {"city": "ELLETTSVILLE", "state": "IN", "street": "104 N SALE ST", "postcode": "47429"}}},
{"geometry": {"type": "Point", "coordinates": [-86.623661161, 39.235018894]}, "type": "Feature", "properties": {"collection_times": [{"days": "Mon-Sat", "time": "10:30am"}, {"days": "Sun", "time": "Closed"}], "id": "4742900006", "name": "USPS COLLECTION BOX - BLUE BOX", "address": {"city": "ELLETTSVILLE", "state": "IN", "street": "599 W MAIN ST", "postcode": "47429"}}},
{"geometry": {"type": "Point", "coordinates": [-86.8692045176, 39.2047594829]}, "type": "Feature", "properties": {"collection_times": [{"days": "Mon-Fri", "time": "3:30pm"}, {"days": "Sat", "time": "9:30am"}, {"days": "Sun", "time": "Closed"}], "id": "4743100001", "name": "USPS COLLECTION BOX - BLUE BOX", "address": {"city": "FREEDOM", "state": "IN", "street": "5634 MAIN ST", "postcode": "47431"}}},
{"geometry": {"type": "Point", "coordinates": [-86.8692045176, 39.2047594829]}, "type": "Feature", "properties": {"collection_times": [{"days": "Mon-Fri", "time": "11:15am"}, {"days": "Sat", "time": "9:15am"}, {"days": "Sun", "time": "Closed"}], "id": "4743100002", "name": "USPS COLLECTION BOX - PO LOBBY", "address": {"city": "FREEDOM", "state": "IN", "street": "5634 MAIN ST", "postcode": "47431"}}},
{"geometry": {"type": "Point", "coordinates": [-86.6191990106, 38.5487539163]}, "type": "Feature", "properties": {"collection_times": [{"days": "Mon-Fri", "time": "3:30pm"}, {"days": "Sat", "time": "11:00am"}, {"days": "Sun", "time": "Closed"}], "id": "4743200000", "name": "USPS COLLECTION BOX - BLUE BOX", "address": {"city": "FRENCH LICK", "state": "IN", "street": "8617 W COLLEGE ST", "postcode": "47432"}}},
{"geometry": {"type": "Point", "coordinates": [-86.6202298074, 38.5467414189]}, "type": "Feature", "properties": {"collection_times": [{"days": "Mon-Sat", "time": "12:00pm"}, {"days": "Sun", "time": "Closed"}], "id": "4743200001", "name": "USPS COLLECTION BOX - BLUE BOX", "address": {"city": "FRENCH LICK", "state": "IN", "street": "452 S MAPLE ST", "postcode": "47432"}}},
{"geometry": {"type": "Point", "coordinates": [-86.6191990106, 38.5487539163]}, "type": "Feature", "properties": {"collection_times": [{"days": "Mon-Fri", "time": "3:30pm"}, {"days": "Sat", "time": "11:00am"}, {"days": "Sun", "time": "Closed"}], "id": "4743200013", "name": "USPS COLLECTION BOX - PO LOBBY", "address": {"city": "FRENCH LICK", "state": "IN", "street": "8617 W COLLEGE ST", "postcode": "47432"}}},
{"geometry": {"type": "Point", "coordinates": [-86.618882066, 38.551461742]}, "type": "Feature", "properties": {"collection_times": [{"days": "Mon-Sat", "time": "12:00pm"}, {"days": "Sun", "time": "Closed"}], "id": "4743200015", "name": "USPS COLLECTION BOX - BLUE BOX", "address": {"city": "FRENCH LICK", "state": "IN", "street": "8670 W STATE ROAD 56", "postcode": "47432"}}},
{"geometry": {"type": "Point", "coordinates": [-86.6641648977, 39.3493696555]}, "type": "Feature", "properties": {"collection_times": [{"days": "Mon-Fri", "time": "3:30pm"}, {"days": "Sat", "time": "10:00am"}, {"days": "Sun", "time": "Closed"}], "id": "4743300001", "name": "USPS COLLECTION BOX - BLUE BOX", "address": {"city": "GOSPORT", "state": "IN", "street": "11 N 4TH ST", "postcode": "47433"}}},
{"geometry": {"type": "Point", "coordinates": [-86.6641648977, 39.3493696555]}, "type": "Feature", "properties": {"collection_times": [{"days": "Mon-Fri", "time": "3:45pm"}, {"days": "Sat", "time": "10:15am"}, {"days": "Sun", "time": "Closed"}], "id": "4743300002", "name": "USPS COLLECTION BOX - PO LOBBY", "address": {"city": "GOSPORT", "state": "IN", "street": "11 N 4TH ST", "postcode": "47433"}}},
{"geometry": {"type": "Point", "coordinates": [-86.5442582541, 39.0137511958]}, "type": "Feature", "properties": {"collection_times": [{"days": "Mon-Fri", "time": "4:00pm"}, {"days": "Sat", "time": "11:30am"}, {"days": "Sun", "time": "Closed"}], "id": "4743400001", "name": "USPS COLLECTION BOX - BLUE BOX", "address": {"city": "HARRODSBURG", "state": "IN", "street": "9262 S HARRODSBURG RD", "postcode": "47434"}}},
{"geometry": {"type": "Point", "coordinates": [-86.5442582541, 39.0137511958]}, "type": "Feature", "properties": {"collection_times": [{"days": "Mon-Fri", "time": "4:00pm"}, {"days": "Sat", "time": "11:30am"}, {"days": "Sun", "time": "Closed"}], "id": "4743400002", "name": "USPS COLLECTION BOX - PO LOBBY", "address": {"city": "HARRODSBURG", "state": "IN", "street": "9262 S HARRODSBURG RD", "postcode": "47434"}}},
{"geometry": {"type": "Point", "coordinates": [-86.2925320903, 39.265434736]}, "type": "Feature", "properties": {"collection_times": [{"days": "Mon-Fri", "time": "3:45pm"}, {"days": "Sat", "time": "10:30am"}, {"days": "Sun", "time": "Closed"}], "id": "4743500001", "name": "USPS COLLECTION BOX - BLUE BOX", "address": {"city": "HELMSBURG", "state": "IN", "street": "2401 NORTH ST", "postcode": "47435"}}},
{"geometry": {"type": "Point", "coordinates": [-86.2925320903, 39.265434736]}, "type": "Feature", "properties": {"collection_times": [{"days": "Mon-Fri", "time": "11:45am"}, {"days": "Sat", "time": "10:30am"}, {"days": "Sun", "time": "Closed"}], "id": "4743500002", "name": "USPS COLLECTION BOX - PO LOBBY", "address": {"city": "HELMSBURG", "state": "IN", "street": "2401 NORTH ST", "postcode": "47435"}}},
{"geometry": {"type": "Point", "coordinates": [-86.3354343878, 38.9268317206]}, "type": "Feature", "properties": {"collection_times": [{"days": "Mon-Fri", "time": "3:45pm"}, {"days": "Sat", "time": "10:00am"}, {"days": "Sun", "time": "Closed"}], "id": "4743600001", "name": "USPS COLLECTION BOX - BLUE BOX", "address": {"city": "HELTONVILLE", "state": "IN", "street": "6525 STATE ROAD 58 E", "postcode": "47436"}}},
{"geometry": {"type": "Point", "coordinates": [-86.3354343878, 38.9268317206]}, "type": "Feature", "properties": {"collection_times": [{"days": "Mon-Fri", "time": "3:45pm"}, {"days": "Sat", "time": "10:00am"}, {"days": "Sun", "time": "Closed"}], "id": "4743600002", "name": "USPS COLLECTION BOX - PO LOBBY", "address": {"city": "HELTONVILLE", "state": "IN", "street": "6525 STATE ROAD 58 E", "postcode": "47436"}}},
{"geometry": {"type": "Point", "coordinates": [-86.6726284443, 38.7228230444]}, "type": "Feature", "properties": {"collection_times": [{"days": "Mon-Fri", "time": "3:00pm"}, {"days": "Sat", "time": "10:30am"}, {"days": "Sun", "time": "Closed"}], "id": "4743700001", "name": "USPS COLLECTION BOX - BLUE BOX", "address": {"city": "HURON", "state": "IN", "street": "513 HURON PIKE", "postcode": "47437"}}},
{"geometry": {"type": "Point", "coordinates": [-86.6726284443, 38.7228230444]}, "type": "Feature", "properties": {"collection_times": [{"days": "Mon-Fri", "time": "2:45pm"}, {"days": "Sat", "time": "10:30am"}, {"days": "Sun", "time": "Closed"}], "id": "4743700002", "name": "USPS COLLECTION BOX - PO LOBBY", "address": {"city": "HURON", "state": "IN", "street": "513 HURON PIKE", "postcode": "47437"}}},
{"geometry": {"type": "Point", "coordinates": [-87.2026585207, 39.1630753719]}, "type": "Feature", "properties": {"collection_times": [{"days": "Mon-Fri", "time": "3:45pm"}, {"days": "Sat", "time": "10:45am"}, {"days": "Sun", "time": "Closed"}], "id": "4743800000", "name": "USPS COLLECTION BOX - BLUE BOX", "address": {"city": "JASONVILLE", "state": "IN", "street": "325 W MAIN ST", "postcode": "47438"}}},
{"geometry": {"type": "Point", "coordinates": [-87.2001219552, 39.1630650641]}, "type": "Feature", "properties": {"collection_times": [{"days": "Mon-Fri", "time": "3:45pm"}, {"days": "Sat", "time": "10:45am"}, {"days": "Sun", "time": "Closed"}], "id": "4743800006", "name": "USPS COLLECTION BOX - BLUE BOX", "address": {"city": "JASONVILLE", "state": "IN", "street": "100 S LAWTON ST", "postcode": "47438"}}},
{"geometry": {"type": "Point", "coordinates": [-87.2026585207, 39.1630753719]}, "type": "Feature", "properties": {"collection_times": [{"days": "Mon-Fri", "time": "3:45pm"}, {"days": "Sat", "time": "10:45am"}, {"days": "Sun", "time": "Closed"}], "id": "4743800012", "name": "USPS COLLECTION BOX - PO LOBBY", "address": {"city": "JASONVILLE", "state": "IN", "street": "325 W MAIN ST", "postcode": "47438"}}},
{"geometry": {"type": "Point", "coordinates": [-87.195779508, 39.163028259]}, "type": "Feature", "properties": {"collection_times": [{"days": "Mon-Sat", "time": "10:00am"}, {"days": "Sun", "time": "Closed"}], "id": "4743800013", "name": "USPS COLLECTION BOX - BLUE BOX", "address": {"city": "JASONVILLE", "state": "IN", "street": "346 E MAIN ST", "postcode": "47438"}}},
{"geometry": {"type": "Point", "coordinates": [-87.1662468172, 39.0351562549]}, "type": "Feature", "properties": {"collection_times": [{"days": "Mon-Fri", "time": "4:00pm"}, {"days": "Sat", "time": "12:00pm"}, {"days": "Sun", "time": "Closed"}], "id": "4744100001", "name": "USPS COLLECTION BOX - BLUE BOX", "address": {"city": "LINTON", "state": "IN", "street": "109 S MAIN ST", "postcode": "47441"}}},
{"geometry": {"type": "Point", "coordinates": [-87.1662468172, 39.0351562549]}, "type": "Feature", "properties": {"collection_times": [{"days": "Mon-Fri", "time": "4:00pm"}, {"days": "Sat", "time": "12:00pm"}, {"days": "Sun", "time": "Closed"}], "id": "4744100002", "name": "USPS COLLECTION BOX - BLUE BOX", "address": {"city": "LINTON", "state": "IN", "street": "109 S MAIN ST", "postcode": "47441"}}},
{"geometry": {"type": "Point", "coordinates": [-87.0654775098, 39.0380874779]}, "type": "Feature", "properties": {"collection_times": [{"days": "Mon-Sat", "time": "8:45am"}, {"days": "Sun", "time": "Closed"}], "id": "4744100012", "name": "USPS COLLECTION BOX - BLUE BOX", "address": {"city": "LINTON", "state": "IN", "street": "2251 E STATE HIGHWAY 54", "postcode": "47441"}}},
{"geometry": {"type": "Point", "coordinates": [-87.1662468172, 39.0351562549]}, "type": "Feature", "properties": {"collection_times": [{"days": "Mon-Fri", "time": "4:00pm"}, {"days": "Sat", "time": "12:00pm"}, {"days": "Sun", "time": "Closed"}], "id": "4744100013", "name": "USPS COLLECTION BOX - BLUE BOX", "address": {"city": "LINTON", "state": "IN", "street": "109 S MAIN ST", "postcode": "47441"}}},
{"geometry": {"type": "Point", "coordinates": [-87.0824271323, 38.9889142666]}, "type": "Feature", "properties": {"collection_times": [{"days": "Mon-Fri", "time": "3:45pm"}, {"days": "Sat", "time": "11:00am"}, {"days": "Sun", "time": "Closed"}], "id": "4744300001", "name": "USPS COLLECTION BOX - BLUE BOX", "address": {"city": "LYONS", "state": "IN", "street": "167 W BROAD ST", "postcode": "47443"}}},
{"geometry": {"type": "Point", "coordinates": [-87.0824271323, 38.9889142666]}, "type": "Feature", "properties": {"collection_times": [{"days": "Mon-Fri", "time": "11:45am"}, {"days": "Sat", "time": "9:45am"}, {"days": "Sun", "time": "Closed"}], "id": "4744300002", "name": "USPS COLLECTION BOX - PO LOBBY", "address": {"city": "LYONS", "state": "IN", "street": "167 W BROAD ST", "postcode": "47443"}}},
{"geometry": {"type": "Point", "coordinates": [-87.1783697045, 39.1216424092]}, "type": "Feature", "properties": {"collection_times": [{"days": "Mon-Sat", "time": "11:45am"}, {"days": "Sun", "time": "Closed"}], "id": "4744500001", "name": "USPS COLLECTION BOX - BLUE BOX", "address": {"city": "MIDLAND", "state": "IN", "street": "13340 W FIRST ST", "postcode": "47445"}}},
{"geometry": {"type": "Point", "coordinates": [-87.1783697045, 39.1216424092]}, "type": "Feature", "properties": {"collection_times": [{"days": "Mon-Fri", "time": "9:45am"}, {"days": "Sat", "time": "11:45am"}, {"days": "Sun", "time": "Closed"}], "id": "4744500002", "name": "USPS COLLECTION BOX - PO LOBBY", "address": {"city": "MIDLAND", "state": "IN", "street": "13340 W FIRST ST", "postcode": "47445"}}},
{"geometry": {"type": "Point", "coordinates": [-86.4736529915, 38.7329864136]}, "type": "Feature", "properties": {"collection_times": [{"days": "Mon-Fri", "time": "4:30pm"}, {"days": "Sat", "time": "12:00pm"}, {"days": "Sun", "time": "Closed"}], "id": "4744600001", "name": "USPS COLLECTION BOX - BLUE BOX", "address": {"city": "MITCHELL", "state": "IN", "street": "118 N 7TH ST", "postcode": "47446"}}},
{"geometry": {"type": "Point", "coordinates": [-86.4802212732, 38.7277438343]}, "type": "Feature", "properties": {"collection_times": [{"days": "Mon-Sat", "time": "8:30am"}, {"days": "Sun", "time": "Closed"}], "id": "4744600012", "name": "USPS COLLECTION BOX - BLUE BOX", "address": {"city": "MITCHELL", "state": "IN", "street": "1200 ELM PARK DR", "postcode": "47446"}}},
{"geometry": {"type": "Point", "coordinates": [-86.4736529915, 38.7329864136]}, "type": "Feature", "properties": {"collection_times": [{"days": "Mon-Fri", "time": "4:30pm"}, {"days": "Sat", "time": "12:00pm"}, {"days": "Sun", "time": "Closed"}], "id": "4744600028", "name": "USPS COLLECTION BOX - PO LOBBY", "address": {"city": "MITCHELL", "state": "IN", "street": "118 N 7TH ST", "postcode": "47446"}}},
{"geometry": {"type": "Point", "coordinates": [-86.4736529915, 38.7329864136]}, "type": "Feature", "properties": {"collection_times": [{"days": "Mon-Fri", "time": "4:30pm"}, {"days": "Sat", "time": "12:00pm"}, {"days": "Sun", "time": "Closed"}], "id": "4744600029", "name": "USPS COLLECTION BOX - PO LOBBY", "address": {"city": "MITCHELL", "state": "IN", "street": "118 N 7TH ST", "postcode": "47446"}}},
{"geometry": {"type": "Point", "coordinates": [-86.4801981678, 38.7275193958]}, "type": "Feature", "properties": {"collection_times": [{"days": "Mon-Sat", "time": "8:30am"}, {"days": "Sun", "time": "Closed"}], "id": "4744600030", "name": "USPS COLLECTION BOX - BLUE BOX", "address": {"city": "MITCHELL", "state": "IN", "street": "1300 ELM PARK DR", "postcode": "47446"}}},
{"geometry": {"type": "Point", "coordinates": [-86.2489935914, 39.2084153226]}, "type": "Feature", "properties": {"collection_times": [{"days": "Mon-Fri", "time": "4:00pm"}, {"days": "Sat", "time": "12:00pm"}, {"days": "Sun", "time": "Closed"}], "id": "4744800001", "name": "USPS COLLECTION BOX - PO LOBBY", "address": {"city": "NASHVILLE", "state": "IN", "street": "200 E GOULD ST", "postcode": "47448"}}},
{"geometry": {"type": "Point", "coordinates": [-86.2489935914, 39.2084153226]}, "type": "Feature", "properties": {"collection_times": [{"days": "Mon-Fri", "time": "4:00pm"}, {"days": "Sat", "time": "12:00pm"}, {"days": "Sun", "time": "Closed"}], "id": "4744800002", "name": "USPS COLLECTION BOX - PO LOBBY", "address": {"city": "NASHVILLE", "state": "IN", "street": "200 E GOULD ST", "postcode": "47448"}}},
{"geometry": {"type": "Point", "coordinates": [-86.2489935914, 39.2084153226]}, "type": "Feature", "properties": {"collection_times": [{"days": "Mon-Fri", "time": "4:00pm"}, {"days": "Sat", "time": "12:00pm"}, {"days": "Sun", "time": "Closed"}], "id": "4744800003", "name": "USPS COLLECTION BOX - BLUE BOX", "address": {"city": "NASHVILLE", "state": "IN", "street": "200 E GOULD ST", "postcode": "47448"}}},
{"geometry": {"type": "Point", "coordinates": [-86.2489935914, 39.2084153226]}, "type": "Feature", "properties": {"collection_times": [{"days": "Mon-Fri", "time": "4:00pm"}, {"days": "Sat", "time": "12:00pm"}, {"days": "Sun", "time": "Closed"}], "id": "4744800004", "name": "USPS COLLECTION BOX - BLUE BOX", "address": {"city": "NASHVILLE", "state": "IN", "street": "200 E GOULD ST", "postcode": "47448"}}},
{"geometry": {"type": "Point", "coordinates": [-86.1459712425, 39.2615883359]}, "type": "Feature", "properties": {"collection_times": [{"days": "Mon-Sat", "time": "10:00am"}, {"days": "Sun", "time": "Closed"}], "id": "4744800005", "name": "USPS COLLECTION BOX - BLUE BOX", "address": {"city": "NASHVILLE", "state": "IN", "street": "1 SALT CREEK RD", "postcode": "47448"}}},
{"geometry": {"type": "Point", "coordinates": [-86.2468578256, 39.2070720997]}, "type": "Feature", "properties": {"collection_times": [{"days": "Mon-Fri", "time": "1:00pm"}, {"days": "Sat", "time": "12:00pm"}, {"days": "Sun", "time": "Closed"}], "id": "4744800008", "name": "USPS COLLECTION BOX - BLUE BOX", "address": {"city": "NASHVILLE", "state": "IN", "street": "27 S VAN BUREN ST", "postcode": "47448"}}},
{"geometry": {"type": "Point", "coordinates": [-87.0194650497, 38.9240698033]}, "type": "Feature", "properties": {"collection_times": [{"days": "Mon-Fri", "time": "3:30pm"}, {"days": "Sat", "time": "11:00am"}, {"days": "Sun", "time": "Closed"}], "id": "4744900001", "name": "USPS COLLECTION BOX - BLUE BOX", "address": {"city": "NEWBERRY", "state": "IN", "street": "414 BROAD ST", "postcode": "47449"}}},
{"geometry": {"type": "Point", "coordinates": [-87.0193653584, 38.9240506348]}, "type": "Feature", "properties": {"collection_times": [{"days": "Mon-Fri", "time": "3:15pm"}, {"days": "Sat", "time": "11:00am"}, {"days": "Sun", "time": "Closed"}], "id": "4744900002", "name": "USPS COLLECTION BOX - PO LOBBY", "address": {"city": "NEWBERRY", "state": "IN", "street": "414 BROAD ST", "postcode": "47449"}}},
{"geometry": {"type": "Point", "coordinates": [-86.526093874, 38.9008616779]}, "type": "Feature", "properties": {"collection_times": [{"days": "Mon-Fri", "time": "4:00pm"}, {"days": "Sat", "time": "11:00am"}, {"days": "Sun", "time": "Closed"}], "id": "4745100001", "name": "USPS COLLECTION BOX - BLUE BOX", "address": {"city": "OOLITIC", "state": "IN", "street": "113 MAIN ST", "postcode": "47451"}}},
{"geometry": {"type": "Point", "coordinates": [-86.526093874, 38.9008616779]}, "type": "Feature", "properties": {"collection_times": [{"days": "Mon-Fri", "time": "4:00pm"}, {"days": "Sat", "time": "11:00am"}, {"days": "Sun", "time": "Closed"}], "id": "4745100002", "name": "USPS COLLECTION BOX - PO LOBBY", "address": {"city": "OOLITIC", "state": "IN", "street": "113 MAIN ST", "postcode": "47451"}}},
{"geometry": {"type": "Point", "coordinates": [-86.5207771626, 38.8931196076]}, "type": "Feature", "properties": {"collection_times": [{"days": "Mon-Sat", "time": "11:00am"}, {"days": "Sun", "time": "Closed"}], "id": "4745100003", "name": "USPS COLLECTION BOX - BLUE BOX", "address": {"city": "OOLITIC", "state": "IN", "street": "510 W 9TH ST", "postcode": "47451"}}},
{"geometry": {"type": "Point", "coordinates": [-86.4541771524, 38.6615724865]}, "type": "Feature", "properties": {"collection_times": [{"days": "Mon-Fri", "time": "3:30pm"}, {"days": "Sat", "time": "11:00am"}, {"days": "Sun", "time": "Closed"}], "id": "4745200002", "name": "USPS COLLECTION BOX - BLUE BOX", "address": {"city": "ORLEANS", "state": "IN", "street": "201 W WASHINGTON ST", "postcode": "47452"}}},
{"geometry": {"type": "Point", "coordinates": [-86.452829791, 38.6624937299]}, "type": "Feature", "properties": {"collection_times": [{"days": "Mon-Fri", "time": "2:30pm"}, {"days": "Sat", "time": "11:00am"}, {"days": "Sun", "time": "Closed"}], "id": "4745200003", "name": "USPS COLLECTION BOX - BLUE BOX", "address": {"city": "ORLEANS", "state": "IN", "street": "119 S MAPLE ST", "postcode": "47452"}}},
{"geometry": {"type": "Point", "coordinates": [-86.4541771524, 38.6615724865]}, "type": "Feature", "properties": {"collection_times": [{"days": "Mon-Fri", "time": "3:30pm"}, {"days": "Sat", "time": "11:00am"}, {"days": "Sun", "time": "Closed"}], "id": "4745200005", "name": "USPS COLLECTION BOX - PO LOBBY", "address": {"city": "ORLEANS", "state": "IN", "street": "201 W WASHINGTON ST", "postcode": "47452"}}},
{"geometry": {"type": "Point", "coordinates": [-86.4681602217, 38.5556952869]}, "type": "Feature", "properties": {"collection_times": [{"days": "Mon-Fri", "time": "3:15pm"}, {"days": "Sat", "time": "11:00am"}, {"days": "Sun", "time": "Closed"}], "id": "4745400001", "name": "USPS COLLECTION BOX - BLUE BOX", "address": {"city": "PAOLI", "state": "IN", "street": "202 N GOSPEL ST", "postcode": "47454"}}},
{"geometry": {"type": "Point", "coordinates": [-86.468386269, 38.5572210291]}, "type": "Feature", "properties": {"collection_times": [{"days": "Mon-Fri", "time": "3:15pm"}, {"days": "Sat", "time": "11:00am"}, {"days": "Sun", "time": "Closed"}], "id": "4745400003", "name": "USPS COLLECTION BOX - BLUE BOX", "address": {"city": "PAOLI", "state": "IN", "street": "202 N GOSPEL ST", "postcode": "47454"}}},
{"geometry": {"type": "Point", "coordinates": [-86.4670433535, 38.5560849448]}, "type": "Feature", "properties": {"collection_times": [{"days": "Mon-Fri", "time": "3:15pm"}, {"days": "Sat-Sun", "time": "Closed"}], "id": "4745400005", "name": "USPS COLLECTION BOX - BLUE BOX", "address": {"city": "PAOLI", "state": "IN", "street": "205 E MAIN ST", "postcode": "47454"}}},
{"geometry": {"type": "Point", "coordinates": [-86.468386269, 38.5572210291]}, "type": "Feature", "properties": {"collection_times": [{"days": "Mon-Fri", "time": "3:15pm"}, {"days": "Sat", "time": "11:00am"}, {"days": "Sun", "time": "Closed"}], "id": "4745400006", "name": "USPS COLLECTION BOX - PO LOBBY", "address": {"city": "PAOLI", "state": "IN", "street": "202 N GOSPEL ST", "postcode": "47454"}}},
{"geometry": {"type": "Point", "coordinates": [-86.9582693236, 39.312243919]}, "type": "Feature", "properties": {"collection_times": [{"days": "Mon-Fri", "time": "3:00pm"}, {"days": "Sat", "time": "10:00am"}, {"days": "Sun", "time": "Closed"}], "id": "4745500001", "name": "USPS COLLECTION BOX - BLUE BOX", "address": {"city": "PATRICKSBURG", "state": "IN", "street": "10097 STATE HIGHWAY 246", "postcode": "47455"}}},
{"geometry": {"type": "Point", "coordinates": [-86.9582693236, 39.312243919]}, "type": "Feature", "properties": {"collection_times": [{"days": "Mon-Fri", "time": "3:15pm"}, {"days": "Sat", "time": "9:45am"}, {"days": "Sun", "time": "Closed"}], "id": "4745500002", "name": "USPS COLLECTION BOX - PO LOBBY", "address": {"city": "PATRICKSBURG", "state": "IN", "street": "10097 STATE HIGHWAY 246", "postcode": "47455"}}},
{"geometry": {"type": "Point", "coordinates": [-86.7132493234, 39.4506389471]}, "type": "Feature", "properties": {"collection_times": [{"days": "Mon-Fri", "time": "3:00pm"}, {"days": "Sat", "time": "9:30am"}, {"days": "Sun", "time": "Closed"}], "id": "4745600001", "name": "USPS COLLECTION BOX - BLUE BOX", "address": {"city": "QUINCY", "state": "IN", "street": "3218 SOUTH ST", "postcode": "47456"}}},
{"geometry": {"type": "Point", "coordinates": [-86.7543312636, 39.4489859518]}, "type": "Feature", "properties": {"collection_times": [{"days": "Mon-Fri", "time": "11:15am"}, {"days": "Sat", "time": "9:15am"}, {"days": "Sun", "time": "Closed"}], "id": "4745600002", "name": "USPS COLLECTION BOX - PO LOBBY", "address": {"city": "QUINCY", "state": "IN", "street": "3218 SOUTH ST", "postcode": "47456"}}},
{"geometry": {"type": "Point", "coordinates": [-86.506304824, 39.0726029526]}, "type": "Feature", "properties": {"collection_times": [{"days": "Mon-Fri", "time": "4:15pm"}, {"days": "Sat", "time": "10:15am"}, {"days": "Sun", "time": "Closed"}], "id": "4745800001", "name": "USPS COLLECTION BOX - BLUE BOX", "address": {"city": "SMITHVILLE", "state": "IN", "street": "7390 S STRAIN RIDGE RD", "postcode": "47458"}}},
{"geometry": {"type": "Point", "coordinates": [-86.506304824, 39.0726029526]}, "type": "Feature", "properties": {"collection_times": [{"days": "Mon-Fri", "time": "11:45am"}, {"days": "Sat", "time": "10:45am"}, {"days": "Sun", "time": "Closed"}], "id": "4745800002", "name": "USPS COLLECTION BOX - PO LOBBY", "address": {"city": "SMITHVILLE", "state": "IN", "street": "7390 S STRAIN RIDGE RD", "postcode": "47458"}}},
{"geometry": {"type": "Point", "coordinates": [-86.7571273686, 39.1235309913]}, "type": "Feature", "properties": {"collection_times": [{"days": "Mon-Fri", "time": "3:45pm"}, {"days": "Sat", "time": "11:00am"}, {"days": "Sun", "time": "Closed"}], "id": "4745900001", "name": "USPS COLLECTION BOX - BLUE BOX", "address": {"city": "SOLSBERRY", "state": "IN", "street": "1 W MAIN ST", "postcode": "47459"}}},
{"geometry": {"type": "Point", "coordinates": [-86.6988288275, 39.1187077702]}, "type": "Feature", "properties": {"collection_times": [{"days": "Mon-Fri", "time": "3:15pm"}, {"days": "Sat", "time": "11:00am"}, {"days": "Sun", "time": "Closed"}], "id": "4745900002", "name": "USPS COLLECTION BOX - PO LOBBY", "address": {"city": "SOLSBERRY", "state": "IN", "street": "1 W MAIN ST", "postcode": "47459"}}},
{"geometry": {"type": "Point", "coordinates": [-86.7613011619, 39.2860132071]}, "type": "Feature", "properties": {"collection_times": [{"days": "Mon-Fri", "time": "4:15pm"}, {"days": "Sat", "time": "12:00pm"}, {"days": "Sun", "time": "Closed"}], "id": "4746000001", "name": "USPS COLLECTION BOX - BLUE BOX", "address": {"city": "SPENCER", "state": "IN", "street": "30 S WASHINGTON ST", "postcode": "47460"}}},
{"geometry": {"type": "Point", "coordinates": [-86.7593382215, 39.2871114069]}, "type": "Feature", "properties": {"collection_times": [{"days": "Mon-Fri", "time": "9:00am"}, {"days": "Sat", "time": "11:00am"}, {"days": "Sun", "time": "Closed"}], "id": "4746000004", "name": "USPS COLLECTION BOX - BLUE BOX", "address": {"city": "SPENCER", "state": "IN", "street": "279 E MORGAN ST", "postcode": "47460"}}},
{"geometry": {"type": "Point", "coordinates": [-86.7677724944, 39.2870445302]}, "type": "Feature", "properties": {"collection_times": [{"days": "Mon-Sat", "time": "9:00am"}, {"days": "Sun", "time": "Closed"}], "id": "4746000011", "name": "USPS COLLECTION BOX - BLUE BOX", "address": {"city": "SPENCER", "state": "IN", "street": "459 W MORGAN ST", "postcode": "47460"}}},
{"geometry": {"type": "Point", "coordinates": [-86.7626010303, 39.2850256903]}, "type": "Feature", "properties": {"collection_times": [{"days": "Mon-Fri", "time": "9:00am"}, {"days": "Sat", "time": "11:00am"}, {"days": "Sun", "time": "Closed"}], "id": "4746000013", "name": "USPS COLLECTION BOX - BLUE BOX", "address": {"city": "SPENCER", "state": "IN", "street": "109 S MAIN ST", "postcode": "47460"}}},
{"geometry": {"type": "Point", "coordinates": [-86.7613011619, 39.2860132071]}, "type": "Feature", "properties": {"collection_times": [{"days": "Mon-Fri", "time": "4:15pm"}, {"days": "Sat", "time": "12:00pm"}, {"days": "Sun", "time": "Closed"}], "id": "4746000021", "name": "USPS COLLECTION BOX - BLUE BOX", "address": {"city": "SPENCER", "state": "IN", "street": "30 S WASHINGTON ST", "postcode": "47460"}}},
{"geometry": {"type": "Point", "coordinates": [-86.7613011619, 39.2860132071]}, "type": "Feature", "properties": {"collection_times": [{"days": "Mon-Fri", "time": "4:15pm"}, {"days": "Sat", "time": "12:00pm"}, {"days": "Sun", "time": "Closed"}], "id": "4746000022", "name": "USPS COLLECTION BOX - PO LOBBY", "address": {"city": "SPENCER", "state": "IN", "street": "30 S WASHINGTON ST", "postcode": "47460"}}},
{"geometry": {"type": "Point", "coordinates": [-86.7613011619, 39.2860132071]}, "type": "Feature", "properties": {"collection_times": [{"days": "Mon-Fri", "time": "4:15pm"}, {"days": "Sat", "time": "12:00pm"}, {"days": "Sun", "time": "Closed"}], "id": "4746000023", "name": "USPS COLLECTION BOX - PO LOBBY", "address": {"city": "SPENCER", "state": "IN", "street": "30 S WASHINGTON ST", "postcode": "47460"}}},
{"geometry": {"type": "Point", "coordinates": [-86.7709298487, 39.2860009323]}, "type": "Feature", "properties": {"collection_times": [{"days": "Mon-Sat", "time": "10:00am"}, {"days": "Sun", "time": "Closed"}], "id": "4746000024", "name": "USPS COLLECTION BOX - BLUE BOX", "address": {"city": "SPENCER", "state": "IN", "street": "4517 ESTES RD", "postcode": "47460"}}},
{"geometry": {"type": "Point", "coordinates": [-86.6191638486, 38.9355103295]}, "type": "Feature", "properties": {"collection_times": [{"days": "Mon-Fri", "time": "3:30pm"}, {"days": "Sat", "time": "10:30am"}, {"days": "Sun", "time": "Closed"}], "id": "4746200001", "name": "USPS COLLECTION BOX - BLUE BOX", "address": {"city": "SPRINGVILLE", "state": "IN", "street": "193 BRICK ST", "postcode": "47462"}}},
{"geometry": {"type": "Point", "coordinates": [-86.6191638486, 38.9355103295]}, "type": "Feature", "properties": {"collection_times": [{"days": "Mon-Fri", "time": "2:30pm"}, {"days": "Sat", "time": "10:30am"}, {"days": "Sun", "time": "Closed"}], "id": "4746200002", "name": "USPS COLLECTION BOX - PO LOBBY", "address": {"city": "SPRINGVILLE", "state": "IN", "street": "193 BRICK ST", "postcode": "47462"}}},
{"geometry": {"type": "Point", "coordinates": [-86.6655287053, 39.0904539598]}, "type": "Feature", "properties": {"collection_times": [{"days": "Mon-Fri", "time": "4:15pm"}, {"days": "Sat", "time": "10:45am"}, {"days": "Sun", "time": "Closed"}], "id": "4746300001", "name": "USPS COLLECTION BOX - BLUE BOX", "address": {"city": "STANFORD", "state": "IN", "street": "9048 W STATE ROAD 45", "postcode": "47463"}}},
{"geometry": {"type": "Point", "coordinates": [-86.6655287053, 39.0904539598]}, "type": "Feature", "properties": {"collection_times": [{"days": "Mon-Fri", "time": "4:15pm"}, {"days": "Sat", "time": "10:45am"}, {"days": "Sun", "time": "Closed"}], "id": "4746300002", "name": "USPS COLLECTION BOX - PO LOBBY", "address": {"city": "STANFORD", "state": "IN", "street": "9048 W STATE ROAD 45", "postcode": "47463"}}},
{"geometry": {"type": "Point", "coordinates": [-86.6507901351, 39.2986981547]}, "type": "Feature", "properties": {"collection_times": [{"days": "Mon-Fri", "time": "4:00pm"}, {"days": "Sat", "time": "11:00am"}, {"days": "Sun", "time": "Closed"}], "id": "4746400000", "name": "USPS COLLECTION BOX - BLUE BOX", "address": {"city": "STINESVILLE", "state": "IN", "street": "8201 W MAIN ST", "postcode": "47464"}}},
{"geometry": {"type": "Point", "coordinates": [-86.6507901351, 39.2986981547]}, "type": "Feature", "properties": {"collection_times": [{"days": "Mon-Fri", "time": "4:00pm"}, {"days": "Sat", "time": "11:00am"}, {"days": "Sun", "time": "Closed"}], "id": "4746400001", "name": "USPS COLLECTION BOX - PO LOBBY", "address": {"city": "STINESVILLE", "state": "IN", "street": "8201 W MAIN ST", "postcode": "47464"}}},
{"geometry": {"type": "Point", "coordinates": [-87.0532769961, 39.0336734279]}, "type": "Feature", "properties": {"collection_times": [{"days": "Mon-Fri", "time": "4:00pm"}, {"days": "Sat", "time": "10:15am"}, {"days": "Sun", "time": "Closed"}], "id": "4746500002", "name": "USPS COLLECTION BOX - BLUE BOX", "address": {"city": "SWITZ CITY", "state": "IN", "street": "240 CHARLOTTE AVE", "postcode": "47465"}}},
{"geometry": {"type": "Point", "coordinates": [-87.0533118636, 39.0329996678]}, "type": "Feature", "properties": {"collection_times": [{"days": "Mon-Fri", "time": "11:15am"}, {"days": "Sat", "time": "10:15am"}, {"days": "Sun", "time": "Closed"}], "id": "4746500004", "name": "USPS COLLECTION BOX - PO LOBBY", "address": {"city": "SWITZ CITY", "state": "IN", "street": "240 CHARLOTTE AVE", "postcode": "47465"}}},
{"geometry": {"type": "Point", "coordinates": [-86.3433294168, 38.7679212898]}, "type": "Feature", "properties": {"collection_times": [{"days": "Mon-Sat", "time": "10:30am"}, {"days": "Sun", "time": "Closed"}], "id": "4746700001", "name": "USPS COLLECTION BOX - PO LOBBY", "address": {"city": "TUNNELTON", "state": "IN", "street": "45 SENECA ST", "postcode": "47467"}}},
{"geometry": {"type": "Point", "coordinates": [-86.3433294168, 38.7679212898]}, "type": "Feature", "properties": {"collection_times": [{"days": "Mon-Sat", "time": "10:30am"}, {"days": "Sun", "time": "Closed"}], "id": "4746700002", "name": "USPS COLLECTION BOX - BLUE BOX", "address": {"city": "TUNNELTON", "state": "IN", "street": "45 SENECA ST", "postcode": "47467"}}},
{"geometry": {"type": "Point", "coordinates": [-86.4179020771, 39.2299880191]}, "type": "Feature", "properties": {"collection_times": [{"days": "Mon-Fri", "time": "3:45pm"}, {"days": "Sat", "time": "11:00am"}, {"days": "Sun", "time": "Closed"}], "id": "4746800001", "name": "USPS COLLECTION BOX - BLUE BOX", "address": {"city": "UNIONVILLE", "state": "IN", "street": "8031 E STATE ROAD 45", "postcode": "47468"}}},
{"geometry": {"type": "Point", "coordinates": [-86.4179020771, 39.2299880191]}, "type": "Feature", "properties": {"collection_times": [{"days": "Mon-Fri", "time": "2:30pm"}, {"days": "Sat", "time": "11:00am"}, {"days": "Sun", "time": "Closed"}], "id": "4746800002", "name": "USPS COLLECTION BOX - PO LOBBY", "address": {"city": "UNIONVILLE", "state": "IN", "street": "8031 E STATE ROAD 45", "postcode": "47468"}}},
{"geometry": {"type": "Point", "coordinates": [-86.6132767118, 38.5734022498]}, "type": "Feature", "properties": {"collection_times": [{"days": "Mon-Fri", "time": "4:00pm"}, {"days": "Sat", "time": "11:00am"}, {"days": "Sun", "time": "Closed"}], "id": "4746900000", "name": "USPS COLLECTION BOX - BLUE BOX", "address": {"city": "W BADEN SPRGS", "state": "IN", "street": "8182 W STATE ROAD 56", "postcode": "47469"}}},
{"geometry": {"type": "Point", "coordinates": [-86.6132767118, 38.5734022498]}, "type": "Feature", "properties": {"collection_times": [{"days": "Mon-Fri", "time": "4:00pm"}, {"days": "Sat", "time": "11:00am"}, {"days": "Sun", "time": "Closed"}], "id": "4746900001", "name": "USPS COLLECTION BOX - PO LOBBY", "address": {"city": "W BADEN SPRGS", "state": "IN", "street": "8182 W STATE ROAD 56", "postcode": "47469"}}},
{"geometry": {"type": "Point", "coordinates": [-86.637923506, 38.7935920334]}, "type": "Feature", "properties": {"collection_times": [{"days": "Mon-Fri", "time": "3:30pm"}, {"days": "Sat", "time": "10:30am"}, {"days": "Sun", "time": "Closed"}], "id": "4747000001", "name": "USPS COLLECTION BOX - BLUE BOX", "address": {"city": "WILLIAMS", "state": "IN", "street": "61 KERN ST", "postcode": "47470"}}},
{"geometry": {"type": "Point", "coordinates": [-86.637923506, 38.7935920334]}, "type": "Feature", "properties": {"collection_times": [{"days": "Mon-Fri", "time": "11:15am"}, {"days": "Sat", "time": "10:15am"}, {"days": "Sun", "time": "Closed"}], "id": "4747000002", "name": "USPS COLLECTION BOX - PO LOBBY", "address": {"city": "WILLIAMS", "state": "IN", "street": "61 KERN ST", "postcode": "47470"}}},
{"geometry": {"type": "Point", "coordinates": [-86.9780837643, 39.1166628022]}, "type": "Feature", "properties": {"collection_times": [{"days": "Mon-Fri", "time": "4:00pm"}, {"days": "Sat", "time": "11:00am"}, {"days": "Sun", "time": "Closed"}], "id": "4747100004", "name": "USPS COLLECTION BOX - BLUE BOX", "address": {"city": "WORTHINGTON", "state": "IN", "street": "205 S COMMERCIAL ST", "postcode": "47471"}}},
{"geometry": {"type": "Point", "coordinates": [-86.9796465329, 39.1178926695]}, "type": "Feature", "properties": {"collection_times": [{"days": "Mon-Fri", "time": "3:30pm"}, {"days": "Sat", "time": "11:00am"}, {"days": "Sun", "time": "Closed"}], "id": "4747100005", "name": "USPS COLLECTION BOX - BLUE BOX", "address": {"city": "WORTHINGTON", "state": "IN", "street": "319 CANAL ST", "postcode": "47471"}}},
{"geometry": {"type": "Point", "coordinates": [-86.972816802, 39.115272491]}, "type": "Feature", "properties": {"collection_times": [{"days": "Mon-Sat", "time": "10:00am"}, {"days": "Sun", "time": "Closed"}], "id": "4747100006", "name": "USPS COLLECTION BOX - BLUE BOX", "address": {"city": "WORTHINGTON", "state": "IN", "street": "240 WEST ST", "postcode": "47471"}}},
{"geometry": {"type": "Point", "coordinates": [-86.9715476563, 39.1239051738]}, "type": "Feature", "properties": {"collection_times": [{"days": "Mon-Fri", "time": "3:30pm"}, {"days": "Sat", "time": "11:00am"}, {"days": "Sun", "time": "Closed"}], "id": "4747100008", "name": "USPS COLLECTION BOX - BLUE BOX", "address": {"city": "WORTHINGTON", "state": "IN", "street": "9 N COMMERICAL ST", "postcode": "47471"}}},
{"geometry": {"type": "Point", "coordinates": [-86.9780837643, 39.1166628022]}, "type": "Feature", "properties": {"collection_times": [{"days": "Mon-Fri", "time": "4:00pm"}, {"days": "Sat", "time": "11:00am"}, {"days": "Sun", "time": "Closed"}], "id": "4747100009", "name": "USPS COLLECTION BOX - PO LOBBY", "address": {"city": "WORTHINGTON", "state": "IN", "street": "205 S COMMERCIAL ST", "postcode": "47471"}}}
]}
