{"type": "FeatureCollection", "features": [
{"geometry": {"type": "Point", "coordinates": [-85.1529738572, 39.7868873676]}, "type": "Feature", "properties": {"collection_times": [{"days": "Mon-Fri", "time": "10:00am"}, {"days": "Sat", "time": "9:45am"}, {"days": "Sun", "time": "Closed"}], "id": "4750100003", "name": "USPS COLLECTION BOX - BLUE BOX", "address": {"city": "WASHINGTON", "state": "IN", "street": "300 E MAIN ST", "postcode": "47501"}}},
{"geometry": {"type": "Point", "coordinates": [-87.1711161793, 38.6561801865]}, "type": "Feature", "properties": {"collection_times": [{"days": "Mon-Fri", "time": "1:30pm"}, {"days": "Sat", "time": "12:00pm"}, {"days": "Sun", "time": "Closed"}], "id": "4750100007", "name": "USPS COLLECTION BOX - BLUE BOX", "address": {"city": "WASHINGTON", "state": "IN", "street": "408 E SOUTH ST", "postcode": "47501"}}},
{"geometry": {"type": "Point", "coordinates": [-87.1861698816, 38.6514655083]}, "type": "Feature", "properties": {"collection_times": [{"days": "Mon-Sat", "time": "8:30am"}, {"days": "Sun", "time": "Closed"}], "id": "4750100009", "name": "USPS COLLECTION BOX - BLUE BOX", "address": {"city": "WASHINGTON", "state": "IN", "street": "900 W NATIONAL HWY", "postcode": "47501"}}},
{"geometry": {"type": "Point", "coordinates": [-85.1541260592, 39.7860202587]}, "type": "Feature", "properties": {"collection_times": [{"days": "Mon-Fri", "time": "1:30pm"}, {"days": "Sat", "time": "12:00pm"}, {"days": "Sun", "time": "Closed"}], "id": "4750100017", "name": "USPS COLLECTION BOX - BLUE BOX", "address": {"city": "WASHINGTON", "state": "IN", "street": "200 E WALNUT ST", "postcode": "47501"}}},
{"geometry": {"type": "Point", "coordinates": [-87.1708084919, 38.6539830112]}, "type": "Feature", "properties": {"collection_times": [{"days": "Mon-Fri", "time": "5:00pm"}, {"days": "Sat", "time": "12:00pm"}, {"days": "Sun", "time": "Closed"}], "id": "4750100022", "name": "USPS COLLECTION BOX - PO LOBBY", "address": {"city": "WASHINGTON", "state": "IN", "street": "405 CENTER ST", "postcode": "47501"}}},
{"geometry": {"type": "Point", "coordinates": [-87.1708084919, 38.6539830112]}, "type": "Feature", "properties": {"collection_times": [{"days": "Mon-Fri", "time": "5:00pm"}, {"days": "Sat", "time": "12:00pm"}, {"days": "Sun", "time": "Closed"}], "id": "4750100024", "name": "USPS COLLECTION BOX - BLUE BOX", "address": {"city": "WASHINGTON", "state": "IN", "street": "405 CENTER ST", "postcode": "47501"}}},
{"geometry": {"type": "Point", "coordinates": [-87.3076926396, 38.7741329153]}, "type": "Feature", "properties": {"collection_times": [{"days": "Mon-Fri", "time": "3:30pm"}, {"days": "Sat", "time": "11:45am"}, {"days": "Sun", "time": "Closed"}], "id": "4751200000", "name": "USPS COLLECTION BOX - BLUE BOX", "address": {"city": "BICKNELL", "state": "IN", "street": "117 E 3RD ST", "postcode": "47512"}}},
{"geometry": {"type": "Point", "coordinates": [-87.3076926396, 38.7741329153]}, "type": "Feature", "properties": {"collection_times": [{"days": "Mon-Fri", "time": "3:30pm"}, {"days": "Sat", "time": "11:45am"}, {"days": "Sun", "time": "Closed"}], "id": "4751200023", "name": "USPS COLLECTION BOX - PO LOBBY", "address": {"city": "BICKNELL", "state": "IN", "street": "117 E 3RD ST", "postcode": "47512"}}},
{"geometry": {"type": "Point", "coordinates": [-86.6946271704, 38.3157562582]}, "type": "Feature", "properties": {"collection_times": [{"days": "Mon-Fri", "time": "3:30pm"}, {"days": "Sat", "time": "10:00am"}, {"days": "Sun", "time": "Closed"}], "id": "4751300000", "name": "USPS COLLECTION BOX - BLUE BOX", "address": {"city": "BIRDSEYE", "state": "IN", "street": "201 S STATE ROAD 145", "postcode": "47513"}}},
{"geometry": {"type": "Point", "coordinates": [-86.6946271704, 38.3157562582]}, "type": "Feature", "properties": {"collection_times": [{"days": "Mon-Fri", "time": "11:45am"}, {"days": "Sat", "time": "9:45am"}, {"days": "Sun", "time": "Closed"}], "id": "4751300001", "name": "USPS COLLECTION BOX - PO LOBBY", "address": {"city": "BIRDSEYE", "state": "IN", "street": "201 S STATE ROAD 145", "postcode": "47513"}}},
{"geometry": {"type": "Point", "coordinates": [-86.7088505146, 38.1724589247]}, "type": "Feature", "properties": {"collection_times": [{"days": "Mon-Fri", "time": "2:00pm"}, {"days": "Sat", "time": "11:00am"}, {"days": "Sun", "time": "Closed"}], "id": "4751500001", "name": "USPS COLLECTION BOX - BLUE BOX", "address": {"city": "BRISTOW", "state": "IN", "street": "4648 FIRST ST", "postcode": "47515"}}},
{"geometry": {"type": "Point", "coordinates": [-87.4166804925, 38.7598491218]}, "type": "Feature", "properties": {"collection_times": [{"days": "Mon-Fri", "time": "4:15pm"}, {"days": "Sat", "time": "10:00am"}, {"days": "Sun", "time": "Closed"}], "id": "4751600001", "name": "USPS COLLECTION BOX - BLUE BOX", "address": {"city": "BRUCEVILLE", "state": "IN", "street": "501 W MAIN ST", "postcode": "47516"}}},
{"geometry": {"type": "Point", "coordinates": [-87.4166804925, 38.7598491218]}, "type": "Feature", "properties": {"collection_times": [{"days": "Mon-Fri", "time": "11:15am"}, {"days": "Sat", "time": "10:00am"}, {"days": "Sun", "time": "Closed"}], "id": "4751600002", "name": "USPS COLLECTION BOX - PO LOBBY", "address": {"city": "BRUCEVILLE", "state": "IN", "street": "501 W MAIN ST", "postcode": "47516"}}},
{"geometry": {"type": "Point", "coordinates": [-86.7455344098, 37.9104207324]}, "type": "Feature", "properties": {"collection_times": [{"days": "Mon-Fri", "time": "2:15pm"}, {"days": "Sat", "time": "10:00am"}, {"days": "Sun", "time": "Closed"}], "id": "4752000000", "name": "USPS COLLECTION BOX - PO LOBBY", "address": {"city": "CANNELTON", "state": "IN", "street": "217 WASHINGTON ST", "postcode": "47520"}}},
{"geometry": {"type": "Point", "coordinates": [-86.7455344098, 37.9104207324]}, "type": "Feature", "properties": {"collection_times": [{"days": "Mon-Fri", "time": "2:15pm"}, {"days": "Sat", "time": "10:00am"}, {"days": "Sun", "time": "Closed"}], "id": "4752000005", "name": "USPS COLLECTION BOX - BLUE BOX", "address": {"city": "CANNELTON", "state": "IN", "street": "217 WASHINGTON ST", "postcode": "47520"}}},
{"geometry": {"type": "Point", "coordinates": [-86.7825408699, 38.3667919042]}, "type": "Feature", "properties": {"collection_times": [{"days": "Mon-Fri", "time": "4:00pm"}, {"days": "Sat", "time": "11:15am"}, {"days": "Sun", "time": "Closed"}], "id": "4752100000", "name": "USPS COLLECTION BOX - BLUE BOX", "address": {"city": "CELESTINE", "state": "IN", "street": "365 N CELESTINE RD S", "postcode": "47521"}}},
{"geometry": {"type": "Point", "coordinates": [-86.7825408699, 38.3667919042]}, "type": "Feature", "properties": {"collection_times": [{"days": "Mon-Fri", "time": "11:45am"}, {"days": "Sat", "time": "10:45am"}, {"days": "Sun", "time": "Closed"}], "id": "4752100001", "name": "USPS COLLECTION BOX - PO LOBBY", "address": {"city": "CELESTINE", "state": "IN", "street": "365 N CELESTINE RD S", "postcode": "47521"}}},
{"geometry": {"type": "Point", "coordinates": [-86.9015356981, 38.8945735859]}, "type": "Feature", "properties": {"collection_times": [{"days": "Mon-Fri", "time": "3:00pm"}, {"days": "Sat", "time": "11:00am"}, {"days": "Sun", "time": "Closed"}], "id": "4752200001", "name": "USPS COLLECTION BOX - BLUE BOX", "address": {"city": "CRANE", "state": "IN", "street": "100 BLANDY ST", "postcode": "47522"}}},
{"geometry": {"type": "Point", "coordinates": [-86.9015356981, 38.8945735859]}, "type": "Feature", "properties": {"collection_times": [{"days": "Mon-Fri", "time": "3:30pm"}, {"days": "Sat", "time": "11:15am"}, {"days": "Sun", "time": "Closed"}], "id": "4752200004", "name": "USPS COLLECTION BOX - PO LOBBY", "address": {"city": "CRANE", "state": "IN", "street": "100 BLANDY ST", "postcode": "47522"}}},
{"geometry": {"type": "Point", "coordinates": [-86.9022471295, 38.8911302831]}, "type": "Feature", "properties": {"collection_times": [{"days": "Mon-Fri", "time": "3:30pm"}, {"days": "Sat-Sun", "time": "Closed"}], "id": "4752200005", "name": "USPS COLLECTION BOX - PO LOBBY", "address": {"city": "CRANE", "state": "IN", "street": "300 HIGHWAY 361", "postcode": "47522"}}},
{"geometry": {"type": "Point", "coordinates": [-86.9887703478, 38.1691256533]}, "type": "Feature", "properties": {"collection_times": [{"days": "Mon-Fri", "time": "2:30pm"}, {"days": "Sat", "time": "11:30am"}, {"days": "Sun", "time": "Closed"}], "id": "4752300001", "name": "USPS COLLECTION BOX - BLUE BOX", "address": {"city": "DALE", "state": "IN", "street": "4 E MEDCALF ST", "postcode": "47523"}}},
{"geometry": {"type": "Point", "coordinates": [-86.9887703478, 38.1691256533]}, "type": "Feature", "properties": {"collection_times": [{"days": "Mon-Fri", "time": "2:30pm"}, {"days": "Sat", "time": "11:30am"}, {"days": "Sun", "time": "Closed"}], "id": "4752300002", "name": "USPS COLLECTION BOX - BLUE BOX", "address": {"city": "DALE", "state": "IN", "street": "4 E MEDCALF ST", "postcode": "47523"}}},
{"geometry": {"type": "Point", "coordinates": [-86.9887703478, 38.1691256533]}, "type": "Feature", "properties": {"collection_times": [{"days": "Mon-Fri", "time": "2:30pm"}, {"days": "Sat", "time": "11:30am"}, {"days": "Sun", "time": "Closed"}], "id": "4752300003", "name": "USPS COLLECTION BOX - PO LOBBY", "address": {"city": "DALE", "state": "IN", "street": "4 E MEDCALF ST", "postcode": "47523"}}},
{"geometry": {"type": "Point", "coordinates": [-86.9887703478, 38.1691256533]}, "type": "Feature", "properties": {"collection_times": [{"days": "Mon-Fri", "time": "2:30pm"}, {"days": "Sat", "time": "11:30am"}, {"days": "Sun", "time": "Closed"}], "id": "4752300004", "name": "USPS COLLECTION BOX - PO LOBBY", "address": {"city": "DALE", "state": "IN", "street": "4 E MEDCALF ST", "postcode": "47523"}}},
{"geometry": {"type": "Point", "coordinates": [-87.5244559266, 38.5197885658]}, "type": "Feature", "properties": {"collection_times": [{"days": "Mon-Fri", "time": "3:30pm"}, {"days": "Sat", "time": "11:00am"}, {"days": "Sun", "time": "Closed"}], "id": "4752400001", "name": "USPS COLLECTION BOX - BLUE BOX", "address": {"city": "DECKER", "state": "IN", "street": "107 N 3RD ST", "postcode": "47524"}}},
{"geometry": {"type": "Point", "coordinates": [-87.5244559266, 38.5197885658]}, "type": "Feature", "properties": {"collection_times": [{"days": "Mon-Fri", "time": "12:15pm"}, {"days": "Sat", "time": "11:00am"}, {"days": "Sun", "time": "Closed"}], "id": "4752400002", "name": "USPS COLLECTION BOX - PO LOBBY", "address": {"city": "DECKER", "state": "IN", "street": "107 N 3RD ST", "postcode": "47524"}}},
{"geometry": {"type": "Point", "coordinates": [-86.5383193727, 38.0463060027]}, "type": "Feature", "properties": {"collection_times": [{"days": "Mon-Fri", "time": "12:00pm"}, {"days": "Sat", "time": "11:15am"}, {"days": "Sun", "time": "Closed"}], "id": "4752500001", "name": "USPS COLLECTION BOX - BLUE BOX", "address": {"city": "DERBY", "state": "IN", "street": "15291 OLD STATE ROAD 70", "postcode": "47525"}}},
{"geometry": {"type": "Point", "coordinates": [-86.8055623793, 38.4440498291]}, "type": "Feature", "properties": {"collection_times": [{"days": "Mon-Fri", "time": "3:45pm"}, {"days": "Sat", "time": "11:00am"}, {"days": "Sun", "time": "Closed"}], "id": "4752700001", "name": "USPS COLLECTION BOX - BLUE BOX", "address": {"city": "DUBOIS", "state": "IN", "street": "4533 N 2ND ST", "postcode": "47527"}}},
{"geometry": {"type": "Point", "coordinates": [-86.8055623793, 38.4440498291]}, "type": "Feature", "properties": {"collection_times": [{"days": "Mon-Fri", "time": "11:45am"}, {"days": "Sat", "time": "11:00am"}, {"days": "Sun", "time": "Closed"}], "id": "4752700002", "name": "USPS COLLECTION BOX - PO LOBBY", "address": {"city": "DUBOIS", "state": "IN", "street": "4533 N 2ND ST", "postcode": "47527"}}},
{"geometry": {"type": "Point", "coordinates": [-86.7841777705, 38.4665937251]}, "type": "Feature", "properties": {"collection_times": [{"days": "Mon-Sat", "time": "10:00am"}, {"days": "Sun", "time": "Closed"}], "id": "4752700003", "name": "USPS COLLECTION BOX - BLUE BOX", "address": {"city": "DUBOIS", "state": "IN", "street": "5404 E MAIN ST", "postcode": "47527"}}},
{"geometry": {"type": "Point", "coordinates": [-87.0861859771, 38.8785393747]}, "type": "Feature", "properties": {"collection_times": [{"days": "Mon-Fri", "time": "4:00pm"}, {"days": "Sat", "time": "10:30am"}, {"days": "Sun", "time": "Closed"}], "id": "4752900001", "name": "USPS COLLECTION BOX - BLUE BOX", "address": {"city": "ELNORA", "state": "IN", "street": "118 N ODON ST", "postcode": "47529"}}},
{"geometry": {"type": "Point", "coordinates": [-87.0861859771, 38.8785393747]}, "type": "Feature", "properties": {"collection_times": [{"days": "Mon-Fri", "time": "3:15pm"}, {"days": "Sat", "time": "10:30am"}, {"days": "Sun", "time": "Closed"}], "id": "4752900002", "name": "USPS COLLECTION BOX - PO LOBBY", "address": {"city": "ELNORA", "state": "IN", "street": "118 N ODON ST", "postcode": "47529"}}},
{"geometry": {"type": "Point", "coordinates": [-86.8625071783, 38.2227769466]}, "type": "Feature", "properties": {"collection_times": [{"days": "Mon-Fri", "time": "3:15pm"}, {"days": "Sat", "time": "11:30am"}, {"days": "Sun", "time": "Closed"}], "id": "4753200001", "name": "USPS COLLECTION BOX - BLUE BOX", "address": {"city": "FERDINAND", "state": "IN", "street": "805 MAIN ST", "postcode": "47532"}}},
{"geometry": {"type": "Point", "coordinates": [-86.8625071783, 38.2227769466]}, "type": "Feature", "properties": {"collection_times": [{"days": "Mon-Fri", "time": "3:15pm"}, {"days": "Sat", "time": "11:30am"}, {"days": "Sun", "time": "Closed"}], "id": "4753200003", "name": "USPS COLLECTION BOX - PO LOBBY", "address": {"city": "FERDINAND", "state": "IN", "street": "805 MAIN ST", "postcode": "47532"}}},
{"geometry": {"type": "Point", "coordinates": [-87.3058316988, 38.8649140202]}, "type": "Feature", "properties": {"collection_times": [{"days": "Mon-Fri", "time": "4:00pm"}, {"days": "Sat", "time": "11:30am"}, {"days": "Sun", "time": "Closed"}], "id": "4753500001", "name": "USPS COLLECTION BOX - BLUE BOX", "address": {"city": "FREELANDVILLE", "state": "IN", "street": "5 W STATE ROAD 58", "postcode": "47535"}}},
{"geometry": {"type": "Point", "coordinates": [-87.3058316988, 38.8649140202]}, "type": "Feature", "properties": {"collection_times": [{"days": "Mon-Fri", "time": "4:00pm"}, {"days": "Sat", "time": "10:45am"}, {"days": "Sun", "time": "Closed"}], "id": "4753500002", "name": "USPS COLLECTION BOX - PO LOBBY", "address": {"city": "FREELANDVILLE", "state": "IN", "street": "5 W STATE ROAD 58", "postcode": "47535"}}},
{"geometry": {"type": "Point", "coordinates": [-87.0486163344, 38.1131585629]}, "type": "Feature", "properties": {"collection_times": [{"days": "Mon-Fri", "time": "2:30pm"}, {"days": "Sat", "time": "9:45am"}, {"days": "Sun", "time": "Closed"}], "id": "4753700001", "name": "USPS COLLECTION BOX - BLUE BOX", "address": {"city": "GENTRYVILLE", "state": "IN", "street": "957 E COUNTY ROAD 1575 N", "postcode": "47537"}}},
{"geometry": {"type": "Point", "coordinates": [-87.0486163344, 38.1131585629]}, "type": "Feature", "properties": {"collection_times": [{"days": "Mon-Fri", "time": "11:45am"}, {"days": "Sat", "time": "9:45am"}, {"days": "Sun", "time": "Closed"}], "id": "4753700002", "name": "USPS COLLECTION BOX - PO LOBBY", "address": {"city": "GENTRYVILLE", "state": "IN", "street": "957 E COUNTY ROAD 1575 N", "postcode": "47537"}}},
{"geometry": {"type": "Point", "coordinates": [-87.0398794816, 38.2462844398]}, "type": "Feature", "properties": {"collection_times": [{"days": "Mon-Fri", "time": "3:45pm"}, {"days": "Sat", "time": "10:15am"}, {"days": "Sun", "time": "Closed"}], "id": "4754100001", "name": "USPS COLLECTION BOX - BLUE BOX", "address": {"city": "HOLLAND", "state": "IN", "street": "403 W MAIN ST", "postcode": "47541"}}},
{"geometry": {"type": "Point", "coordinates": [-87.0398794816, 38.2462844398]}, "type": "Feature", "properties": {"collection_times": [{"days": "Mon-Fri", "time": "2:45pm"}, {"days": "Sat", "time": "10:15am"}, {"days": "Sun", "time": "Closed"}], "id": "4754100002", "name": "USPS COLLECTION BOX - PO LOBBY", "address": {"city": "HOLLAND", "state": "IN", "street": "403 W MAIN ST", "postcode": "47541"}}},
{"geometry": {"type": "Point", "coordinates": [-86.954506282, 38.3140846313]}, "type": "Feature", "properties": {"collection_times": [{"days": "Mon-Sat", "time": "10:30am"}, {"days": "Sun", "time": "Closed"}], "id": "4754200009", "name": "USPS COLLECTION BOX - BLUE BOX", "address": {"city": "HUNTINGBURG", "state": "IN", "street": "601 N MAIN ST", "postcode": "47542"}}},
{"geometry": {"type": "Point", "coordinates": [-86.9538473868, 38.2962649122]}, "type": "Feature", "properties": {"collection_times": [{"days": "Mon-Fri", "time": "3:45pm"}, {"days": "Sat", "time": "12:15pm"}, {"days": "Sun", "time": "Closed"}], "id": "4754200011", "name": "USPS COLLECTION BOX - BLUE BOX", "address": {"city": "HUNTINGBURG", "state": "IN", "street": "410 N JACKSON ST", "postcode": "47542"}}},
{"geometry": {"type": "Point", "coordinates": [-86.9577277254, 38.3061761121]}, "type": "Feature", "properties": {"collection_times": [{"days": "Mon-Sat", "time": "10:00am"}, {"days": "Sun", "time": "Closed"}], "id": "4754200012", "name": "USPS COLLECTION BOX - BLUE BOX", "address": {"city": "HUNTINGBURG", "state": "IN", "street": "312 E 12TH ST", "postcode": "47542"}}},
{"geometry": {"type": "Point", "coordinates": [-86.9538473868, 38.2962649122]}, "type": "Feature", "properties": {"collection_times": [{"days": "Mon-Fri", "time": "3:45pm"}, {"days": "Sat", "time": "12:15pm"}, {"days": "Sun", "time": "Closed"}], "id": "4754200016", "name": "USPS COLLECTION BOX - PO LOBBY", "address": {"city": "HUNTINGBURG", "state": "IN", "street": "410 N JACKSON ST", "postcode": "47542"}}},
{"geometry": {"type": "Point", "coordinates": [-86.9991723033, 38.4148150114]}, "type": "Feature", "properties": {"collection_times": [{"days": "Mon-Fri", "time": "3:30pm"}, {"days": "Sat", "time": "10:30am"}, {"days": "Sun", "time": "Closed"}], "id": "4754500001", "name": "USPS COLLECTION BOX - BLUE BOX", "address": {"city": "IRELAND", "state": "IN", "street": "2423 N 500 W", "postcode": "47545"}}},
{"geometry": {"type": "Point", "coordinates": [-86.9994, 38.4147]}, "type": "Feature", "properties": {"collection_times": [{"days": "Mon-Fri", "time": "3:30pm"}, {"days": "Sat", "time": "10:30am"}, {"days": "Sun", "time": "Closed"}], "id": "4754500002", "name": "USPS COLLECTION BOX - PO LOBBY", "address": {"city": "IRELAND", "state": "IN", "street": "2423 N 500 W", "postcode": "47545"}}},
{"geometry": {"type": "Point", "coordinates": [-86.9297380399, 38.3922496449]}, "type": "Feature", "properties": {"collection_times": [{"days": "Mon-Fri", "time": "4:00pm"}, {"days": "Sat", "time": "12:00pm"}, {"days": "Sun", "time": "Closed"}], "id": "4754600023", "name": "USPS COLLECTION BOX - BLUE BOX", "address": {"city": "JASPER", "state": "IN", "street": "702 JACKSON ST", "postcode": "47546"}}},
{"geometry": {"type": "Point", "coordinates": [-86.9307260634, 38.3923425919]}, "type": "Feature", "properties": {"collection_times": [{"days": "Mon-Fri", "time": "2:00pm"}, {"days": "Sat-Sun", "time": "Closed"}], "id": "4754600025", "name": "USPS COLLECTION BOX - BLUE BOX", "address": {"city": "JASPER", "state": "IN", "street": "714 MAIN ST", "postcode": "47546"}}},
{"geometry": {"type": "Point", "coordinates": [-86.9380071923, 38.4143735077]}, "type": "Feature", "properties": {"collection_times": [{"days": "Mon-Fri", "time": "2:00pm"}, {"days": "Sat-Sun", "time": "Closed"}], "id": "4754600027", "name": "USPS COLLECTION BOX - BLUE BOX", "address": {"city": "JASPER", "state": "IN", "street": "2905 NEWTON ST", "postcode": "47546"}}},
{"geometry": {"type": "Point", "coordinates": [-86.9297380399, 38.3922496449]}, "type": "Feature", "properties": {"collection_times": [{"days": "Mon-Fri", "time": "4:00pm"}, {"days": "Sat", "time": "12:00pm"}, {"days": "Sun", "time": "Closed"}], "id": "4754600044", "name": "USPS COLLECTION BOX - BLUE BOX", "address": {"city": "JASPER", "state": "IN", "street": "702 JACKSON ST", "postcode": "47546"}}},
{"geometry": {"type": "Point", "coordinates": [-86.9307105801, 38.3917861191]}, "type": "Feature", "properties": {"collection_times": [{"days": "Mon-Fri", "time": "2:45pm"}, {"days": "Sat", "time": "12:00pm"}, {"days": "Sun", "time": "Closed"}], "id": "4754600045", "name": "USPS COLLECTION BOX - BLUE BOX", "address": {"city": "JASPER", "state": "IN", "street": "600 MAIN ST", "postcode": "47546"}}},
{"geometry": {"type": "Point", "coordinates": [-86.9156814231, 38.3769577931]}, "type": "Feature", "properties": {"collection_times": [{"days": "Mon-Fri", "time": "2:00pm"}, {"days": "Sat-Sun", "time": "Closed"}], "id": "4754600048", "name": "USPS COLLECTION BOX - BLUE BOX", "address": {"city": "JASPER", "state": "IN", "street": "847 3RD AVE", "postcode": "47546"}}},
{"geometry": {"type": "Point", "coordinates": [-86.9417036069, 38.3938171906]}, "type": "Feature", "properties": {"collection_times": [{"days": "Mon-Fri", "time": "1:00pm"}, {"days": "Sat-Sun", "time": "Closed"}], "id": "4754600049", "name": "USPS COLLECTION BOX - BLUE BOX", "address": {"city": "JASPER", "state": "IN", "street": "800 W 9TH ST", "postcode": "47546"}}},
{"geometry": {"type": "Point", "coordinates": [-86.9297303299, 38.391515487]}, "type": "Feature", "properties": {"collection_times": [{"days": "Mon-Fri", "time": "4:00pm"}, {"days": "Sat", "time": "12:00pm"}, {"days": "Sun", "time": "Closed"}], "id": "4754600050", "name": "USPS COLLECTION BOX - PO LOBBY", "address": {"city": "JASPER", "state": "IN", "street": "206 E 6TH ST", "postcode": "47546"}}},
{"geometry": {"type": "Point", "coordinates": [-86.9297303299, 38.391515487]}, "type": "Feature", "properties": {"collection_times": [{"days": "Mon-Fri", "time": "4:00pm"}, {"days": "Sat", "time": "12:00pm"}, {"days": "Sun", "time": "Closed"}], "id": "4754600051", "name": "USPS COLLECTION BOX - PO LOBBY", "address": {"city": "JASPER", "state": "IN", "street": "206 E 6TH ST", "postcode": "47546"}}},
{"geometry": {"type": "Point", "coordinates": [-86.9321908519, 38.3914250772]}, "type": "Feature", "properties": {"collection_times": [{"days": "Mon-Fri", "time": "9:00am"}, {"days": "Sat-Sun", "time": "Closed"}], "id": "4754600052", "name": "USPS COLLECTION BOX - BLUE BOX", "address": {"city": "JASPER", "state": "IN", "street": "245 S US HIGHWAY 231", "postcode": "47546"}}},
{"geometry": {"type": "Point", "coordinates": [-86.9051683262, 38.0494057908]}, "type": "Feature", "properties": {"collection_times": [{"days": "Mon-Fri", "time": "2:30pm"}, {"days": "Sat", "time": "10:00am"}, {"days": "Sun", "time": "Closed"}], "id": "4755000001", "name": "USPS COLLECTION BOX - BLUE BOX", "address": {"city": "LAMAR", "state": "IN", "street": "12614 N STATE ROAD 245", "postcode": "47550"}}},
{"geometry": {"type": "Point", "coordinates": [-86.9051683262, 38.0494057908]}, "type": "Feature", "properties": {"collection_times": [{"days": "Mon-Fri", "time": "11:45am"}, {"days": "Sat", "time": "10:00am"}, {"days": "Sun", "time": "Closed"}], "id": "4755000002", "name": "USPS COLLECTION BOX - PO LOBBY", "address": {"city": "LAMAR", "state": "IN", "street": "12614 N STATE ROAD 245", "postcode": "47550"}}},
{"geometry": {"type": "Point", "coordinates": [-86.5364553028, 38.1441497834]}, "type": "Feature", "properties": {"collection_times": [{"days": "Mon-Sat", "time": "10:30am"}, {"days": "Sun", "time": "Closed"}], "id": "4755100001", "name": "USPS COLLECTION BOX - BLUE BOX", "address": {"city": "LEOPOLD", "state": "IN", "street": "12228 INDIANA ST", "postcode": "47551"}}},
{"geometry": {"type": "Point", "coordinates": [-86.9976430538, 38.1136111401]}, "type": "Feature", "properties": {"collection_times": [{"days": "Mon-Sat", "time": "11:15am"}, {"days": "Sun", "time": "Closed"}], "id": "4755200000", "name": "USPS COLLECTION BOX - BLUE BOX", "address": {"city": "LINCOLN CITY", "state": "IN", "street": "3029 E SOUTH ST", "postcode": "47552"}}},
{"geometry": {"type": "Point", "coordinates": [-86.9142538497, 38.6853002212]}, "type": "Feature", "properties": {"collection_times": [{"days": "Mon-Fri", "time": "1:00pm"}, {"days": "Sat", "time": "12:30pm"}, {"days": "Sun", "time": "Closed"}], "id": "4755300001", "name": "USPS COLLECTION BOX - BLUE BOX", "address": {"city": "LOOGOOTEE", "state": "IN", "street": "800 N LINE ST", "postcode": "47553"}}},
{"geometry": {"type": "Point", "coordinates": [-86.9143208948, 38.6832466004]}, "type": "Feature", "properties": {"collection_times": [{"days": "Mon-Fri", "time": "12:45pm"}, {"days": "Sat", "time": "12:30pm"}, {"days": "Sun", "time": "Closed"}], "id": "4755300002", "name": "USPS COLLECTION BOX - BLUE BOX", "address": {"city": "LOOGOOTEE", "state": "IN", "street": "601 N LINE ST", "postcode": "47553"}}},
{"geometry": {"type": "Point", "coordinates": [-86.913910061, 38.6811400486]}, "type": "Feature", "properties": {"collection_times": [{"days": "Mon-Sat", "time": "12:30pm"}, {"days": "Sun", "time": "Closed"}], "id": "4755300003", "name": "USPS COLLECTION BOX - BLUE BOX", "address": {"city": "LOOGOOTEE", "state": "IN", "street": "212 N OAK ST", "postcode": "47553"}}},
{"geometry": {"type": "Point", "coordinates": [-86.9200773575, 38.6785515146]}, "type": "Feature", "properties": {"collection_times": [{"days": "Mon-Sat", "time": "10:00am"}, {"days": "Sun", "time": "Closed"}], "id": "4755300004", "name": "USPS COLLECTION BOX - BLUE BOX", "address": {"city": "LOOGOOTEE", "state": "IN", "street": "109 BROOKS AVE", "postcode": "47553"}}},
{"geometry": {"type": "Point", "coordinates": [-86.9154263428, 38.676671322]}, "type": "Feature", "properties": {"collection_times": [{"days": "Mon-Fri", "time": "3:15pm"}, {"days": "Sat", "time": "12:30pm"}, {"days": "Sun", "time": "Closed"}], "id": "4755300005", "name": "USPS COLLECTION BOX - PO LOBBY", "address": {"city": "LOOGOOTEE", "state": "IN", "street": "203 NW 1ST ST", "postcode": "47553"}}},
{"geometry": {"type": "Point", "coordinates": [-86.9154263428, 38.676671322]}, "type": "Feature", "properties": {"collection_times": [{"days": "Mon-Fri", "time": "3:15pm"}, {"days": "Sat", "time": "12:30pm"}, {"days": "Sun", "time": "Closed"}], "id": "4755300006", "name": "USPS COLLECTION BOX - BLUE BOX", "address": {"city": "LOOGOOTEE", "state": "IN", "street": "203 NW 1ST ST", "postcode": "47553"}}},
{"geometry": {"type": "Point", "coordinates": [-86.915305201, 38.6767268024]}, "type": "Feature", "properties": {"collection_times": [{"days": "Mon-Fri", "time": "3:15pm"}, {"days": "Sat", "time": "12:30pm"}, {"days": "Sun", "time": "Closed"}], "id": "4755300007", "name": "USPS COLLECTION BOX - BLUE BOX", "address": {"city": "LOOGOOTEE", "state": "IN", "street": "202 NW 1ST ST", "postcode": "47553"}}},
{"geometry": {"type": "Point", "coordinates": [-86.9190391712, 38.673866487]}, "type": "Feature", "properties": {"collection_times": [{"days": "Mon-Sat", "time": "11:45am"}, {"days": "Sun", "time": "Closed"}], "id": "4755300010", "name": "USPS COLLECTION BOX - BLUE BOX", "address": {"city": "LOOGOOTEE", "state": "IN", "street": "509 SW 2ND ST", "postcode": "47553"}}},
{"geometry": {"type": "Point", "coordinates": [-86.9099669719, 38.6766696219]}, "type": "Feature", "properties": {"collection_times": [{"days": "Mon-Sat", "time": "8:30am"}, {"days": "Sun", "time": "Closed"}], "id": "4755300011", "name": "USPS COLLECTION BOX - BLUE BOX", "address": {"city": "LOOGOOTEE", "state": "IN", "street": "307 E BROADWAY ST", "postcode": "47553"}}},
{"geometry": {"type": "Point", "coordinates": [-86.9102547773, 38.6802665798]}, "type": "Feature", "properties": {"collection_times": [{"days": "Mon-Sat", "time": "11:45am"}, {"days": "Sun", "time": "Closed"}], "id": "4755300012", "name": "USPS COLLECTION BOX - BLUE BOX", "address": {"city": "LOOGOOTEE", "state": "IN", "street": "308 QUEEN ST", "postcode": "47553"}}},
{"geometry": {"type": "Point", "coordinates": [-86.9141690594, 38.6723056983]}, "type": "Feature", "properties": {"collection_times": [{"days": "Mon-Sat", "time": "11:00am"}, {"days": "Sun", "time": "Closed"}], "id": "4755300013", "name": "USPS COLLECTION BOX - BLUE BOX", "address": {"city": "LOOGOOTEE", "state": "IN", "street": "101 PINE ST", "postcode": "47553"}}},
{"geometry": {"type": "Point", "coordinates": [-86.8910562158, 38.1577420441]}, "type": "Feature", "properties": {"collection_times": [{"days": "Mon-Sat", "time": "12:00pm"}, {"days": "Sun", "time": "Closed"}], "id": "4755600003", "name": "USPS COLLECTION BOX - BLUE BOX", "address": {"city": "MARIAH HILL", "state": "IN", "street": "6957 E STATE ROAD 62", "postcode": "47556"}}},
{"geometry": {"type": "Point", "coordinates": [-87.353677957, 38.6147858063]}, "type": "Feature", "properties": {"collection_times": [{"days": "Mon-Fri", "time": "3:15pm"}, {"days": "Sat", "time": "11:15am"}, {"days": "Sun", "time": "Closed"}], "id": "4755700001", "name": "USPS COLLECTION BOX - BLUE BOX", "address": {"city": "MONROE CITY", "state": "IN", "street": "102 W 9TH ST", "postcode": "47557"}}},
{"geometry": {"type": "Point", "coordinates": [-87.353677957, 38.6147858063]}, "type": "Feature", "properties": {"collection_times": [{"days": "Mon-Fri", "time": "3:00pm"}, {"days": "Sat", "time": "11:00am"}, {"days": "Sun", "time": "Closed"}], "id": "4755700002", "name": "USPS COLLECTION BOX - PO LOBBY", "address": {"city": "MONROE CITY", "state": "IN", "street": "102 W 9TH ST", "postcode": "47557"}}},
{"geometry": {"type": "Point", "coordinates": [-87.0444399774, 38.6655546993]}, "type": "Feature", "properties": {"collection_times": [{"days": "Mon-Fri", "time": "3:00pm"}, {"days": "Sat", "time": "11:00am"}, {"days": "Sun", "time": "Closed"}], "id": "4755800001", "name": "USPS COLLECTION BOX - BLUE BOX", "address": {"city": "MONTGOMERY", "state": "IN", "street": "496 N MAIN ST", "postcode": "47558"}}},
{"geometry": {"type": "Point", "coordinates": [-87.0444399774, 38.6655546993]}, "type": "Feature", "properties": {"collection_times": [{"days": "Mon-Fri", "time": "3:00pm"}, {"days": "Sat", "time": "11:00am"}, {"days": "Sun", "time": "Closed"}], "id": "4755800002", "name": "USPS COLLECTION BOX - PO LOBBY", "address": {"city": "MONTGOMERY", "state": "IN", "street": "496 N MAIN ST", "postcode": "47558"}}},
{"geometry": {"type": "Point", "coordinates": [-87.303775464, 38.8675209351]}, "type": "Feature", "properties": {"collection_times": [{"days": "Mon-Fri", "time": "4:00pm"}, {"days": "Sat", "time": "11:00am"}, {"days": "Sun", "time": "Closed"}], "id": "4756100001", "name": "USPS COLLECTION BOX - BLUE BOX", "address": {"city": "OAKTOWN", "state": "IN", "street": "106 E MAIN ST", "postcode": "47561"}}},
{"geometry": {"type": "Point", "coordinates": [-87.303775464, 38.8675209351]}, "type": "Feature", "properties": {"collection_times": [{"days": "Mon-Fri", "time": "3:00pm"}, {"days": "Sat", "time": "11:00am"}, {"days": "Sun", "time": "Closed"}], "id": "4756100002", "name": "USPS COLLECTION BOX - PO LOBBY", "address": {"city": "OAKTOWN", "state": "IN", "street": "106 E MAIN ST", "postcode": "47561"}}},
{"geometry": {"type": "Point", "coordinates": [-86.9910724364, 38.8426162472]}, "type": "Feature", "properties": {"collection_times": [{"days": "Mon-Fri", "time": "3:15pm"}, {"days": "Sat", "time": "12:00pm"}, {"days": "Sun", "time": "Closed"}], "id": "4756200001", "name": "USPS COLLECTION BOX - BLUE BOX", "address": {"city": "ODON", "state": "IN", "street": "111 E MAIN ST", "postcode": "47562"}}},
{"geometry": {"type": "Point", "coordinates": [-86.9910724364, 38.8426162472]}, "type": "Feature", "properties": {"collection_times": [{"days": "Mon-Fri", "time": "3:15pm"}, {"days": "Sat", "time": "12:00pm"}, {"days": "Sun", "time": "Closed"}], "id": "4756200002", "name": "USPS COLLECTION BOX - PO LOBBY", "address": {"city": "ODON", "state": "IN", "street": "111 E MAIN ST", "postcode": "47562"}}},
{"geometry": {"type": "Point", "coordinates": [-87.0918161249, 38.4463953438]}, "type": "Feature", "properties": {"collection_times": [{"days": "Mon-Fri", "time": "3:15pm"}, {"days": "Sat", "time": "10:45am"}, {"days": "Sun", "time": "Closed"}], "id": "4756400001", "name": "USPS COLLECTION BOX - BLUE BOX", "address": {"city": "OTWELL", "state": "IN", "street": "2171 N STATE ROAD 257", "postcode": "47564"}}},
{"geometry": {"type": "Point", "coordinates": [-87.0918161249, 38.4463953438]}, "type": "Feature", "properties": {"collection_times": [{"days": "Mon-Fri", "time": "11:45am"}, {"days": "Sat", "time": "10:45am"}, {"days": "Sun", "time": "Closed"}], "id": "4756400002", "name": "USPS COLLECTION BOX - PO LOBBY", "address": {"city": "OTWELL", "state": "IN", "street": "2171 N STATE ROAD 257", "postcode": "47564"}}},
{"geometry": {"type": "Point", "coordinates": [-87.2803144444, 38.4912018539]}, "type": "Feature", "properties": {"collection_times": [{"days": "Mon-Fri", "time": "3:30pm"}, {"days": "Sat", "time": "12:00pm"}, {"days": "Sun", "time": "Closed"}], "id": "4756700014", "name": "USPS COLLECTION BOX - BLUE BOX", "address": {"city": "PETERSBURG", "state": "IN", "street": "110 N 7TH ST", "postcode": "47567"}}},
{"geometry": {"type": "Point", "coordinates": [-87.2803144444, 38.4912018539]}, "type": "Feature", "properties": {"collection_times": [{"days": "Mon-Fri", "time": "3:30pm"}, {"days": "Sat", "time": "12:00pm"}, {"days": "Sun", "time": "Closed"}], "id": "4756700015", "name": "USPS COLLECTION BOX - BLUE BOX", "address": {"city": "PETERSBURG", "state": "IN", "street": "110 N 7TH ST", "postcode": "47567"}}},
{"geometry": {"type": "Point", "coordinates": [-87.2803144444, 38.4912018539]}, "type": "Feature", "properties": {"collection_times": [{"days": "Mon-Fri", "time": "3:30pm"}, {"days": "Sat", "time": "12:00pm"}, {"days": "Sun", "time": "Closed"}], "id": "4756700016", "name": "USPS COLLECTION BOX - PO LOBBY", "address": {"city": "PETERSBURG", "state": "IN", "street": "110 N 7TH ST", "postcode": "47567"}}},
{"geometry": {"type": "Point", "coordinates": [-87.2803144444, 38.4912018539]}, "type": "Feature", "properties": {"collection_times": [{"days": "Mon-Fri", "time": "3:30pm"}, {"days": "Sat", "time": "12:00pm"}, {"days": "Sun", "time": "Closed"}], "id": "4756700017", "name": "USPS COLLECTION BOX - PO LOBBY", "address": {"city": "PETERSBURG", "state": "IN", "street": "110 N 7TH ST", "postcode": "47567"}}},
{"geometry": {"type": "Point", "coordinates": [-86.8274246638, 38.3140678428]}, "type": "Feature", "properties": {"collection_times": [{"days": "Mon-Fri", "time": "3:45pm"}, {"days": "Sat", "time": "11:00am"}, {"days": "Sun", "time": "Closed"}], "id": "4757500001", "name": "USPS COLLECTION BOX - BLUE BOX", "address": {"city": "SAINT ANTHONY", "state": "IN", "street": "4531 S CROSS ST", "postcode": "47575"}}},
{"geometry": {"type": "Point", "coordinates": [-86.8274246638, 38.3140678428]}, "type": "Feature", "properties": {"collection_times": [{"days": "Mon-Fri", "time": "11:45am"}, {"days": "Sat", "time": "11:00am"}, {"days": "Sun", "time": "Closed"}], "id": "4757500002", "name": "USPS COLLECTION BOX - PO LOBBY", "address": {"city": "SAINT ANTHONY", "state": "IN", "street": "4531 S CROSS ST", "postcode": "47575"}}},
{"geometry": {"type": "Point", "coordinates": [-86.808227945, 38.1689695444]}, "type": "Feature", "properties": {"collection_times": [{"days": "Mon-Fri", "time": "2:45pm"}, {"days": "Sat", "time": "11:30am"}, {"days": "Sun", "time": "Closed"}], "id": "4757700001", "name": "USPS COLLECTION BOX - PO LOBBY", "address": {"city": "SAINT MEINRAD", "state": "IN", "street": "19603 N STATE ROAD 545", "postcode": "47577"}}},
{"geometry": {"type": "Point", "coordinates": [-86.808227945, 38.1689695444]}, "type": "Feature", "properties": {"collection_times": [{"days": "Mon-Fri", "time": "2:45pm"}, {"days": "Sat", "time": "11:30am"}, {"days": "Sun", "time": "Closed"}], "id": "4757700002", "name": "USPS COLLECTION BOX - BLUE BOX", "address": {"city": "SAINT MEINRAD", "state": "IN", "street": "19603 N STATE ROAD 545", "postcode": "47577"}}},
{"geometry": {"type": "Point", "coordinates": [-87.1869843756, 38.900177529]}, "type": "Feature", "properties": {"collection_times": [{"days": "Mon-Fri", "time": "3:30pm"}, {"days": "Sat", "time": "11:00am"}, {"days": "Sun", "time": "Closed"}], "id": "4757800001", "name": "USPS COLLECTION BOX - BLUE BOX", "address": {"city": "SANDBORN", "state": "IN", "street": "103 ANDERSON ST", "postcode": "47578"}}},
{"geometry": {"type": "Point", "coordinates": [-87.1869843756, 38.900177529]}, "type": "Feature", "properties": {"collection_times": [{"days": "Mon-Fri", "time": "11:45am"}, {"days": "Sat", "time": "11:00am"}, {"days": "Sun", "time": "Closed"}], "id": "4757800002", "name": "USPS COLLECTION BOX - PO LOBBY", "address": {"city": "SANDBORN", "state": "IN", "street": "103 ANDERSON ST", "postcode": "47578"}}},
{"geometry": {"type": "Point", "coordinates": [-86.9248931161, 38.1194921164]}, "type": "Feature", "properties": {"collection_times": [{"days": "Mon-Fri", "time": "2:15pm"}, {"days": "Sat", "time": "11:30am"}, {"days": "Sun", "time": "Closed"}], "id": "4757900001", "name": "USPS COLLECTION BOX - BLUE BOX", "address": {"city": "SANTA CLAUS", "state": "IN", "street": "45 N KRINGLE PL", "postcode": "47579"}}},
{"geometry": {"type": "Point", "coordinates": [-86.9248931161, 38.1194921164]}, "type": "Feature", "properties": {"collection_times": [{"days": "Mon-Fri", "time": "2:15pm"}, {"days": "Sat", "time": "11:30am"}, {"days": "Sun", "time": "Closed"}], "id": "4757900003", "name": "USPS COLLECTION BOX - PO LOBBY", "address": {"city": "SANTA CLAUS", "state": "IN", "street": "45 N KRINGLE PL", "postcode": "47579"}}},
{"geometry": {"type": "Point", "coordinates": [-86.764843652, 38.6590380096]}, "type": "Feature", "properties": {"collection_times": [{"days": "Mon-Fri", "time": "3:30pm"}, {"days": "Sat", "time": "11:30am"}, {"days": "Sun", "time": "Closed"}], "id": "4758100001", "name": "USPS COLLECTION BOX - BLUE BOX", "address": {"city": "SHOALS", "state": "IN", "street": "300 2ND ST", "postcode": "47581"}}},
{"geometry": {"type": "Point", "coordinates": [-86.764843652, 38.6590380096]}, "type": "Feature", "properties": {"collection_times": [{"days": "Mon-Fri", "time": "3:30pm"}, {"days": "Sat", "time": "11:30am"}, {"days": "Sun", "time": "Closed"}], "id": "4758100002", "name": "USPS COLLECTION BOX - BLUE BOX", "address": {"city": "SHOALS", "state": "IN", "street": "300 2ND ST", "postcode": "47581"}}},
{"geometry": {"type": "Point", "coordinates": [-86.764843652, 38.6590380096]}, "type": "Feature", "properties": {"collection_times": [{"days": "Mon-Fri", "time": "3:30pm"}, {"days": "Sat", "time": "11:30am"}, {"days": "Sun", "time": "Closed"}], "id": "4758100003", "name": "USPS COLLECTION BOX - PO LOBBY", "address": {"city": "SHOALS", "state": "IN", "street": "300 2ND ST", "postcode": "47581"}}},
{"geometry": {"type": "Point", "coordinates": [-87.25748, 38.252735]}, "type": "Feature", "properties": {"collection_times": [{"days": "Mon-Fri", "time": "1:15pm"}, {"days": "Sat", "time": "11:00am"}, {"days": "Sun", "time": "Closed"}], "id": "4758400000", "name": "USPS COLLECTION BOX - BLUE BOX", "address": {"city": "SPURGEON", "state": "IN", "street": "11430 S STATE ROAD 61", "postcode": "47584"}}},
{"geometry": {"type": "Point", "coordinates": [-87.2573602295, 38.2542922517]}, "type": "Feature", "properties": {"collection_times": [{"days": "Mon-Fri", "time": "9:45am"}, {"days": "Sat", "time": "11:00am"}, {"days": "Sun", "time": "Closed"}], "id": "4758400001", "name": "USPS COLLECTION BOX - PO LOBBY", "address": {"city": "SPURGEON", "state": "IN", "street": "11430 S STATE ROAD 61", "postcode": "47584"}}},
{"geometry": {"type": "Point", "coordinates": [-87.1461861275, 38.267736137]}, "type": "Feature", "properties": {"collection_times": [{"days": "Mon-Fri", "time": "3:15pm"}, {"days": "Sat", "time": "11:30am"}, {"days": "Sun", "time": "Closed"}], "id": "4758500001", "name": "USPS COLLECTION BOX - BLUE BOX", "address": {"city": "STENDAL", "state": "IN", "street": "10530 S WARRICK ST", "postcode": "47585"}}},
{"geometry": {"type": "Point", "coordinates": [-87.1461861275, 38.267736137]}, "type": "Feature", "properties": {"collection_times": [{"days": "Mon-Sat", "time": "11:15am"}, {"days": "Sun", "time": "Closed"}], "id": "4758500002", "name": "USPS COLLECTION BOX - PO LOBBY", "address": {"city": "STENDAL", "state": "IN", "street": "10530 S WARRICK ST", "postcode": "47585"}}},
{"geometry": {"type": "Point", "coordinates": [-86.7697688795, 37.9469460836]}, "type": "Feature", "properties": {"collection_times": [{"days": "Mon-Fri", "time": "1:30pm"}, {"days": "Sat", "time": "12:00pm"}, {"days": "Sun", "time": "Closed"}], "id": "4758600000", "name": "USPS COLLECTION BOX - PO LOBBY", "address": {"city": "TELL CITY", "state": "IN", "street": "444 MAIN ST", "postcode": "47586"}}},
{"geometry": {"type": "Point", "coordinates": [-86.7697688795, 37.9469460836]}, "type": "Feature", "properties": {"collection_times": [{"days": "Mon-Fri", "time": "1:30pm"}, {"days": "Sat", "time": "12:00pm"}, {"days": "Sun", "time": "Closed"}], "id": "4758600001", "name": "USPS COLLECTION BOX - BLUE BOX", "address": {"city": "TELL CITY", "state": "IN", "street": "444 MAIN ST", "postcode": "47586"}}},
{"geometry": {"type": "Point", "coordinates": [-86.7697039846, 37.9584095178]}, "type": "Feature", "properties": {"collection_times": [{"days": "Mon-Fri", "time": "1:30pm"}, {"days": "Sat", "time": "12:00pm"}, {"days": "Sun", "time": "Closed"}], "id": "4758600008", "name": "USPS COLLECTION BOX - BLUE BOX", "address": {"city": "TELL CITY", "state": "IN", "street": "1202 MAIN ST", "postcode": "47586"}}},
{"geometry": {"type": "Point", "coordinates": [-86.768415569, 37.9508228654]}, "type": "Feature", "properties": {"collection_times": [{"days": "Mon-Fri", "time": "1:30pm"}, {"days": "Sat", "time": "12:00pm"}, {"days": "Sun", "time": "Closed"}], "id": "4758600009", "name": "USPS COLLECTION BOX - BLUE BOX", "address": {"city": "TELL CITY", "state": "IN", "street": "700 9TH ST", "postcode": "47586"}}},
{"geometry": {"type": "Point", "coordinates": [-86.7698875331, 37.9493203252]}, "type": "Feature", "properties": {"collection_times": [{"days": "Mon-Fri", "time": "1:30pm"}, {"days": "Sat", "time": "12:00pm"}, {"days": "Sun", "time": "Closed"}], "id": "4758600010", "name": "USPS COLLECTION BOX - BLUE BOX", "address": {"city": "TELL CITY", "state": "IN", "street": "601 MAIN ST", "postcode": "47586"}}},
{"geometry": {"type": "Point", "coordinates": [-86.7699037043, 37.9482176245]}, "type": "Feature", "properties": {"collection_times": [{"days": "Mon-Fri", "time": "1:30pm"}, {"days": "Sat", "time": "12:00pm"}, {"days": "Sun", "time": "Closed"}], "id": "4758600011", "name": "USPS COLLECTION BOX - BLUE BOX", "address": {"city": "TELL CITY", "state": "IN", "street": "529 MAIN ST", "postcode": "47586"}}},
{"geometry": {"type": "Point", "coordinates": [-86.7516995875, 37.9627484465]}, "type": "Feature", "properties": {"collection_times": [{"days": "Mon-Fri", "time": "1:30pm"}, {"days": "Sat", "time": "12:00pm"}, {"days": "Sun", "time": "Closed"}], "id": "4758600012", "name": "USPS COLLECTION BOX - BLUE BOX", "address": {"city": "TELL CITY", "state": "IN", "street": "2219 PAYNE ST", "postcode": "47586"}}},
{"geometry": {"type": "Point", "coordinates": [-86.7402888699, 37.9755212034]}, "type": "Feature", "properties": {"collection_times": [{"days": "Mon-Fri", "time": "1:30pm"}, {"days": "Sat", "time": "12:00pm"}, {"days": "Sun", "time": "Closed"}], "id": "4758600014", "name": "USPS COLLECTION BOX - BLUE BOX", "address": {"city": "TELL CITY", "state": "IN", "street": "27 US HIGHWAY 66 E", "postcode": "47586"}}},
{"geometry": {"type": "Point", "coordinates": [-86.8014186306, 37.9948437043]}, "type": "Feature", "properties": {"collection_times": [{"days": "Mon-Fri", "time": "2:45pm"}, {"days": "Sat", "time": "9:45am"}, {"days": "Sun", "time": "Closed"}], "id": "4758800001", "name": "USPS COLLECTION BOX - BLUE BOX", "address": {"city": "TROY", "state": "IN", "street": "335 MAIN ST", "postcode": "47588"}}},
{"geometry": {"type": "Point", "coordinates": [-86.8014186306, 37.9948437043]}, "type": "Feature", "properties": {"collection_times": [{"days": "Mon-Fri", "time": "10:45am"}, {"days": "Sat", "time": "9:45am"}, {"days": "Sun", "time": "Closed"}], "id": "4758800002", "name": "USPS COLLECTION BOX - PO LOBBY", "address": {"city": "TROY", "state": "IN", "street": "335 MAIN ST", "postcode": "47588"}}},
{"geometry": {"type": "Point", "coordinates": [-87.102235634, 38.3558423261]}, "type": "Feature", "properties": {"collection_times": [{"days": "Mon-Fri", "time": "4:00pm"}, {"days": "Sat", "time": "11:30am"}, {"days": "Sun", "time": "Closed"}], "id": "4759000001", "name": "USPS COLLECTION BOX - BLUE BOX", "address": {"city": "VELPEN", "state": "IN", "street": "4495 S THIRD ST", "postcode": "47590"}}},
{"geometry": {"type": "Point", "coordinates": [-87.102235634, 38.3558423261]}, "type": "Feature", "properties": {"collection_times": [{"days": "Mon-Fri", "time": "11:45am"}, {"days": "Sat", "time": "11:30am"}, {"days": "Sun", "time": "Closed"}], "id": "4759000002", "name": "USPS COLLECTION BOX - PO LOBBY", "address": {"city": "VELPEN", "state": "IN", "street": "4495 S THIRD ST", "postcode": "47590"}}},
{"geometry": {"type": "Point", "coordinates": [-87.5332236964, 38.673524249]}, "type": "Feature", "properties": {"collection_times": [{"days": "Mon-Fri", "time": "2:00pm"}, {"days": "Sat", "time": "12:00pm"}, {"days": "Sun", "time": "Closed"}], "id": "4759100040", "name": "USPS COLLECTION BOX - BLUE BOX", "address": {"city": "VINCENNES", "state": "IN", "street": "520 S 7TH ST", "postcode": "47591"}}},
{"geometry": {"type": "Point", "coordinates": [-87.503338311, 38.6894710606]}, "type": "Feature", "properties": {"collection_times": [{"days": "Mon-Fri", "time": "11:30am"}, {"days": "Sat", "time": "10:00am"}, {"days": "Sun", "time": "Closed"}], "id": "4759100045", "name": "USPS COLLECTION BOX - BLUE BOX", "address": {"city": "VINCENNES", "state": "IN", "street": "618 NIBLACK BLVD", "postcode": "47591"}}},
{"geometry": {"type": "Point", "coordinates": [-87.5275359698, 38.676607122]}, "type": "Feature", "properties": {"collection_times": [{"days": "Mon-Fri", "time": "2:15pm"}, {"days": "Sat-Sun", "time": "Closed"}], "id": "4759100046", "name": "USPS COLLECTION BOX - BLUE BOX", "address": {"city": "VINCENNES", "state": "IN", "street": "111 N 7TH ST", "postcode": "47591"}}},
{"geometry": {"type": "Point", "coordinates": [-87.5275359698, 38.676607122]}, "type": "Feature", "properties": {"collection_times": [{"days": "Mon-Fri", "time": "2:15pm"}, {"days": "Sat-Sun", "time": "Closed"}], "id": "4759100047", "name": "USPS COLLECTION BOX - BLUE BOX", "address": {"city": "VINCENNES", "state": "IN", "street": "111 N 7TH ST", "postcode": "47591"}}},
{"geometry": {"type": "Point", "coordinates": [-87.5289830854, 38.6795990411]}, "type": "Feature", "properties": {"collection_times": [{"days": "Mon-Fri", "time": "4:15pm"}, {"days": "Sat", "time": "12:00pm"}, {"days": "Sun", "time": "Closed"}], "id": "4759100048", "name": "USPS COLLECTION BOX - BLUE BOX", "address": {"city": "VINCENNES", "state": "IN", "street": "214 N 4TH ST", "postcode": "47591"}}},
{"geometry": {"type": "Point", "coordinates": [-87.5289830854, 38.6795990411]}, "type": "Feature", "properties": {"collection_times": [{"days": "Mon-Fri", "time": "4:15pm"}, {"days": "Sat", "time": "12:00pm"}, {"days": "Sun", "time": "Closed"}], "id": "4759100049", "name": "USPS COLLECTION BOX - BLUE BOX", "address": {"city": "VINCENNES", "state": "IN", "street": "214 N 4TH ST", "postcode": "47591"}}},
{"geometry": {"type": "Point", "coordinates": [-87.5289830854, 38.6795990411]}, "type": "Feature", "properties": {"collection_times": [{"days": "Mon-Fri", "time": "4:15pm"}, {"days": "Sat", "time": "12:00pm"}, {"days": "Sun", "time": "Closed"}], "id": "4759100050", "name": "USPS COLLECTION BOX - BLUE BOX", "address": {"city": "VINCENNES", "state": "IN", "street": "214 N 4TH ST", "postcode": "47591"}}},
{"geometry": {"type": "Point", "coordinates": [-87.5289830854, 38.6795990411]}, "type": "Feature", "properties": {"collection_times": [{"days": "Mon-Fri", "time": "4:15pm"}, {"days": "Sat", "time": "12:00pm"}, {"days": "Sun", "time": "Closed"}], "id": "4759100051", "name": "USPS COLLECTION BOX - BLUE BOX", "address": {"city": "VINCENNES", "state": "IN", "street": "214 N 4TH ST", "postcode": "47591"}}},
{"geometry": {"type": "Point", "coordinates": [-87.5137060258, 38.6669948909]}, "type": "Feature", "properties": {"collection_times": [{"days": "Mon-Fri", "time": "10:15am"}, {"days": "Sat", "time": "10:00am"}, {"days": "Sun", "time": "Closed"}], "id": "4759100054", "name": "USPS COLLECTION BOX - BLUE BOX", "address": {"city": "VINCENNES", "state": "IN", "street": "1901 HART ST", "postcode": "47591"}}},
{"geometry": {"type": "Point", "coordinates": [-87.5288471964, 38.6793195236]}, "type": "Feature", "properties": {"collection_times": [{"days": "Mon-Fri", "time": "4:30pm"}, {"days": "Sat", "time": "12:00pm"}, {"days": "Sun", "time": "Closed"}], "id": "4759100056", "name": "USPS COLLECTION BOX - PO LOBBY", "address": {"city": "VINCENNES", "state": "IN", "street": "420 BROADWAY ST", "postcode": "47591"}}},
{"geometry": {"type": "Point", "coordinates": [-87.496297357, 38.6676072441]}, "type": "Feature", "properties": {"collection_times": [{"days": "Mon-Fri", "time": "10:00am"}, {"days": "Sat", "time": "9:00am"}, {"days": "Sun", "time": "Closed"}], "id": "4759100061", "name": "USPS COLLECTION BOX - BLUE BOX", "address": {"city": "VINCENNES", "state": "IN", "street": "650 KIMMELL RD", "postcode": "47591"}}},
{"geometry": {"type": "Point", "coordinates": [-87.2244505541, 38.8614046812]}, "type": "Feature", "properties": {"collection_times": [{"days": "Mon-Fri", "time": "4:00pm"}, {"days": "Sat", "time": "10:45am"}, {"days": "Sun", "time": "Closed"}], "id": "4759600002", "name": "USPS COLLECTION BOX - BLUE BOX", "address": {"city": "WESTPHALIA", "state": "IN", "street": "12747 HIGHWAY 67", "postcode": "47596"}}},
{"geometry": {"type": "Point", "coordinates": [-87.2244505541, 38.8614046812]}, "type": "Feature", "properties": {"collection_times": [{"days": "Mon-Fri", "time": "10:45am"}, {"days": "Sat", "time": "9:45am"}, {"days": "Sun", "time": "Closed"}], "id": "4759600003", "name": "USPS COLLECTION BOX - PO LOBBY", "address": {"city": "WESTPHALIA", "state": "IN", "street": "12747 HIGHWAY 67", "postcode": "47596"}}},
{"geometry": {"type": "Point", "coordinates": [-87.3070132077, 38.6642434333]}, "type": "Feature", "properties": {"collection_times": [{"days": "Mon-Fri", "time": "3:00pm"}, {"days": "Sat", "time": "10:00am"}, {"days": "Sun", "time": "Closed"}], "id": "4759700001", "name": "USPS COLLECTION BOX - BLUE BOX", "address": {"city": "WHEATLAND", "state": "IN", "street": "123 W MAIN ST", "postcode": "47597"}}},
{"geometry": {"type": "Point", "coordinates": [-87.3070132077, 38.6642434333]}, "type": "Feature", "properties": {"collection_times": [{"days": "Mon-Fri", "time": "11:45am"}, {"days": "Sat", "time": "10:00am"}, {"days": "Sun", "time": "Closed"}], "id": "4759700002", "name": "USPS COLLECTION BOX - PO LOBBY", "address": {"city": "WHEATLAND", "state": "IN", "street": "123 W MAIN ST", "postcode": "47597"}}},
{"geometry": {"type": "Point", "coordinates": [-87.2159759687, 38.3837244327]}, "type": "Feature", "properties": {"collection_times": [{"days": "Mon-Fri", "time": "3:45pm"}, {"days": "Sat", "time": "10:45am"}, {"days": "Sun", "time": "Closed"}], "id": "4759800001", "name": "USPS COLLECTION BOX - BLUE BOX", "address": {"city": "WINSLOW", "state": "IN", "street": "501 N MAIN ST", "postcode": "47598"}}},
{"geometry": {"type": "Point", "coordinates": [-87.2159759687, 38.3837244327]}, "type": "Feature", "properties": {"collection_times": [{"days": "Mon-Fri", "time": "3:45pm"}, {"days": "Sat", "time": "10:45am"}, {"days": "Sun", "time": "Closed"}], "id": "4759800002", "name": "USPS COLLECTION BOX - PO LOBBY", "address": {"city": "WINSLOW", "state": "IN", "street": "501 N MAIN ST", "postcode": "47598"}}}
]}
