{"type": "FeatureCollection", "features": [
{"geometry": {"type": "Point", "coordinates": [-87.2757198273, 38.0489984931]}, "type": "Feature", "properties": {"collection_times": [{"days": "Mon-Fri", "time": "4:15pm"}, {"days": "Sat", "time": "3:00pm"}, {"days": "Sun", "time": "Closed"}], "id": "4760100000", "name": "USPS COLLECTION BOX - BLUE BOX", "address": {"city": "BOONVILLE", "state": "IN", "street": "214 W LOCUST ST", "postcode": "47601"}}},
{"geometry": {"type": "Point", "coordinates": [-87.2742291592, 38.0500279305]}, "type": "Feature", "properties": {"collection_times": [{"days": "Mon-Fri", "time": "3:15pm"}, {"days": "Sat", "time": "12:45pm"}, {"days": "Sun", "time": "Closed"}], "id": "4760100002", "name": "USPS COLLECTION BOX - BLUE BOX", "address": {"city": "BOONVILLE", "state": "IN", "street": "101 N 3RD ST", "postcode": "47601"}}},
{"geometry": {"type": "Point", "coordinates": [-87.2757211179, 38.0491081339]}, "type": "Feature", "properties": {"collection_times": [{"days": "Mon-Fri", "time": "4:15pm"}, {"days": "Sat", "time": "3:00pm"}, {"days": "Sun", "time": "Closed"}], "id": "4760100005", "name": "USPS COLLECTION BOX - BLUE BOX", "address": {"city": "BOONVILLE", "state": "IN", "street": "215 W LOCUST ST", "postcode": "47601"}}},
{"geometry": {"type": "Point", "coordinates": [-87.2749791294, 38.0490576513]}, "type": "Feature", "properties": {"collection_times": [{"days": "Mon-Fri", "time": "3:15pm"}, {"days": "Sat", "time": "12:45pm"}, {"days": "Sun", "time": "Closed"}], "id": "4760100006", "name": "USPS COLLECTION BOX - BLUE BOX", "address": {"city": "BOONVILLE", "state": "IN", "street": "107 W LOCUST ST", "postcode": "47601"}}},
{"geometry": {"type": "Point", "coordinates": [-87.2757211179, 38.0491081339]}, "type": "Feature", "properties": {"collection_times": [{"days": "Mon-Fri", "time": "4:15pm"}, {"days": "Sat", "time": "3:00pm"}, {"days": "Sun", "time": "Closed"}], "id": "4760100013", "name": "USPS COLLECTION BOX - BLUE BOX", "address": {"city": "BOONVILLE", "state": "IN", "street": "215 W LOCUST ST", "postcode": "47601"}}},
{"geometry": {"type": "Point", "coordinates": [-87.2740976325, 38.0573272144]}, "type": "Feature", "properties": {"collection_times": [{"days": "Mon-Sat", "time": "11:45am"}, {"days": "Sun", "time": "Closed"}], "id": "4760100015", "name": "USPS COLLECTION BOX - BLUE BOX", "address": {"city": "BOONVILLE", "state": "IN", "street": "966 N STATE ROUTE 61", "postcode": "47601"}}},
{"geometry": {"type": "Point", "coordinates": [-87.2525195828, 38.0577731585]}, "type": "Feature", "properties": {"collection_times": [{"days": "Mon-Fri", "time": "3:15pm"}, {"days": "Sat", "time": "12:45pm"}, {"days": "Sun", "time": "Closed"}], "id": "4760100016", "name": "USPS COLLECTION BOX - BLUE BOX", "address": {"city": "BOONVILLE", "state": "IN", "street": "1 COUNTY SQ", "postcode": "47601"}}},
{"geometry": {"type": "Point", "coordinates": [-87.2525195828, 38.0577731585]}, "type": "Feature", "properties": {"collection_times": [{"days": "Mon-Fri", "time": "3:15pm"}, {"days": "Sat", "time": "12:45pm"}, {"days": "Sun", "time": "Closed"}], "id": "4760100017", "name": "USPS COLLECTION BOX - BLUE BOX", "address": {"city": "BOONVILLE", "state": "IN", "street": "1 COUNTY SQ", "postcode": "47601"}}},
{"geometry": {"type": "Point", "coordinates": [-87.3704345665, 38.0424813414]}, "type": "Feature", "properties": {"collection_times": [{"days": "Mon-Fri", "time": "4:00pm"}, {"days": "Sat", "time": "11:00am"}, {"days": "Sun", "time": "Closed"}], "id": "4761000000", "name": "USPS COLLECTION BOX - BLUE BOX", "address": {"city": "CHANDLER", "state": "IN", "street": "211 W LINCOLN AVE", "postcode": "47610"}}},
{"geometry": {"type": "Point", "coordinates": [-87.3704345665, 38.0424813414]}, "type": "Feature", "properties": {"collection_times": [{"days": "Mon-Fri", "time": "4:00pm"}, {"days": "Sat", "time": "11:00am"}, {"days": "Sun", "time": "Closed"}], "id": "4761000001", "name": "USPS COLLECTION BOX - PO LOBBY", "address": {"city": "CHANDLER", "state": "IN", "street": "211 W LINCOLN AVE", "postcode": "47610"}}},
{"geometry": {"type": "Point", "coordinates": [-87.0367144745, 38.0145056134]}, "type": "Feature", "properties": {"collection_times": [{"days": "Mon-Fri", "time": "3:30pm"}, {"days": "Sat", "time": "11:00am"}, {"days": "Sun", "time": "Closed"}], "id": "4761100000", "name": "USPS COLLECTION BOX - BLUE BOX", "address": {"city": "CHRISNEY", "state": "IN", "street": "23 W MARKET ST", "postcode": "47611"}}},
{"geometry": {"type": "Point", "coordinates": [-87.0367144745, 38.0145056134]}, "type": "Feature", "properties": {"collection_times": [{"days": "Mon-Fri", "time": "3:30pm"}, {"days": "Sat", "time": "11:00am"}, {"days": "Sun", "time": "Closed"}], "id": "4761100001", "name": "USPS COLLECTION BOX - PO LOBBY", "address": {"city": "CHRISNEY", "state": "IN", "street": "23 W MARKET ST", "postcode": "47611"}}},
{"geometry": {"type": "Point", "coordinates": [-87.7090649644, 38.1875102827]}, "type": "Feature", "properties": {"collection_times": [{"days": "Mon-Fri", "time": "3:30pm"}, {"days": "Sat", "time": "11:00am"}, {"days": "Sun", "time": "Closed"}], "id": "4761200000", "name": "USPS COLLECTION BOX - BLUE BOX", "address": {"city": "CYNTHIANA", "state": "IN", "street": "10864 MAIN ST", "postcode": "47612"}}},
{"geometry": {"type": "Point", "coordinates": [-87.7090649644, 38.1875102827]}, "type": "Feature", "properties": {"collection_times": [{"days": "Mon-Fri", "time": "3:30pm"}, {"days": "Sat", "time": "11:00am"}, {"days": "Sun", "time": "Closed"}], "id": "4761200001", "name": "USPS COLLECTION BOX - PO LOBBY", "address": {"city": "CYNTHIANA", "state": "IN", "street": "10864 MAIN ST", "postcode": "47612"}}},
{"geometry": {"type": "Point", "coordinates": [-87.4479366497, 38.159634231]}, "type": "Feature", "properties": {"collection_times": [{"days": "Mon-Fri", "time": "3:30pm"}, {"days": "Sat", "time": "11:30am"}, {"days": "Sun", "time": "Closed"}], "id": "4761300000", "name": "USPS COLLECTION BOX - BLUE BOX", "address": {"city": "ELBERFELD", "state": "IN", "street": "155 W MAIN ST", "postcode": "47613"}}},
{"geometry": {"type": "Point", "coordinates": [-87.4479366497, 38.159634231]}, "type": "Feature", "properties": {"collection_times": [{"days": "Mon-Fri", "time": "3:30pm"}, {"days": "Sat", "time": "11:30am"}, {"days": "Sun", "time": "Closed"}], "id": "4761300001", "name": "USPS COLLECTION BOX - PO LOBBY", "address": {"city": "ELBERFELD", "state": "IN", "street": "155 W MAIN ST", "postcode": "47613"}}},
{"geometry": {"type": "Point", "coordinates": [-86.9810952583, 37.9327440899]}, "type": "Feature", "properties": {"collection_times": [{"days": "Mon-Fri", "time": "3:45pm"}, {"days": "Sat", "time": "11:00am"}, {"days": "Sun", "time": "Closed"}], "id": "4761500000", "name": "USPS COLLECTION BOX - BLUE BOX", "address": {"city": "GRANDVIEW", "state": "IN", "street": "302 MAIN ST", "postcode": "47615"}}},
{"geometry": {"type": "Point", "coordinates": [-86.9810952583, 37.9327440899]}, "type": "Feature", "properties": {"collection_times": [{"days": "Mon-Fri", "time": "4:00pm"}, {"days": "Sat", "time": "11:00am"}, {"days": "Sun", "time": "Closed"}], "id": "4761500001", "name": "USPS COLLECTION BOX - PO LOBBY", "address": {"city": "GRANDVIEW", "state": "IN", "street": "302 MAIN ST", "postcode": "47615"}}},
{"geometry": {"type": "Point", "coordinates": [-87.9146021411, 38.2030419415]}, "type": "Feature", "properties": {"collection_times": [{"days": "Mon-Fri", "time": "3:15pm"}, {"days": "Sat", "time": "10:00am"}, {"days": "Sun", "time": "Closed"}], "id": "4761600000", "name": "USPS COLLECTION BOX - BLUE BOX", "address": {"city": "GRIFFIN", "state": "IN", "street": "224 S MAIN ST", "postcode": "47616"}}},
{"geometry": {"type": "Point", "coordinates": [-87.9146021411, 38.2030419415]}, "type": "Feature", "properties": {"collection_times": [{"days": "Mon-Fri", "time": "3:15pm"}, {"days": "Sat", "time": "10:00am"}, {"days": "Sun", "time": "Closed"}], "id": "4761600001", "name": "USPS COLLECTION BOX - PO LOBBY", "address": {"city": "GRIFFIN", "state": "IN", "street": "224 S MAIN ST", "postcode": "47616"}}},
{"geometry": {"type": "Point", "coordinates": [-87.2343898604, 37.9025902861]}, "type": "Feature", "properties": {"collection_times": [{"days": "Mon-Fri", "time": "3:45pm"}, {"days": "Sat", "time": "11:00am"}, {"days": "Sun", "time": "Closed"}], "id": "4761700000", "name": "USPS COLLECTION BOX - BLUE BOX", "address": {"city": "HATFIELD", "state": "IN", "street": "9129 W OLD STATE ROAD 66", "postcode": "47617"}}},
{"geometry": {"type": "Point", "coordinates": [-87.2343898604, 37.9025902861]}, "type": "Feature", "properties": {"collection_times": [{"days": "Mon-Fri", "time": "3:45pm"}, {"days": "Sat", "time": "11:00am"}, {"days": "Sun", "time": "Closed"}], "id": "4761700001", "name": "USPS COLLECTION BOX - PO LOBBY", "address": {"city": "HATFIELD", "state": "IN", "street": "9129 W OLD STATE ROAD 66", "postcode": "47617"}}},
{"geometry": {"type": "Point", "coordinates": [-87.5819271672, 38.0942930165]}, "type": "Feature", "properties": {"collection_times": [{"days": "Mon-Fri", "time": "4:00pm"}, {"days": "Sat", "time": "10:30am"}, {"days": "Sun", "time": "Closed"}], "id": "4761800000", "name": "USPS COLLECTION BOX - BLUE BOX", "address": {"city": "INGLEFIELD", "state": "IN", "street": "13200 DARMSTADT RD", "postcode": "47618"}}},
{"geometry": {"type": "Point", "coordinates": [-87.5819271672, 38.0942930165]}, "type": "Feature", "properties": {"collection_times": [{"days": "Mon-Fri", "time": "4:00pm"}, {"days": "Sat", "time": "10:30am"}, {"days": "Sun", "time": "Closed"}], "id": "4761800001", "name": "USPS COLLECTION BOX - PO LOBBY", "address": {"city": "INGLEFIELD", "state": "IN", "street": "13200 DARMSTADT RD", "postcode": "47618"}}},
{"geometry": {"type": "Point", "coordinates": [-87.2975029099, 38.1977241309]}, "type": "Feature", "properties": {"collection_times": [{"days": "Mon-Fri", "time": "3:30pm"}, {"days": "Sat", "time": "11:00am"}, {"days": "Sun", "time": "Closed"}], "id": "4761900000", "name": "USPS COLLECTION BOX - BLUE BOX", "address": {"city": "LYNNVILLE", "state": "IN", "street": "216 N MAIN ST", "postcode": "47619"}}},
{"geometry": {"type": "Point", "coordinates": [-87.2975029099, 38.1977241309]}, "type": "Feature", "properties": {"collection_times": [{"days": "Mon-Fri", "time": "3:45pm"}, {"days": "Sat", "time": "11:00am"}, {"days": "Sun", "time": "Closed"}], "id": "4761900001", "name": "USPS COLLECTION BOX - PO LOBBY", "address": {"city": "LYNNVILLE", "state": "IN", "street": "216 N MAIN ST", "postcode": "47619"}}},
{"geometry": {"type": "Point", "coordinates": [-87.8687563184, 37.950711222]}, "type": "Feature", "properties": {"collection_times": [{"days": "Mon-Fri", "time": "4:30pm"}, {"days": "Sat", "time": "3:15pm"}, {"days": "Sun", "time": "Closed"}], "id": "4762000000", "name": "USPS COLLECTION BOX - BLUE BOX", "address": {"city": "MT VERNON", "state": "IN", "street": "308 WALNUT ST", "postcode": "47620"}}},
{"geometry": {"type": "Point", "coordinates": [-87.8687563184, 37.950711222]}, "type": "Feature", "properties": {"collection_times": [{"days": "Mon-Fri", "time": "4:30pm"}, {"days": "Sat", "time": "3:15pm"}, {"days": "Sun", "time": "Closed"}], "id": "4762000001", "name": "USPS COLLECTION BOX - PO LOBBY", "address": {"city": "MT VERNON", "state": "IN", "street": "308 WALNUT ST", "postcode": "47620"}}},
{"geometry": {"type": "Point", "coordinates": [-87.8687563184, 37.950711222]}, "type": "Feature", "properties": {"collection_times": [{"days": "Mon-Fri", "time": "4:30pm"}, {"days": "Sat", "time": "3:15pm"}, {"days": "Sun", "time": "Closed"}], "id": "4762000002", "name": "USPS COLLECTION BOX - BLUE BOX", "address": {"city": "MT VERNON", "state": "IN", "street": "308 WALNUT ST", "postcode": "47620"}}},
{"geometry": {"type": "Point", "coordinates": [-87.8687563184, 37.950711222]}, "type": "Feature", "properties": {"collection_times": [{"days": "Mon-Sat", "time": "12:00pm"}, {"days": "Sun", "time": "Closed"}], "id": "4762000009", "name": "USPS COLLECTION BOX - BLUE BOX", "address": {"city": "MT VERNON", "state": "IN", "street": "1320 MAIN ST", "postcode": "47620"}}},
{"geometry": {"type": "Point", "coordinates": [-87.44267511, 37.9542705834]}, "type": "Feature", "properties": {"collection_times": [{"days": "Mon-Sat", "time": "10:00am"}, {"days": "Sun", "time": "Closed"}], "id": "4763000005", "name": "USPS COLLECTION BOX - BLUE BOX", "address": {"city": "NEWBURGH", "state": "IN", "street": "10588 W HIGHWAY 662", "postcode": "47630"}}},
{"geometry": {"type": "Point", "coordinates": [-87.4030186277, 37.9758984041]}, "type": "Feature", "properties": {"collection_times": [{"days": "Mon-Sat", "time": "11:00am"}, {"days": "Sun", "time": "Closed"}], "id": "4763000006", "name": "USPS COLLECTION BOX - BLUE BOX", "address": {"city": "NEWBURGH", "state": "IN", "street": "8437 BELL OAKS DR", "postcode": "47630"}}},
{"geometry": {"type": "Point", "coordinates": [-87.4036517997, 37.956486241]}, "type": "Feature", "properties": {"collection_times": [{"days": "Mon-Fri", "time": "4:45pm"}, {"days": "Sat", "time": "4:30pm"}, {"days": "Sun", "time": "Closed"}], "id": "4763000007", "name": "USPS COLLECTION BOX - PO LOBBY", "address": {"city": "NEWBURGH", "state": "IN", "street": "5411 STATE ROUTE 261", "postcode": "47630"}}},
{"geometry": {"type": "Point", "coordinates": [-87.4036517997, 37.956486241]}, "type": "Feature", "properties": {"collection_times": [{"days": "Mon-Fri", "time": "4:45pm"}, {"days": "Sat", "time": "4:30pm"}, {"days": "Sun", "time": "Closed"}], "id": "4763000008", "name": "USPS COLLECTION BOX - BLUE BOX", "address": {"city": "NEWBURGH", "state": "IN", "street": "5411 STATE ROUTE 261", "postcode": "47630"}}},
{"geometry": {"type": "Point", "coordinates": [-87.4352891491, 37.9492104744]}, "type": "Feature", "properties": {"collection_times": [{"days": "Mon-Sat", "time": "11:00am"}, {"days": "Sun", "time": "Closed"}], "id": "4763000012", "name": "USPS COLLECTION BOX - BLUE BOX", "address": {"city": "NEWBURGH", "state": "IN", "street": "5900 KREAGER LN", "postcode": "47630"}}},
{"geometry": {"type": "Point", "coordinates": [-87.4036517997, 37.956486241]}, "type": "Feature", "properties": {"collection_times": [{"days": "Mon-Fri", "time": "4:45pm"}, {"days": "Sat", "time": "4:30pm"}, {"days": "Sun", "time": "Closed"}], "id": "4763000014", "name": "USPS COLLECTION BOX - APC", "address": {"city": "NEWBURGH", "state": "IN", "street": "5411 STATE ROUTE 261", "postcode": "47630"}}},
{"geometry": {"type": "Point", "coordinates": [-87.9343914332, 38.129884581]}, "type": "Feature", "properties": {"collection_times": [{"days": "Mon-Fri", "time": "3:45pm"}, {"days": "Sat", "time": "11:00am"}, {"days": "Sun", "time": "Closed"}], "id": "4763100001", "name": "USPS COLLECTION BOX - PO LOBBY", "address": {"city": "NEW HARMONY", "state": "IN", "street": "534 CHURCH ST", "postcode": "47631"}}},
{"geometry": {"type": "Point", "coordinates": [-87.9343914332, 38.129884581]}, "type": "Feature", "properties": {"collection_times": [{"days": "Mon-Fri", "time": "3:45pm"}, {"days": "Sat", "time": "11:00am"}, {"days": "Sun", "time": "Closed"}], "id": "4763100002", "name": "USPS COLLECTION BOX - BLUE BOX", "address": {"city": "NEW HARMONY", "state": "IN", "street": "534 CHURCH ST", "postcode": "47631"}}},
{"geometry": {"type": "Point", "coordinates": [-87.7841214346, 38.1688387699]}, "type": "Feature", "properties": {"collection_times": [{"days": "Mon-Fri", "time": "3:30pm"}, {"days": "Sat", "time": "11:00am"}, {"days": "Sun", "time": "Closed"}], "id": "4763300000", "name": "USPS COLLECTION BOX - BLUE BOX", "address": {"city": "POSEYVILLE", "state": "IN", "street": "41 S LOCUST ST", "postcode": "47633"}}},
{"geometry": {"type": "Point", "coordinates": [-87.7841214346, 38.1688387699]}, "type": "Feature", "properties": {"collection_times": [{"days": "Mon-Fri", "time": "3:30pm"}, {"days": "Sat", "time": "11:00am"}, {"days": "Sun", "time": "Closed"}], "id": "4763300001", "name": "USPS COLLECTION BOX - PO LOBBY", "address": {"city": "POSEYVILLE", "state": "IN", "street": "41 S LOCUST ST", "postcode": "47633"}}},
{"geometry": {"type": "Point", "coordinates": [-87.1683990981, 37.9472128913]}, "type": "Feature", "properties": {"collection_times": [{"days": "Mon-Fri", "time": "3:15pm"}, {"days": "Sat", "time": "10:45am"}, {"days": "Sun", "time": "Closed"}], "id": "4763400000", "name": "USPS COLLECTION BOX - BLUE BOX", "address": {"city": "RICHLAND", "state": "IN", "street": "4143 N STATE ROAD 161", "postcode": "47634"}}},
{"geometry": {"type": "Point", "coordinates": [-87.1683990981, 37.9472128913]}, "type": "Feature", "properties": {"collection_times": [{"days": "Mon-Fri", "time": "3:15pm"}, {"days": "Sat", "time": "11:00am"}, {"days": "Sun", "time": "Closed"}], "id": "4763400001", "name": "USPS COLLECTION BOX - PO LOBBY", "address": {"city": "RICHLAND", "state": "IN", "street": "4143 N STATE ROAD 161", "postcode": "47634"}}},
{"geometry": {"type": "Point", "coordinates": [-87.0495720063, 37.8833557018]}, "type": "Feature", "properties": {"collection_times": [{"days": "Mon-Sat", "time": "4:00pm"}, {"days": "Sun", "time": "Closed"}], "id": "4763500000", "name": "USPS COLLECTION BOX - BLUE BOX", "address": {"city": "ROCKPORT", "state": "IN", "street": "115 N 5TH ST", "postcode": "47635"}}},
{"geometry": {"type": "Point", "coordinates": [-87.0495720063, 37.8833557018]}, "type": "Feature", "properties": {"collection_times": [{"days": "Mon-Sat", "time": "4:00pm"}, {"days": "Sun", "time": "Closed"}], "id": "4763500006", "name": "USPS COLLECTION BOX - PO LOBBY", "address": {"city": "ROCKPORT", "state": "IN", "street": "115 N 5TH ST", "postcode": "47635"}}},
{"geometry": {"type": "Point", "coordinates": [-87.118347329, 38.0811947191]}, "type": "Feature", "properties": {"collection_times": [{"days": "Mon-Fri", "time": "3:30pm"}, {"days": "Sat", "time": "9:45am"}, {"days": "Sun", "time": "Closed"}], "id": "4763700000", "name": "USPS COLLECTION BOX - PO LOBBY", "address": {"city": "TENNYSON", "state": "IN", "street": "124 S MAIN ST", "postcode": "47637"}}},
{"geometry": {"type": "Point", "coordinates": [-87.118347329, 38.0811947191]}, "type": "Feature", "properties": {"collection_times": [{"days": "Mon-Fri", "time": "3:30pm"}, {"days": "Sat", "time": "9:45am"}, {"days": "Sun", "time": "Closed"}], "id": "4763700001", "name": "USPS COLLECTION BOX - BLUE BOX", "address": {"city": "TENNYSON", "state": "IN", "street": "124 S MAIN ST", "postcode": "47637"}}},
{"geometry": {"type": "Point", "coordinates": [-87.7865311251, 38.1027404068]}, "type": "Feature", "properties": {"collection_times": [{"days": "Mon-Fri", "time": "3:45pm"}, {"days": "Sat", "time": "10:45am"}, {"days": "Sun", "time": "Closed"}], "id": "4763800000", "name": "USPS COLLECTION BOX - BLUE BOX", "address": {"city": "WADESVILLE", "state": "IN", "street": "7255 MAIN ST", "postcode": "47638"}}},
{"geometry": {"type": "Point", "coordinates": [-87.7865311251, 38.1027404068]}, "type": "Feature", "properties": {"collection_times": [{"days": "Mon-Fri", "time": "3:45pm"}, {"days": "Sat", "time": "10:45am"}, {"days": "Sun", "time": "Closed"}], "id": "4763800001", "name": "USPS COLLECTION BOX - PO LOBBY", "address": {"city": "WADESVILLE", "state": "IN", "street": "7255 MAIN ST", "postcode": "47638"}}},
{"geometry": {"type": "Point", "coordinates": [-87.5744162132, 38.2039351057]}, "type": "Feature", "properties": {"collection_times": [{"days": "Mon-Fri", "time": "3:45pm"}, {"days": "Sat", "time": "10:45am"}, {"days": "Sun", "time": "Closed"}], "id": "4763900000", "name": "USPS COLLECTION BOX - BLUE BOX", "address": {"city": "HAUBSTADT", "state": "IN", "street": "107 W HAUB ST", "postcode": "47639"}}},
{"geometry": {"type": "Point", "coordinates": [-87.5744162132, 38.2039351057]}, "type": "Feature", "properties": {"collection_times": [{"days": "Mon-Fri", "time": "4:00pm"}, {"days": "Sat", "time": "11:00am"}, {"days": "Sun", "time": "Closed"}], "id": "4763900003", "name": "USPS COLLECTION BOX - PO LOBBY", "address": {"city": "HAUBSTADT", "state": "IN", "street": "107 W HAUB ST", "postcode": "47639"}}},
{"geometry": {"type": "Point", "coordinates": [-87.6332615504, 38.1790428425]}, "type": "Feature", "properties": {"collection_times": [{"days": "Mon-Sat", "time": "11:00am"}, {"days": "Sun", "time": "Closed"}], "id": "4763900006", "name": "USPS COLLECTION BOX - BLUE BOX", "address": {"city": "HAUBSTADT", "state": "IN", "street": "844 E 1250 S", "postcode": "47639"}}},
{"geometry": {"type": "Point", "coordinates": [-87.5782621306, 38.2482914249]}, "type": "Feature", "properties": {"collection_times": [{"days": "Mon-Fri", "time": "4:30pm"}, {"days": "Sat", "time": "3:30pm"}, {"days": "Sun", "time": "Closed"}], "id": "4764800002", "name": "USPS COLLECTION BOX - PO LOBBY", "address": {"city": "FORT BRANCH", "state": "IN", "street": "105 E VINE ST", "postcode": "47648"}}},
{"geometry": {"type": "Point", "coordinates": [-87.5782621306, 38.2482914249]}, "type": "Feature", "properties": {"collection_times": [{"days": "Mon-Fri", "time": "4:30pm"}, {"days": "Sat", "time": "3:30pm"}, {"days": "Sun", "time": "Closed"}], "id": "4764800003", "name": "USPS COLLECTION BOX - BLUE BOX", "address": {"city": "FORT BRANCH", "state": "IN", "street": "105 E VINE ST", "postcode": "47648"}}},
{"geometry": {"type": "Point", "coordinates": [-87.4466521362, 38.3326243844]}, "type": "Feature", "properties": {"collection_times": [{"days": "Mon-Fri", "time": "3:30pm"}, {"days": "Sat", "time": "10:30am"}, {"days": "Sun", "time": "Closed"}], "id": "4764900000", "name": "USPS COLLECTION BOX - BLUE BOX", "address": {"city": "FRANCISCO", "state": "IN", "street": "308 W MAIN ST", "postcode": "47649"}}},
{"geometry": {"type": "Point", "coordinates": [-87.4466521362, 38.3326243844]}, "type": "Feature", "properties": {"collection_times": [{"days": "Mon-Fri", "time": "3:30pm"}, {"days": "Sat", "time": "10:30am"}, {"days": "Sun", "time": "Closed"}], "id": "4764900001", "name": "USPS COLLECTION BOX - PO LOBBY", "address": {"city": "FRANCISCO", "state": "IN", "street": "308 W MAIN ST", "postcode": "47649"}}},
{"geometry": {"type": "Point", "coordinates": [-87.3930991559, 38.2523851856]}, "type": "Feature", "properties": {"collection_times": [{"days": "Mon-Fri", "time": "4:15pm"}, {"days": "Sat", "time": "11:45am"}, {"days": "Sun", "time": "Closed"}], "id": "4765400000", "name": "USPS COLLECTION BOX - BLUE BOX", "address": {"city": "MACKEY", "state": "IN", "street": "9500 E MAIN ST", "postcode": "47654"}}},
{"geometry": {"type": "Point", "coordinates": [-87.3448559544, 38.3400902476]}, "type": "Feature", "properties": {"collection_times": [{"days": "Mon-Sat", "time": "3:45pm"}, {"days": "Sun", "time": "Closed"}], "id": "4766000000", "name": "USPS COLLECTION BOX - BLUE BOX", "address": {"city": "OAKLAND CITY", "state": "IN", "street": "130 W HARRISON ST", "postcode": "47660"}}},
{"geometry": {"type": "Point", "coordinates": [-87.3448559544, 38.3400902476]}, "type": "Feature", "properties": {"collection_times": [{"days": "Mon-Sat", "time": "4:00pm"}, {"days": "Sun", "time": "Closed"}], "id": "4766000010", "name": "USPS COLLECTION BOX - PO LOBBY", "address": {"city": "OAKLAND CITY", "state": "IN", "street": "130 W HARRISON ST", "postcode": "47660"}}},
{"geometry": {"type": "Point", "coordinates": [-87.6927242137, 38.2723768739]}, "type": "Feature", "properties": {"collection_times": [{"days": "Mon-Fri", "time": "3:30pm"}, {"days": "Sat", "time": "10:45am"}, {"days": "Sun", "time": "Closed"}], "id": "4766500000", "name": "USPS COLLECTION BOX - BLUE BOX", "address": {"city": "OWENSVILLE", "state": "IN", "street": "100 S MILL ST", "postcode": "47665"}}},
{"geometry": {"type": "Point", "coordinates": [-87.6927242137, 38.2723768739]}, "type": "Feature", "properties": {"collection_times": [{"days": "Mon-Fri", "time": "3:30pm"}, {"days": "Sat", "time": "10:45am"}, {"days": "Sun", "time": "Closed"}], "id": "4766500001", "name": "USPS COLLECTION BOX - PO LOBBY", "address": {"city": "OWENSVILLE", "state": "IN", "street": "100 S MILL ST", "postcode": "47665"}}},
{"geometry": {"type": "Point", "coordinates": [-87.5861725085, 38.4000854581]}, "type": "Feature", "properties": {"collection_times": [{"days": "Mon-Fri", "time": "3:30pm"}, {"days": "Sat", "time": "9:30am"}, {"days": "Sun", "time": "Closed"}], "id": "4766600000", "name": "USPS COLLECTION BOX - BLUE BOX", "address": {"city": "PATOKA", "state": "IN", "street": "110 S MAIN ST", "postcode": "47666"}}},
{"geometry": {"type": "Point", "coordinates": [-87.5861725085, 38.4000854581]}, "type": "Feature", "properties": {"collection_times": [{"days": "Mon-Fri", "time": "3:30pm"}, {"days": "Sat", "time": "9:30am"}, {"days": "Sun", "time": "Closed"}], "id": "4766600001", "name": "USPS COLLECTION BOX - PO LOBBY", "address": {"city": "PATOKA", "state": "IN", "street": "110 S MAIN ST", "postcode": "47666"}}},
{"geometry": {"type": "Point", "coordinates": [-87.5671840858, 38.3551662054]}, "type": "Feature", "properties": {"collection_times": [{"days": "Mon-Fri", "time": "4:00pm"}, {"days": "Sat", "time": "3:15pm"}, {"days": "Sun", "time": "Closed"}], "id": "4767000004", "name": "USPS COLLECTION BOX - BLUE BOX", "address": {"city": "PRINCETON", "state": "IN", "street": "129 E BROADWAY ST", "postcode": "47670"}}},
{"geometry": {"type": "Point", "coordinates": [-87.5661848788, 38.3572101002]}, "type": "Feature", "properties": {"collection_times": [{"days": "Mon-Sat", "time": "2:00pm"}, {"days": "Sun", "time": "Closed"}], "id": "4767000006", "name": "USPS COLLECTION BOX - BLUE BOX", "address": {"city": "PRINCETON", "state": "IN", "street": "302 N PRINCE ST", "postcode": "47670"}}},
{"geometry": {"type": "Point", "coordinates": [-87.5888663649, 38.3602902461]}, "type": "Feature", "properties": {"collection_times": [{"days": "Mon-Fri", "time": "2:00pm"}, {"days": "Sat", "time": "9:45am"}, {"days": "Sun", "time": "Closed"}], "id": "4767000009", "name": "USPS COLLECTION BOX - BLUE BOX", "address": {"city": "PRINCETON", "state": "IN", "street": "1808 SHERMAN DR", "postcode": "47670"}}},
{"geometry": {"type": "Point", "coordinates": [-87.5848356411, 38.3553765212]}, "type": "Feature", "properties": {"collection_times": [{"days": "Mon-Sat", "time": "2:00pm"}, {"days": "Sun", "time": "Closed"}], "id": "4767000012", "name": "USPS COLLECTION BOX - BLUE BOX", "address": {"city": "PRINCETON", "state": "IN", "street": "1533 W BROADWAY ST", "postcode": "47670"}}},
{"geometry": {"type": "Point", "coordinates": [-87.5671840858, 38.3551662054]}, "type": "Feature", "properties": {"collection_times": [{"days": "Mon-Fri", "time": "4:00pm"}, {"days": "Sat", "time": "3:15pm"}, {"days": "Sun", "time": "Closed"}], "id": "4767000020", "name": "USPS COLLECTION BOX - BLUE BOX", "address": {"city": "PRINCETON", "state": "IN", "street": "129 E BROADWAY ST", "postcode": "47670"}}},
{"geometry": {"type": "Point", "coordinates": [-87.5907303511, 38.3493225055]}, "type": "Feature", "properties": {"collection_times": [{"days": "Mon-Fri", "time": "10:15am"}, {"days": "Sat", "time": "9:45am"}, {"days": "Sun", "time": "Closed"}], "id": "4767000022", "name": "USPS COLLECTION BOX - BLUE BOX", "address": {"city": "PRINCETON", "state": "IN", "street": "4924 S MAPLE TREE DR", "postcode": "47670"}}},
{"geometry": {"type": "Point", "coordinates": [-87.5676234576, 38.3552571639]}, "type": "Feature", "properties": {"collection_times": [{"days": "Mon-Fri", "time": "1:30pm"}, {"days": "Sat-Sun", "time": "Closed"}], "id": "4767000025", "name": "USPS COLLECTION BOX - BLUE BOX", "address": {"city": "PRINCETON", "state": "IN", "street": "101 N MAIN ST", "postcode": "47670"}}},
{"geometry": {"type": "Point", "coordinates": [-87.5677082673, 38.3504734531]}, "type": "Feature", "properties": {"collection_times": [{"days": "Mon-Sat", "time": "1:30pm"}, {"days": "Sun", "time": "Closed"}], "id": "4767000026", "name": "USPS COLLECTION BOX - BLUE BOX", "address": {"city": "PRINCETON", "state": "IN", "street": "2100 S RICHLAND CREEK DR", "postcode": "47670"}}}
]}
