{"type": "FeatureCollection", "features": [
{"geometry": {"type": "Point", "coordinates": [-87.582595509, 38.0068928821]}, "type": "Feature", "properties": {"collection_times": [{"days": "Mon-Sat", "time": "12:00pm"}, {"days": "Sun", "time": "Closed"}], "id": "4771000000", "name": "USPS COLLECTION BOX - BLUE BOX", "address": {"city": "EVANSVILLE", "state": "IN", "street": "3021 KRATZVILLE RD", "postcode": "47710"}}},
{"geometry": {"type": "Point", "coordinates": [-87.5770065793, 38.0099814879]}, "type": "Feature", "properties": {"collection_times": [{"days": "Mon-Sat", "time": "12:00pm"}, {"days": "Sun", "time": "Closed"}], "id": "4771000004", "name": "USPS COLLECTION BOX - BLUE BOX", "address": {"city": "EVANSVILLE", "state": "IN", "street": "1200 W MARYLAND ST", "postcode": "47710"}}},
{"geometry": {"type": "Point", "coordinates": [-87.5581530123, 37.9846967028]}, "type": "Feature", "properties": {"collection_times": [{"days": "Mon-Sat", "time": "2:00pm"}, {"days": "Sun", "time": "Closed"}], "id": "4771000005", "name": "USPS COLLECTION BOX - BLUE BOX", "address": {"city": "EVANSVILLE", "state": "IN", "street": "415 W COLUMBIA ST", "postcode": "47710"}}},
{"geometry": {"type": "Point", "coordinates": [-87.5762570163, 37.9848540363]}, "type": "Feature", "properties": {"collection_times": [{"days": "Mon-Sat", "time": "2:00pm"}, {"days": "Sun", "time": "Closed"}], "id": "4771000007", "name": "USPS COLLECTION BOX - BLUE BOX", "address": {"city": "EVANSVILLE", "state": "IN", "street": "900 W COLUMBIA ST", "postcode": "47710"}}},
{"geometry": {"type": "Point", "coordinates": [-87.5726797484, 38.0011445642]}, "type": "Feature", "properties": {"collection_times": [{"days": "Mon-Fri", "time": "4:30pm"}, {"days": "Sat", "time": "1:30pm"}, {"days": "Sun", "time": "Closed"}], "id": "4771000008", "name": "USPS COLLECTION BOX - BLUE BOX", "address": {"city": "EVANSVILLE", "state": "IN", "street": "600 CROSS VALLEY CIR", "postcode": "47710"}}},
{"geometry": {"type": "Point", "coordinates": [-87.5740425171, 38.0198116567]}, "type": "Feature", "properties": {"collection_times": [{"days": "Mon-Fri", "time": "2:00pm"}, {"days": "Sat", "time": "1:30pm"}, {"days": "Sun", "time": "Closed"}], "id": "4771000014", "name": "USPS COLLECTION BOX - BLUE BOX", "address": {"city": "EVANSVILLE", "state": "IN", "street": "4400 1ST AVE", "postcode": "47710"}}},
{"geometry": {"type": "Point", "coordinates": [-87.5809521804, 37.9892380822]}, "type": "Feature", "properties": {"collection_times": [{"days": "Mon-Sat", "time": "12:00pm"}, {"days": "Sun", "time": "Closed"}], "id": "4771000016", "name": "USPS COLLECTION BOX - BLUE BOX", "address": {"city": "EVANSVILLE", "state": "IN", "street": "1217 N FULTON AVE", "postcode": "47710"}}},
{"geometry": {"type": "Point", "coordinates": [-87.5742148318, 38.0126514572]}, "type": "Feature", "properties": {"collection_times": [{"days": "Mon-Sat", "time": "2:00pm"}, {"days": "Sun", "time": "Closed"}], "id": "4771000021", "name": "USPS COLLECTION BOX - BLUE BOX", "address": {"city": "EVANSVILLE", "state": "IN", "street": "3700 1ST AVE", "postcode": "47710"}}},
{"geometry": {"type": "Point", "coordinates": [-87.5794888602, 38.0215872781]}, "type": "Feature", "properties": {"collection_times": [{"days": "Mon-Sat", "time": "2:00pm"}, {"days": "Sun", "time": "Closed"}], "id": "4771000026", "name": "USPS COLLECTION BOX - BLUE BOX", "address": {"city": "EVANSVILLE", "state": "IN", "street": "1133 W MILL ML", "postcode": "47710"}}},
{"geometry": {"type": "Point", "coordinates": [-87.5740425171, 38.0198116567]}, "type": "Feature", "properties": {"collection_times": [{"days": "Mon-Fri", "time": "2:00pm"}, {"days": "Sat", "time": "1:30pm"}, {"days": "Sun", "time": "Closed"}], "id": "4771000037", "name": "USPS COLLECTION BOX - BLUE BOX", "address": {"city": "EVANSVILLE", "state": "IN", "street": "4400 1ST AVE", "postcode": "47710"}}},
{"geometry": {"type": "Point", "coordinates": [-87.5742116802, 38.0122454511]}, "type": "Feature", "properties": {"collection_times": [{"days": "Mon-Fri", "time": "2:00pm"}, {"days": "Sat", "time": "1:45pm"}, {"days": "Sun", "time": "Closed"}], "id": "4771000039", "name": "USPS COLLECTION BOX - BLUE BOX", "address": {"city": "EVANSVILLE", "state": "IN", "street": "3700 1ST AVE", "postcode": "47710"}}},
{"geometry": {"type": "Point", "coordinates": [-87.5726797484, 38.0011445642]}, "type": "Feature", "properties": {"collection_times": [{"days": "Mon-Fri", "time": "4:30pm"}, {"days": "Sat", "time": "1:30pm"}, {"days": "Sun", "time": "Closed"}], "id": "4771000040", "name": "USPS COLLECTION BOX - BLUE BOX", "address": {"city": "EVANSVILLE", "state": "IN", "street": "600 CROSS VALLEY CIR", "postcode": "47710"}}},
{"geometry": {"type": "Point", "coordinates": [-87.5707716612, 37.9831198937]}, "type": "Feature", "properties": {"collection_times": [{"days": "Mon-Sat", "time": "2:00pm"}, {"days": "Sun", "time": "Closed"}], "id": "4771000044", "name": "USPS COLLECTION BOX - BLUE BOX", "address": {"city": "EVANSVILLE", "state": "IN", "street": "520 MARY ST", "postcode": "47710"}}},
{"geometry": {"type": "Point", "coordinates": [-87.5838089766, 37.9779530325]}, "type": "Feature", "properties": {"collection_times": [{"days": "Mon-Fri", "time": "12:00pm"}, {"days": "Sat-Sun", "time": "Closed"}], "id": "4771000047", "name": "USPS COLLECTION BOX - BLUE BOX", "address": {"city": "EVANSVILLE", "state": "IN", "street": "1419 W LLOYD EXPY", "postcode": "47710"}}},
{"geometry": {"type": "Point", "coordinates": [-87.5581530123, 37.9846967028]}, "type": "Feature", "properties": {"collection_times": [{"days": "Mon-Sat", "time": "2:00pm"}, {"days": "Sun", "time": "Closed"}], "id": "4771000048", "name": "USPS COLLECTION BOX - BLUE BOX", "address": {"city": "EVANSVILLE", "state": "IN", "street": "415 W COLUMBIA ST", "postcode": "47710"}}},
{"geometry": {"type": "Point", "coordinates": [-87.5740933844, 38.0165052864]}, "type": "Feature", "properties": {"collection_times": [{"days": "Mon-Sat", "time": "2:00pm"}, {"days": "Sun", "time": "Closed"}], "id": "4771000053", "name": "USPS COLLECTION BOX - BLUE BOX", "address": {"city": "EVANSVILLE", "state": "IN", "street": "4000 N 1ST AVE", "postcode": "47710"}}},
{"geometry": {"type": "Point", "coordinates": [-87.5328743622, 37.9844814042]}, "type": "Feature", "properties": {"collection_times": [{"days": "Mon-Sat", "time": "1:00pm"}, {"days": "Sun", "time": "Closed"}], "id": "4771100004", "name": "USPS COLLECTION BOX - BLUE BOX", "address": {"city": "EVANSVILLE", "state": "IN", "street": "1701 E COLUMBIA ST", "postcode": "47711"}}},
{"geometry": {"type": "Point", "coordinates": [-87.5549409228, 37.9995527354]}, "type": "Feature", "properties": {"collection_times": [{"days": "Mon-Sat", "time": "12:00pm"}, {"days": "Sun", "time": "Closed"}], "id": "4771100005", "name": "USPS COLLECTION BOX - BLUE BOX", "address": {"city": "EVANSVILLE", "state": "IN", "street": "600 E DIAMOND AVE", "postcode": "47711"}}},
{"geometry": {"type": "Point", "coordinates": [-87.5554144946, 37.9995578894]}, "type": "Feature", "properties": {"collection_times": [{"days": "Mon-Sat", "time": "12:00pm"}, {"days": "Sun", "time": "Closed"}], "id": "4771100006", "name": "USPS COLLECTION BOX - BLUE BOX", "address": {"city": "EVANSVILLE", "state": "IN", "street": "600 E DIAMOND AVE", "postcode": "47711"}}},
{"geometry": {"type": "Point", "coordinates": [-87.545795823, 37.9991276192]}, "type": "Feature", "properties": {"collection_times": [{"days": "Mon-Sat", "time": "12:00pm"}, {"days": "Sun", "time": "Closed"}], "id": "4771100008", "name": "USPS COLLECTION BOX - BLUE BOX", "address": {"city": "EVANSVILLE", "state": "IN", "street": "1031 E DIAMOND AVE", "postcode": "47711"}}},
{"geometry": {"type": "Point", "coordinates": [-87.5427153978, 37.9934920027]}, "type": "Feature", "properties": {"collection_times": [{"days": "Mon-Sat", "time": "12:00pm"}, {"days": "Sun", "time": "Closed"}], "id": "4771100009", "name": "USPS COLLECTION BOX - BLUE BOX", "address": {"city": "EVANSVILLE", "state": "IN", "street": "1718 N FARES AVE", "postcode": "47711"}}},
{"geometry": {"type": "Point", "coordinates": [-87.5427153978, 37.9934920027]}, "type": "Feature", "properties": {"collection_times": [{"days": "Mon-Sat", "time": "12:00pm"}, {"days": "Sun", "time": "Closed"}], "id": "4771100010", "name": "USPS COLLECTION BOX - BLUE BOX", "address": {"city": "EVANSVILLE", "state": "IN", "street": "1718 N FARES AVE", "postcode": "47711"}}},
{"geometry": {"type": "Point", "coordinates": [-87.539711865, 37.9982782546]}, "type": "Feature", "properties": {"collection_times": [{"days": "Mon-Sat", "time": "12:00pm"}, {"days": "Sun", "time": "Closed"}], "id": "4771100012", "name": "USPS COLLECTION BOX - BLUE BOX", "address": {"city": "EVANSVILLE", "state": "IN", "street": "2230 N FARES AVE", "postcode": "47711"}}},
{"geometry": {"type": "Point", "coordinates": [-87.539711865, 37.9982782546]}, "type": "Feature", "properties": {"collection_times": [{"days": "Mon-Sat", "time": "12:00pm"}, {"days": "Sun", "time": "Closed"}], "id": "4771100014", "name": "USPS COLLECTION BOX - BLUE BOX", "address": {"city": "EVANSVILLE", "state": "IN", "street": "2230 N FARES AVE", "postcode": "47711"}}},
{"geometry": {"type": "Point", "coordinates": [-87.5057952485, 38.0659884599]}, "type": "Feature", "properties": {"collection_times": [{"days": "Mon-Sat", "time": "3:00pm"}, {"days": "Sun", "time": "Closed"}], "id": "4771100017", "name": "USPS COLLECTION BOX - BLUE BOX", "address": {"city": "EVANSVILLE", "state": "IN", "street": "9634 HEDDEN RD", "postcode": "47711"}}},
{"geometry": {"type": "Point", "coordinates": [-87.5148176765, 38.0133148461]}, "type": "Feature", "properties": {"collection_times": [{"days": "Mon-Sat", "time": "12:00pm"}, {"days": "Sun", "time": "Closed"}], "id": "4771100022", "name": "USPS COLLECTION BOX - BLUE BOX", "address": {"city": "EVANSVILLE", "state": "IN", "street": "2800 LYNCH RD", "postcode": "47711"}}},
{"geometry": {"type": "Point", "coordinates": [-87.5731505661, 37.9705260373]}, "type": "Feature", "properties": {"collection_times": [{"days": "Mon-Sat", "time": "2:00pm"}, {"days": "Sun", "time": "Closed"}], "id": "4771100023", "name": "USPS COLLECTION BOX - BLUE BOX", "address": {"city": "EVANSVILLE", "state": "IN", "street": "200 N MAIN ST", "postcode": "47711"}}},
{"geometry": {"type": "Point", "coordinates": [-87.5638714359, 37.9848504874]}, "type": "Feature", "properties": {"collection_times": [{"days": "Mon-Sat", "time": "2:00pm"}, {"days": "Sun", "time": "Closed"}], "id": "4771100025", "name": "USPS COLLECTION BOX - BLUE BOX", "address": {"city": "EVANSVILLE", "state": "IN", "street": "801 N MAIN ST", "postcode": "47711"}}},
{"geometry": {"type": "Point", "coordinates": [-87.5272674033, 37.9917206043]}, "type": "Feature", "properties": {"collection_times": [{"days": "Mon-Sat", "time": "1:00pm"}, {"days": "Sun", "time": "Closed"}], "id": "4771100028", "name": "USPS COLLECTION BOX - BLUE BOX", "address": {"city": "EVANSVILLE", "state": "IN", "street": "2040 E MORGAN AVE", "postcode": "47711"}}},
{"geometry": {"type": "Point", "coordinates": [-87.5442875503, 38.0575634261]}, "type": "Feature", "properties": {"collection_times": [{"days": "Mon-Sat", "time": "2:00pm"}, {"days": "Sun", "time": "Closed"}], "id": "4771100029", "name": "USPS COLLECTION BOX - BLUE BOX", "address": {"city": "EVANSVILLE", "state": "IN", "street": "1033 E MOUNT PLEASANT RD", "postcode": "47711"}}},
{"geometry": {"type": "Point", "coordinates": [-87.5099722766, 38.0143463863]}, "type": "Feature", "properties": {"collection_times": [{"days": "Mon-Sat", "time": "12:00pm"}, {"days": "Sun", "time": "Closed"}], "id": "4771100030", "name": "USPS COLLECTION BOX - BLUE BOX", "address": {"city": "EVANSVILLE", "state": "IN", "street": "3222 MARINER DR", "postcode": "47711"}}},
{"geometry": {"type": "Point", "coordinates": [-87.5340003913, 37.9802808098]}, "type": "Feature", "properties": {"collection_times": [{"days": "Mon-Sat", "time": "1:00pm"}, {"days": "Sun", "time": "Closed"}], "id": "4771100033", "name": "USPS COLLECTION BOX - BLUE BOX", "address": {"city": "EVANSVILLE", "state": "IN", "street": "300 N ROTHERWOOD AVE", "postcode": "47711"}}},
{"geometry": {"type": "Point", "coordinates": [-87.5538730123, 38.0033176541]}, "type": "Feature", "properties": {"collection_times": [{"days": "Mon-Sat", "time": "2:00pm"}, {"days": "Sun", "time": "Closed"}], "id": "4771100035", "name": "USPS COLLECTION BOX - BLUE BOX", "address": {"city": "EVANSVILLE", "state": "IN", "street": "2587 STRINGTOWN RD", "postcode": "47711"}}},
{"geometry": {"type": "Point", "coordinates": [-87.5621017293, 38.033552908]}, "type": "Feature", "properties": {"collection_times": [{"days": "Mon-Sat", "time": "2:00pm"}, {"days": "Sun", "time": "Closed"}], "id": "4771100036", "name": "USPS COLLECTION BOX - BLUE BOX", "address": {"city": "EVANSVILLE", "state": "IN", "street": "5817 STRINGTOWN RD", "postcode": "47711"}}},
{"geometry": {"type": "Point", "coordinates": [-87.5409986671, 38.0404619384]}, "type": "Feature", "properties": {"collection_times": [{"days": "Mon-Sat", "time": "3:00pm"}, {"days": "Sun", "time": "Closed"}], "id": "4771100040", "name": "USPS COLLECTION BOX - BLUE BOX", "address": {"city": "EVANSVILLE", "state": "IN", "street": "6801 HIGHWAY 41 N", "postcode": "47711"}}},
{"geometry": {"type": "Point", "coordinates": [-87.5574521839, 37.9818112335]}, "type": "Feature", "properties": {"collection_times": [{"days": "Mon-Sat", "time": "2:00pm"}, {"days": "Sun", "time": "Closed"}], "id": "4771100041", "name": "USPS COLLECTION BOX - BLUE BOX", "address": {"city": "EVANSVILLE", "state": "IN", "street": "523 E VIRGINIA ST", "postcode": "47711"}}},
{"geometry": {"type": "Point", "coordinates": [-87.5293361319, 37.9792160539]}, "type": "Feature", "properties": {"collection_times": [{"days": "Mon-Sat", "time": "1:00pm"}, {"days": "Sun", "time": "Closed"}], "id": "4771100046", "name": "USPS COLLECTION BOX - BLUE BOX", "address": {"city": "EVANSVILLE", "state": "IN", "street": "125 N WEINBACH AVE", "postcode": "47711"}}},
{"geometry": {"type": "Point", "coordinates": [-87.5293396808, 37.9831671368]}, "type": "Feature", "properties": {"collection_times": [{"days": "Mon-Sat", "time": "1:00pm"}, {"days": "Sun", "time": "Closed"}], "id": "4771100047", "name": "USPS COLLECTION BOX - BLUE BOX", "address": {"city": "EVANSVILLE", "state": "IN", "street": "600 N WEINBACH AVE", "postcode": "47711"}}},
{"geometry": {"type": "Point", "coordinates": [-87.5293373149, 37.9835314882]}, "type": "Feature", "properties": {"collection_times": [{"days": "Mon-Sat", "time": "1:00pm"}, {"days": "Sun", "time": "Closed"}], "id": "4771100048", "name": "USPS COLLECTION BOX - BLUE BOX", "address": {"city": "EVANSVILLE", "state": "IN", "street": "701 N WEINBACH AVE", "postcode": "47711"}}},
{"geometry": {"type": "Point", "coordinates": [-87.5278858242, 37.9940562741]}, "type": "Feature", "properties": {"collection_times": [{"days": "Mon-Sat", "time": "1:00pm"}, {"days": "Sun", "time": "Closed"}], "id": "4771100050", "name": "USPS COLLECTION BOX - BLUE BOX", "address": {"city": "EVANSVILLE", "state": "IN", "street": "2015 MAXWELL AVE", "postcode": "47711"}}},
{"geometry": {"type": "Point", "coordinates": [-87.5561680072, 38.0921921839]}, "type": "Feature", "properties": {"collection_times": [{"days": "Mon-Sat", "time": "2:00pm"}, {"days": "Sun", "time": "Closed"}], "id": "4771100052", "name": "USPS COLLECTION BOX - BLUE BOX", "address": {"city": "EVANSVILLE", "state": "IN", "street": "12500 HIGHWAY 41 N", "postcode": "47711"}}},
{"geometry": {"type": "Point", "coordinates": [-87.5200889417, 37.9881592237]}, "type": "Feature", "properties": {"collection_times": [{"days": "Mon-Sat", "time": "1:00pm"}, {"days": "Sun", "time": "Closed"}], "id": "4771100053", "name": "USPS COLLECTION BOX - BLUE BOX", "address": {"city": "EVANSVILLE", "state": "IN", "street": "1200 N BOEKE RD", "postcode": "47711"}}},
{"geometry": {"type": "Point", "coordinates": [-87.6099564917, 37.9722026522]}, "type": "Feature", "properties": {"collection_times": [{"days": "Mon-Sat", "time": "12:00pm"}, {"days": "Sun", "time": "Closed"}], "id": "4771200000", "name": "USPS COLLECTION BOX - BLUE BOX", "address": {"city": "EVANSVILLE", "state": "IN", "street": "405 S BARKER AVE", "postcode": "47712"}}},
{"geometry": {"type": "Point", "coordinates": [-87.6085082454, 37.983154997]}, "type": "Feature", "properties": {"collection_times": [{"days": "Mon-Sat", "time": "12:00pm"}, {"days": "Sun", "time": "Closed"}], "id": "4771200017", "name": "USPS COLLECTION BOX - BLUE BOX", "address": {"city": "EVANSVILLE", "state": "IN", "street": "2831 MOUNT VERNON AVE", "postcode": "47712"}}},
{"geometry": {"type": "Point", "coordinates": [-87.629406372, 37.9775262023]}, "type": "Feature", "properties": {"collection_times": [{"days": "Mon-Sat", "time": "12:00pm"}, {"days": "Sun", "time": "Closed"}], "id": "4771200022", "name": "USPS COLLECTION BOX - BLUE BOX", "address": {"city": "EVANSVILLE", "state": "IN", "street": "4440 HIGHWAY 62", "postcode": "47712"}}},
{"geometry": {"type": "Point", "coordinates": [-87.6620438132, 37.9308231761]}, "type": "Feature", "properties": {"collection_times": [{"days": "Mon-Sat", "time": "12:00pm"}, {"days": "Sun", "time": "Closed"}], "id": "4771200023", "name": "USPS COLLECTION BOX - BLUE BOX", "address": {"city": "EVANSVILLE", "state": "IN", "street": "3025 N SAINT JOSEPH AVE", "postcode": "47712"}}},
{"geometry": {"type": "Point", "coordinates": [-87.6766138698, 37.9662298649]}, "type": "Feature", "properties": {"collection_times": [{"days": "Mon-Sat", "time": "12:00pm"}, {"days": "Sun", "time": "Closed"}], "id": "4771200026", "name": "USPS COLLECTION BOX - BLUE BOX", "address": {"city": "EVANSVILLE", "state": "IN", "street": "8600 UNIVERSITY BLVD", "postcode": "47712"}}},
{"geometry": {"type": "Point", "coordinates": [-87.6490467703, 37.9681824892]}, "type": "Feature", "properties": {"collection_times": [{"days": "Mon-Fri", "time": "4:30pm"}, {"days": "Sat", "time": "12:30pm"}, {"days": "Sun", "time": "Closed"}], "id": "4771200028", "name": "USPS COLLECTION BOX - BLUE BOX", "address": {"city": "EVANSVILLE", "state": "IN", "street": "801 N WABASH AVE", "postcode": "47712"}}},
{"geometry": {"type": "Point", "coordinates": [-87.5968002861, 37.9804527908]}, "type": "Feature", "properties": {"collection_times": [{"days": "Mon-Sat", "time": "12:00pm"}, {"days": "Sun", "time": "Closed"}], "id": "4771200033", "name": "USPS COLLECTION BOX - BLUE BOX", "address": {"city": "EVANSVILLE", "state": "IN", "street": "2124 W FRANKLIN ST", "postcode": "47712"}}},
{"geometry": {"type": "Point", "coordinates": [-87.597308954, 37.9773694549]}, "type": "Feature", "properties": {"collection_times": [{"days": "Mon-Sat", "time": "12:00pm"}, {"days": "Sun", "time": "Closed"}], "id": "4771200034", "name": "USPS COLLECTION BOX - BLUE BOX", "address": {"city": "EVANSVILLE", "state": "IN", "street": "10 S 11TH AVE", "postcode": "47712"}}},
{"geometry": {"type": "Point", "coordinates": [-87.6490467703, 37.9681824892]}, "type": "Feature", "properties": {"collection_times": [{"days": "Mon-Fri", "time": "4:30pm"}, {"days": "Sat", "time": "12:30pm"}, {"days": "Sun", "time": "Closed"}], "id": "4771200036", "name": "USPS COLLECTION BOX - BLUE BOX", "address": {"city": "EVANSVILLE", "state": "IN", "street": "801 N WABASH AVE", "postcode": "47712"}}},
{"geometry": {"type": "Point", "coordinates": [-87.5888163596, 38.0266064431]}, "type": "Feature", "properties": {"collection_times": [{"days": "Mon-Sat", "time": "2:00pm"}, {"days": "Sun", "time": "Closed"}], "id": "4771200038", "name": "USPS COLLECTION BOX - BLUE BOX", "address": {"city": "EVANSVILLE", "state": "IN", "street": "5146 NITTANY WAY", "postcode": "47712"}}},
{"geometry": {"type": "Point", "coordinates": [-87.6287433795, 37.9785949362]}, "type": "Feature", "properties": {"collection_times": [{"days": "Mon-Sat", "time": "12:00pm"}, {"days": "Sun", "time": "Closed"}], "id": "4771200041", "name": "USPS COLLECTION BOX - BLUE BOX", "address": {"city": "EVANSVILLE", "state": "IN", "street": "4551 UNIVERSITY DR", "postcode": "47712"}}},
{"geometry": {"type": "Point", "coordinates": [-87.6409873479, 37.9744108746]}, "type": "Feature", "properties": {"collection_times": [{"days": "Mon-Sat", "time": "12:00pm"}, {"days": "Sun", "time": "Closed"}], "id": "4771200043", "name": "USPS COLLECTION BOX - BLUE BOX", "address": {"city": "EVANSVILLE", "state": "IN", "street": "5405 PEARL DR", "postcode": "47712"}}},
{"geometry": {"type": "Point", "coordinates": [-87.6490467703, 37.9681824892]}, "type": "Feature", "properties": {"collection_times": [{"days": "Mon-Fri", "time": "4:30pm"}, {"days": "Sat", "time": "1:00pm"}, {"days": "Sun", "time": "Closed"}], "id": "4771200047", "name": "USPS COLLECTION BOX - PO LOBBY", "address": {"city": "EVANSVILLE", "state": "IN", "street": "801 N WABASH AVE", "postcode": "47712"}}},
{"geometry": {"type": "Point", "coordinates": [-87.5709389417, 37.9717172322]}, "type": "Feature", "properties": {"collection_times": [{"days": "Mon-Fri", "time": "1:00pm"}, {"days": "Sat-Sun", "time": "Closed"}], "id": "4771300009", "name": "USPS COLLECTION BOX - BLUE BOX", "address": {"city": "EVANSVILLE", "state": "IN", "street": "420 MAIN ST", "postcode": "47713"}}},
{"geometry": {"type": "Point", "coordinates": [-87.5639719874, 37.9787121134]}, "type": "Feature", "properties": {"collection_times": [{"days": "Mon-Fri", "time": "1:00pm"}, {"days": "Sat-Sun", "time": "Closed"}], "id": "4771300013", "name": "USPS COLLECTION BOX - BLUE BOX", "address": {"city": "EVANSVILLE", "state": "IN", "street": "110 MAIN ST", "postcode": "47713"}}},
{"geometry": {"type": "Point", "coordinates": [-87.5716907947, 37.9722318642]}, "type": "Feature", "properties": {"collection_times": [{"days": "Mon-Fri", "time": "1:00pm"}, {"days": "Sat-Sun", "time": "Closed"}], "id": "4771300015", "name": "USPS COLLECTION BOX - BLUE BOX", "address": {"city": "EVANSVILLE", "state": "IN", "street": "20 NW 4TH ST", "postcode": "47713"}}},
{"geometry": {"type": "Point", "coordinates": [-87.5723579836, 37.9730906923]}, "type": "Feature", "properties": {"collection_times": [{"days": "Mon-Fri", "time": "1:00pm"}, {"days": "Sat-Sun", "time": "Closed"}], "id": "4771300016", "name": "USPS COLLECTION BOX - BLUE BOX", "address": {"city": "EVANSVILLE", "state": "IN", "street": "123 NW 4TH ST", "postcode": "47713"}}},
{"geometry": {"type": "Point", "coordinates": [-87.5698903312, 37.9721786313]}, "type": "Feature", "properties": {"collection_times": [{"days": "Mon-Fri", "time": "1:00pm"}, {"days": "Sat-Sun", "time": "Closed"}], "id": "4771300029", "name": "USPS COLLECTION BOX - BLUE BOX", "address": {"city": "EVANSVILLE", "state": "IN", "street": "501 MAIN ST", "postcode": "47713"}}},
{"geometry": {"type": "Point", "coordinates": [-87.5516858847, 37.9753595775]}, "type": "Feature", "properties": {"collection_times": [{"days": "Mon-Fri", "time": "2:00pm"}, {"days": "Sat-Sun", "time": "Closed"}], "id": "4771300031", "name": "USPS COLLECTION BOX - BLUE BOX", "address": {"city": "EVANSVILLE", "state": "IN", "street": "825 SYCAMORE ST", "postcode": "47713"}}},
{"geometry": {"type": "Point", "coordinates": [-87.574005, 37.97141]}, "type": "Feature", "properties": {"collection_times": [{"days": "Mon-Fri", "time": "1:00pm"}, {"days": "Sat-Sun", "time": "Closed"}], "id": "4771300035", "name": "USPS COLLECTION BOX - BLUE BOX", "address": {"city": "EVANSVILLE", "state": "IN", "street": "101 NW 2ND ST", "postcode": "47713"}}},
{"geometry": {"type": "Point", "coordinates": [-87.567992865, 37.9733923469]}, "type": "Feature", "properties": {"collection_times": [{"days": "Mon-Fri", "time": "2:00pm"}, {"days": "Sat-Sun", "time": "Closed"}], "id": "4771300036", "name": "USPS COLLECTION BOX - BLUE BOX", "address": {"city": "EVANSVILLE", "state": "IN", "street": "1 NW MARTIN LUTHER KING JR BLVD", "postcode": "47713"}}},
{"geometry": {"type": "Point", "coordinates": [-87.5483426302, 37.9733117345]}, "type": "Feature", "properties": {"collection_times": [{"days": "Mon-Fri", "time": "1:00pm"}, {"days": "Sat-Sun", "time": "Closed"}], "id": "4771300048", "name": "USPS COLLECTION BOX - BLUE BOX", "address": {"city": "EVANSVILLE", "state": "IN", "street": "20 WALNUT CTR", "postcode": "47713"}}},
{"geometry": {"type": "Point", "coordinates": [-87.5486052045, 37.9627735255]}, "type": "Feature", "properties": {"collection_times": [{"days": "Mon-Fri", "time": "1:00pm"}, {"days": "Sat-Sun", "time": "Closed"}], "id": "4771300050", "name": "USPS COLLECTION BOX - BLUE BOX", "address": {"city": "EVANSVILLE", "state": "IN", "street": "961 WASHINGTON AVE", "postcode": "47713"}}},
{"geometry": {"type": "Point", "coordinates": [-87.566924653, 37.9701451245]}, "type": "Feature", "properties": {"collection_times": [{"days": "Mon-Fri", "time": "1:00pm"}, {"days": "Sat-Sun", "time": "Closed"}], "id": "4771300054", "name": "USPS COLLECTION BOX - BLUE BOX", "address": {"city": "EVANSVILLE", "state": "IN", "street": "421 CHESTNUT ST", "postcode": "47713"}}},
{"geometry": {"type": "Point", "coordinates": [-87.5638536913, 37.9862534764]}, "type": "Feature", "properties": {"collection_times": [{"days": "Mon-Fri", "time": "2:00pm"}, {"days": "Sat-Sun", "time": "Closed"}], "id": "4771300055", "name": "USPS COLLECTION BOX - BLUE BOX", "address": {"city": "EVANSVILLE", "state": "IN", "street": "915 MAIN ST", "postcode": "47713"}}},
{"geometry": {"type": "Point", "coordinates": [-87.5681228888, 37.9754038472]}, "type": "Feature", "properties": {"collection_times": [{"days": "Mon-Fri", "time": "5:30pm"}, {"days": "Sat", "time": "5:00pm"}, {"days": "Sun", "time": "Closed"}], "id": "4771300062", "name": "USPS COLLECTION BOX - BLUE BOX", "address": {"city": "EVANSVILLE", "state": "IN", "street": "801 VINE ST", "postcode": "47713"}}},
{"geometry": {"type": "Point", "coordinates": [-87.5513043081, 37.9754782098]}, "type": "Feature", "properties": {"collection_times": [{"days": "Mon-Fri", "time": "4:30pm"}, {"days": "Sat-Sun", "time": "Closed"}], "id": "4771300063", "name": "USPS COLLECTION BOX - PO LOBBY", "address": {"city": "EVANSVILLE", "state": "IN", "street": "800 SYCAMORE ST", "postcode": "47713"}}},
{"geometry": {"type": "Point", "coordinates": [-87.5603999681, 37.9638331387]}, "type": "Feature", "properties": {"collection_times": [{"days": "Mon-Fri", "time": "1:00pm"}, {"days": "Sat-Sun", "time": "Closed"}], "id": "4771300064", "name": "USPS COLLECTION BOX - BLUE BOX", "address": {"city": "EVANSVILLE", "state": "IN", "street": "20 NW 3RD ST", "postcode": "47713"}}},
{"geometry": {"type": "Point", "coordinates": [-87.5716907947, 37.9722318642]}, "type": "Feature", "properties": {"collection_times": [{"days": "Mon-Fri", "time": "1:00pm"}, {"days": "Sat-Sun", "time": "Closed"}], "id": "4771300071", "name": "USPS COLLECTION BOX - BLUE BOX", "address": {"city": "EVANSVILLE", "state": "IN", "street": "20 NW 4TH ST", "postcode": "47713"}}},
{"geometry": {"type": "Point", "coordinates": [-87.5603999681, 37.9638331387]}, "type": "Feature", "properties": {"collection_times": [{"days": "Mon-Fri", "time": "1:00pm"}, {"days": "Sat-Sun", "time": "Closed"}], "id": "4771300075", "name": "USPS COLLECTION BOX - BLUE BOX", "address": {"city": "EVANSVILLE", "state": "IN", "street": "21 SE 3RD ST", "postcode": "47713"}}},
{"geometry": {"type": "Point", "coordinates": [-87.5753599239, 37.9693417218]}, "type": "Feature", "properties": {"collection_times": [{"days": "Mon-Fri", "time": "1:00pm"}, {"days": "Sat-Sun", "time": "Closed"}], "id": "4771300080", "name": "USPS COLLECTION BOX - BLUE BOX", "address": {"city": "EVANSVILLE", "state": "IN", "street": "1 MAIN ST", "postcode": "47713"}}},
{"geometry": {"type": "Point", "coordinates": [-87.5639719874, 37.9787121134]}, "type": "Feature", "properties": {"collection_times": [{"days": "Mon-Fri", "time": "1:00pm"}, {"days": "Sat-Sun", "time": "Closed"}], "id": "4771300086", "name": "USPS COLLECTION BOX - BLUE BOX", "address": {"city": "EVANSVILLE", "state": "IN", "street": "110 MAIN ST", "postcode": "47713"}}},
{"geometry": {"type": "Point", "coordinates": [-87.5655666161, 37.9703367639]}, "type": "Feature", "properties": {"collection_times": [{"days": "Mon-Fri", "time": "1:00pm"}, {"days": "Sat-Sun", "time": "Closed"}], "id": "4771300087", "name": "USPS COLLECTION BOX - BLUE BOX", "address": {"city": "EVANSVILLE", "state": "IN", "street": "315 SE MARTIN LUTHER KING JR BLVD", "postcode": "47713"}}},
{"geometry": {"type": "Point", "coordinates": [-87.5681228888, 37.9754038472]}, "type": "Feature", "properties": {"collection_times": [{"days": "Mon-Fri", "time": "5:30pm"}, {"days": "Sat", "time": "5:00pm"}, {"days": "Sun", "time": "Closed"}], "id": "4771300088", "name": "USPS COLLECTION BOX - BLUE BOX", "address": {"city": "EVANSVILLE", "state": "IN", "street": "801 VINE ST", "postcode": "47713"}}},
{"geometry": {"type": "Point", "coordinates": [-87.5603999681, 37.9638331387]}, "type": "Feature", "properties": {"collection_times": [{"days": "Mon-Fri", "time": "1:00pm"}, {"days": "Sat-Sun", "time": "Closed"}], "id": "4771300091", "name": "USPS COLLECTION BOX - BLUE BOX", "address": {"city": "EVANSVILLE", "state": "IN", "street": "329 MAIN ST", "postcode": "47713"}}},
{"geometry": {"type": "Point", "coordinates": [-87.524663444, 37.9669416717]}, "type": "Feature", "properties": {"collection_times": [{"days": "Mon-Sat", "time": "12:00pm"}, {"days": "Sun", "time": "Closed"}], "id": "4771400000", "name": "USPS COLLECTION BOX - BLUE BOX", "address": {"city": "EVANSVILLE", "state": "IN", "street": "751 S ALVORD BLVD", "postcode": "47714"}}},
{"geometry": {"type": "Point", "coordinates": [-87.5043047202, 37.9675319682]}, "type": "Feature", "properties": {"collection_times": [{"days": "Mon-Sat", "time": "12:00pm"}, {"days": "Sun", "time": "Closed"}], "id": "4771400003", "name": "USPS COLLECTION BOX - BLUE BOX", "address": {"city": "EVANSVILLE", "state": "IN", "street": "3700 BELLEMEADE AVE", "postcode": "47714"}}},
{"geometry": {"type": "Point", "coordinates": [-87.5202486411, 37.9444027545]}, "type": "Feature", "properties": {"collection_times": [{"days": "Mon-Sat", "time": "12:00pm"}, {"days": "Sun", "time": "Closed"}], "id": "4771400004", "name": "USPS COLLECTION BOX - BLUE BOX", "address": {"city": "EVANSVILLE", "state": "IN", "street": "2400 E RIVERSIDE DR", "postcode": "47714"}}},
{"geometry": {"type": "Point", "coordinates": [-87.5113113862, 37.9514543729]}, "type": "Feature", "properties": {"collection_times": [{"days": "Mon-Sat", "time": "12:00pm"}, {"days": "Sun", "time": "Closed"}], "id": "4771400006", "name": "USPS COLLECTION BOX - BLUE BOX", "address": {"city": "EVANSVILLE", "state": "IN", "street": "1800 VANN AVE", "postcode": "47714"}}},
{"geometry": {"type": "Point", "coordinates": [-87.5199088618, 37.9573634255]}, "type": "Feature", "properties": {"collection_times": [{"days": "Mon-Sat", "time": "1:00pm"}, {"days": "Sun", "time": "Closed"}], "id": "4771400011", "name": "USPS COLLECTION BOX - BLUE BOX", "address": {"city": "EVANSVILLE", "state": "IN", "street": "1551 S GREEN RIVER RD", "postcode": "47714"}}},
{"geometry": {"type": "Point", "coordinates": [-87.4939052149, 37.9425795344]}, "type": "Feature", "properties": {"collection_times": [{"days": "Mon-Sat", "time": "1:00pm"}, {"days": "Sun", "time": "Closed"}], "id": "4771400012", "name": "USPS COLLECTION BOX - BLUE BOX", "address": {"city": "EVANSVILLE", "state": "IN", "street": "2519 WILMINGTON CT", "postcode": "47714"}}},
{"geometry": {"type": "Point", "coordinates": [-87.5298990793, 37.9479530927]}, "type": "Feature", "properties": {"collection_times": [{"days": "Mon-Sat", "time": "12:00pm"}, {"days": "Sun", "time": "Closed"}], "id": "4771400024", "name": "USPS COLLECTION BOX - BLUE BOX", "address": {"city": "EVANSVILLE", "state": "IN", "street": "2131 S WEINBACH AVE", "postcode": "47714"}}},
{"geometry": {"type": "Point", "coordinates": [-87.5112015692, 37.9563139649]}, "type": "Feature", "properties": {"collection_times": [{"days": "Mon-Sat", "time": "12:00pm"}, {"days": "Sun", "time": "Closed"}], "id": "4771400029", "name": "USPS COLLECTION BOX - BLUE BOX", "address": {"city": "EVANSVILLE", "state": "IN", "street": "1520 VANN AVE", "postcode": "47714"}}},
{"geometry": {"type": "Point", "coordinates": [-87.5159994525, 37.9734231038]}, "type": "Feature", "properties": {"collection_times": [{"days": "Mon-Sat", "time": "1:00pm"}, {"days": "Sun", "time": "Closed"}], "id": "4771400031", "name": "USPS COLLECTION BOX - BLUE BOX", "address": {"city": "EVANSVILLE", "state": "IN", "street": "2701 E WALNUT ST", "postcode": "47714"}}},
{"geometry": {"type": "Point", "coordinates": [-87.5050417036, 37.962405024]}, "type": "Feature", "properties": {"collection_times": [{"days": "Mon-Sat", "time": "12:00pm"}, {"days": "Sun", "time": "Closed"}], "id": "4771400034", "name": "USPS COLLECTION BOX - BLUE BOX", "address": {"city": "EVANSVILLE", "state": "IN", "street": "3700 WASHINGTON AVE", "postcode": "47714"}}},
{"geometry": {"type": "Point", "coordinates": [-87.5307627804, 37.9627078615]}, "type": "Feature", "properties": {"collection_times": [{"days": "Mon-Fri", "time": "4:30pm"}, {"days": "Sat", "time": "1:00pm"}, {"days": "Sun", "time": "Closed"}], "id": "4771400040", "name": "USPS COLLECTION BOX - BLUE BOX", "address": {"city": "EVANSVILLE", "state": "IN", "street": "1915 WASHINGTON AVE", "postcode": "47714"}}},
{"geometry": {"type": "Point", "coordinates": [-87.4958607591, 37.9623908285]}, "type": "Feature", "properties": {"collection_times": [{"days": "Mon-Sat", "time": "1:00pm"}, {"days": "Sun", "time": "Closed"}], "id": "4771400041", "name": "USPS COLLECTION BOX - BLUE BOX", "address": {"city": "EVANSVILLE", "state": "IN", "street": "4500 WASHINGTON AVE", "postcode": "47714"}}},
{"geometry": {"type": "Point", "coordinates": [-87.532226362, 37.9734287162]}, "type": "Feature", "properties": {"collection_times": [{"days": "Mon-Sat", "time": "12:00pm"}, {"days": "Sun", "time": "Closed"}], "id": "4771400042", "name": "USPS COLLECTION BOX - BLUE BOX", "address": {"city": "EVANSVILLE", "state": "IN", "street": "1801 E WALNUT ST", "postcode": "47714"}}},
{"geometry": {"type": "Point", "coordinates": [-87.5307627804, 37.9627078615]}, "type": "Feature", "properties": {"collection_times": [{"days": "Mon-Fri", "time": "4:30pm"}, {"days": "Sat", "time": "1:00pm"}, {"days": "Sun", "time": "Closed"}], "id": "4771400047", "name": "USPS COLLECTION BOX - BLUE BOX", "address": {"city": "EVANSVILLE", "state": "IN", "street": "1915 WASHINGTON AVE", "postcode": "47714"}}},
{"geometry": {"type": "Point", "coordinates": [-87.5398088676, 37.955545045]}, "type": "Feature", "properties": {"collection_times": [{"days": "Mon-Sat", "time": "12:00pm"}, {"days": "Sun", "time": "Closed"}], "id": "4771400052", "name": "USPS COLLECTION BOX - BLUE BOX", "address": {"city": "EVANSVILLE", "state": "IN", "street": "1365 COVERT AVE", "postcode": "47714"}}},
{"geometry": {"type": "Point", "coordinates": [-87.503697683, 37.967321301]}, "type": "Feature", "properties": {"collection_times": [{"days": "Mon-Sat", "time": "12:00pm"}, {"days": "Sun", "time": "Closed"}], "id": "4771400054", "name": "USPS COLLECTION BOX - BLUE BOX", "address": {"city": "EVANSVILLE", "state": "IN", "street": "3801 BELLEMEADE AVE", "postcode": "47714"}}},
{"geometry": {"type": "Point", "coordinates": [-87.487505479, 37.9853316847]}, "type": "Feature", "properties": {"collection_times": [{"days": "Mon-Sat", "time": "2:00pm"}, {"days": "Sun", "time": "Closed"}], "id": "4771500002", "name": "USPS COLLECTION BOX - BLUE BOX", "address": {"city": "EVANSVILLE", "state": "IN", "street": "5200 CARRIAGE DR", "postcode": "47715"}}},
{"geometry": {"type": "Point", "coordinates": [-87.4526554816, 37.9695205657]}, "type": "Feature", "properties": {"collection_times": [{"days": "Mon-Sat", "time": "12:00pm"}, {"days": "Sun", "time": "Closed"}], "id": "4771500005", "name": "USPS COLLECTION BOX - BLUE BOX", "address": {"city": "EVANSVILLE", "state": "IN", "street": "8196 LINCOLN AVE", "postcode": "47715"}}},
{"geometry": {"type": "Point", "coordinates": [-87.4592286089, 37.9719087918]}, "type": "Feature", "properties": {"collection_times": [{"days": "Mon-Sat", "time": "12:00pm"}, {"days": "Sun", "time": "Closed"}], "id": "4771500009", "name": "USPS COLLECTION BOX - BLUE BOX", "address": {"city": "EVANSVILLE", "state": "IN", "street": "7724 COVENTRY CT", "postcode": "47715"}}},
{"geometry": {"type": "Point", "coordinates": [-87.4927531259, 37.9840413435]}, "type": "Feature", "properties": {"collection_times": [{"days": "Mon-Fri", "time": "3:00pm"}, {"days": "Sat", "time": "1:15pm"}, {"days": "Sun", "time": "Closed"}], "id": "4771500011", "name": "USPS COLLECTION BOX - BLUE BOX", "address": {"city": "EVANSVILLE", "state": "IN", "street": "800 N GREEN RIVER RD", "postcode": "47715"}}},
{"geometry": {"type": "Point", "coordinates": [-87.4795785208, 37.9786930575]}, "type": "Feature", "properties": {"collection_times": [{"days": "Mon-Sat", "time": "2:00pm"}, {"days": "Sun", "time": "Closed"}], "id": "4771500013", "name": "USPS COLLECTION BOX - BLUE BOX", "address": {"city": "EVANSVILLE", "state": "IN", "street": "3201 N GREEN RIVER RD", "postcode": "47715"}}},
{"geometry": {"type": "Point", "coordinates": [-87.4506741752, 37.969525025]}, "type": "Feature", "properties": {"collection_times": [{"days": "Mon-Sat", "time": "12:00pm"}, {"days": "Sun", "time": "Closed"}], "id": "4771500019", "name": "USPS COLLECTION BOX - BLUE BOX", "address": {"city": "EVANSVILLE", "state": "IN", "street": "8416 LINCOLN AVE", "postcode": "47715"}}},
{"geometry": {"type": "Point", "coordinates": [-87.4838768768, 37.9507531028]}, "type": "Feature", "properties": {"collection_times": [{"days": "Mon-Sat", "time": "1:00pm"}, {"days": "Sun", "time": "Closed"}], "id": "4771500024", "name": "USPS COLLECTION BOX - BLUE BOX", "address": {"city": "EVANSVILLE", "state": "IN", "street": "1980 SHOSHONI LN", "postcode": "47715"}}},
{"geometry": {"type": "Point", "coordinates": [-87.4917065943, 38.0004448144]}, "type": "Feature", "properties": {"collection_times": [{"days": "Mon-Sat", "time": "2:00pm"}, {"days": "Sun", "time": "Closed"}], "id": "4771500026", "name": "USPS COLLECTION BOX - BLUE BOX", "address": {"city": "EVANSVILLE", "state": "IN", "street": "4901 SUGAR CREEK DR", "postcode": "47715"}}},
{"geometry": {"type": "Point", "coordinates": [-87.504326492, 37.9914101639]}, "type": "Feature", "properties": {"collection_times": [{"days": "Mon-Sat", "time": "1:00pm"}, {"days": "Sun", "time": "Closed"}], "id": "4771500027", "name": "USPS COLLECTION BOX - BLUE BOX", "address": {"city": "EVANSVILLE", "state": "IN", "street": "3800 E MORGAN AVE", "postcode": "47715"}}},
{"geometry": {"type": "Point", "coordinates": [-87.4873590384, 37.9579005909]}, "type": "Feature", "properties": {"collection_times": [{"days": "Mon-Sat", "time": "1:00pm"}, {"days": "Sun", "time": "Closed"}], "id": "4771500028", "name": "USPS COLLECTION BOX - BLUE BOX", "address": {"city": "EVANSVILLE", "state": "IN", "street": "5301 STONEHEDGE DR", "postcode": "47715"}}},
{"geometry": {"type": "Point", "coordinates": [-87.4948942816, 37.98760205]}, "type": "Feature", "properties": {"collection_times": [{"days": "Mon-Sat", "time": "2:00pm"}, {"days": "Sun", "time": "Closed"}], "id": "4771500031", "name": "USPS COLLECTION BOX - BLUE BOX", "address": {"city": "EVANSVILLE", "state": "IN", "street": "4600 VOGEL RD", "postcode": "47715"}}},
{"geometry": {"type": "Point", "coordinates": [-87.4696653158, 37.962145956]}, "type": "Feature", "properties": {"collection_times": [{"days": "Mon-Sat", "time": "1:00pm"}, {"days": "Sun", "time": "Closed"}], "id": "4771500033", "name": "USPS COLLECTION BOX - BLUE BOX", "address": {"city": "EVANSVILLE", "state": "IN", "street": "6720 WASHINGTON AVE", "postcode": "47715"}}},
{"geometry": {"type": "Point", "coordinates": [-87.4772532959, 37.99696484]}, "type": "Feature", "properties": {"collection_times": [{"days": "Mon-Sat", "time": "12:00pm"}, {"days": "Sun", "time": "Closed"}], "id": "4771500034", "name": "USPS COLLECTION BOX - BLUE BOX", "address": {"city": "EVANSVILLE", "state": "IN", "street": "6050 WEDEKING AVE", "postcode": "47715"}}},
{"geometry": {"type": "Point", "coordinates": [-87.4757930432, 37.9752330311]}, "type": "Feature", "properties": {"collection_times": [{"days": "Mon-Sat", "time": "1:00pm"}, {"days": "Sun", "time": "Closed"}], "id": "4771500035", "name": "USPS COLLECTION BOX - BLUE BOX", "address": {"city": "EVANSVILLE", "state": "IN", "street": "100 WILLIAMSBURG DR", "postcode": "47715"}}},
{"geometry": {"type": "Point", "coordinates": [-87.4795785208, 37.9786930575]}, "type": "Feature", "properties": {"collection_times": [{"days": "Mon-Sat", "time": "12:00pm"}, {"days": "Sun", "time": "Closed"}], "id": "4771500037", "name": "USPS COLLECTION BOX - BLUE BOX", "address": {"city": "EVANSVILLE", "state": "IN", "street": "7100 EAGLE CREST BLVD", "postcode": "47715"}}},
{"geometry": {"type": "Point", "coordinates": [-87.4914452374, 37.979556453]}, "type": "Feature", "properties": {"collection_times": [{"days": "Mon-Sat", "time": "2:00pm"}, {"days": "Sun", "time": "Closed"}], "id": "4771500038", "name": "USPS COLLECTION BOX - BLUE BOX", "address": {"city": "EVANSVILLE", "state": "IN", "street": "4904 PLAZA EAST BLVD", "postcode": "47715"}}},
{"geometry": {"type": "Point", "coordinates": [-87.4906498249, 37.9623174851]}, "type": "Feature", "properties": {"collection_times": [{"days": "Mon-Sat", "time": "1:00pm"}, {"days": "Sun", "time": "Closed"}], "id": "4771500044", "name": "USPS COLLECTION BOX - BLUE BOX", "address": {"city": "EVANSVILLE", "state": "IN", "street": "5011 WASHINGTON AVE", "postcode": "47715"}}},
{"geometry": {"type": "Point", "coordinates": [-87.4755191674, 37.9767847052]}, "type": "Feature", "properties": {"collection_times": [{"days": "Mon-Sat", "time": "1:00pm"}, {"days": "Sun", "time": "Closed"}], "id": "4771500045", "name": "USPS COLLECTION BOX - BLUE BOX", "address": {"city": "EVANSVILLE", "state": "IN", "street": "6328 E LLOYD EXPY", "postcode": "47715"}}},
{"geometry": {"type": "Point", "coordinates": [-87.5002353414, 37.985354428]}, "type": "Feature", "properties": {"collection_times": [{"days": "Mon-Sat", "time": "2:00pm"}, {"days": "Sun", "time": "Closed"}], "id": "4771500046", "name": "USPS COLLECTION BOX - BLUE BOX", "address": {"city": "EVANSVILLE", "state": "IN", "street": "837 N CONGRESS AVE", "postcode": "47715"}}},
{"geometry": {"type": "Point", "coordinates": [-87.4795785208, 37.9786930575]}, "type": "Feature", "properties": {"collection_times": [{"days": "Mon-Sat", "time": "12:00pm"}, {"days": "Sun", "time": "Closed"}], "id": "4771500047", "name": "USPS COLLECTION BOX - BLUE BOX", "address": {"city": "EVANSVILLE", "state": "IN", "street": "7100 EAGLE CREST BLVD", "postcode": "47715"}}},
{"geometry": {"type": "Point", "coordinates": [-87.4925759575, 37.9939611718]}, "type": "Feature", "properties": {"collection_times": [{"days": "Mon-Sat", "time": "2:00pm"}, {"days": "Sun", "time": "Closed"}], "id": "4771500049", "name": "USPS COLLECTION BOX - BLUE BOX", "address": {"city": "EVANSVILLE", "state": "IN", "street": "1900 N GREEN RIVER RD", "postcode": "47715"}}},
{"geometry": {"type": "Point", "coordinates": [-87.4927531259, 37.9840413435]}, "type": "Feature", "properties": {"collection_times": [{"days": "Mon-Fri", "time": "3:00pm"}, {"days": "Sat", "time": "1:15pm"}, {"days": "Sun", "time": "Closed"}], "id": "4771500051", "name": "USPS COLLECTION BOX - BLUE BOX", "address": {"city": "EVANSVILLE", "state": "IN", "street": "800 N GREEN RIVER RD", "postcode": "47715"}}},
{"geometry": {"type": "Point", "coordinates": [-87.4536637554, 37.9562660741]}, "type": "Feature", "properties": {"collection_times": [{"days": "Mon-Sat", "time": "1:00pm"}, {"days": "Sun", "time": "Closed"}], "id": "4771500052", "name": "USPS COLLECTION BOX - BLUE BOX", "address": {"city": "EVANSVILLE", "state": "IN", "street": "8214 RIVER PARK WAY", "postcode": "47715"}}},
{"geometry": {"type": "Point", "coordinates": [-87.4795785208, 37.9786930575]}, "type": "Feature", "properties": {"collection_times": [{"days": "Mon-Fri", "time": "4:30pm"}, {"days": "Sat", "time": "1:00pm"}, {"days": "Sun", "time": "Closed"}], "id": "4771500054", "name": "USPS COLLECTION BOX - BLUE BOX", "address": {"city": "EVANSVILLE", "state": "IN", "street": "802 S GREEN RIVER RD", "postcode": "47715"}}},
{"geometry": {"type": "Point", "coordinates": [-87.4795785208, 37.9786930575]}, "type": "Feature", "properties": {"collection_times": [{"days": "Mon-Fri", "time": "4:30pm"}, {"days": "Sat", "time": "1:00pm"}, {"days": "Sun", "time": "Closed"}], "id": "4771500055", "name": "USPS COLLECTION BOX - BLUE BOX", "address": {"city": "EVANSVILLE", "state": "IN", "street": "802 S GREEN RIVER RD", "postcode": "47715"}}},
{"geometry": {"type": "Point", "coordinates": [-87.4855690161, 37.9877014185]}, "type": "Feature", "properties": {"collection_times": [{"days": "Mon-Sat", "time": "2:00pm"}, {"days": "Sun", "time": "Closed"}], "id": "4771500060", "name": "USPS COLLECTION BOX - BLUE BOX", "address": {"city": "EVANSVILLE", "state": "IN", "street": "5401 VOGEL RD", "postcode": "47715"}}},
{"geometry": {"type": "Point", "coordinates": [-87.4737870962, 38.0105206547]}, "type": "Feature", "properties": {"collection_times": [{"days": "Mon-Sat", "time": "12:00pm"}, {"days": "Sun", "time": "Closed"}], "id": "4771500061", "name": "USPS COLLECTION BOX - BLUE BOX", "address": {"city": "EVANSVILLE", "state": "IN", "street": "3526 N BURKHARDT RD", "postcode": "47715"}}},
{"geometry": {"type": "Point", "coordinates": [-87.4627237126, 37.9786293062]}, "type": "Feature", "properties": {"collection_times": [{"days": "Mon-Sat", "time": "12:00pm"}, {"days": "Sun", "time": "Closed"}], "id": "4771500062", "name": "USPS COLLECTION BOX - BLUE BOX", "address": {"city": "EVANSVILLE", "state": "IN", "street": "130 N CROSS POINTE BLVD", "postcode": "47715"}}},
{"geometry": {"type": "Point", "coordinates": [-87.4777685847, 37.9876339899]}, "type": "Feature", "properties": {"collection_times": [{"days": "Mon-Sat", "time": "2:00pm"}, {"days": "Sun", "time": "Closed"}], "id": "4771500063", "name": "USPS COLLECTION BOX - BLUE BOX", "address": {"city": "EVANSVILLE", "state": "IN", "street": "6209 VOGEL RD", "postcode": "47715"}}},
{"geometry": {"type": "Point", "coordinates": [-87.4921864415, 38.0103516607]}, "type": "Feature", "properties": {"collection_times": [{"days": "Mon-Sat", "time": "2:00pm"}, {"days": "Sun", "time": "Closed"}], "id": "4771500064", "name": "USPS COLLECTION BOX - BLUE BOX", "address": {"city": "EVANSVILLE", "state": "IN", "street": "3501 N GREEN RIVER RD", "postcode": "47715"}}},
{"geometry": {"type": "Point", "coordinates": [-87.4795785208, 37.9786930575]}, "type": "Feature", "properties": {"collection_times": [{"days": "Mon-Fri", "time": "4:30pm"}, {"days": "Sat", "time": "1:00pm"}, {"days": "Sun", "time": "Closed"}], "id": "4771500065", "name": "USPS COLLECTION BOX - APC", "address": {"city": "EVANSVILLE", "state": "IN", "street": "802 S GREEN RIVER RD", "postcode": "47715"}}},
{"geometry": {"type": "Point", "coordinates": [-87.4795785208, 37.9786930575]}, "type": "Feature", "properties": {"collection_times": [{"days": "Mon-Fri", "time": "4:30pm"}, {"days": "Sat", "time": "1:00pm"}, {"days": "Sun", "time": "Closed"}], "id": "4771500069", "name": "USPS COLLECTION BOX - PO LOBBY", "address": {"city": "EVANSVILLE", "state": "IN", "street": "802 S GREEN RIVER RD", "postcode": "47715"}}},
{"geometry": {"type": "Point", "coordinates": [-87.492665078, 37.988281171]}, "type": "Feature", "properties": {"collection_times": [{"days": "Mon-Fri", "time": "4:30pm"}, {"days": "Sat-Sun", "time": "Closed"}], "id": "4771500072", "name": "USPS COLLECTION BOX - PO LOBBY", "address": {"city": "EVANSVILLE", "state": "IN", "street": "1310 N GREEN RIVER RD", "postcode": "47715"}}}
]}
