{"type": "FeatureCollection", "features": [
{"geometry": {"type": "Point", "coordinates": [-87.406841644, 39.433671206]}, "type": "Feature", "properties": {"collection_times": [{"days": "Mon-Sat", "time": "1:00pm"}, {"days": "Sun", "time": "Closed"}], "id": "4780200034", "name": "USPS COLLECTION BOX - BLUE BOX", "address": {"city": "TERRE HAUTE", "state": "IN", "street": "3001 S 7TH ST", "postcode": "47802"}}},
{"geometry": {"type": "Point", "coordinates": [-87.4068900902, 39.4112692324]}, "type": "Feature", "properties": {"collection_times": [{"days": "Mon-Sat", "time": "1:30pm"}, {"days": "Sun", "time": "Closed"}], "id": "4780200036", "name": "USPS COLLECTION BOX - BLUE BOX", "address": {"city": "TERRE HAUTE", "state": "IN", "street": "4601 S 7TH ST", "postcode": "47802"}}},
{"geometry": {"type": "Point", "coordinates": [-87.4026059863, 39.4004642067]}, "type": "Feature", "properties": {"collection_times": [{"days": "Mon-Sat", "time": "2:00pm"}, {"days": "Sun", "time": "Closed"}], "id": "4780200037", "name": "USPS COLLECTION BOX - BLUE BOX", "address": {"city": "TERRE HAUTE", "state": "IN", "street": "5555 S US HIGHWAY 41", "postcode": "47802"}}},
{"geometry": {"type": "Point", "coordinates": [-87.4160106668, 39.4268140378]}, "type": "Feature", "properties": {"collection_times": [{"days": "Mon-Sat", "time": "1:00pm"}, {"days": "Sun", "time": "Closed"}], "id": "4780200039", "name": "USPS COLLECTION BOX - BLUE BOX", "address": {"city": "TERRE HAUTE", "state": "IN", "street": "3401 S US HIGHWAY 41", "postcode": "47802"}}},
{"geometry": {"type": "Point", "coordinates": [-87.4128063931, 39.4103988474]}, "type": "Feature", "properties": {"collection_times": [{"days": "Mon-Sat", "time": "1:30pm"}, {"days": "Sun", "time": "Closed"}], "id": "4780200061", "name": "USPS COLLECTION BOX - BLUE BOX", "address": {"city": "TERRE HAUTE", "state": "IN", "street": "4651 S US HIGHWAY 41", "postcode": "47802"}}},
{"geometry": {"type": "Point", "coordinates": [-87.4134168, 39.4112825177]}, "type": "Feature", "properties": {"collection_times": [{"days": "Mon-Sat", "time": "1:30pm"}, {"days": "Sun", "time": "Closed"}], "id": "4780200062", "name": "USPS COLLECTION BOX - BLUE BOX", "address": {"city": "TERRE HAUTE", "state": "IN", "street": "4500 S US HIGHWAY 41", "postcode": "47802"}}},
{"geometry": {"type": "Point", "coordinates": [-87.4195654296, 39.4337125938]}, "type": "Feature", "properties": {"collection_times": [{"days": "Mon-Fri", "time": "5:00pm"}, {"days": "Sat", "time": "4:00pm"}, {"days": "Sun", "time": "Closed"}], "id": "4780200064", "name": "USPS COLLECTION BOX - BLUE BOX", "address": {"city": "TERRE HAUTE", "state": "IN", "street": "150 W MARGARET DR", "postcode": "47802"}}},
{"geometry": {"type": "Point", "coordinates": [-87.4195654296, 39.4337125938]}, "type": "Feature", "properties": {"collection_times": [{"days": "Mon-Fri", "time": "5:00pm"}, {"days": "Sat", "time": "4:00pm"}, {"days": "Sun", "time": "Closed"}], "id": "4780200065", "name": "USPS COLLECTION BOX - BLUE BOX", "address": {"city": "TERRE HAUTE", "state": "IN", "street": "150 W MARGARET DR", "postcode": "47802"}}},
{"geometry": {"type": "Point", "coordinates": [-87.4195654296, 39.4337125938]}, "type": "Feature", "properties": {"collection_times": [{"days": "Mon-Fri", "time": "5:00pm"}, {"days": "Sat", "time": "4:00pm"}, {"days": "Sun", "time": "Closed"}], "id": "4780200067", "name": "USPS COLLECTION BOX - PO LOBBY", "address": {"city": "TERRE HAUTE", "state": "IN", "street": "150 W MARGARET DR", "postcode": "47802"}}},
{"geometry": {"type": "Point", "coordinates": [-87.3922652384, 39.3445861654]}, "type": "Feature", "properties": {"collection_times": [{"days": "Mon-Sat", "time": "11:30am"}, {"days": "Sun", "time": "Closed"}], "id": "4780200081", "name": "USPS COLLECTION BOX - BLUE BOX", "address": {"city": "TERRE HAUTE", "state": "IN", "street": "1701 E INDUSTRIAL DR", "postcode": "47802"}}},
{"geometry": {"type": "Point", "coordinates": [-87.4195654296, 39.4337125938]}, "type": "Feature", "properties": {"collection_times": [{"days": "Mon-Fri", "time": "5:00pm"}, {"days": "Sat", "time": "4:00pm"}, {"days": "Sun", "time": "Closed"}], "id": "4780200083", "name": "USPS COLLECTION BOX - BLUE BOX", "address": {"city": "TERRE HAUTE", "state": "IN", "street": "150 W MARGARET DR", "postcode": "47802"}}},
{"geometry": {"type": "Point", "coordinates": [-87.4195654296, 39.4337125938]}, "type": "Feature", "properties": {"collection_times": [{"days": "Mon-Fri", "time": "5:00pm"}, {"days": "Sat", "time": "4:00pm"}, {"days": "Sun", "time": "Closed"}], "id": "4780200084", "name": "USPS COLLECTION BOX - APC", "address": {"city": "TERRE HAUTE", "state": "IN", "street": "150 W MARGARET DR", "postcode": "47802"}}},
{"geometry": {"type": "Point", "coordinates": [-87.3785119393, 39.4657816895]}, "type": "Feature", "properties": {"collection_times": [{"days": "Mon-Fri", "time": "5:00pm"}, {"days": "Sat", "time": "2:00pm"}, {"days": "Sun", "time": "Closed"}], "id": "4780300001", "name": "USPS COLLECTION BOX - BLUE BOX", "address": {"city": "TERRE HAUTE", "state": "IN", "street": "2500 OHIO BLVD", "postcode": "47803"}}},
{"geometry": {"type": "Point", "coordinates": [-87.3785119393, 39.4657816895]}, "type": "Feature", "properties": {"collection_times": [{"days": "Mon-Fri", "time": "5:00pm"}, {"days": "Sat", "time": "2:00pm"}, {"days": "Sun", "time": "Closed"}], "id": "4780300002", "name": "USPS COLLECTION BOX - BLUE BOX", "address": {"city": "TERRE HAUTE", "state": "IN", "street": "2500 OHIO BLVD", "postcode": "47803"}}},
{"geometry": {"type": "Point", "coordinates": [-87.3785119393, 39.4657816895]}, "type": "Feature", "properties": {"collection_times": [{"days": "Mon-Fri", "time": "5:00pm"}, {"days": "Sat", "time": "2:00pm"}, {"days": "Sun", "time": "Closed"}], "id": "4780300003", "name": "USPS COLLECTION BOX - BLUE BOX", "address": {"city": "TERRE HAUTE", "state": "IN", "street": "2500 OHIO BLVD", "postcode": "47803"}}},
{"geometry": {"type": "Point", "coordinates": [-87.3785119393, 39.4657816895]}, "type": "Feature", "properties": {"collection_times": [{"days": "Mon-Fri", "time": "5:00pm"}, {"days": "Sat", "time": "2:00pm"}, {"days": "Sun", "time": "Closed"}], "id": "4780300004", "name": "USPS COLLECTION BOX - BLUE BOX", "address": {"city": "TERRE HAUTE", "state": "IN", "street": "2500 OHIO BLVD", "postcode": "47803"}}},
{"geometry": {"type": "Point", "coordinates": [-87.3760412115, 39.4735877835]}, "type": "Feature", "properties": {"collection_times": [{"days": "Mon-Fri", "time": "5:00pm"}, {"days": "Sat", "time": "4:00pm"}, {"days": "Sun", "time": "Closed"}], "id": "4780300005", "name": "USPS COLLECTION BOX - BLUE BOX", "address": {"city": "TERRE HAUTE", "state": "IN", "street": "70 ROSE AVE", "postcode": "47803"}}},
{"geometry": {"type": "Point", "coordinates": [-87.3760412115, 39.4735877835]}, "type": "Feature", "properties": {"collection_times": [{"days": "Mon-Fri", "time": "5:00pm"}, {"days": "Sat", "time": "4:00pm"}, {"days": "Sun", "time": "Closed"}], "id": "4780300006", "name": "USPS COLLECTION BOX - BLUE BOX", "address": {"city": "TERRE HAUTE", "state": "IN", "street": "70 ROSE AVE", "postcode": "47803"}}},
{"geometry": {"type": "Point", "coordinates": [-87.3760412115, 39.4735877835]}, "type": "Feature", "properties": {"collection_times": [{"days": "Mon-Fri", "time": "5:00pm"}, {"days": "Sat", "time": "4:00pm"}, {"days": "Sun", "time": "Closed"}], "id": "4780300007", "name": "USPS COLLECTION BOX - BLUE BOX", "address": {"city": "TERRE HAUTE", "state": "IN", "street": "70 ROSE AVE", "postcode": "47803"}}},
{"geometry": {"type": "Point", "coordinates": [-87.3760412115, 39.4735877835]}, "type": "Feature", "properties": {"collection_times": [{"days": "Mon-Fri", "time": "5:00pm"}, {"days": "Sat", "time": "2:30pm"}, {"days": "Sun", "time": "Closed"}], "id": "4780300008", "name": "USPS COLLECTION BOX - PO LOBBY", "address": {"city": "TERRE HAUTE", "state": "IN", "street": "70 ROSE AVE", "postcode": "47803"}}},
{"geometry": {"type": "Point", "coordinates": [-87.3328696261, 39.4337214242]}, "type": "Feature", "properties": {"collection_times": [{"days": "Mon-Sat", "time": "11:00am"}, {"days": "Sun", "time": "Closed"}], "id": "4780300009", "name": "USPS COLLECTION BOX - BLUE BOX", "address": {"city": "TERRE HAUTE", "state": "IN", "street": "5555 E MARGARET DR", "postcode": "47803"}}},
{"geometry": {"type": "Point", "coordinates": [-87.3348375678, 39.4572085336]}, "type": "Feature", "properties": {"collection_times": [{"days": "Mon-Sat", "time": "9:00am"}, {"days": "Sun", "time": "Closed"}], "id": "4780300010", "name": "USPS COLLECTION BOX - BLUE BOX", "address": {"city": "TERRE HAUTE", "state": "IN", "street": "5362 JACKBOOT CT", "postcode": "47803"}}},
{"geometry": {"type": "Point", "coordinates": [-87.3988961691, 39.4921398408]}, "type": "Feature", "properties": {"collection_times": [{"days": "Mon-Sat", "time": "12:00pm"}, {"days": "Sun", "time": "Closed"}], "id": "4780400001", "name": "USPS COLLECTION BOX - BLUE BOX", "address": {"city": "TERRE HAUTE", "state": "IN", "street": "1247 MAPLE AVE", "postcode": "47804"}}},
{"geometry": {"type": "Point", "coordinates": [-87.3988961691, 39.4921398408]}, "type": "Feature", "properties": {"collection_times": [{"days": "Mon-Sat", "time": "12:00pm"}, {"days": "Sun", "time": "Closed"}], "id": "4780400002", "name": "USPS COLLECTION BOX - BLUE BOX", "address": {"city": "TERRE HAUTE", "state": "IN", "street": "1247 MAPLE AVE", "postcode": "47804"}}},
{"geometry": {"type": "Point", "coordinates": [-87.3948262133, 39.5067285535]}, "type": "Feature", "properties": {"collection_times": [{"days": "Mon-Sat", "time": "12:00pm"}, {"days": "Sun", "time": "Closed"}], "id": "4780400003", "name": "USPS COLLECTION BOX - BLUE BOX", "address": {"city": "TERRE HAUTE", "state": "IN", "street": "1452 FORT HARRISON RD", "postcode": "47804"}}},
{"geometry": {"type": "Point", "coordinates": [-87.3948262133, 39.5067285535]}, "type": "Feature", "properties": {"collection_times": [{"days": "Mon-Sat", "time": "12:00pm"}, {"days": "Sun", "time": "Closed"}], "id": "4780400004", "name": "USPS COLLECTION BOX - BLUE BOX", "address": {"city": "TERRE HAUTE", "state": "IN", "street": "1452 FORT HARRISON RD", "postcode": "47804"}}},
{"geometry": {"type": "Point", "coordinates": [-87.3948262133, 39.5067285535]}, "type": "Feature", "properties": {"collection_times": [{"days": "Mon-Sat", "time": "12:00pm"}, {"days": "Sun", "time": "Closed"}], "id": "4780400005", "name": "USPS COLLECTION BOX - BLUE BOX", "address": {"city": "TERRE HAUTE", "state": "IN", "street": "1452 FORT HARRISON RD", "postcode": "47804"}}},
{"geometry": {"type": "Point", "coordinates": [-87.3730255543, 39.5247169139]}, "type": "Feature", "properties": {"collection_times": [{"days": "Mon-Fri", "time": "5:00pm"}, {"days": "Sat", "time": "12:00pm"}, {"days": "Sun", "time": "Closed"}], "id": "4780500001", "name": "USPS COLLECTION BOX - BLUE BOX", "address": {"city": "TERRE HAUTE", "state": "IN", "street": "4900 N LAFAYETTE ST", "postcode": "47805"}}},
{"geometry": {"type": "Point", "coordinates": [-87.3730255543, 39.5247169139]}, "type": "Feature", "properties": {"collection_times": [{"days": "Mon-Fri", "time": "5:00pm"}, {"days": "Sat", "time": "12:00pm"}, {"days": "Sun", "time": "Closed"}], "id": "4780500002", "name": "USPS COLLECTION BOX - BLUE BOX", "address": {"city": "TERRE HAUTE", "state": "IN", "street": "4900 N LAFAYETTE ST", "postcode": "47805"}}},
{"geometry": {"type": "Point", "coordinates": [-87.3730255543, 39.5247169139]}, "type": "Feature", "properties": {"collection_times": [{"days": "Mon-Fri", "time": "5:00pm"}, {"days": "Sat", "time": "12:00pm"}, {"days": "Sun", "time": "Closed"}], "id": "4780500003", "name": "USPS COLLECTION BOX - PO LOBBY", "address": {"city": "TERRE HAUTE", "state": "IN", "street": "4900 N LAFAYETTE ST", "postcode": "47805"}}},
{"geometry": {"type": "Point", "coordinates": [-87.4043673937, 39.4623936288]}, "type": "Feature", "properties": {"collection_times": [{"days": "Mon-Sat", "time": "12:00pm"}, {"days": "Sun", "time": "Closed"}], "id": "4780700001", "name": "USPS COLLECTION BOX - BLUE BOX", "address": {"city": "TERRE HAUTE", "state": "IN", "street": "400 S 9TH ST", "postcode": "47807"}}},
{"geometry": {"type": "Point", "coordinates": [-87.4005189984, 39.4775294027]}, "type": "Feature", "properties": {"collection_times": [{"days": "Mon-Sat", "time": "12:00pm"}, {"days": "Sun", "time": "Closed"}], "id": "4780700002", "name": "USPS COLLECTION BOX - BLUE BOX", "address": {"city": "TERRE HAUTE", "state": "IN", "street": "1100 LOCUST ST", "postcode": "47807"}}},
{"geometry": {"type": "Point", "coordinates": [-87.415347389, 39.4645629895]}, "type": "Feature", "properties": {"collection_times": [{"days": "Mon-Sat", "time": "1:00pm"}, {"days": "Sun", "time": "Closed"}], "id": "4780700003", "name": "USPS COLLECTION BOX - BLUE BOX", "address": {"city": "TERRE HAUTE", "state": "IN", "street": "191 HARDING AVE", "postcode": "47807"}}},
{"geometry": {"type": "Point", "coordinates": [-87.4131503322, 39.4654089474]}, "type": "Feature", "properties": {"collection_times": [{"days": "Mon-Sat", "time": "2:00pm"}, {"days": "Sun", "time": "Closed"}], "id": "4780700004", "name": "USPS COLLECTION BOX - BLUE BOX", "address": {"city": "TERRE HAUTE", "state": "IN", "street": "333 OHIO ST", "postcode": "47807"}}},
{"geometry": {"type": "Point", "coordinates": [-87.4131503322, 39.4654089474]}, "type": "Feature", "properties": {"collection_times": [{"days": "Mon-Sat", "time": "2:00pm"}, {"days": "Sun", "time": "Closed"}], "id": "4780700005", "name": "USPS COLLECTION BOX - BLUE BOX", "address": {"city": "TERRE HAUTE", "state": "IN", "street": "333 OHIO ST", "postcode": "47807"}}},
{"geometry": {"type": "Point", "coordinates": [-87.4070027965, 39.4655803342]}, "type": "Feature", "properties": {"collection_times": [{"days": "Mon-Sat", "time": "2:00pm"}, {"days": "Sun", "time": "Closed"}], "id": "4780700006", "name": "USPS COLLECTION BOX - BLUE BOX", "address": {"city": "TERRE HAUTE", "state": "IN", "street": "31 S 7TH ST", "postcode": "47807"}}},
{"geometry": {"type": "Point", "coordinates": [-87.40563, 39.46548]}, "type": "Feature", "properties": {"collection_times": [{"days": "Mon-Sat", "time": "2:00pm"}, {"days": "Sun", "time": "Closed"}], "id": "4780700007", "name": "USPS COLLECTION BOX - BLUE BOX", "address": {"city": "TERRE HAUTE", "state": "IN", "street": "800 OHIO ST", "postcode": "47807"}}},
{"geometry": {"type": "Point", "coordinates": [-87.4086494753, 39.4675215699]}, "type": "Feature", "properties": {"collection_times": [{"days": "Mon-Fri", "time": "5:00pm"}, {"days": "Sat", "time": "1:30pm"}, {"days": "Sun", "time": "Closed"}], "id": "4780700008", "name": "USPS COLLECTION BOX - BLUE BOX", "address": {"city": "TERRE HAUTE", "state": "IN", "street": "637 CHERRY ST", "postcode": "47807"}}},
{"geometry": {"type": "Point", "coordinates": [-87.4086494753, 39.4675215699]}, "type": "Feature", "properties": {"collection_times": [{"days": "Mon-Fri", "time": "5:00pm"}, {"days": "Sat", "time": "1:30pm"}, {"days": "Sun", "time": "Closed"}], "id": "4780700009", "name": "USPS COLLECTION BOX - BLUE BOX", "address": {"city": "TERRE HAUTE", "state": "IN", "street": "637 CHERRY ST", "postcode": "47807"}}},
{"geometry": {"type": "Point", "coordinates": [-87.4086494753, 39.4675215699]}, "type": "Feature", "properties": {"collection_times": [{"days": "Mon-Fri", "time": "5:00pm"}, {"days": "Sat", "time": "1:30pm"}, {"days": "Sun", "time": "Closed"}], "id": "4780700010", "name": "USPS COLLECTION BOX - BLUE BOX", "address": {"city": "TERRE HAUTE", "state": "IN", "street": "637 CHERRY ST", "postcode": "47807"}}},
{"geometry": {"type": "Point", "coordinates": [-87.40862, 39.46754]}, "type": "Feature", "properties": {"collection_times": [{"days": "Mon-Fri", "time": "5:00pm"}, {"days": "Sat", "time": "1:30pm"}, {"days": "Sun", "time": "Closed"}], "id": "4780700011", "name": "USPS COLLECTION BOX - BLUE BOX", "address": {"city": "TERRE HAUTE", "state": "IN", "street": "637 CHERRY ST", "postcode": "47807"}}},
{"geometry": {"type": "Point", "coordinates": [-87.5206700213, 39.6663362222]}, "type": "Feature", "properties": {"collection_times": [{"days": "Mon-Fri", "time": "4:30pm"}, {"days": "Sat", "time": "10:30am"}, {"days": "Sun", "time": "Closed"}], "id": "4783100001", "name": "USPS COLLECTION BOX - BLUE BOX", "address": {"city": "BLANFORD", "state": "IN", "street": "15008 S MAIN ST", "postcode": "47831"}}},
{"geometry": {"type": "Point", "coordinates": [-87.5206700213, 39.6663362222]}, "type": "Feature", "properties": {"collection_times": [{"days": "Mon-Fri", "time": "11:45am"}, {"days": "Sat", "time": "10:30am"}, {"days": "Sun", "time": "Closed"}], "id": "4783100002", "name": "USPS COLLECTION BOX - PO LOBBY", "address": {"city": "BLANFORD", "state": "IN", "street": "15008 S MAIN ST", "postcode": "47831"}}},
{"geometry": {"type": "Point", "coordinates": [-87.2549287014, 39.8267107967]}, "type": "Feature", "properties": {"collection_times": [{"days": "Mon-Fri", "time": "3:30pm"}, {"days": "Sat", "time": "11:00am"}, {"days": "Sun", "time": "Closed"}], "id": "4783200001", "name": "USPS COLLECTION BOX - BLUE BOX", "address": {"city": "BLOOMINGDALE", "state": "IN", "street": "90 S MAIN ST", "postcode": "47832"}}},
{"geometry": {"type": "Point", "coordinates": [-87.2549287014, 39.8267107967]}, "type": "Feature", "properties": {"collection_times": [{"days": "Mon-Fri", "time": "12:15pm"}, {"days": "Sat", "time": "11:00am"}, {"days": "Sun", "time": "Closed"}], "id": "4783200002", "name": "USPS COLLECTION BOX - PO LOBBY", "address": {"city": "BLOOMINGDALE", "state": "IN", "street": "90 S MAIN ST", "postcode": "47832"}}},
{"geometry": {"type": "Point", "coordinates": [-87.0145612219, 39.3830835502]}, "type": "Feature", "properties": {"collection_times": [{"days": "Mon-Sat", "time": "12:45pm"}, {"days": "Sun", "time": "Closed"}], "id": "4783300001", "name": "USPS COLLECTION BOX - BLUE BOX", "address": {"city": "BOWLING GREEN", "state": "IN", "street": "5181 E STATE ROAD 46", "postcode": "47833"}}},
{"geometry": {"type": "Point", "coordinates": [-87.0145612219, 39.3830835502]}, "type": "Feature", "properties": {"collection_times": [{"days": "Mon-Fri", "time": "10:45am"}, {"days": "Sat", "time": "12:45pm"}, {"days": "Sun", "time": "Closed"}], "id": "4783300002", "name": "USPS COLLECTION BOX - PO LOBBY", "address": {"city": "BOWLING GREEN", "state": "IN", "street": "5181 E STATE ROAD 46", "postcode": "47833"}}},
{"geometry": {"type": "Point", "coordinates": [-87.1302680227, 39.5224813746]}, "type": "Feature", "properties": {"collection_times": [{"days": "Mon-Fri", "time": "4:30pm"}, {"days": "Sat", "time": "12:00pm"}, {"days": "Sun", "time": "Closed"}], "id": "4783400000", "name": "USPS COLLECTION BOX - BLUE BOX", "address": {"city": "BRAZIL", "state": "IN", "street": "227 W NATIONAL AVE", "postcode": "47834"}}},
{"geometry": {"type": "Point", "coordinates": [-87.1302680227, 39.5224813746]}, "type": "Feature", "properties": {"collection_times": [{"days": "Mon-Fri", "time": "4:30pm"}, {"days": "Sat", "time": "12:00pm"}, {"days": "Sun", "time": "Closed"}], "id": "4783400001", "name": "USPS COLLECTION BOX - BLUE BOX", "address": {"city": "BRAZIL", "state": "IN", "street": "227 W NATIONAL AVE", "postcode": "47834"}}},
{"geometry": {"type": "Point", "coordinates": [-87.1251299487, 39.5223820765]}, "type": "Feature", "properties": {"collection_times": [{"days": "Mon-Fri", "time": "3:15pm"}, {"days": "Sat", "time": "12:00pm"}, {"days": "Sun", "time": "Closed"}], "id": "4783400006", "name": "USPS COLLECTION BOX - BLUE BOX", "address": {"city": "BRAZIL", "state": "IN", "street": "120 S FOREST AVE", "postcode": "47834"}}},
{"geometry": {"type": "Point", "coordinates": [-87.1202473345, 39.5247587786]}, "type": "Feature", "properties": {"collection_times": [{"days": "Mon-Fri", "time": "3:15pm"}, {"days": "Sat", "time": "12:00pm"}, {"days": "Sun", "time": "Closed"}], "id": "4783400008", "name": "USPS COLLECTION BOX - BLUE BOX", "address": {"city": "BRAZIL", "state": "IN", "street": "609 E NATIONAL AVE", "postcode": "47834"}}},
{"geometry": {"type": "Point", "coordinates": [-87.1252572106, 39.5235678989]}, "type": "Feature", "properties": {"collection_times": [{"days": "Mon-Fri", "time": "3:15pm"}, {"days": "Sat", "time": "12:00pm"}, {"days": "Sun", "time": "Closed"}], "id": "4783400009", "name": "USPS COLLECTION BOX - BLUE BOX", "address": {"city": "BRAZIL", "state": "IN", "street": "5 FOREST PARK PLZ", "postcode": "47834"}}},
{"geometry": {"type": "Point", "coordinates": [-87.1302680227, 39.5224813746]}, "type": "Feature", "properties": {"collection_times": [{"days": "Mon-Fri", "time": "4:30pm"}, {"days": "Sat", "time": "12:00pm"}, {"days": "Sun", "time": "Closed"}], "id": "4783400011", "name": "USPS COLLECTION BOX - PO LOBBY", "address": {"city": "BRAZIL", "state": "IN", "street": "227 W NATIONAL AVE", "postcode": "47834"}}},
{"geometry": {"type": "Point", "coordinates": [-87.1302680227, 39.5224813746]}, "type": "Feature", "properties": {"collection_times": [{"days": "Mon-Fri", "time": "4:30pm"}, {"days": "Sat", "time": "12:00pm"}, {"days": "Sun", "time": "Closed"}], "id": "4783400012", "name": "USPS COLLECTION BOX - BLUE BOX", "address": {"city": "BRAZIL", "state": "IN", "street": "227 W NATIONAL AVE", "postcode": "47834"}}},
{"geometry": {"type": "Point", "coordinates": [-87.1302680227, 39.5224813746]}, "type": "Feature", "properties": {"collection_times": [{"days": "Mon-Fri", "time": "4:30pm"}, {"days": "Sat", "time": "12:00pm"}, {"days": "Sun", "time": "Closed"}], "id": "4783400013", "name": "USPS COLLECTION BOX - BLUE BOX", "address": {"city": "BRAZIL", "state": "IN", "street": "227 W NATIONAL AVE", "postcode": "47834"}}},
{"geometry": {"type": "Point", "coordinates": [-87.1260547629, 39.5334201187]}, "type": "Feature", "properties": {"collection_times": [{"days": "Mon-Sat", "time": "10:30am"}, {"days": "Sun", "time": "Closed"}], "id": "4783400019", "name": "USPS COLLECTION BOX - BLUE BOX", "address": {"city": "BRAZIL", "state": "IN", "street": "1035 N INDIANA ST # 42", "postcode": "47834"}}},
{"geometry": {"type": "Point", "coordinates": [-87.180985899, 39.6684716621]}, "type": "Feature", "properties": {"collection_times": [{"days": "Mon-Fri", "time": "4:00pm"}, {"days": "Sat", "time": "11:30am"}, {"days": "Sun", "time": "Closed"}], "id": "4783600001", "name": "USPS COLLECTION BOX - BLUE BOX", "address": {"city": "BRIDGETON", "state": "IN", "street": "8128 S BRIDGETON RD", "postcode": "47836"}}},
{"geometry": {"type": "Point", "coordinates": [-87.180985899, 39.6684716621]}, "type": "Feature", "properties": {"collection_times": [{"days": "Mon-Fri", "time": "10:45am"}, {"days": "Sat", "time": "11:30am"}, {"days": "Sun", "time": "Closed"}], "id": "4783600002", "name": "USPS COLLECTION BOX - PO LOBBY", "address": {"city": "BRIDGETON", "state": "IN", "street": "8128 S BRIDGETON RD", "postcode": "47836"}}},
{"geometry": {"type": "Point", "coordinates": [-87.1068918856, 39.6002008329]}, "type": "Feature", "properties": {"collection_times": [{"days": "Mon-Fri", "time": "4:00pm"}, {"days": "Sat", "time": "10:45am"}, {"days": "Sun", "time": "Closed"}], "id": "4783700001", "name": "USPS COLLECTION BOX - BLUE BOX", "address": {"city": "CARBON", "state": "IN", "street": "14641 N POPLAR ST", "postcode": "47837"}}},
{"geometry": {"type": "Point", "coordinates": [-87.1068918856, 39.6002008329]}, "type": "Feature", "properties": {"collection_times": [{"days": "Mon-Fri", "time": "11:45am"}, {"days": "Sat", "time": "10:45am"}, {"days": "Sun", "time": "Closed"}], "id": "4783700002", "name": "USPS COLLECTION BOX - PO LOBBY", "address": {"city": "CARBON", "state": "IN", "street": "14641 N POPLAR ST", "postcode": "47837"}}},
{"geometry": {"type": "Point", "coordinates": [-87.4034975211, 38.9625808381]}, "type": "Feature", "properties": {"collection_times": [{"days": "Mon-Fri", "time": "3:45pm"}, {"days": "Sat", "time": "10:30am"}, {"days": "Sun", "time": "Closed"}], "id": "4783800000", "name": "USPS COLLECTION BOX - BLUE BOX", "address": {"city": "CARLISLE", "state": "IN", "street": "119 N LEDGERWOOD ST", "postcode": "47838"}}},
{"geometry": {"type": "Point", "coordinates": [-87.4172194881, 38.9396285363]}, "type": "Feature", "properties": {"collection_times": [{"days": "Mon-Fri", "time": "10:00am"}, {"days": "Sat", "time": "9:00am"}, {"days": "Sun", "time": "Closed"}], "id": "4783800001", "name": "USPS COLLECTION BOX - BLUE BOX", "address": {"city": "CARLISLE", "state": "IN", "street": "8355 S OLD US HIGHWAY 41", "postcode": "47838"}}},
{"geometry": {"type": "Point", "coordinates": [-87.4034975211, 38.9625808381]}, "type": "Feature", "properties": {"collection_times": [{"days": "Mon-Fri", "time": "3:45pm"}, {"days": "Sat", "time": "10:30am"}, {"days": "Sun", "time": "Closed"}], "id": "4783800002", "name": "USPS COLLECTION BOX - PO LOBBY", "address": {"city": "CARLISLE", "state": "IN", "street": "119 N LEDGERWOOD ST", "postcode": "47838"}}},
{"geometry": {"type": "Point", "coordinates": [-87.1106847891, 39.385936862]}, "type": "Feature", "properties": {"collection_times": [{"days": "Mon-Fri", "time": "11:00am"}, {"days": "Sat-Sun", "time": "Closed"}], "id": "4784000000", "name": "USPS COLLECTION BOX - BLUE BOX", "address": {"city": "CENTER POINT", "state": "IN", "street": "20 S STATE ROAD 59", "postcode": "47840"}}},
{"geometry": {"type": "Point", "coordinates": [-87.0749366331, 39.4166727538]}, "type": "Feature", "properties": {"collection_times": [{"days": "Mon-Fri", "time": "3:45pm"}, {"days": "Sat", "time": "10:45am"}, {"days": "Sun", "time": "Closed"}], "id": "4784000001", "name": "USPS COLLECTION BOX - BLUE BOX", "address": {"city": "CENTER POINT", "state": "IN", "street": "504 E MAIN ST", "postcode": "47840"}}},
{"geometry": {"type": "Point", "coordinates": [-87.0749366331, 39.4166727538]}, "type": "Feature", "properties": {"collection_times": [{"days": "Mon-Fri", "time": "3:45pm"}, {"days": "Sat", "time": "10:45am"}, {"days": "Sun", "time": "Closed"}], "id": "4784000002", "name": "USPS COLLECTION BOX - PO LOBBY", "address": {"city": "CENTER POINT", "state": "IN", "street": "504 E MAIN ST", "postcode": "47840"}}},
{"geometry": {"type": "Point", "coordinates": [-87.1128879271, 39.2764218903]}, "type": "Feature", "properties": {"collection_times": [{"days": "Mon-Fri", "time": "4:15pm"}, {"days": "Sat", "time": "11:00am"}, {"days": "Sun", "time": "Closed"}], "id": "4784100000", "name": "USPS COLLECTION BOX - BLUE BOX", "address": {"city": "CLAY CITY", "state": "IN", "street": "804 MAIN ST", "postcode": "47841"}}},
{"geometry": {"type": "Point", "coordinates": [-87.1102826902, 39.2920500021]}, "type": "Feature", "properties": {"collection_times": [{"days": "Mon-Sat", "time": "12:00pm"}, {"days": "Sun", "time": "Closed"}], "id": "4784100001", "name": "USPS COLLECTION BOX - BLUE BOX", "address": {"city": "CLAY CITY", "state": "IN", "street": "6505 S STATE ROAD 59", "postcode": "47841"}}},
{"geometry": {"type": "Point", "coordinates": [-87.1128879271, 39.2764218903]}, "type": "Feature", "properties": {"collection_times": [{"days": "Mon-Fri", "time": "3:45pm"}, {"days": "Sat", "time": "11:00am"}, {"days": "Sun", "time": "Closed"}], "id": "4784100002", "name": "USPS COLLECTION BOX - PO LOBBY", "address": {"city": "CLAY CITY", "state": "IN", "street": "804 MAIN ST", "postcode": "47841"}}},
{"geometry": {"type": "Point", "coordinates": [-87.4012350711, 39.6605348906]}, "type": "Feature", "properties": {"collection_times": [{"days": "Mon-Fri", "time": "4:00pm"}, {"days": "Sat", "time": "11:00am"}, {"days": "Sun", "time": "Closed"}], "id": "4784200001", "name": "USPS COLLECTION BOX - BLUE BOX", "address": {"city": "CLINTON", "state": "IN", "street": "405 VINE ST", "postcode": "47842"}}},
{"geometry": {"type": "Point", "coordinates": [-87.4012350711, 39.6605348906]}, "type": "Feature", "properties": {"collection_times": [{"days": "Mon-Fri", "time": "4:00pm"}, {"days": "Sat", "time": "11:00am"}, {"days": "Sun", "time": "Closed"}], "id": "4784200002", "name": "USPS COLLECTION BOX - BLUE BOX", "address": {"city": "CLINTON", "state": "IN", "street": "405 VINE ST", "postcode": "47842"}}},
{"geometry": {"type": "Point", "coordinates": [-87.4012350711, 39.6605348906]}, "type": "Feature", "properties": {"collection_times": [{"days": "Mon-Fri", "time": "4:00pm"}, {"days": "Sat", "time": "11:00am"}, {"days": "Sun", "time": "Closed"}], "id": "4784200003", "name": "USPS COLLECTION BOX - PO LOBBY", "address": {"city": "CLINTON", "state": "IN", "street": "405 VINE ST", "postcode": "47842"}}},
{"geometry": {"type": "Point", "coordinates": [-87.3982812576, 39.6523736455]}, "type": "Feature", "properties": {"collection_times": [{"days": "Mon-Fri", "time": "3:00pm"}, {"days": "Sat", "time": "12:00pm"}, {"days": "Sun", "time": "Closed"}], "id": "4784200007", "name": "USPS COLLECTION BOX - BLUE BOX", "address": {"city": "CLINTON", "state": "IN", "street": "777 S MAIN ST", "postcode": "47842"}}},
{"geometry": {"type": "Point", "coordinates": [-87.3981529449, 39.6554836097]}, "type": "Feature", "properties": {"collection_times": [{"days": "Mon-Sat", "time": "10:45am"}, {"days": "Sun", "time": "Closed"}], "id": "4784200008", "name": "USPS COLLECTION BOX - BLUE BOX", "address": {"city": "CLINTON", "state": "IN", "street": "528 S MAIN ST", "postcode": "47842"}}},
{"geometry": {"type": "Point", "coordinates": [-87.4092710814, 39.65884019]}, "type": "Feature", "properties": {"collection_times": [{"days": "Mon-Sat", "time": "11:00am"}, {"days": "Sun", "time": "Closed"}], "id": "4784200017", "name": "USPS COLLECTION BOX - BLUE BOX", "address": {"city": "CLINTON", "state": "IN", "street": "1047 WESTERN AVE", "postcode": "47842"}}},
{"geometry": {"type": "Point", "coordinates": [-87.4012350711, 39.6605348906]}, "type": "Feature", "properties": {"collection_times": [{"days": "Mon-Fri", "time": "4:00pm"}, {"days": "Sat", "time": "11:00am"}, {"days": "Sun", "time": "Closed"}], "id": "4784200021", "name": "USPS COLLECTION BOX - PO LOBBY", "address": {"city": "CLINTON", "state": "IN", "street": "405 VINE ST", "postcode": "47842"}}},
{"geometry": {"type": "Point", "coordinates": [-87.4313694791, 39.6575829743]}, "type": "Feature", "properties": {"collection_times": [{"days": "Mon-Sat", "time": "11:00am"}, {"days": "Sun", "time": "Closed"}], "id": "4784200022", "name": "USPS COLLECTION BOX - BLUE BOX", "address": {"city": "CLINTON", "state": "IN", "street": "1775 E STATE ROAD 163", "postcode": "47842"}}},
{"geometry": {"type": "Point", "coordinates": [-87.2331167862, 39.190794786]}, "type": "Feature", "properties": {"collection_times": [{"days": "Mon-Fri", "time": "3:45pm"}, {"days": "Sat", "time": "10:15am"}, {"days": "Sun", "time": "Closed"}], "id": "4784500001", "name": "USPS COLLECTION BOX - BLUE BOX", "address": {"city": "COALMONT", "state": "IN", "street": "6457 W JASON ST", "postcode": "47845"}}},
{"geometry": {"type": "Point", "coordinates": [-87.2306863795, 39.1941610559]}, "type": "Feature", "properties": {"collection_times": [{"days": "Mon-Fri", "time": "4:00pm"}, {"days": "Sat", "time": "10:15am"}, {"days": "Sun", "time": "Closed"}], "id": "4784500002", "name": "USPS COLLECTION BOX - PO LOBBY", "address": {"city": "COALMONT", "state": "IN", "street": "6457 W JASON ST", "postcode": "47845"}}},
{"geometry": {"type": "Point", "coordinates": [-87.2051886942, 39.3822033847]}, "type": "Feature", "properties": {"collection_times": [{"days": "Mon-Fri", "time": "4:00pm"}, {"days": "Sat", "time": "11:00am"}, {"days": "Sun", "time": "Closed"}], "id": "4784600002", "name": "USPS COLLECTION BOX - BLUE BOX", "address": {"city": "CORY", "state": "IN", "street": "5160 W DEPOT ST", "postcode": "47846"}}},
{"geometry": {"type": "Point", "coordinates": [-87.2051886942, 39.3822033847]}, "type": "Feature", "properties": {"collection_times": [{"days": "Mon-Fri", "time": "4:00pm"}, {"days": "Sat", "time": "11:00am"}, {"days": "Sun", "time": "Closed"}], "id": "4784600003", "name": "USPS COLLECTION BOX - PO LOBBY", "address": {"city": "CORY", "state": "IN", "street": "5160 W DEPOT ST", "postcode": "47846"}}},
{"geometry": {"type": "Point", "coordinates": [-87.4949107003, 39.8025777531]}, "type": "Feature", "properties": {"collection_times": [{"days": "Mon-Fri", "time": "4:00pm"}, {"days": "Sat", "time": "11:15am"}, {"days": "Sun", "time": "Closed"}], "id": "4784700001", "name": "USPS COLLECTION BOX - BLUE BOX", "address": {"city": "DANA", "state": "IN", "street": "171 S MAPLE ST", "postcode": "47847"}}},
{"geometry": {"type": "Point", "coordinates": [-87.4949107003, 39.8025777531]}, "type": "Feature", "properties": {"collection_times": [{"days": "Mon-Fri", "time": "11:45am"}, {"days": "Sat", "time": "11:15am"}, {"days": "Sun", "time": "Closed"}], "id": "4784700002", "name": "USPS COLLECTION BOX - PO LOBBY", "address": {"city": "DANA", "state": "IN", "street": "171 S MAPLE ST", "postcode": "47847"}}},
{"geometry": {"type": "Point", "coordinates": [-87.2563077437, 39.0676596254]}, "type": "Feature", "properties": {"collection_times": [{"days": "Mon-Fri", "time": "3:45pm"}, {"days": "Sat", "time": "10:15am"}, {"days": "Sun", "time": "Closed"}], "id": "4784800001", "name": "USPS COLLECTION BOX - BLUE BOX", "address": {"city": "DUGGER", "state": "IN", "street": "8182 E MAIN ST", "postcode": "47848"}}},
{"geometry": {"type": "Point", "coordinates": [-87.2563077437, 39.0676596254]}, "type": "Feature", "properties": {"collection_times": [{"days": "Mon-Fri", "time": "2:45pm"}, {"days": "Sat", "time": "10:15am"}, {"days": "Sun", "time": "Closed"}], "id": "4784800002", "name": "USPS COLLECTION BOX - PO LOBBY", "address": {"city": "DUGGER", "state": "IN", "street": "8182 E MAIN ST", "postcode": "47848"}}},
{"geometry": {"type": "Point", "coordinates": [-87.5213208973, 39.2191016103]}, "type": "Feature", "properties": {"collection_times": [{"days": "Mon-Fri", "time": "11:45am"}, {"days": "Sat", "time": "10:30am"}, {"days": "Sun", "time": "Closed"}], "id": "4784900001", "name": "USPS COLLECTION BOX - BLUE BOX", "address": {"city": "FAIRBANKS", "state": "IN", "street": "9236 N MAIN ST", "postcode": "47849"}}},
{"geometry": {"type": "Point", "coordinates": [-87.5213208973, 39.2191016103]}, "type": "Feature", "properties": {"collection_times": [{"days": "Mon-Fri", "time": "11:45am"}, {"days": "Sat", "time": "10:30am"}, {"days": "Sun", "time": "Closed"}], "id": "4784900002", "name": "USPS COLLECTION BOX - PO LOBBY", "address": {"city": "FAIRBANKS", "state": "IN", "street": "9236 N MAIN ST", "postcode": "47849"}}},
{"geometry": {"type": "Point", "coordinates": [-87.3799003404, 39.253754486]}, "type": "Feature", "properties": {"collection_times": [{"days": "Mon-Fri", "time": "4:15pm"}, {"days": "Sat", "time": "11:45am"}, {"days": "Sun", "time": "Closed"}], "id": "4785000001", "name": "USPS COLLECTION BOX - BLUE BOX", "address": {"city": "FARMERSBURG", "state": "IN", "street": "105 W MAIN ST", "postcode": "47850"}}},
{"geometry": {"type": "Point", "coordinates": [-87.3799003404, 39.253754486]}, "type": "Feature", "properties": {"collection_times": [{"days": "Mon-Fri", "time": "4:15pm"}, {"days": "Sat", "time": "11:45am"}, {"days": "Sun", "time": "Closed"}], "id": "4785000002", "name": "USPS COLLECTION BOX - PO LOBBY", "address": {"city": "FARMERSBURG", "state": "IN", "street": "105 W MAIN ST", "postcode": "47850"}}},
{"geometry": {"type": "Point", "coordinates": [-87.2434649199, 39.5731099928]}, "type": "Feature", "properties": {"collection_times": [{"days": "Mon-Fri", "time": "4:15pm"}, {"days": "Sat", "time": "10:15am"}, {"days": "Sun", "time": "Closed"}], "id": "4785100001", "name": "USPS COLLECTION BOX - BLUE BOX", "address": {"city": "FONTANET", "state": "IN", "street": "8878 N MAIN ST", "postcode": "47851"}}},
{"geometry": {"type": "Point", "coordinates": [-87.2434649199, 39.5731099928]}, "type": "Feature", "properties": {"collection_times": [{"days": "Mon-Fri", "time": "3:45pm"}, {"days": "Sat", "time": "10:15am"}, {"days": "Sun", "time": "Closed"}], "id": "4785100002", "name": "USPS COLLECTION BOX - PO LOBBY", "address": {"city": "FONTANET", "state": "IN", "street": "8878 N MAIN ST", "postcode": "47851"}}},
{"geometry": {"type": "Point", "coordinates": [-87.5559452716, 39.1175679566]}, "type": "Feature", "properties": {"collection_times": [{"days": "Mon-Sat", "time": "11:15am"}, {"days": "Sun", "time": "Closed"}], "id": "4785200001", "name": "USPS COLLECTION BOX - BLUE BOX", "address": {"city": "GRAYSVILLE", "state": "IN", "street": "2269 N STATE ROAD 63", "postcode": "47852"}}},
{"geometry": {"type": "Point", "coordinates": [-87.5559452716, 39.1175679566]}, "type": "Feature", "properties": {"collection_times": [{"days": "Mon-Fri", "time": "2:15pm"}, {"days": "Sat", "time": "11:15am"}, {"days": "Sun", "time": "Closed"}], "id": "4785200002", "name": "USPS COLLECTION BOX - PO LOBBY", "address": {"city": "GRAYSVILLE", "state": "IN", "street": "2269 N STATE ROAD 63", "postcode": "47852"}}},
{"geometry": {"type": "Point", "coordinates": [-87.0726878554, 39.5361730851]}, "type": "Feature", "properties": {"collection_times": [{"days": "Mon-Fri", "time": "4:00pm"}, {"days": "Sat", "time": "11:00am"}, {"days": "Sun", "time": "Closed"}], "id": "4785300001", "name": "USPS COLLECTION BOX - BLUE BOX", "address": {"city": "HARMONY", "state": "IN", "street": "1875 E US HIGHWAY 40", "postcode": "47853"}}},
{"geometry": {"type": "Point", "coordinates": [-87.0726878554, 39.5361730851]}, "type": "Feature", "properties": {"collection_times": [{"days": "Mon-Fri", "time": "12:00pm"}, {"days": "Sat", "time": "11:00am"}, {"days": "Sun", "time": "Closed"}], "id": "4785300002", "name": "USPS COLLECTION BOX - PO LOBBY", "address": {"city": "HARMONY", "state": "IN", "street": "1875 E US HIGHWAY 40", "postcode": "47853"}}},
{"geometry": {"type": "Point", "coordinates": [-87.4200827048, 39.7517055105]}, "type": "Feature", "properties": {"collection_times": [{"days": "Mon-Fri", "time": "1:00pm"}, {"days": "Sat", "time": "12:00pm"}, {"days": "Sun", "time": "Closed"}], "id": "4785400001", "name": "USPS COLLECTION BOX - BLUE BOX", "address": {"city": "HILLSDALE", "state": "IN", "street": "7267 S 1ST ST", "postcode": "47854"}}},
{"geometry": {"type": "Point", "coordinates": [-87.4200827048, 39.7517055105]}, "type": "Feature", "properties": {"collection_times": [{"days": "Mon-Fri", "time": "1:00pm"}, {"days": "Sat", "time": "12:00pm"}, {"days": "Sun", "time": "Closed"}], "id": "4785400002", "name": "USPS COLLECTION BOX - PO LOBBY", "address": {"city": "HILLSDALE", "state": "IN", "street": "7267 S 1ST ST", "postcode": "47854"}}},
{"geometry": {"type": "Point", "coordinates": [-87.3030331082, 39.1861143375]}, "type": "Feature", "properties": {"collection_times": [{"days": "Mon-Fri", "time": "4:00pm"}, {"days": "Sat", "time": "11:00am"}, {"days": "Sun", "time": "Closed"}], "id": "4785500001", "name": "USPS COLLECTION BOX - BLUE BOX", "address": {"city": "HYMERA", "state": "IN", "street": "119 S MAIN ST", "postcode": "47855"}}},
{"geometry": {"type": "Point", "coordinates": [-87.3030331082, 39.1861143375]}, "type": "Feature", "properties": {"collection_times": [{"days": "Mon-Fri", "time": "4:00pm"}, {"days": "Sat", "time": "11:00am"}, {"days": "Sun", "time": "Closed"}], "id": "4785500002", "name": "USPS COLLECTION BOX - PO LOBBY", "address": {"city": "HYMERA", "state": "IN", "street": "119 S MAIN ST", "postcode": "47855"}}},
{"geometry": {"type": "Point", "coordinates": [-87.0893155558, 39.5285573034]}, "type": "Feature", "properties": {"collection_times": [{"days": "Mon-Fri", "time": "4:00pm"}, {"days": "Sat", "time": "10:30am"}, {"days": "Sun", "time": "Closed"}], "id": "4785700001", "name": "USPS COLLECTION BOX - BLUE BOX", "address": {"city": "KNIGHTSVILLE", "state": "IN", "street": "9737 N CRAWFORD ST", "postcode": "47857"}}},
{"geometry": {"type": "Point", "coordinates": [-87.0893155558, 39.5285573034]}, "type": "Feature", "properties": {"collection_times": [{"days": "Mon-Fri", "time": "4:00pm"}, {"days": "Sat", "time": "10:30am"}, {"days": "Sun", "time": "Closed"}], "id": "4785700002", "name": "USPS COLLECTION BOX - PO LOBBY", "address": {"city": "KNIGHTSVILLE", "state": "IN", "street": "9737 N CRAWFORD ST", "postcode": "47857"}}},
{"geometry": {"type": "Point", "coordinates": [-87.257714797, 39.2592507994]}, "type": "Feature", "properties": {"collection_times": [{"days": "Mon-Fri", "time": "3:45pm"}, {"days": "Sat", "time": "10:00am"}, {"days": "Sun", "time": "Closed"}], "id": "4785800001", "name": "USPS COLLECTION BOX - BLUE BOX", "address": {"city": "LEWIS", "state": "IN", "street": "10392 E STATE ROAD 246", "postcode": "47858"}}},
{"geometry": {"type": "Point", "coordinates": [-87.257714797, 39.2592507994]}, "type": "Feature", "properties": {"collection_times": [{"days": "Mon-Fri", "time": "11:45am"}, {"days": "Sat", "time": "10:00am"}, {"days": "Sun", "time": "Closed"}], "id": "4785800002", "name": "USPS COLLECTION BOX - PO LOBBY", "address": {"city": "LEWIS", "state": "IN", "street": "10392 E STATE ROAD 246", "postcode": "47858"}}},
{"geometry": {"type": "Point", "coordinates": [-87.1730493939, 39.9118592387]}, "type": "Feature", "properties": {"collection_times": [{"days": "Mon-Fri", "time": "3:45pm"}, {"days": "Sat", "time": "11:00am"}, {"days": "Sun", "time": "Closed"}], "id": "4785900001", "name": "USPS COLLECTION BOX - BLUE BOX", "address": {"city": "MARSHALL", "state": "IN", "street": "61 E GUION ST", "postcode": "47859"}}},
{"geometry": {"type": "Point", "coordinates": [-87.1730493939, 39.9118592387]}, "type": "Feature", "properties": {"collection_times": [{"days": "Mon-Fri", "time": "3:45pm"}, {"days": "Sat", "time": "11:00am"}, {"days": "Sun", "time": "Closed"}], "id": "4785900004", "name": "USPS COLLECTION BOX - PO LOBBY", "address": {"city": "MARSHALL", "state": "IN", "street": "61 E GUION ST", "postcode": "47859"}}},
{"geometry": {"type": "Point", "coordinates": [-87.56725, 39.05595]}, "type": "Feature", "properties": {"collection_times": [{"days": "Mon-Fri", "time": "3:45pm"}, {"days": "Sat", "time": "10:30am"}, {"days": "Sun", "time": "Closed"}], "id": "4786100001", "name": "USPS COLLECTION BOX - BLUE BOX", "address": {"city": "MEROM", "state": "IN", "street": "2066 S 3RD ST", "postcode": "47861"}}},
{"geometry": {"type": "Point", "coordinates": [-87.56725, 39.05595]}, "type": "Feature", "properties": {"collection_times": [{"days": "Mon-Fri", "time": "11:45am"}, {"days": "Sat", "time": "10:30am"}, {"days": "Sun", "time": "Closed"}], "id": "4786100002", "name": "USPS COLLECTION BOX - PO LOBBY", "address": {"city": "MEROM", "state": "IN", "street": "2066 S 3RD ST", "postcode": "47861"}}},
{"geometry": {"type": "Point", "coordinates": [-87.3723560262, 39.793665668]}, "type": "Feature", "properties": {"collection_times": [{"days": "Mon-Fri", "time": "4:00pm"}, {"days": "Sat", "time": "11:30am"}, {"days": "Sun", "time": "Closed"}], "id": "4786200001", "name": "USPS COLLECTION BOX - BLUE BOX", "address": {"city": "MONTEZUMA", "state": "IN", "street": "982 N WASHINGTON ST", "postcode": "47862"}}},
{"geometry": {"type": "Point", "coordinates": [-87.37228, 39.793114]}, "type": "Feature", "properties": {"collection_times": [{"days": "Mon-Fri", "time": "3:00pm"}, {"days": "Sat", "time": "11:30am"}, {"days": "Sun", "time": "Closed"}], "id": "4786200002", "name": "USPS COLLECTION BOX - PO LOBBY", "address": {"city": "MONTEZUMA", "state": "IN", "street": "932 N WASHINGTON ST", "postcode": "47862"}}},
{"geometry": {"type": "Point", "coordinates": [-87.4623467966, 39.5811701062]}, "type": "Feature", "properties": {"collection_times": [{"days": "Mon-Fri", "time": "4:30pm"}, {"days": "Sat", "time": "10:45am"}, {"days": "Sun", "time": "Closed"}], "id": "4786300001", "name": "USPS COLLECTION BOX - BLUE BOX", "address": {"city": "NEW GOSHEN", "state": "IN", "street": "2785 DURKEES FERRY RD", "postcode": "47863"}}},
{"geometry": {"type": "Point", "coordinates": [-87.4623467966, 39.5811701062]}, "type": "Feature", "properties": {"collection_times": [{"days": "Mon-Fri", "time": "11:15am"}, {"days": "Sat", "time": "10:45am"}, {"days": "Sun", "time": "Closed"}], "id": "4786300002", "name": "USPS COLLECTION BOX - PO LOBBY", "address": {"city": "NEW GOSHEN", "state": "IN", "street": "2785 DURKEES FERRY RD", "postcode": "47863"}}},
{"geometry": {"type": "Point", "coordinates": [-87.3812571106, 39.3100461652]}, "type": "Feature", "properties": {"collection_times": [{"days": "Mon-Fri", "time": "1:15pm"}, {"days": "Sat", "time": "11:45am"}, {"days": "Sun", "time": "Closed"}], "id": "4786600001", "name": "USPS COLLECTION BOX - BLUE BOX", "address": {"city": "PIMENTO", "state": "IN", "street": "2378 E COTTOM DR", "postcode": "47866"}}},
{"geometry": {"type": "Point", "coordinates": [-87.3812571106, 39.3100461652]}, "type": "Feature", "properties": {"collection_times": [{"days": "Mon-Sat", "time": "11:45am"}, {"days": "Sun", "time": "Closed"}], "id": "4786600002", "name": "USPS COLLECTION BOX - PO LOBBY", "address": {"city": "PIMENTO", "state": "IN", "street": "2378 E COTTOM DR", "postcode": "47866"}}},
{"geometry": {"type": "Point", "coordinates": [-86.9516358771, 39.4440590879]}, "type": "Feature", "properties": {"collection_times": [{"days": "Mon-Fri", "time": "4:00pm"}, {"days": "Sat", "time": "11:15am"}, {"days": "Sun", "time": "Closed"}], "id": "4786800001", "name": "USPS COLLECTION BOX - BLUE BOX", "address": {"city": "POLAND", "state": "IN", "street": "8460 E STATE ROAD 42", "postcode": "47868"}}},
{"geometry": {"type": "Point", "coordinates": [-86.8617255405, 39.4366354543]}, "type": "Feature", "properties": {"collection_times": [{"days": "Mon-Sat", "time": "10:30am"}, {"days": "Sun", "time": "Closed"}], "id": "4786800002", "name": "USPS COLLECTION BOX - BLUE BOX", "address": {"city": "POLAND", "state": "IN", "street": "10135 TEN HIGH DR", "postcode": "47868"}}},
{"geometry": {"type": "Point", "coordinates": [-86.9516358771, 39.4440590879]}, "type": "Feature", "properties": {"collection_times": [{"days": "Mon-Fri", "time": "3:45pm"}, {"days": "Sat", "time": "11:15am"}, {"days": "Sun", "time": "Closed"}], "id": "4786800003", "name": "USPS COLLECTION BOX - PO LOBBY", "address": {"city": "POLAND", "state": "IN", "street": "8460 E STATE ROAD 42", "postcode": "47868"}}},
{"geometry": {"type": "Point", "coordinates": [-87.4979321203, 39.2738013927]}, "type": "Feature", "properties": {"collection_times": [{"days": "Mon-Fri", "time": "4:00pm"}, {"days": "Sat", "time": "10:30am"}, {"days": "Sun", "time": "Closed"}], "id": "4786900000", "name": "USPS COLLECTION BOX - BLUE BOX", "address": {"city": "PRAIRIE CREEK", "state": "IN", "street": "15907 STATE ROAD 63", "postcode": "47869"}}},
{"geometry": {"type": "Point", "coordinates": [-87.4979321203, 39.2738013927]}, "type": "Feature", "properties": {"collection_times": [{"days": "Mon-Fri", "time": "11:45am"}, {"days": "Sat", "time": "10:30am"}, {"days": "Sun", "time": "Closed"}], "id": "4786900001", "name": "USPS COLLECTION BOX - PO LOBBY", "address": {"city": "PRAIRIE CREEK", "state": "IN", "street": "15907 STATE ROAD 63", "postcode": "47869"}}},
{"geometry": {"type": "Point", "coordinates": [-87.4743296974, 39.3698951125]}, "type": "Feature", "properties": {"collection_times": [{"days": "Mon-Fri", "time": "4:15pm"}, {"days": "Sat", "time": "10:45am"}, {"days": "Sun", "time": "Closed"}], "id": "4787000001", "name": "USPS COLLECTION BOX - BLUE BOX", "address": {"city": "PRAIRIETON", "state": "IN", "street": "3645 MURPHY RD", "postcode": "47870"}}},
{"geometry": {"type": "Point", "coordinates": [-87.4737050864, 39.3698055587]}, "type": "Feature", "properties": {"collection_times": [{"days": "Mon-Fri", "time": "11:15am"}, {"days": "Sat", "time": "10:45am"}, {"days": "Sun", "time": "Closed"}], "id": "4787000002", "name": "USPS COLLECTION BOX - PO LOBBY", "address": {"city": "PRAIRIETON", "state": "IN", "street": "3645 MURPHY RD", "postcode": "47870"}}},
{"geometry": {"type": "Point", "coordinates": [-87.2974994724, 39.390263896]}, "type": "Feature", "properties": {"collection_times": [{"days": "Mon-Fri", "time": "4:15pm"}, {"days": "Sat", "time": "10:15am"}, {"days": "Sun", "time": "Closed"}], "id": "4787100001", "name": "USPS COLLECTION BOX - BLUE BOX", "address": {"city": "RILEY", "state": "IN", "street": "7800 STATE ROAD 46 E", "postcode": "47871"}}},
{"geometry": {"type": "Point", "coordinates": [-87.2974994724, 39.390263896]}, "type": "Feature", "properties": {"collection_times": [{"days": "Mon-Fri", "time": "4:15pm"}, {"days": "Sat", "time": "10:15am"}, {"days": "Sun", "time": "Closed"}], "id": "4787100002", "name": "USPS COLLECTION BOX - PO LOBBY", "address": {"city": "RILEY", "state": "IN", "street": "7800 STATE ROAD 46 E", "postcode": "47871"}}},
{"geometry": {"type": "Point", "coordinates": [-87.2289338079, 39.7625642456]}, "type": "Feature", "properties": {"collection_times": [{"days": "Mon-Fri", "time": "4:00pm"}, {"days": "Sat", "time": "11:00am"}, {"days": "Sun", "time": "Closed"}], "id": "4787200001", "name": "USPS COLLECTION BOX - BLUE BOX", "address": {"city": "ROCKVILLE", "state": "IN", "street": "102 N MARKET ST", "postcode": "47872"}}},
{"geometry": {"type": "Point", "coordinates": [-87.2289338079, 39.7625642456]}, "type": "Feature", "properties": {"collection_times": [{"days": "Mon-Fri", "time": "4:00pm"}, {"days": "Sat", "time": "11:00am"}, {"days": "Sun", "time": "Closed"}], "id": "4787200004", "name": "USPS COLLECTION BOX - BLUE BOX", "address": {"city": "ROCKVILLE", "state": "IN", "street": "102 N MARKET ST", "postcode": "47872"}}},
{"geometry": {"type": "Point", "coordinates": [-87.2289338079, 39.7625642456]}, "type": "Feature", "properties": {"collection_times": [{"days": "Mon-Fri", "time": "4:00pm"}, {"days": "Sat", "time": "11:00am"}, {"days": "Sun", "time": "Closed"}], "id": "4787200005", "name": "USPS COLLECTION BOX - BLUE BOX", "address": {"city": "ROCKVILLE", "state": "IN", "street": "102 N MARKET ST", "postcode": "47872"}}},
{"geometry": {"type": "Point", "coordinates": [-87.2289338079, 39.7625642456]}, "type": "Feature", "properties": {"collection_times": [{"days": "Mon-Fri", "time": "4:00pm"}, {"days": "Sat", "time": "11:00am"}, {"days": "Sun", "time": "Closed"}], "id": "4787200006", "name": "USPS COLLECTION BOX - PO LOBBY", "address": {"city": "ROCKVILLE", "state": "IN", "street": "102 N MARKET ST", "postcode": "47872"}}},
{"geometry": {"type": "Point", "coordinates": [-87.2830998537, 39.6228339744]}, "type": "Feature", "properties": {"collection_times": [{"days": "Mon-Fri", "time": "3:45pm"}, {"days": "Sat", "time": "10:45am"}, {"days": "Sun", "time": "Closed"}], "id": "4787400001", "name": "USPS COLLECTION BOX - BLUE BOX", "address": {"city": "ROSEDALE", "state": "IN", "street": "55 N MAIN ST", "postcode": "47874"}}},
{"geometry": {"type": "Point", "coordinates": [-87.2830998537, 39.6228339744]}, "type": "Feature", "properties": {"collection_times": [{"days": "Mon-Fri", "time": "3:45pm"}, {"days": "Sat", "time": "10:45am"}, {"days": "Sun", "time": "Closed"}], "id": "4787400002", "name": "USPS COLLECTION BOX - PO LOBBY", "address": {"city": "ROSEDALE", "state": "IN", "street": "55 N MAIN ST", "postcode": "47874"}}},
{"geometry": {"type": "Point", "coordinates": [-87.5215224923, 39.7100466731]}, "type": "Feature", "properties": {"collection_times": [{"days": "Mon-Fri", "time": "4:30pm"}, {"days": "Sat", "time": "11:00am"}, {"days": "Sun", "time": "Closed"}], "id": "4787500001", "name": "USPS COLLECTION BOX - PO LOBBY", "address": {"city": "SAINT BERNICE", "state": "IN", "street": "3039 W BROADWAY ST", "postcode": "47875"}}},
{"geometry": {"type": "Point", "coordinates": [-87.5215224923, 39.7100466731]}, "type": "Feature", "properties": {"collection_times": [{"days": "Mon-Fri", "time": "4:30pm"}, {"days": "Sat", "time": "11:00am"}, {"days": "Sun", "time": "Closed"}], "id": "4787500002", "name": "USPS COLLECTION BOX - BLUE BOX", "address": {"city": "SAINT BERNICE", "state": "IN", "street": "3039 W BROADWAY ST", "postcode": "47875"}}},
{"geometry": {"type": "Point", "coordinates": [-87.4596231517, 39.5087370655]}, "type": "Feature", "properties": {"collection_times": [{"days": "Mon-Fri", "time": "4:00pm"}, {"days": "Sat", "time": "10:00am"}, {"days": "Sun", "time": "Closed"}], "id": "4787600000", "name": "USPS COLLECTION BOX - BLUE BOX", "address": {"city": "ST MARY OF WD", "state": "IN", "street": "3678 N ARMS PL", "postcode": "47876"}}},
{"geometry": {"type": "Point", "coordinates": [-87.4596231517, 39.5087370655]}, "type": "Feature", "properties": {"collection_times": [{"days": "Mon-Fri", "time": "4:00pm"}, {"days": "Sat", "time": "10:00am"}, {"days": "Sun", "time": "Closed"}], "id": "4787600001", "name": "USPS COLLECTION BOX - PO LOBBY", "address": {"city": "ST MARY OF WD", "state": "IN", "street": "3678 N ARMS PL", "postcode": "47876"}}},
{"geometry": {"type": "Point", "coordinates": [-87.2696935126, 39.4938471425]}, "type": "Feature", "properties": {"collection_times": [{"days": "Mon-Fri", "time": "2:45pm"}, {"days": "Sat", "time": "11:00am"}, {"days": "Sun", "time": "Closed"}], "id": "4787800001", "name": "USPS COLLECTION BOX - PO LOBBY", "address": {"city": "SEELYVILLE", "state": "IN", "street": "9538 E US HIGHWAY 40", "postcode": "47878"}}},
{"geometry": {"type": "Point", "coordinates": [-87.2696935126, 39.4938471425]}, "type": "Feature", "properties": {"collection_times": [{"days": "Mon-Fri", "time": "4:00pm"}, {"days": "Sat", "time": "11:00am"}, {"days": "Sun", "time": "Closed"}], "id": "4787800002", "name": "USPS COLLECTION BOX - BLUE BOX", "address": {"city": "SEELYVILLE", "state": "IN", "street": "9538 E US HIGHWAY 40", "postcode": "47878"}}},
{"geometry": {"type": "Point", "coordinates": [-87.3933976985, 39.1781030394]}, "type": "Feature", "properties": {"collection_times": [{"days": "Mon-Fri", "time": "2:30pm"}, {"days": "Sat", "time": "10:30am"}, {"days": "Sun", "time": "Closed"}], "id": "4787900001", "name": "USPS COLLECTION BOX - PO LOBBY", "address": {"city": "SHELBURN", "state": "IN", "street": "13 N RAILROAD ST", "postcode": "47879"}}},
{"geometry": {"type": "Point", "coordinates": [-87.3933976985, 39.1781030394]}, "type": "Feature", "properties": {"collection_times": [{"days": "Mon-Fri", "time": "4:00pm"}, {"days": "Sat", "time": "10:30am"}, {"days": "Sun", "time": "Closed"}], "id": "4787900002", "name": "USPS COLLECTION BOX - BLUE BOX", "address": {"city": "SHELBURN", "state": "IN", "street": "13 N RAILROAD ST", "postcode": "47879"}}},
{"geometry": {"type": "Point", "coordinates": [-87.3987504007, 39.1860239481]}, "type": "Feature", "properties": {"collection_times": [{"days": "Mon-Sat", "time": "11:30am"}, {"days": "Sun", "time": "Closed"}], "id": "4787900003", "name": "USPS COLLECTION BOX - BLUE BOX", "address": {"city": "SHELBURN", "state": "IN", "street": "6959 N US HIGHWAY 41", "postcode": "47879"}}},
{"geometry": {"type": "Point", "coordinates": [-87.4189077156, 39.6006320193]}, "type": "Feature", "properties": {"collection_times": [{"days": "Mon-Fri", "time": "2:30pm"}, {"days": "Sat", "time": "10:30am"}, {"days": "Sun", "time": "Closed"}], "id": "4788000000", "name": "USPS COLLECTION BOX - BLUE BOX", "address": {"city": "SHEPARDSVILLE", "state": "IN", "street": "90 E TRINITY AVE", "postcode": "47880"}}},
{"geometry": {"type": "Point", "coordinates": [-87.4189077156, 39.6006320193]}, "type": "Feature", "properties": {"collection_times": [{"days": "Mon-Fri", "time": "2:30pm"}, {"days": "Sat", "time": "10:30am"}, {"days": "Sun", "time": "Closed"}], "id": "4788000001", "name": "USPS COLLECTION BOX - PO LOBBY", "address": {"city": "SHEPARDSVILLE", "state": "IN", "street": "90 E TRINITY AVE", "postcode": "47880"}}},
{"geometry": {"type": "Point", "coordinates": [-87.188782653, 39.4875469113]}, "type": "Feature", "properties": {"collection_times": [{"days": "Mon-Fri", "time": "3:30pm"}, {"days": "Sat", "time": "10:45am"}, {"days": "Sun", "time": "Closed"}], "id": "4788100001", "name": "USPS COLLECTION BOX - BLUE BOX", "address": {"city": "STAUNTON", "state": "IN", "street": "103 E COLUMBUS ST", "postcode": "47881"}}},
{"geometry": {"type": "Point", "coordinates": [-87.188782653, 39.4875469113]}, "type": "Feature", "properties": {"collection_times": [{"days": "Mon-Fri", "time": "2:15pm"}, {"days": "Sat", "time": "10:15am"}, {"days": "Sun", "time": "Closed"}], "id": "4788100002", "name": "USPS COLLECTION BOX - PO LOBBY", "address": {"city": "STAUNTON", "state": "IN", "street": "103 E COLUMBUS ST", "postcode": "47881"}}},
{"geometry": {"type": "Point", "coordinates": [-87.4057862466, 39.0953423785]}, "type": "Feature", "properties": {"collection_times": [{"days": "Mon-Fri", "time": "4:30pm"}, {"days": "Sat", "time": "12:00pm"}, {"days": "Sun", "time": "Closed"}], "id": "4788200005", "name": "USPS COLLECTION BOX - BLUE BOX", "address": {"city": "SULLIVAN", "state": "IN", "street": "103 E WASHINGTON ST", "postcode": "47882"}}},
{"geometry": {"type": "Point", "coordinates": [-87.4057862466, 39.0953423785]}, "type": "Feature", "properties": {"collection_times": [{"days": "Mon-Fri", "time": "4:30pm"}, {"days": "Sat", "time": "12:00pm"}, {"days": "Sun", "time": "Closed"}], "id": "4788200006", "name": "USPS COLLECTION BOX - BLUE BOX", "address": {"city": "SULLIVAN", "state": "IN", "street": "103 E WASHINGTON ST", "postcode": "47882"}}},
{"geometry": {"type": "Point", "coordinates": [-87.4084718215, 39.0950138116]}, "type": "Feature", "properties": {"collection_times": [{"days": "Mon-Fri", "time": "3:30pm"}, {"days": "Sat", "time": "12:00pm"}, {"days": "Sun", "time": "Closed"}], "id": "4788200008", "name": "USPS COLLECTION BOX - BLUE BOX", "address": {"city": "SULLIVAN", "state": "IN", "street": "32 S COURT ST", "postcode": "47882"}}},
{"geometry": {"type": "Point", "coordinates": [-87.4070091925, 39.0943624962]}, "type": "Feature", "properties": {"collection_times": [{"days": "Mon-Fri", "time": "3:30pm"}, {"days": "Sat", "time": "12:00pm"}, {"days": "Sun", "time": "Closed"}], "id": "4788200009", "name": "USPS COLLECTION BOX - BLUE BOX", "address": {"city": "SULLIVAN", "state": "IN", "street": "101 S MAIN ST", "postcode": "47882"}}},
{"geometry": {"type": "Point", "coordinates": [-87.4057862466, 39.0953423785]}, "type": "Feature", "properties": {"collection_times": [{"days": "Mon-Fri", "time": "4:30pm"}, {"days": "Sat", "time": "12:00pm"}, {"days": "Sun", "time": "Closed"}], "id": "4788200012", "name": "USPS COLLECTION BOX - BLUE BOX", "address": {"city": "SULLIVAN", "state": "IN", "street": "103 E WASHINGTON ST", "postcode": "47882"}}},
{"geometry": {"type": "Point", "coordinates": [-87.4057862466, 39.0953423785]}, "type": "Feature", "properties": {"collection_times": [{"days": "Mon-Fri", "time": "4:30pm"}, {"days": "Sat", "time": "12:00pm"}, {"days": "Sun", "time": "Closed"}], "id": "4788200020", "name": "USPS COLLECTION BOX - BLUE BOX", "address": {"city": "SULLIVAN", "state": "IN", "street": "103 E WASHINGTON ST", "postcode": "47882"}}},
{"geometry": {"type": "Point", "coordinates": [-87.4084529249, 39.0955076498]}, "type": "Feature", "properties": {"collection_times": [{"days": "Mon-Fri", "time": "3:30pm"}, {"days": "Sat", "time": "12:00pm"}, {"days": "Sun", "time": "Closed"}], "id": "4788200022", "name": "USPS COLLECTION BOX - BLUE BOX", "address": {"city": "SULLIVAN", "state": "IN", "street": "32 S COURT ST", "postcode": "47882"}}},
{"geometry": {"type": "Point", "coordinates": [-87.4516030685, 39.6221766844]}, "type": "Feature", "properties": {"collection_times": [{"days": "Mon-Fri", "time": "4:00pm"}, {"days": "Sat", "time": "10:30am"}, {"days": "Sun", "time": "Closed"}], "id": "4788400000", "name": "USPS COLLECTION BOX - BLUE BOX", "address": {"city": "UNIVERSAL", "state": "IN", "street": "552 E WOOD AVE", "postcode": "47884"}}},
{"geometry": {"type": "Point", "coordinates": [-87.4516030685, 39.6221766844]}, "type": "Feature", "properties": {"collection_times": [{"days": "Mon-Fri", "time": "11:45am"}, {"days": "Sat", "time": "10:30am"}, {"days": "Sun", "time": "Closed"}], "id": "4788400001", "name": "USPS COLLECTION BOX - PO LOBBY", "address": {"city": "UNIVERSAL", "state": "IN", "street": "552 E WOOD AVE", "postcode": "47884"}}},
{"geometry": {"type": "Point", "coordinates": [-87.4461019562, 39.4653011559]}, "type": "Feature", "properties": {"collection_times": [{"days": "Mon-Fri", "time": "5:00pm"}, {"days": "Sat", "time": "4:00pm"}, {"days": "Sun", "time": "Closed"}], "id": "4788500001", "name": "USPS COLLECTION BOX - BLUE BOX", "address": {"city": "W TERRE HAUTE", "state": "IN", "street": "29 S 3RD ST", "postcode": "47885"}}},
{"geometry": {"type": "Point", "coordinates": [-87.4461019562, 39.4653011559]}, "type": "Feature", "properties": {"collection_times": [{"days": "Mon-Fri", "time": "4:00pm"}, {"days": "Sat", "time": "10:00am"}, {"days": "Sun", "time": "Closed"}], "id": "4788500003", "name": "USPS COLLECTION BOX - PO LOBBY", "address": {"city": "W TERRE HAUTE", "state": "IN", "street": "29 S 3RD ST", "postcode": "47885"}}}
]}
