{"type": "FeatureCollection", "features": [
{"geometry": {"type": "Point", "coordinates": [-86.8906902872, 40.4175124609]}, "type": "Feature", "properties": {"collection_times": [{"days": "Mon-Fri", "time": "2:30pm"}, {"days": "Sat", "time": "2:15pm"}, {"days": "Sun", "time": "Closed"}], "id": "4790100018", "name": "USPS COLLECTION BOX - BLUE BOX", "address": {"city": "LAFAYETTE", "state": "IN", "street": "20 N 6TH ST", "postcode": "47901"}}},
{"geometry": {"type": "Point", "coordinates": [-86.8942010176, 40.4194110053]}, "type": "Feature", "properties": {"collection_times": [{"days": "Mon-Fri", "time": "4:45pm"}, {"days": "Sat", "time": "2:30pm"}, {"days": "Sun", "time": "Closed"}], "id": "4790100055", "name": "USPS COLLECTION BOX - BLUE BOX", "address": {"city": "LAFAYETTE", "state": "IN", "street": "231 N 3RD ST", "postcode": "47901"}}},
{"geometry": {"type": "Point", "coordinates": [-86.8873940206, 40.4191810481]}, "type": "Feature", "properties": {"collection_times": [{"days": "Mon-Fri", "time": "2:30pm"}, {"days": "Sat", "time": "2:15pm"}, {"days": "Sun", "time": "Closed"}], "id": "4790100059", "name": "USPS COLLECTION BOX - BLUE BOX", "address": {"city": "LAFAYETTE", "state": "IN", "street": "834 MAIN ST", "postcode": "47901"}}},
{"geometry": {"type": "Point", "coordinates": [-86.8931477156, 40.4194249775]}, "type": "Feature", "properties": {"collection_times": [{"days": "Mon-Fri", "time": "4:45pm"}, {"days": "Sat", "time": "2:30pm"}, {"days": "Sun", "time": "Closed"}], "id": "4790100077", "name": "USPS COLLECTION BOX - BLUE BOX", "address": {"city": "LAFAYETTE", "state": "IN", "street": "230 N 4TH ST", "postcode": "47901"}}},
{"geometry": {"type": "Point", "coordinates": [-86.8931477156, 40.4194249775]}, "type": "Feature", "properties": {"collection_times": [{"days": "Mon-Fri", "time": "4:45pm"}, {"days": "Sat", "time": "2:30pm"}, {"days": "Sun", "time": "Closed"}], "id": "4790100090", "name": "USPS COLLECTION BOX - BLUE BOX", "address": {"city": "LAFAYETTE", "state": "IN", "street": "230 N 4TH ST", "postcode": "47901"}}},
{"geometry": {"type": "Point", "coordinates": [-86.8931477156, 40.4194249775]}, "type": "Feature", "properties": {"collection_times": [{"days": "Mon-Fri", "time": "4:45pm"}, {"days": "Sat", "time": "2:30pm"}, {"days": "Sun", "time": "Closed"}], "id": "4790100091", "name": "USPS COLLECTION BOX - BLUE BOX", "address": {"city": "LAFAYETTE", "state": "IN", "street": "230 N 4TH ST", "postcode": "47901"}}},
{"geometry": {"type": "Point", "coordinates": [-86.8931477156, 40.4194249775]}, "type": "Feature", "properties": {"collection_times": [{"days": "Mon-Fri", "time": "4:45pm"}, {"days": "Sat", "time": "2:30pm"}, {"days": "Sun", "time": "Closed"}], "id": "4790100092", "name": "USPS COLLECTION BOX - BLUE BOX", "address": {"city": "LAFAYETTE", "state": "IN", "street": "230 N 4TH ST", "postcode": "47901"}}},
{"geometry": {"type": "Point", "coordinates": [-86.8942010176, 40.4194110053]}, "type": "Feature", "properties": {"collection_times": [{"days": "Mon-Fri", "time": "4:45pm"}, {"days": "Sat", "time": "2:30pm"}, {"days": "Sun", "time": "Closed"}], "id": "4790100093", "name": "USPS COLLECTION BOX - BLUE BOX", "address": {"city": "LAFAYETTE", "state": "IN", "street": "231 N 3RD ST", "postcode": "47901"}}},
{"geometry": {"type": "Point", "coordinates": [-86.8942010176, 40.4194110053]}, "type": "Feature", "properties": {"collection_times": [{"days": "Mon-Fri", "time": "4:45pm"}, {"days": "Sat", "time": "2:30pm"}, {"days": "Sun", "time": "Closed"}], "id": "4790100094", "name": "USPS COLLECTION BOX - BLUE BOX", "address": {"city": "LAFAYETTE", "state": "IN", "street": "231 N 3RD ST", "postcode": "47901"}}},
{"geometry": {"type": "Point", "coordinates": [-86.8542761537, 40.4176831398]}, "type": "Feature", "properties": {"collection_times": [{"days": "Mon-Sat", "time": "5:00pm"}, {"days": "Sun", "time": "Closed"}], "id": "4790100106", "name": "USPS COLLECTION BOX - BLUE BOX", "address": {"city": "LAFAYETTE", "state": "IN", "street": "3450 SOUTH ST", "postcode": "47901"}}},
{"geometry": {"type": "Point", "coordinates": [-86.8542761537, 40.4176831398]}, "type": "Feature", "properties": {"collection_times": [{"days": "Mon-Sat", "time": "5:00pm"}, {"days": "Sun", "time": "Closed"}], "id": "4790100113", "name": "USPS COLLECTION BOX - PO LOBBY", "address": {"city": "LAFAYETTE", "state": "IN", "street": "3450 SOUTH ST", "postcode": "47901"}}},
{"geometry": {"type": "Point", "coordinates": [-86.8542761537, 40.4176831398]}, "type": "Feature", "properties": {"collection_times": [{"days": "Mon-Sat", "time": "5:00pm"}, {"days": "Sun", "time": "Closed"}], "id": "4790100118", "name": "USPS COLLECTION BOX - APC", "address": {"city": "LAFAYETTE", "state": "IN", "street": "3450 SOUTH ST", "postcode": "47901"}}},
{"geometry": {"type": "Point", "coordinates": [-86.8931477156, 40.4194249775]}, "type": "Feature", "properties": {"collection_times": [{"days": "Mon-Fri", "time": "5:00pm"}, {"days": "Sat", "time": "12:00pm"}, {"days": "Sun", "time": "Closed"}], "id": "4790100119", "name": "USPS COLLECTION BOX - PO LOBBY", "address": {"city": "LAFAYETTE", "state": "IN", "street": "230 N 4TH ST", "postcode": "47901"}}},
{"geometry": {"type": "Point", "coordinates": [-86.8931477156, 40.4194249775]}, "type": "Feature", "properties": {"collection_times": [{"days": "Mon-Fri", "time": "5:00pm"}, {"days": "Sat", "time": "12:00pm"}, {"days": "Sun", "time": "Closed"}], "id": "4790100120", "name": "USPS COLLECTION BOX - PO LOBBY", "address": {"city": "LAFAYETTE", "state": "IN", "street": "230 N 4TH ST", "postcode": "47901"}}},
{"geometry": {"type": "Point", "coordinates": [-86.89191029, 40.4175102605]}, "type": "Feature", "properties": {"collection_times": [{"days": "Mon-Fri", "time": "2:30pm"}, {"days": "Sat", "time": "2:15pm"}, {"days": "Sun", "time": "Closed"}], "id": "4790100126", "name": "USPS COLLECTION BOX - BLUE BOX", "address": {"city": "LAFAYETTE", "state": "IN", "street": "20 N 5TH ST", "postcode": "47901"}}},
{"geometry": {"type": "Point", "coordinates": [-86.8580411589, 40.4299382708]}, "type": "Feature", "properties": {"collection_times": [{"days": "Mon-Fri", "time": "3:30pm"}, {"days": "Sat", "time": "3:00pm"}, {"days": "Sun", "time": "Closed"}], "id": "4790400001", "name": "USPS COLLECTION BOX - BLUE BOX", "address": {"city": "LAFAYETTE", "state": "IN", "street": "1241 SAGAMORE PKWY N", "postcode": "47904"}}},
{"geometry": {"type": "Point", "coordinates": [-86.8716758146, 40.4293794797]}, "type": "Feature", "properties": {"collection_times": [{"days": "Mon-Fri", "time": "3:15pm"}, {"days": "Sat", "time": "3:00pm"}, {"days": "Sun", "time": "Closed"}], "id": "4790400002", "name": "USPS COLLECTION BOX - BLUE BOX", "address": {"city": "LAFAYETTE", "state": "IN", "street": "2200 ELMWOOD AVE", "postcode": "47904"}}},
{"geometry": {"type": "Point", "coordinates": [-86.8755694427, 40.4145325254]}, "type": "Feature", "properties": {"collection_times": [{"days": "Mon-Sat", "time": "2:15pm"}, {"days": "Sun", "time": "Closed"}], "id": "4790400003", "name": "USPS COLLECTION BOX - BLUE BOX", "address": {"city": "LAFAYETTE", "state": "IN", "street": "1901 MAIN ST", "postcode": "47904"}}},
{"geometry": {"type": "Point", "coordinates": [-86.8741075915, 40.4248055513]}, "type": "Feature", "properties": {"collection_times": [{"days": "Mon-Fri", "time": "3:15pm"}, {"days": "Sat", "time": "2:30pm"}, {"days": "Sun", "time": "Closed"}], "id": "4790400004", "name": "USPS COLLECTION BOX - BLUE BOX", "address": {"city": "LAFAYETTE", "state": "IN", "street": "2020 UNION ST", "postcode": "47904"}}},
{"geometry": {"type": "Point", "coordinates": [-86.8823712809, 40.4311832381]}, "type": "Feature", "properties": {"collection_times": [{"days": "Mon-Fri", "time": "3:15pm"}, {"days": "Sat", "time": "2:45pm"}, {"days": "Sun", "time": "Closed"}], "id": "4790400005", "name": "USPS COLLECTION BOX - BLUE BOX", "address": {"city": "LAFAYETTE", "state": "IN", "street": "1400 N 14TH ST", "postcode": "47904"}}},
{"geometry": {"type": "Point", "coordinates": [-86.8700207145, 40.3955366724]}, "type": "Feature", "properties": {"collection_times": [{"days": "Mon-Fri", "time": "2:45pm"}, {"days": "Sat", "time": "2:15pm"}, {"days": "Sun", "time": "Closed"}], "id": "4790500001", "name": "USPS COLLECTION BOX - BLUE BOX", "address": {"city": "LAFAYETTE", "state": "IN", "street": "2300 TEAL RD", "postcode": "47905"}}},
{"geometry": {"type": "Point", "coordinates": [-86.8700207145, 40.3955366724]}, "type": "Feature", "properties": {"collection_times": [{"days": "Mon-Fri", "time": "2:45pm"}, {"days": "Sat", "time": "2:15pm"}, {"days": "Sun", "time": "Closed"}], "id": "4790500002", "name": "USPS COLLECTION BOX - BLUE BOX", "address": {"city": "LAFAYETTE", "state": "IN", "street": "2300 TEAL RD", "postcode": "47905"}}},
{"geometry": {"type": "Point", "coordinates": [-86.8700207145, 40.3955366724]}, "type": "Feature", "properties": {"collection_times": [{"days": "Mon-Fri", "time": "2:45pm"}, {"days": "Sat", "time": "2:15pm"}, {"days": "Sun", "time": "Closed"}], "id": "4790500003", "name": "USPS COLLECTION BOX - BLUE BOX", "address": {"city": "LAFAYETTE", "state": "IN", "street": "2300 TEAL RD", "postcode": "47905"}}},
{"geometry": {"type": "Point", "coordinates": [-86.8800034549, 40.3954452498]}, "type": "Feature", "properties": {"collection_times": [{"days": "Mon-Fri", "time": "2:45pm"}, {"days": "Sat", "time": "2:15pm"}, {"days": "Sun", "time": "Closed"}], "id": "4790500004", "name": "USPS COLLECTION BOX - BLUE BOX", "address": {"city": "LAFAYETTE", "state": "IN", "street": "1400 TEAL RD", "postcode": "47905"}}},
{"geometry": {"type": "Point", "coordinates": [-86.8550866713, 40.3989774169]}, "type": "Feature", "properties": {"collection_times": [{"days": "Mon-Fri", "time": "3:15pm"}, {"days": "Sat", "time": "3:00pm"}, {"days": "Sun", "time": "Closed"}], "id": "4790500005", "name": "USPS COLLECTION BOX - BLUE BOX", "address": {"city": "LAFAYETTE", "state": "IN", "street": "3450 STATE ROAD 38 E", "postcode": "47905"}}},
{"geometry": {"type": "Point", "coordinates": [-86.879120457, 40.4099825293]}, "type": "Feature", "properties": {"collection_times": [{"days": "Mon-Sat", "time": "2:15pm"}, {"days": "Sun", "time": "Closed"}], "id": "4790500006", "name": "USPS COLLECTION BOX - BLUE BOX", "address": {"city": "LAFAYETTE", "state": "IN", "street": "1533 KOSSUTH ST", "postcode": "47905"}}},
{"geometry": {"type": "Point", "coordinates": [-86.8509525091, 40.424029652]}, "type": "Feature", "properties": {"collection_times": [{"days": "Mon-Fri", "time": "3:30pm"}, {"days": "Sat", "time": "3:00pm"}, {"days": "Sun", "time": "Closed"}], "id": "4790500007", "name": "USPS COLLECTION BOX - BLUE BOX", "address": {"city": "LAFAYETTE", "state": "IN", "street": "646 N 36TH ST", "postcode": "47905"}}},
{"geometry": {"type": "Point", "coordinates": [-86.8336369681, 40.416262868]}, "type": "Feature", "properties": {"collection_times": [{"days": "Mon-Sat", "time": "3:15pm"}, {"days": "Sun", "time": "Closed"}], "id": "4790500008", "name": "USPS COLLECTION BOX - BLUE BOX", "address": {"city": "LAFAYETTE", "state": "IN", "street": "3825 SOUTH ST", "postcode": "47905"}}},
{"geometry": {"type": "Point", "coordinates": [-86.8700207145, 40.3955366724]}, "type": "Feature", "properties": {"collection_times": [{"days": "Mon-Fri", "time": "2:45pm"}, {"days": "Sat", "time": "2:15pm"}, {"days": "Sun", "time": "Closed"}], "id": "4790500009", "name": "USPS COLLECTION BOX - BLUE BOX", "address": {"city": "LAFAYETTE", "state": "IN", "street": "2300 TEAL RD", "postcode": "47905"}}},
{"geometry": {"type": "Point", "coordinates": [-86.9159343692, 40.4518470997]}, "type": "Feature", "properties": {"collection_times": [{"days": "Mon-Fri", "time": "5:00pm"}, {"days": "Sat", "time": "12:00pm"}, {"days": "Sun", "time": "Closed"}], "id": "4790600000", "name": "USPS COLLECTION BOX - PO LOBBY", "address": {"city": "LAFAYETTE", "state": "IN", "street": "610 W NAVAJO ST", "postcode": "47906"}}},
{"geometry": {"type": "Point", "coordinates": [-86.9159343692, 40.4518470997]}, "type": "Feature", "properties": {"collection_times": [{"days": "Mon-Fri", "time": "5:00pm"}, {"days": "Sat", "time": "3:30pm"}, {"days": "Sun", "time": "Closed"}], "id": "4790600002", "name": "USPS COLLECTION BOX - BLUE BOX", "address": {"city": "LAFAYETTE", "state": "IN", "street": "610 W NAVAJO ST", "postcode": "47906"}}},
{"geometry": {"type": "Point", "coordinates": [-86.9241109474, 40.4535074833]}, "type": "Feature", "properties": {"collection_times": [{"days": "Mon-Fri", "time": "3:00pm"}, {"days": "Sat", "time": "2:30pm"}, {"days": "Sun", "time": "Closed"}], "id": "4790600011", "name": "USPS COLLECTION BOX - BLUE BOX", "address": {"city": "LAFAYETTE", "state": "IN", "street": "1048 SAGAMORE PKWY W", "postcode": "47906"}}},
{"geometry": {"type": "Point", "coordinates": [-86.9074137336, 40.4224256041]}, "type": "Feature", "properties": {"collection_times": [{"days": "Mon-Fri", "time": "2:30pm"}, {"days": "Sat", "time": "2:15pm"}, {"days": "Sun", "time": "Closed"}], "id": "4790600016", "name": "USPS COLLECTION BOX - BLUE BOX", "address": {"city": "LAFAYETTE", "state": "IN", "street": "135 S CHAUNCEY AVE", "postcode": "47906"}}},
{"geometry": {"type": "Point", "coordinates": [-86.9129677544, 40.4314188984]}, "type": "Feature", "properties": {"collection_times": [{"days": "Mon-Fri", "time": "2:45pm"}, {"days": "Sat", "time": "2:15pm"}, {"days": "Sun", "time": "Closed"}], "id": "4790600026", "name": "USPS COLLECTION BOX - BLUE BOX", "address": {"city": "LAFAYETTE", "state": "IN", "street": "616 W STADIUM AVE", "postcode": "47906"}}},
{"geometry": {"type": "Point", "coordinates": [-86.9840366805, 40.4854358313]}, "type": "Feature", "properties": {"collection_times": [{"days": "Mon-Fri", "time": "5:00pm"}, {"days": "Sat", "time": "12:00pm"}, {"days": "Sun", "time": "Closed"}], "id": "4790600050", "name": "USPS COLLECTION BOX - APC", "address": {"city": "LAFAYETTE", "state": "IN", "street": "610 W NAVAJO ST", "postcode": "47906"}}},
{"geometry": {"type": "Point", "coordinates": [-86.916710837, 40.4262720244]}, "type": "Feature", "properties": {"collection_times": [{"days": "Mon-Fri", "time": "2:45pm"}, {"days": "Sat", "time": "2:15pm"}, {"days": "Sun", "time": "Closed"}], "id": "4790600053", "name": "USPS COLLECTION BOX - BLUE BOX", "address": {"city": "LAFAYETTE", "state": "IN", "street": "900 2ND ST", "postcode": "47906"}}},
{"geometry": {"type": "Point", "coordinates": [-87.0776367155, 40.4913305527]}, "type": "Feature", "properties": {"collection_times": [{"days": "Mon-Fri", "time": "11:30am"}, {"days": "Sat", "time": "11:00am"}, {"days": "Sun", "time": "Closed"}], "id": "4790600055", "name": "USPS COLLECTION BOX - BLUE BOX", "address": {"city": "LAFAYETTE", "state": "IN", "street": "9150 W 500 N", "postcode": "47906"}}},
{"geometry": {"type": "Point", "coordinates": [-86.92966, 40.424282]}, "type": "Feature", "properties": {"collection_times": [{"days": "Mon-Sat", "time": "11:00am"}, {"days": "Sun", "time": "Closed"}], "id": "4790600056", "name": "USPS COLLECTION BOX - BLUE BOX", "address": {"city": "LAFAYETTE", "state": "IN", "street": "1400 W STATE ST", "postcode": "47906"}}},
{"geometry": {"type": "Point", "coordinates": [-86.9034804211, 40.3878584783]}, "type": "Feature", "properties": {"collection_times": [{"days": "Mon-Fri", "time": "3:00pm"}, {"days": "Sat", "time": "2:30pm"}, {"days": "Sun", "time": "Closed"}], "id": "4790900001", "name": "USPS COLLECTION BOX - BLUE BOX", "address": {"city": "LAFAYETTE", "state": "IN", "street": "65 BECK LN", "postcode": "47909"}}},
{"geometry": {"type": "Point", "coordinates": [-86.8862071077, 40.3270836586]}, "type": "Feature", "properties": {"collection_times": [{"days": "Mon-Fri", "time": "3:00pm"}, {"days": "Sat", "time": "2:45pm"}, {"days": "Sun", "time": "Closed"}], "id": "4790900002", "name": "USPS COLLECTION BOX - BLUE BOX", "address": {"city": "LAFAYETTE", "state": "IN", "street": "1803 VETERANS MEMORIAL PKWY S", "postcode": "47909"}}},
{"geometry": {"type": "Point", "coordinates": [-86.8862071077, 40.3270836586]}, "type": "Feature", "properties": {"collection_times": [{"days": "Mon-Fri", "time": "3:00pm"}, {"days": "Sat", "time": "2:45pm"}, {"days": "Sun", "time": "Closed"}], "id": "4790900003", "name": "USPS COLLECTION BOX - BLUE BOX", "address": {"city": "LAFAYETTE", "state": "IN", "street": "1803 VETERANS MEMORIAL PKWY S", "postcode": "47909"}}},
{"geometry": {"type": "Point", "coordinates": [-86.8862071077, 40.3270836586]}, "type": "Feature", "properties": {"collection_times": [{"days": "Mon-Fri", "time": "3:00pm"}, {"days": "Sat", "time": "2:45pm"}, {"days": "Sun", "time": "Closed"}], "id": "4790900004", "name": "USPS COLLECTION BOX - BLUE BOX", "address": {"city": "LAFAYETTE", "state": "IN", "street": "1803 VETERANS MEMORIAL PKWY S", "postcode": "47909"}}},
{"geometry": {"type": "Point", "coordinates": [-86.8862071077, 40.3270836586]}, "type": "Feature", "properties": {"collection_times": [{"days": "Mon-Fri", "time": "3:00pm"}, {"days": "Sat", "time": "2:45pm"}, {"days": "Sun", "time": "Closed"}], "id": "4790900005", "name": "USPS COLLECTION BOX - BLUE BOX", "address": {"city": "LAFAYETTE", "state": "IN", "street": "1803 VETERANS MEMORIAL PKWY S", "postcode": "47909"}}},
{"geometry": {"type": "Point", "coordinates": [-87.0568840713, 39.9821981572]}, "type": "Feature", "properties": {"collection_times": [{"days": "Mon-Sat", "time": "9:00am"}, {"days": "Sun", "time": "Closed"}], "id": "4791600000", "name": "USPS COLLECTION BOX - BLUE BOX", "address": {"city": "ALAMO", "state": "IN", "street": "101 N FRANKLIN ST", "postcode": "47916"}}},
{"geometry": {"type": "Point", "coordinates": [-87.0568840713, 39.9821981572]}, "type": "Feature", "properties": {"collection_times": [{"days": "Mon-Sat", "time": "9:00am"}, {"days": "Sun", "time": "Closed"}], "id": "4791600001", "name": "USPS COLLECTION BOX - PO LOBBY", "address": {"city": "ALAMO", "state": "IN", "street": "101 N FRANKLIN ST", "postcode": "47916"}}},
{"geometry": {"type": "Point", "coordinates": [-87.5145069238, 40.4909608509]}, "type": "Feature", "properties": {"collection_times": [{"days": "Mon-Fri", "time": "4:15pm"}, {"days": "Sat", "time": "11:00am"}, {"days": "Sun", "time": "Closed"}], "id": "4791700000", "name": "USPS COLLECTION BOX - BLUE BOX", "address": {"city": "AMBIA", "state": "IN", "street": "109 E OAK ST", "postcode": "47917"}}},
{"geometry": {"type": "Point", "coordinates": [-87.5145069238, 40.4909608509]}, "type": "Feature", "properties": {"collection_times": [{"days": "Mon-Sat", "time": "10:45am"}, {"days": "Sun", "time": "Closed"}], "id": "4791700001", "name": "USPS COLLECTION BOX - PO LOBBY", "address": {"city": "AMBIA", "state": "IN", "street": "109 E OAK ST", "postcode": "47917"}}},
{"geometry": {"type": "Point", "coordinates": [-87.2487648744, 40.2942324797]}, "type": "Feature", "properties": {"collection_times": [{"days": "Mon-Fri", "time": "4:00pm"}, {"days": "Sat", "time": "12:00pm"}, {"days": "Sun", "time": "Closed"}], "id": "4791800016", "name": "USPS COLLECTION BOX - BLUE BOX", "address": {"city": "ATTICA", "state": "IN", "street": "107 E MAIN ST", "postcode": "47918"}}},
{"geometry": {"type": "Point", "coordinates": [-87.2487648744, 40.2942324797]}, "type": "Feature", "properties": {"collection_times": [{"days": "Mon-Fri", "time": "4:00pm"}, {"days": "Sat", "time": "12:00pm"}, {"days": "Sun", "time": "Closed"}], "id": "4791800017", "name": "USPS COLLECTION BOX - BLUE BOX", "address": {"city": "ATTICA", "state": "IN", "street": "107 E MAIN ST", "postcode": "47918"}}},
{"geometry": {"type": "Point", "coordinates": [-87.2487648744, 40.2942324797]}, "type": "Feature", "properties": {"collection_times": [{"days": "Mon-Fri", "time": "4:00pm"}, {"days": "Sat", "time": "12:00pm"}, {"days": "Sun", "time": "Closed"}], "id": "4791800018", "name": "USPS COLLECTION BOX - PO LOBBY", "address": {"city": "ATTICA", "state": "IN", "street": "107 E MAIN ST", "postcode": "47918"}}},
{"geometry": {"type": "Point", "coordinates": [-87.2487648744, 40.2942324797]}, "type": "Feature", "properties": {"collection_times": [{"days": "Mon-Fri", "time": "4:00pm"}, {"days": "Sat", "time": "12:00pm"}, {"days": "Sun", "time": "Closed"}], "id": "4791800019", "name": "USPS COLLECTION BOX - PO LOBBY", "address": {"city": "ATTICA", "state": "IN", "street": "107 E MAIN ST", "postcode": "47918"}}},
{"geometry": {"type": "Point", "coordinates": [-86.8383521605, 40.5101195203]}, "type": "Feature", "properties": {"collection_times": [{"days": "Mon-Fri", "time": "4:00pm"}, {"days": "Sat", "time": "10:45am"}, {"days": "Sun", "time": "Closed"}], "id": "4792000001", "name": "USPS COLLECTION BOX - BLUE BOX", "address": {"city": "BATTLE GROUND", "state": "IN", "street": "107 NORTH ST", "postcode": "47920"}}},
{"geometry": {"type": "Point", "coordinates": [-86.8383521605, 40.5101195203]}, "type": "Feature", "properties": {"collection_times": [{"days": "Mon-Fri", "time": "4:00pm"}, {"days": "Sat", "time": "10:45am"}, {"days": "Sun", "time": "Closed"}], "id": "4792000002", "name": "USPS COLLECTION BOX - PO LOBBY", "address": {"city": "BATTLE GROUND", "state": "IN", "street": "107 NORTH ST", "postcode": "47920"}}},
{"geometry": {"type": "Point", "coordinates": [-87.3788976576, 40.5166602736]}, "type": "Feature", "properties": {"collection_times": [{"days": "Mon-Fri", "time": "4:00pm"}, {"days": "Sat", "time": "11:00am"}, {"days": "Sun", "time": "Closed"}], "id": "4792100001", "name": "USPS COLLECTION BOX - BLUE BOX", "address": {"city": "BOSWELL", "state": "IN", "street": "302 E SPIES ST", "postcode": "47921"}}},
{"geometry": {"type": "Point", "coordinates": [-87.3788976576, 40.5166602736]}, "type": "Feature", "properties": {"collection_times": [{"days": "Mon-Fri", "time": "12:00pm"}, {"days": "Sat", "time": "11:00am"}, {"days": "Sun", "time": "Closed"}], "id": "4792100002", "name": "USPS COLLECTION BOX - PO LOBBY", "address": {"city": "BOSWELL", "state": "IN", "street": "302 E SPIES ST", "postcode": "47921"}}},
{"geometry": {"type": "Point", "coordinates": [-87.37838, 40.52029]}, "type": "Feature", "properties": {"collection_times": [{"days": "Mon-Sat", "time": "12:00pm"}, {"days": "Sun", "time": "Closed"}], "id": "4792100003", "name": "USPS COLLECTION BOX - BLUE BOX", "address": {"city": "BOSWELL", "state": "IN", "street": "207 N OLD US HIGHWAY 41", "postcode": "47921"}}},
{"geometry": {"type": "Point", "coordinates": [-87.4050550072, 40.8659592792]}, "type": "Feature", "properties": {"collection_times": [{"days": "Mon-Fri", "time": "3:30pm"}, {"days": "Sat", "time": "11:00am"}, {"days": "Sun", "time": "Closed"}], "id": "4792200001", "name": "USPS COLLECTION BOX - BLUE BOX", "address": {"city": "BROOK", "state": "IN", "street": "308 W MAIN ST", "postcode": "47922"}}},
{"geometry": {"type": "Point", "coordinates": [-87.4050550072, 40.8659592792]}, "type": "Feature", "properties": {"collection_times": [{"days": "Mon-Fri", "time": "3:30pm"}, {"days": "Sat", "time": "11:00am"}, {"days": "Sun", "time": "Closed"}], "id": "4792200002", "name": "USPS COLLECTION BOX - PO LOBBY", "address": {"city": "BROOK", "state": "IN", "street": "308 W MAIN ST", "postcode": "47922"}}},
{"geometry": {"type": "Point", "coordinates": [-86.8663668124, 40.603861909]}, "type": "Feature", "properties": {"collection_times": [{"days": "Mon-Fri", "time": "3:30pm"}, {"days": "Sat", "time": "10:00am"}, {"days": "Sun", "time": "Closed"}], "id": "4792300001", "name": "USPS COLLECTION BOX - BLUE BOX", "address": {"city": "BROOKSTON", "state": "IN", "street": "205 S SOUTH ST", "postcode": "47923"}}},
{"geometry": {"type": "Point", "coordinates": [-86.8663668124, 40.603861909]}, "type": "Feature", "properties": {"collection_times": [{"days": "Mon-Fri", "time": "3:30pm"}, {"days": "Sat", "time": "10:00am"}, {"days": "Sun", "time": "Closed"}], "id": "4792300002", "name": "USPS COLLECTION BOX - PO LOBBY", "address": {"city": "BROOKSTON", "state": "IN", "street": "205 S SOUTH ST", "postcode": "47923"}}},
{"geometry": {"type": "Point", "coordinates": [-86.7614977033, 40.4876380481]}, "type": "Feature", "properties": {"collection_times": [{"days": "Mon-Fri", "time": "4:00pm"}, {"days": "Sat", "time": "11:00am"}, {"days": "Sun", "time": "Closed"}], "id": "4792400001", "name": "USPS COLLECTION BOX - BLUE BOX", "address": {"city": "BUCK CREEK", "state": "IN", "street": "7424 RAILROAD ST", "postcode": "47924"}}},
{"geometry": {"type": "Point", "coordinates": [-86.7614977033, 40.4876380481]}, "type": "Feature", "properties": {"collection_times": [{"days": "Mon-Fri", "time": "4:15pm"}, {"days": "Sat", "time": "11:15am"}, {"days": "Sun", "time": "Closed"}], "id": "4792400002", "name": "USPS COLLECTION BOX - PO LOBBY", "address": {"city": "BUCK CREEK", "state": "IN", "street": "7424 RAILROAD ST", "postcode": "47924"}}},
{"geometry": {"type": "Point", "coordinates": [-86.7459187956, 40.8827143158]}, "type": "Feature", "properties": {"collection_times": [{"days": "Mon-Fri", "time": "4:30pm"}, {"days": "Sat", "time": "10:30am"}, {"days": "Sun", "time": "Closed"}], "id": "4792500001", "name": "USPS COLLECTION BOX - BLUE BOX", "address": {"city": "BUFFALO", "state": "IN", "street": "104 S MIDDLE ST", "postcode": "47925"}}},
{"geometry": {"type": "Point", "coordinates": [-86.7459187956, 40.8827143158]}, "type": "Feature", "properties": {"collection_times": [{"days": "Mon-Fri", "time": "12:00pm"}, {"days": "Sat", "time": "10:30am"}, {"days": "Sun", "time": "Closed"}], "id": "4792500002", "name": "USPS COLLECTION BOX - PO LOBBY", "address": {"city": "BUFFALO", "state": "IN", "street": "104 S MIDDLE ST", "postcode": "47925"}}},
{"geometry": {"type": "Point", "coordinates": [-86.5922006082, 40.7623291715]}, "type": "Feature", "properties": {"collection_times": [{"days": "Mon-Fri", "time": "4:00pm"}, {"days": "Sat", "time": "10:30am"}, {"days": "Sun", "time": "Closed"}], "id": "4792600001", "name": "USPS COLLECTION BOX - BLUE BOX", "address": {"city": "BURNETTSVILLE", "state": "IN", "street": "310 LOGAN ST", "postcode": "47926"}}},
{"geometry": {"type": "Point", "coordinates": [-86.5922006082, 40.7623291715]}, "type": "Feature", "properties": {"collection_times": [{"days": "Mon-Fri", "time": "11:45am"}, {"days": "Sat", "time": "10:30am"}, {"days": "Sun", "time": "Closed"}], "id": "4792600002", "name": "USPS COLLECTION BOX - PO LOBBY", "address": {"city": "BURNETTSVILLE", "state": "IN", "street": "310 LOGAN ST", "postcode": "47926"}}},
{"geometry": {"type": "Point", "coordinates": [-87.4631007634, 39.9493163577]}, "type": "Feature", "properties": {"collection_times": [{"days": "Mon-Fri", "time": "4:00pm"}, {"days": "Sat", "time": "11:15am"}, {"days": "Sun", "time": "Closed"}], "id": "4792800001", "name": "USPS COLLECTION BOX - BLUE BOX", "address": {"city": "CAYUGA", "state": "IN", "street": "200 W CURTIS ST", "postcode": "47928"}}},
{"geometry": {"type": "Point", "coordinates": [-87.4631007634, 39.9493163577]}, "type": "Feature", "properties": {"collection_times": [{"days": "Mon-Fri", "time": "4:15pm"}, {"days": "Sat", "time": "11:15am"}, {"days": "Sun", "time": "Closed"}], "id": "4792800002", "name": "USPS COLLECTION BOX - PO LOBBY", "address": {"city": "CAYUGA", "state": "IN", "street": "200 W CURTIS ST", "postcode": "47928"}}},
{"geometry": {"type": "Point", "coordinates": [-86.869286, 40.66215]}, "type": "Feature", "properties": {"collection_times": [{"days": "Mon-Fri", "time": "3:45pm"}, {"days": "Sat", "time": "10:45am"}, {"days": "Sun", "time": "Closed"}], "id": "4792900001", "name": "USPS COLLECTION BOX - BLUE BOX", "address": {"city": "CHALMERS", "state": "IN", "street": "108 E MAIN ST", "postcode": "47929"}}},
{"geometry": {"type": "Point", "coordinates": [-86.8683958676, 40.662177756]}, "type": "Feature", "properties": {"collection_times": [{"days": "Mon-Fri", "time": "11:45am"}, {"days": "Sat", "time": "10:45am"}, {"days": "Sun", "time": "Closed"}], "id": "4792900002", "name": "USPS COLLECTION BOX - PO LOBBY", "address": {"city": "CHALMERS", "state": "IN", "street": "108 E MAIN ST", "postcode": "47929"}}},
{"geometry": {"type": "Point", "coordinates": [-86.7250845323, 40.247835477]}, "type": "Feature", "properties": {"collection_times": [{"days": "Mon-Fri", "time": "4:00pm"}, {"days": "Sat", "time": "10:45am"}, {"days": "Sun", "time": "Closed"}], "id": "4793000001", "name": "USPS COLLECTION BOX - BLUE BOX", "address": {"city": "CLARKS HILL", "state": "IN", "street": "11750 CLARK ST", "postcode": "47930"}}},
{"geometry": {"type": "Point", "coordinates": [-86.7250845323, 40.247835477]}, "type": "Feature", "properties": {"collection_times": [{"days": "Mon-Fri", "time": "12:00pm"}, {"days": "Sat", "time": "10:45am"}, {"days": "Sun", "time": "Closed"}], "id": "4793000002", "name": "USPS COLLECTION BOX - PO LOBBY", "address": {"city": "CLARKS HILL", "state": "IN", "street": "11750 CLARK ST", "postcode": "47930"}}},
{"geometry": {"type": "Point", "coordinates": [-87.3961408006, 40.1367913039]}, "type": "Feature", "properties": {"collection_times": [{"days": "Mon-Fri", "time": "4:00pm"}, {"days": "Sat", "time": "3:00pm"}, {"days": "Sun", "time": "Closed"}], "id": "4793200001", "name": "USPS COLLECTION BOX - PO LOBBY", "address": {"city": "COVINGTON", "state": "IN", "street": "418 LIBERTY ST", "postcode": "47932"}}},
{"geometry": {"type": "Point", "coordinates": [-87.4513907137, 40.1273483628]}, "type": "Feature", "properties": {"collection_times": [{"days": "Mon-Sat", "time": "1:00pm"}, {"days": "Sun", "time": "Closed"}], "id": "4793200003", "name": "USPS COLLECTION BOX - BLUE BOX", "address": {"city": "COVINGTON", "state": "IN", "street": "16502 N STATE ROAD 63", "postcode": "47932"}}},
{"geometry": {"type": "Point", "coordinates": [-87.3963053655, 40.1367381176]}, "type": "Feature", "properties": {"collection_times": [{"days": "Mon-Fri", "time": "2:45pm"}, {"days": "Sat", "time": "3:00pm"}, {"days": "Sun", "time": "Closed"}], "id": "4793200005", "name": "USPS COLLECTION BOX - BLUE BOX", "address": {"city": "COVINGTON", "state": "IN", "street": "301 4TH ST", "postcode": "47932"}}},
{"geometry": {"type": "Point", "coordinates": [-87.3961408006, 40.1367913039]}, "type": "Feature", "properties": {"collection_times": [{"days": "Mon-Fri", "time": "4:00pm"}, {"days": "Sat", "time": "3:00pm"}, {"days": "Sun", "time": "Closed"}], "id": "4793200006", "name": "USPS COLLECTION BOX - BLUE BOX", "address": {"city": "COVINGTON", "state": "IN", "street": "418 LIBERTY ST", "postcode": "47932"}}},
{"geometry": {"type": "Point", "coordinates": [-86.9028950294, 40.041643309]}, "type": "Feature", "properties": {"collection_times": [{"days": "Mon-Fri", "time": "2:30pm"}, {"days": "Sat", "time": "12:00pm"}, {"days": "Sun", "time": "Closed"}], "id": "4793300005", "name": "USPS COLLECTION BOX - BLUE BOX", "address": {"city": "CRAWFORDSVILLE", "state": "IN", "street": "201 W MAIN ST", "postcode": "47933"}}},
{"geometry": {"type": "Point", "coordinates": [-86.9012334003, 40.0248958293]}, "type": "Feature", "properties": {"collection_times": [{"days": "Mon-Fri", "time": "2:30pm"}, {"days": "Sat", "time": "12:00pm"}, {"days": "Sun", "time": "Closed"}], "id": "4793300012", "name": "USPS COLLECTION BOX - BLUE BOX", "address": {"city": "CRAWFORDSVILLE", "state": "IN", "street": "1600 CRAWFORDSVILLE SQUARE DR", "postcode": "47933"}}},
{"geometry": {"type": "Point", "coordinates": [-86.8983914662, 40.0417763025]}, "type": "Feature", "properties": {"collection_times": [{"days": "Mon-Fri", "time": "5:00pm"}, {"days": "Sat", "time": "4:00pm"}, {"days": "Sun", "time": "Closed"}], "id": "4793300017", "name": "USPS COLLECTION BOX - BLUE BOX", "address": {"city": "CRAWFORDSVILLE", "state": "IN", "street": "300 E MAIN ST", "postcode": "47933"}}},
{"geometry": {"type": "Point", "coordinates": [-86.8955973348, 40.0249387003]}, "type": "Feature", "properties": {"collection_times": [{"days": "Mon-Fri", "time": "2:30pm"}, {"days": "Sat", "time": "12:00pm"}, {"days": "Sun", "time": "Closed"}], "id": "4793300027", "name": "USPS COLLECTION BOX - BLUE BOX", "address": {"city": "CRAWFORDSVILLE", "state": "IN", "street": "451 E SOUTH BLVD", "postcode": "47933"}}},
{"geometry": {"type": "Point", "coordinates": [-86.8983914662, 40.0417763025]}, "type": "Feature", "properties": {"collection_times": [{"days": "Mon-Fri", "time": "5:00pm"}, {"days": "Sat", "time": "4:00pm"}, {"days": "Sun", "time": "Closed"}], "id": "4793300028", "name": "USPS COLLECTION BOX - PO LOBBY", "address": {"city": "CRAWFORDSVILLE", "state": "IN", "street": "300 E MAIN ST", "postcode": "47933"}}},
{"geometry": {"type": "Point", "coordinates": [-86.8758304228, 40.0398484573]}, "type": "Feature", "properties": {"collection_times": [{"days": "Mon-Fri", "time": "2:30pm"}, {"days": "Sat", "time": "12:00pm"}, {"days": "Sun", "time": "Closed"}], "id": "4793300032", "name": "USPS COLLECTION BOX - BLUE BOX", "address": {"city": "CRAWFORDSVILLE", "state": "IN", "street": "1700 E MAIN ST", "postcode": "47933"}}},
{"geometry": {"type": "Point", "coordinates": [-86.899823386, 40.0405388986]}, "type": "Feature", "properties": {"collection_times": [{"days": "Mon-Fri", "time": "2:30pm"}, {"days": "Sat", "time": "12:00pm"}, {"days": "Sun", "time": "Closed"}], "id": "4793300035", "name": "USPS COLLECTION BOX - BLUE BOX", "address": {"city": "CRAWFORDSVILLE", "state": "IN", "street": "201 E PIKE ST", "postcode": "47933"}}},
{"geometry": {"type": "Point", "coordinates": [-86.878120606, 40.046857487]}, "type": "Feature", "properties": {"collection_times": [{"days": "Mon-Fri", "time": "2:30pm"}, {"days": "Sat", "time": "12:00pm"}, {"days": "Sun", "time": "Closed"}], "id": "4793300036", "name": "USPS COLLECTION BOX - BLUE BOX", "address": {"city": "CRAWFORDSVILLE", "state": "IN", "street": "1440 DARLINGTON AVE", "postcode": "47933"}}},
{"geometry": {"type": "Point", "coordinates": [-86.9013456855, 40.0417498114]}, "type": "Feature", "properties": {"collection_times": [{"days": "Mon-Fri", "time": "2:30pm"}, {"days": "Sat", "time": "12:00pm"}, {"days": "Sun", "time": "Closed"}], "id": "4793300037", "name": "USPS COLLECTION BOX - BLUE BOX", "address": {"city": "CRAWFORDSVILLE", "state": "IN", "street": "100 E MAIN ST", "postcode": "47933"}}},
{"geometry": {"type": "Point", "coordinates": [-86.8983914662, 40.0417763025]}, "type": "Feature", "properties": {"collection_times": [{"days": "Mon-Fri", "time": "5:00pm"}, {"days": "Sat", "time": "4:00pm"}, {"days": "Sun", "time": "Closed"}], "id": "4793300038", "name": "USPS COLLECTION BOX - BLUE BOX", "address": {"city": "CRAWFORDSVILLE", "state": "IN", "street": "300 E MAIN ST", "postcode": "47933"}}},
{"geometry": {"type": "Point", "coordinates": [-86.8983914662, 40.0417763025]}, "type": "Feature", "properties": {"collection_times": [{"days": "Mon-Fri", "time": "5:00pm"}, {"days": "Sat", "time": "4:00pm"}, {"days": "Sun", "time": "Closed"}], "id": "4793300039", "name": "USPS COLLECTION BOX - PO LOBBY", "address": {"city": "CRAWFORDSVILLE", "state": "IN", "street": "300 E MAIN ST", "postcode": "47933"}}},
{"geometry": {"type": "Point", "coordinates": [-86.7760256935, 40.1095803029]}, "type": "Feature", "properties": {"collection_times": [{"days": "Mon-Fri", "time": "3:30pm"}, {"days": "Sat", "time": "10:30am"}, {"days": "Sun", "time": "Closed"}], "id": "4794000001", "name": "USPS COLLECTION BOX - BLUE BOX", "address": {"city": "DARLINGTON", "state": "IN", "street": "215 W MAIN ST", "postcode": "47940"}}},
{"geometry": {"type": "Point", "coordinates": [-86.7760256935, 40.1095803029]}, "type": "Feature", "properties": {"collection_times": [{"days": "Mon-Fri", "time": "3:30pm"}, {"days": "Sat", "time": "10:30am"}, {"days": "Sun", "time": "Closed"}], "id": "4794000002", "name": "USPS COLLECTION BOX - PO LOBBY", "address": {"city": "DARLINGTON", "state": "IN", "street": "215 W MAIN ST", "postcode": "47940"}}},
{"geometry": {"type": "Point", "coordinates": [-86.7681791928, 40.3740769281]}, "type": "Feature", "properties": {"collection_times": [{"days": "Mon-Fri", "time": "4:30pm"}, {"days": "Sat", "time": "11:30am"}, {"days": "Sun", "time": "Closed"}], "id": "4794100001", "name": "USPS COLLECTION BOX - BLUE BOX", "address": {"city": "DAYTON", "state": "IN", "street": "726 WALNUT ST", "postcode": "47941"}}},
{"geometry": {"type": "Point", "coordinates": [-86.7681791928, 40.3740769281]}, "type": "Feature", "properties": {"collection_times": [{"days": "Mon-Fri", "time": "3:45pm"}, {"days": "Sat", "time": "11:30am"}, {"days": "Sun", "time": "Closed"}], "id": "4794100002", "name": "USPS COLLECTION BOX - PO LOBBY", "address": {"city": "DAYTON", "state": "IN", "street": "726 WALNUT ST", "postcode": "47941"}}},
{"geometry": {"type": "Point", "coordinates": [-87.4148610727, 40.6837588571]}, "type": "Feature", "properties": {"collection_times": [{"days": "Mon-Fri", "time": "3:45pm"}, {"days": "Sat", "time": "10:30am"}, {"days": "Sun", "time": "Closed"}], "id": "4794200000", "name": "USPS COLLECTION BOX - BLUE BOX", "address": {"city": "EARL PARK", "state": "IN", "street": "106 E 5TH ST", "postcode": "47942"}}},
{"geometry": {"type": "Point", "coordinates": [-87.4148610727, 40.6837588571]}, "type": "Feature", "properties": {"collection_times": [{"days": "Mon-Fri", "time": "12:00pm"}, {"days": "Sat", "time": "10:30am"}, {"days": "Sun", "time": "Closed"}], "id": "4794200001", "name": "USPS COLLECTION BOX - PO LOBBY", "address": {"city": "EARL PARK", "state": "IN", "street": "106 E 5TH ST", "postcode": "47942"}}},
{"geometry": {"type": "Point", "coordinates": [-87.2566090198, 41.0742513397]}, "type": "Feature", "properties": {"collection_times": [{"days": "Mon-Fri", "time": "3:00pm"}, {"days": "Sat", "time": "12:00pm"}, {"days": "Sun", "time": "Closed"}], "id": "4794300001", "name": "USPS COLLECTION BOX - BLUE BOX", "address": {"city": "FAIR OAKS", "state": "IN", "street": "4250 KENT ST", "postcode": "47943"}}},
{"geometry": {"type": "Point", "coordinates": [-87.2566090198, 41.0742513397]}, "type": "Feature", "properties": {"collection_times": [{"days": "Mon-Fri", "time": "3:00pm"}, {"days": "Sat", "time": "12:00pm"}, {"days": "Sun", "time": "Closed"}], "id": "4794300002", "name": "USPS COLLECTION BOX - PO LOBBY", "address": {"city": "FAIR OAKS", "state": "IN", "street": "4250 KENT ST", "postcode": "47943"}}},
{"geometry": {"type": "Point", "coordinates": [-87.321019339, 40.6175581932]}, "type": "Feature", "properties": {"collection_times": [{"days": "Mon-Fri", "time": "4:15pm"}, {"days": "Sat", "time": "11:30am"}, {"days": "Sun", "time": "Closed"}], "id": "4794400001", "name": "USPS COLLECTION BOX - BLUE BOX", "address": {"city": "FOWLER", "state": "IN", "street": "114 S MADISON AVE", "postcode": "47944"}}},
{"geometry": {"type": "Point", "coordinates": [-87.321019339, 40.6175581932]}, "type": "Feature", "properties": {"collection_times": [{"days": "Mon-Fri", "time": "4:15pm"}, {"days": "Sat", "time": "11:30am"}, {"days": "Sun", "time": "Closed"}], "id": "4794400002", "name": "USPS COLLECTION BOX - BLUE BOX", "address": {"city": "FOWLER", "state": "IN", "street": "114 S MADISON AVE", "postcode": "47944"}}},
{"geometry": {"type": "Point", "coordinates": [-87.321019339, 40.6175581932]}, "type": "Feature", "properties": {"collection_times": [{"days": "Mon-Fri", "time": "4:15pm"}, {"days": "Sat", "time": "11:30am"}, {"days": "Sun", "time": "Closed"}], "id": "4794400003", "name": "USPS COLLECTION BOX - PO LOBBY", "address": {"city": "FOWLER", "state": "IN", "street": "114 S MADISON AVE", "postcode": "47944"}}},
{"geometry": {"type": "Point", "coordinates": [-87.321019339, 40.6175581932]}, "type": "Feature", "properties": {"collection_times": [{"days": "Mon-Fri", "time": "4:15pm"}, {"days": "Sat", "time": "11:30am"}, {"days": "Sun", "time": "Closed"}], "id": "4794400004", "name": "USPS COLLECTION BOX - PO LOBBY", "address": {"city": "FOWLER", "state": "IN", "street": "114 S MADISON AVE", "postcode": "47944"}}},
{"geometry": {"type": "Point", "coordinates": [-86.8821099902, 40.9853539538]}, "type": "Feature", "properties": {"collection_times": [{"days": "Mon-Fri", "time": "3:45pm"}, {"days": "Sat", "time": "11:00am"}, {"days": "Sun", "time": "Closed"}], "id": "4794600000", "name": "USPS COLLECTION BOX - BLUE BOX", "address": {"city": "FRANCESVILLE", "state": "IN", "street": "122 S BILL ST", "postcode": "47946"}}},
{"geometry": {"type": "Point", "coordinates": [-86.8821099902, 40.9853539538]}, "type": "Feature", "properties": {"collection_times": [{"days": "Mon-Fri", "time": "3:45pm"}, {"days": "Sat", "time": "11:00am"}, {"days": "Sun", "time": "Closed"}], "id": "4794600001", "name": "USPS COLLECTION BOX - PO LOBBY", "address": {"city": "FRANCESVILLE", "state": "IN", "street": "122 S BILL ST", "postcode": "47946"}}},
{"geometry": {"type": "Point", "coordinates": [-87.2966741892, 40.7633826444]}, "type": "Feature", "properties": {"collection_times": [{"days": "Mon-Fri", "time": "4:00pm"}, {"days": "Sat", "time": "11:00am"}, {"days": "Sun", "time": "Closed"}], "id": "4794800001", "name": "USPS COLLECTION BOX - BLUE BOX", "address": {"city": "GOODLAND", "state": "IN", "street": "122 W UNION ST", "postcode": "47948"}}},
{"geometry": {"type": "Point", "coordinates": [-87.2966741892, 40.7633826444]}, "type": "Feature", "properties": {"collection_times": [{"days": "Mon-Fri", "time": "4:00pm"}, {"days": "Sat", "time": "11:00am"}, {"days": "Sun", "time": "Closed"}], "id": "4794800002", "name": "USPS COLLECTION BOX - PO LOBBY", "address": {"city": "GOODLAND", "state": "IN", "street": "122 W UNION ST", "postcode": "47948"}}},
{"geometry": {"type": "Point", "coordinates": [-87.1595906954, 40.106538301]}, "type": "Feature", "properties": {"collection_times": [{"days": "Mon-Fri", "time": "4:00pm"}, {"days": "Sat", "time": "10:15am"}, {"days": "Sun", "time": "Closed"}], "id": "4794900001", "name": "USPS COLLECTION BOX - BLUE BOX", "address": {"city": "HILLSBORO", "state": "IN", "street": "202 E MAIN ST", "postcode": "47949"}}},
{"geometry": {"type": "Point", "coordinates": [-87.1595906954, 40.106538301]}, "type": "Feature", "properties": {"collection_times": [{"days": "Mon-Fri", "time": "11:45am"}, {"days": "Sat", "time": "10:30am"}, {"days": "Sun", "time": "Closed"}], "id": "4794900002", "name": "USPS COLLECTION BOX - PO LOBBY", "address": {"city": "HILLSBORO", "state": "IN", "street": "202 E MAIN ST", "postcode": "47949"}}},
{"geometry": {"type": "Point", "coordinates": [-86.649315453, 40.7580322269]}, "type": "Feature", "properties": {"collection_times": [{"days": "Mon-Fri", "time": "4:00pm"}, {"days": "Sat", "time": "10:30am"}, {"days": "Sun", "time": "Closed"}], "id": "4795000001", "name": "USPS COLLECTION BOX - BLUE BOX", "address": {"city": "IDAVILLE", "state": "IN", "street": "106 W US HIGHWAY 24", "postcode": "47950"}}},
{"geometry": {"type": "Point", "coordinates": [-86.649315453, 40.7580322269]}, "type": "Feature", "properties": {"collection_times": [{"days": "Mon-Fri", "time": "4:00pm"}, {"days": "Sat", "time": "10:30am"}, {"days": "Sun", "time": "Closed"}], "id": "4795000002", "name": "USPS COLLECTION BOX - PO LOBBY", "address": {"city": "IDAVILLE", "state": "IN", "street": "106 W US HIGHWAY 24", "postcode": "47950"}}},
{"geometry": {"type": "Point", "coordinates": [-87.4449512748, 40.7690539557]}, "type": "Feature", "properties": {"collection_times": [{"days": "Mon-Fri", "time": "4:15pm"}, {"days": "Sat", "time": "11:00am"}, {"days": "Sun", "time": "Closed"}], "id": "4795100005", "name": "USPS COLLECTION BOX - BLUE BOX", "address": {"city": "KENTLAND", "state": "IN", "street": "309 E GRAHAM ST", "postcode": "47951"}}},
{"geometry": {"type": "Point", "coordinates": [-87.4449512748, 40.7690539557]}, "type": "Feature", "properties": {"collection_times": [{"days": "Mon-Fri", "time": "4:15pm"}, {"days": "Sat", "time": "11:00am"}, {"days": "Sun", "time": "Closed"}], "id": "4795100006", "name": "USPS COLLECTION BOX - BLUE BOX", "address": {"city": "KENTLAND", "state": "IN", "street": "309 E GRAHAM ST", "postcode": "47951"}}},
{"geometry": {"type": "Point", "coordinates": [-87.4449512748, 40.7690539557]}, "type": "Feature", "properties": {"collection_times": [{"days": "Mon-Fri", "time": "4:15pm"}, {"days": "Sat", "time": "11:00am"}, {"days": "Sun", "time": "Closed"}], "id": "4795100007", "name": "USPS COLLECTION BOX - PO LOBBY", "address": {"city": "KENTLAND", "state": "IN", "street": "309 E GRAHAM ST", "postcode": "47951"}}},
{"geometry": {"type": "Point", "coordinates": [-87.2787117514, 39.9674443873]}, "type": "Feature", "properties": {"collection_times": [{"days": "Mon-Fri", "time": "4:00pm"}, {"days": "Sat", "time": "10:30am"}, {"days": "Sun", "time": "Closed"}], "id": "4795200000", "name": "USPS COLLECTION BOX - BLUE BOX", "address": {"city": "KINGMAN", "state": "IN", "street": "119 E STATE ST", "postcode": "47952"}}},
{"geometry": {"type": "Point", "coordinates": [-87.3012212514, 39.9623809329]}, "type": "Feature", "properties": {"collection_times": [{"days": "Mon-Sat", "time": "9:00am"}, {"days": "Sun", "time": "Closed"}], "id": "4795200002", "name": "USPS COLLECTION BOX - BLUE BOX", "address": {"city": "KINGMAN", "state": "IN", "street": "1 LAKE HIDEAWAY E", "postcode": "47952"}}},
{"geometry": {"type": "Point", "coordinates": [-87.3012212514, 39.9623809329]}, "type": "Feature", "properties": {"collection_times": [{"days": "Mon-Sat", "time": "9:00am"}, {"days": "Sun", "time": "Closed"}], "id": "4795200003", "name": "USPS COLLECTION BOX - BLUE BOX", "address": {"city": "KINGMAN", "state": "IN", "street": "1 LAKE HIDEAWAY W", "postcode": "47952"}}},
{"geometry": {"type": "Point", "coordinates": [-87.2787117514, 39.9674443873]}, "type": "Feature", "properties": {"collection_times": [{"days": "Mon-Fri", "time": "4:00pm"}, {"days": "Sat", "time": "10:30am"}, {"days": "Sun", "time": "Closed"}], "id": "4795200004", "name": "USPS COLLECTION BOX - PO LOBBY", "address": {"city": "KINGMAN", "state": "IN", "street": "119 E STATE ST", "postcode": "47952"}}},
{"geometry": {"type": "Point", "coordinates": [-87.294876682, 39.9919730809]}, "type": "Feature", "properties": {"collection_times": [{"days": "Mon-Fri", "time": "2:30pm"}, {"days": "Sat", "time": "2:00pm"}, {"days": "Sun", "time": "Closed"}], "id": "4795200005", "name": "USPS COLLECTION BOX - BLUE BOX", "address": {"city": "KINGMAN", "state": "IN", "street": "103 E STATE ST", "postcode": "47952"}}},
{"geometry": {"type": "Point", "coordinates": [-86.7990295558, 39.9136005581]}, "type": "Feature", "properties": {"collection_times": [{"days": "Mon-Fri", "time": "3:45pm"}, {"days": "Sat", "time": "11:00am"}, {"days": "Sun", "time": "Closed"}], "id": "4795400001", "name": "USPS COLLECTION BOX - BLUE BOX", "address": {"city": "LADOGA", "state": "IN", "street": "229 E MAIN ST", "postcode": "47954"}}},
{"geometry": {"type": "Point", "coordinates": [-86.7990295558, 39.9136005581]}, "type": "Feature", "properties": {"collection_times": [{"days": "Mon-Fri", "time": "3:45pm"}, {"days": "Sat", "time": "11:00am"}, {"days": "Sun", "time": "Closed"}], "id": "4795400002", "name": "USPS COLLECTION BOX - PO LOBBY", "address": {"city": "LADOGA", "state": "IN", "street": "229 E MAIN ST", "postcode": "47954"}}},
{"geometry": {"type": "Point", "coordinates": [-86.9039578238, 40.188233842]}, "type": "Feature", "properties": {"collection_times": [{"days": "Mon-Fri", "time": "4:00pm"}, {"days": "Sat", "time": "11:00am"}, {"days": "Sun", "time": "Closed"}], "id": "4795500001", "name": "USPS COLLECTION BOX - BLUE BOX", "address": {"city": "LINDEN", "state": "IN", "street": "100 N MAIN ST", "postcode": "47955"}}},
{"geometry": {"type": "Point", "coordinates": [-86.9039578238, 40.188233842]}, "type": "Feature", "properties": {"collection_times": [{"days": "Mon-Fri", "time": "12:00pm"}, {"days": "Sat", "time": "11:00am"}, {"days": "Sun", "time": "Closed"}], "id": "4795500002", "name": "USPS COLLECTION BOX - PO LOBBY", "address": {"city": "LINDEN", "state": "IN", "street": "100 N MAIN ST", "postcode": "47955"}}},
{"geometry": {"type": "Point", "coordinates": [-86.8986990805, 40.188780105]}, "type": "Feature", "properties": {"collection_times": [{"days": "Mon-Sat", "time": "12:30pm"}, {"days": "Sun", "time": "Closed"}], "id": "4795500003", "name": "USPS COLLECTION BOX - BLUE BOX", "address": {"city": "LINDEN", "state": "IN", "street": "732 N MAIN ST", "postcode": "47955"}}},
{"geometry": {"type": "Point", "coordinates": [-86.8877194251, 41.0806837499]}, "type": "Feature", "properties": {"collection_times": [{"days": "Mon-Fri", "time": "4:15pm"}, {"days": "Sat", "time": "11:15am"}, {"days": "Sun", "time": "Closed"}], "id": "4795700001", "name": "USPS COLLECTION BOX - BLUE BOX", "address": {"city": "MEDARYVILLE", "state": "IN", "street": "501 E MAIN ST", "postcode": "47957"}}},
{"geometry": {"type": "Point", "coordinates": [-86.8877194251, 41.0806837499]}, "type": "Feature", "properties": {"collection_times": [{"days": "Mon-Fri", "time": "1:45pm"}, {"days": "Sat", "time": "11:15am"}, {"days": "Sun", "time": "Closed"}], "id": "4795700002", "name": "USPS COLLECTION BOX - PO LOBBY", "address": {"city": "MEDARYVILLE", "state": "IN", "street": "501 E MAIN ST", "postcode": "47957"}}},
{"geometry": {"type": "Point", "coordinates": [-87.1485612034, 40.1654617008]}, "type": "Feature", "properties": {"collection_times": [{"days": "Mon-Fri", "time": "4:00pm"}, {"days": "Sat", "time": "10:00am"}, {"days": "Sun", "time": "Closed"}], "id": "4795800001", "name": "USPS COLLECTION BOX - BLUE BOX", "address": {"city": "MELLOTT", "state": "IN", "street": "106 S MAIN ST", "postcode": "47958"}}},
{"geometry": {"type": "Point", "coordinates": [-87.1485612034, 40.1654617008]}, "type": "Feature", "properties": {"collection_times": [{"days": "Mon-Sat", "time": "10:00am"}, {"days": "Sun", "time": "Closed"}], "id": "4795800002", "name": "USPS COLLECTION BOX - PO LOBBY", "address": {"city": "MELLOTT", "state": "IN", "street": "106 S MAIN ST", "postcode": "47958"}}},
{"geometry": {"type": "Point", "coordinates": [-86.8789750872, 40.8630076262]}, "type": "Feature", "properties": {"collection_times": [{"days": "Mon-Fri", "time": "4:00pm"}, {"days": "Sat", "time": "11:00am"}, {"days": "Sun", "time": "Closed"}], "id": "4795900001", "name": "USPS COLLECTION BOX - BLUE BOX", "address": {"city": "MONON", "state": "IN", "street": "415 N MARKET ST", "postcode": "47959"}}},
{"geometry": {"type": "Point", "coordinates": [-86.8789750872, 40.8630076262]}, "type": "Feature", "properties": {"collection_times": [{"days": "Mon-Fri", "time": "4:00pm"}, {"days": "Sat", "time": "11:00am"}, {"days": "Sun", "time": "Closed"}], "id": "4795900002", "name": "USPS COLLECTION BOX - PO LOBBY", "address": {"city": "MONON", "state": "IN", "street": "415 N MARKET ST", "postcode": "47959"}}},
{"geometry": {"type": "Point", "coordinates": [-86.7623100321, 40.7448825336]}, "type": "Feature", "properties": {"collection_times": [{"days": "Mon-Fri", "time": "5:00pm"}, {"days": "Sat", "time": "2:00pm"}, {"days": "Sun", "time": "Closed"}], "id": "4796000001", "name": "USPS COLLECTION BOX - BLUE BOX", "address": {"city": "MONTICELLO", "state": "IN", "street": "125 W BROADWAY ST", "postcode": "47960"}}},
{"geometry": {"type": "Point", "coordinates": [-86.7623100321, 40.7448825336]}, "type": "Feature", "properties": {"collection_times": [{"days": "Mon-Fri", "time": "5:00pm"}, {"days": "Sat", "time": "2:00pm"}, {"days": "Sun", "time": "Closed"}], "id": "4796000002", "name": "USPS COLLECTION BOX - BLUE BOX", "address": {"city": "MONTICELLO", "state": "IN", "street": "125 W BROADWAY ST", "postcode": "47960"}}},
{"geometry": {"type": "Point", "coordinates": [-86.7623100321, 40.7448825336]}, "type": "Feature", "properties": {"collection_times": [{"days": "Mon-Fri", "time": "5:00pm"}, {"days": "Sat", "time": "2:00pm"}, {"days": "Sun", "time": "Closed"}], "id": "4796000003", "name": "USPS COLLECTION BOX - BLUE BOX", "address": {"city": "MONTICELLO", "state": "IN", "street": "125 W BROADWAY ST", "postcode": "47960"}}},
{"geometry": {"type": "Point", "coordinates": [-86.7652708579, 40.7570482274]}, "type": "Feature", "properties": {"collection_times": [{"days": "Mon-Sat", "time": "10:00am"}, {"days": "Sun", "time": "Closed"}], "id": "4796000012", "name": "USPS COLLECTION BOX - BLUE BOX", "address": {"city": "MONTICELLO", "state": "IN", "street": "916 N MAIN ST", "postcode": "47960"}}},
{"geometry": {"type": "Point", "coordinates": [-86.7623100321, 40.7448825336]}, "type": "Feature", "properties": {"collection_times": [{"days": "Mon-Fri", "time": "5:00pm"}, {"days": "Sat", "time": "2:00pm"}, {"days": "Sun", "time": "Closed"}], "id": "4796000014", "name": "USPS COLLECTION BOX - PO LOBBY", "address": {"city": "MONTICELLO", "state": "IN", "street": "125 W BROADWAY ST", "postcode": "47960"}}},
{"geometry": {"type": "Point", "coordinates": [-86.7623100321, 40.7448825336]}, "type": "Feature", "properties": {"collection_times": [{"days": "Mon-Fri", "time": "5:00pm"}, {"days": "Sat", "time": "2:00pm"}, {"days": "Sun", "time": "Closed"}], "id": "4796000015", "name": "USPS COLLECTION BOX - PO LOBBY", "address": {"city": "MONTICELLO", "state": "IN", "street": "125 W BROADWAY ST", "postcode": "47960"}}},
{"geometry": {"type": "Point", "coordinates": [-86.7814924382, 40.745101376]}, "type": "Feature", "properties": {"collection_times": [{"days": "Mon-Sat", "time": "10:00am"}, {"days": "Sun", "time": "Closed"}], "id": "4796000016", "name": "USPS COLLECTION BOX - BLUE BOX", "address": {"city": "MONTICELLO", "state": "IN", "street": "1088 W BROADWAY ST", "postcode": "47960"}}},
{"geometry": {"type": "Point", "coordinates": [-87.4533620121, 40.9457249316]}, "type": "Feature", "properties": {"collection_times": [{"days": "Mon-Fri", "time": "4:00pm"}, {"days": "Sat", "time": "11:30am"}, {"days": "Sun", "time": "Closed"}], "id": "4796300002", "name": "USPS COLLECTION BOX - BLUE BOX", "address": {"city": "MOROCCO", "state": "IN", "street": "109 S CLAY ST", "postcode": "47963"}}},
{"geometry": {"type": "Point", "coordinates": [-87.4533620121, 40.9457249316]}, "type": "Feature", "properties": {"collection_times": [{"days": "Mon-Fri", "time": "4:00pm"}, {"days": "Sat", "time": "11:30am"}, {"days": "Sun", "time": "Closed"}], "id": "4796300003", "name": "USPS COLLECTION BOX - PO LOBBY", "address": {"city": "MOROCCO", "state": "IN", "street": "109 S CLAY ST", "postcode": "47963"}}},
{"geometry": {"type": "Point", "coordinates": [-87.2988096549, 40.9509813523]}, "type": "Feature", "properties": {"collection_times": [{"days": "Mon-Fri", "time": "3:30pm"}, {"days": "Sat", "time": "12:00pm"}, {"days": "Sun", "time": "Closed"}], "id": "4796400001", "name": "USPS COLLECTION BOX - BLUE BOX", "address": {"city": "MOUNT AYR", "state": "IN", "street": "101 E RENSSELAER ST", "postcode": "47964"}}},
{"geometry": {"type": "Point", "coordinates": [-87.2988096549, 40.9509813523]}, "type": "Feature", "properties": {"collection_times": [{"days": "Mon-Fri", "time": "12:45pm"}, {"days": "Sat", "time": "12:00pm"}, {"days": "Sun", "time": "Closed"}], "id": "4796400002", "name": "USPS COLLECTION BOX - PO LOBBY", "address": {"city": "MOUNT AYR", "state": "IN", "street": "101 E RENSSELAER ST", "postcode": "47964"}}},
{"geometry": {"type": "Point", "coordinates": [-86.9215050566, 39.9523564897]}, "type": "Feature", "properties": {"collection_times": [{"days": "Mon-Fri", "time": "3:30pm"}, {"days": "Sat", "time": "11:00am"}, {"days": "Sun", "time": "Closed"}], "id": "4796500001", "name": "USPS COLLECTION BOX - BLUE BOX", "address": {"city": "NEW MARKET", "state": "IN", "street": "109 W MAIN ST", "postcode": "47965"}}},
{"geometry": {"type": "Point", "coordinates": [-86.9215050566, 39.9523564897]}, "type": "Feature", "properties": {"collection_times": [{"days": "Mon-Fri", "time": "11:45am"}, {"days": "Sat", "time": "11:00am"}, {"days": "Sun", "time": "Closed"}], "id": "4796500002", "name": "USPS COLLECTION BOX - PO LOBBY", "address": {"city": "NEW MARKET", "state": "IN", "street": "109 W MAIN ST", "postcode": "47965"}}},
{"geometry": {"type": "Point", "coordinates": [-87.4104568863, 39.8848316454]}, "type": "Feature", "properties": {"collection_times": [{"days": "Mon-Fri", "time": "3:45pm"}, {"days": "Sat", "time": "11:00am"}, {"days": "Sun", "time": "Closed"}], "id": "4796600001", "name": "USPS COLLECTION BOX - BLUE BOX", "address": {"city": "NEWPORT", "state": "IN", "street": "205 W EXTENSION ST", "postcode": "47966"}}},
{"geometry": {"type": "Point", "coordinates": [-87.4104568863, 39.8848316454]}, "type": "Feature", "properties": {"collection_times": [{"days": "Mon-Fri", "time": "3:45pm"}, {"days": "Sat", "time": "11:00am"}, {"days": "Sun", "time": "Closed"}], "id": "4796600002", "name": "USPS COLLECTION BOX - PO LOBBY", "address": {"city": "NEWPORT", "state": "IN", "street": "205 W EXTENSION ST", "postcode": "47966"}}},
{"geometry": {"type": "Point", "coordinates": [-86.9789078851, 40.1953438536]}, "type": "Feature", "properties": {"collection_times": [{"days": "Mon-Fri", "time": "3:45pm"}, {"days": "Sat", "time": "9:45am"}, {"days": "Sun", "time": "Closed"}], "id": "4796700001", "name": "USPS COLLECTION BOX - BLUE BOX", "address": {"city": "NEW RICHMOND", "state": "IN", "street": "113 E WASHINGTON ST", "postcode": "47967"}}},
{"geometry": {"type": "Point", "coordinates": [-86.9789078851, 40.1953438536]}, "type": "Feature", "properties": {"collection_times": [{"days": "Mon-Fri", "time": "11:45am"}, {"days": "Sat", "time": "9:45am"}, {"days": "Sun", "time": "Closed"}], "id": "4796700002", "name": "USPS COLLECTION BOX - PO LOBBY", "address": {"city": "NEW RICHMOND", "state": "IN", "street": "113 E WASHINGTON ST", "postcode": "47967"}}},
{"geometry": {"type": "Point", "coordinates": [-86.7142596531, 39.9645580007]}, "type": "Feature", "properties": {"collection_times": [{"days": "Mon-Fri", "time": "3:45pm"}, {"days": "Sat", "time": "11:00am"}, {"days": "Sun", "time": "Closed"}], "id": "4796800001", "name": "USPS COLLECTION BOX - BLUE BOX", "address": {"city": "NEW ROSS", "state": "IN", "street": "102 E STATE ST", "postcode": "47968"}}},
{"geometry": {"type": "Point", "coordinates": [-86.7142596531, 39.9645580007]}, "type": "Feature", "properties": {"collection_times": [{"days": "Mon-Fri", "time": "4:00pm"}, {"days": "Sat", "time": "11:00am"}, {"days": "Sun", "time": "Closed"}], "id": "4796800002", "name": "USPS COLLECTION BOX - PO LOBBY", "address": {"city": "NEW ROSS", "state": "IN", "street": "102 E STATE ST", "postcode": "47968"}}},
{"geometry": {"type": "Point", "coordinates": [-86.7123030612, 39.962295588]}, "type": "Feature", "properties": {"collection_times": [{"days": "Mon-Sat", "time": "8:30am"}, {"days": "Sun", "time": "Closed"}], "id": "4796800003", "name": "USPS COLLECTION BOX - BLUE BOX", "address": {"city": "NEW ROSS", "state": "IN", "street": "118 W VALLEY DR", "postcode": "47968"}}},
{"geometry": {"type": "Point", "coordinates": [-87.148900686, 40.2039356012]}, "type": "Feature", "properties": {"collection_times": [{"days": "Mon-Fri", "time": "3:30pm"}, {"days": "Sat", "time": "11:00am"}, {"days": "Sun", "time": "Closed"}], "id": "4796900001", "name": "USPS COLLECTION BOX - BLUE BOX", "address": {"city": "NEWTOWN", "state": "IN", "street": "115 W WASHINGTON ST", "postcode": "47969"}}},
{"geometry": {"type": "Point", "coordinates": [-87.148900686, 40.2039356012]}, "type": "Feature", "properties": {"collection_times": [{"days": "Mon-Fri", "time": "10:00am"}, {"days": "Sat", "time": "11:00am"}, {"days": "Sun", "time": "Closed"}], "id": "4796900002", "name": "USPS COLLECTION BOX - PO LOBBY", "address": {"city": "NEWTOWN", "state": "IN", "street": "115 W WASHINGTON ST", "postcode": "47969"}}},
{"geometry": {"type": "Point", "coordinates": [-87.096217932, 40.4882512433]}, "type": "Feature", "properties": {"collection_times": [{"days": "Mon-Fri", "time": "3:45pm"}, {"days": "Sat", "time": "10:45am"}, {"days": "Sun", "time": "Closed"}], "id": "4797000001", "name": "USPS COLLECTION BOX - BLUE BOX", "address": {"city": "OTTERBEIN", "state": "IN", "street": "105 S MAIN ST", "postcode": "47970"}}},
{"geometry": {"type": "Point", "coordinates": [-87.096217932, 40.4882512433]}, "type": "Feature", "properties": {"collection_times": [{"days": "Mon-Fri", "time": "2:45pm"}, {"days": "Sat", "time": "10:45am"}, {"days": "Sun", "time": "Closed"}], "id": "4797000002", "name": "USPS COLLECTION BOX - PO LOBBY", "address": {"city": "OTTERBEIN", "state": "IN", "street": "105 S MAIN ST", "postcode": "47970"}}},
{"geometry": {"type": "Point", "coordinates": [-87.2491570987, 40.5176051309]}, "type": "Feature", "properties": {"collection_times": [{"days": "Mon-Fri", "time": "4:00pm"}, {"days": "Sat", "time": "11:00am"}, {"days": "Sun", "time": "Closed"}], "id": "4797100001", "name": "USPS COLLECTION BOX - BLUE BOX", "address": {"city": "OXFORD", "state": "IN", "street": "209 S HOWARD ST", "postcode": "47971"}}},
{"geometry": {"type": "Point", "coordinates": [-87.2491570987, 40.5176051309]}, "type": "Feature", "properties": {"collection_times": [{"days": "Mon-Fri", "time": "4:00pm"}, {"days": "Sat", "time": "11:00am"}, {"days": "Sun", "time": "Closed"}], "id": "4797100002", "name": "USPS COLLECTION BOX - PO LOBBY", "address": {"city": "OXFORD", "state": "IN", "street": "209 S HOWARD ST", "postcode": "47971"}}},
{"geometry": {"type": "Point", "coordinates": [-87.2491570987, 40.5176051309]}, "type": "Feature", "properties": {"collection_times": [{"days": "Mon-Fri", "time": "4:00pm"}, {"days": "Sat", "time": "11:00am"}, {"days": "Sun", "time": "Closed"}], "id": "4797100003", "name": "USPS COLLECTION BOX - PO LOBBY", "address": {"city": "OXFORD", "state": "IN", "street": "209 S HOWARD ST", "postcode": "47971"}}},
{"geometry": {"type": "Point", "coordinates": [-87.432868148, 40.0502967612]}, "type": "Feature", "properties": {"collection_times": [{"days": "Mon-Fri", "time": "3:00pm"}, {"days": "Sat", "time": "10:30am"}, {"days": "Sun", "time": "Closed"}], "id": "4797400001", "name": "USPS COLLECTION BOX - BLUE BOX", "address": {"city": "PERRYSVILLE", "state": "IN", "street": "159 E GREEN ST", "postcode": "47974"}}},
{"geometry": {"type": "Point", "coordinates": [-87.432868148, 40.0502967612]}, "type": "Feature", "properties": {"collection_times": [{"days": "Mon-Fri", "time": "3:00pm"}, {"days": "Sat", "time": "10:30am"}, {"days": "Sun", "time": "Closed"}], "id": "4797400002", "name": "USPS COLLECTION BOX - PO LOBBY", "address": {"city": "PERRYSVILLE", "state": "IN", "street": "159 E GREEN ST", "postcode": "47974"}}},
{"geometry": {"type": "Point", "coordinates": [-87.2530761918, 40.4512629254]}, "type": "Feature", "properties": {"collection_times": [{"days": "Mon-Fri", "time": "3:30pm"}, {"days": "Sat", "time": "11:00am"}, {"days": "Sun", "time": "Closed"}], "id": "4797500001", "name": "USPS COLLECTION BOX - BLUE BOX", "address": {"city": "PINE VILLAGE", "state": "IN", "street": "101 N JEFFERSON ST", "postcode": "47975"}}},
{"geometry": {"type": "Point", "coordinates": [-87.2530761918, 40.4512629254]}, "type": "Feature", "properties": {"collection_times": [{"days": "Mon-Fri", "time": "11:45am"}, {"days": "Sat", "time": "11:00am"}, {"days": "Sun", "time": "Closed"}], "id": "4797500002", "name": "USPS COLLECTION BOX - PO LOBBY", "address": {"city": "PINE VILLAGE", "state": "IN", "street": "101 N JEFFERSON ST", "postcode": "47975"}}},
{"geometry": {"type": "Point", "coordinates": [-87.1233587862, 40.7658117]}, "type": "Feature", "properties": {"collection_times": [{"days": "Mon-Fri", "time": "12:00pm"}, {"days": "Sat-Sun", "time": "Closed"}], "id": "4797700001", "name": "USPS COLLECTION BOX - BLUE BOX", "address": {"city": "REMINGTON", "state": "IN", "street": "4154 W US HIGHWAY 24", "postcode": "47977"}}},
{"geometry": {"type": "Point", "coordinates": [-87.1510350709, 40.7620118483]}, "type": "Feature", "properties": {"collection_times": [{"days": "Mon-Fri", "time": "4:00pm"}, {"days": "Sat", "time": "11:00am"}, {"days": "Sun", "time": "Closed"}], "id": "4797700002", "name": "USPS COLLECTION BOX - BLUE BOX", "address": {"city": "REMINGTON", "state": "IN", "street": "31 S OHIO ST", "postcode": "47977"}}},
{"geometry": {"type": "Point", "coordinates": [-87.1241185255, 40.7658145089]}, "type": "Feature", "properties": {"collection_times": [{"days": "Mon-Fri", "time": "12:00pm"}, {"days": "Sat-Sun", "time": "Closed"}], "id": "4797700004", "name": "USPS COLLECTION BOX - BLUE BOX", "address": {"city": "REMINGTON", "state": "IN", "street": "4230 W US HIGHWAY 24", "postcode": "47977"}}},
{"geometry": {"type": "Point", "coordinates": [-87.1510350709, 40.7620118483]}, "type": "Feature", "properties": {"collection_times": [{"days": "Mon-Fri", "time": "4:00pm"}, {"days": "Sat", "time": "11:00am"}, {"days": "Sun", "time": "Closed"}], "id": "4797700006", "name": "USPS COLLECTION BOX - PO LOBBY", "address": {"city": "REMINGTON", "state": "IN", "street": "31 S OHIO ST", "postcode": "47977"}}},
{"geometry": {"type": "Point", "coordinates": [-87.1508632203, 40.9349511832]}, "type": "Feature", "properties": {"collection_times": [{"days": "Mon-Fri", "time": "4:30pm"}, {"days": "Sat", "time": "2:00pm"}, {"days": "Sun", "time": "Closed"}], "id": "4797800000", "name": "USPS COLLECTION BOX - BLUE BOX", "address": {"city": "RENSSELAER", "state": "IN", "street": "225 S VAN RENSSELAER ST", "postcode": "47978"}}},
{"geometry": {"type": "Point", "coordinates": [-87.1508632203, 40.9349511832]}, "type": "Feature", "properties": {"collection_times": [{"days": "Mon-Fri", "time": "4:30pm"}, {"days": "Sat", "time": "2:00pm"}, {"days": "Sun", "time": "Closed"}], "id": "4797800001", "name": "USPS COLLECTION BOX - BLUE BOX", "address": {"city": "RENSSELAER", "state": "IN", "street": "225 S VAN RENSSELAER ST", "postcode": "47978"}}},
{"geometry": {"type": "Point", "coordinates": [-87.1508632203, 40.9349511832]}, "type": "Feature", "properties": {"collection_times": [{"days": "Mon-Fri", "time": "4:30pm"}, {"days": "Sat", "time": "2:00pm"}, {"days": "Sun", "time": "Closed"}], "id": "4797800002", "name": "USPS COLLECTION BOX - BLUE BOX", "address": {"city": "RENSSELAER", "state": "IN", "street": "225 S VAN RENSSELAER ST", "postcode": "47978"}}},
{"geometry": {"type": "Point", "coordinates": [-87.1508632203, 40.9349511832]}, "type": "Feature", "properties": {"collection_times": [{"days": "Mon-Fri", "time": "4:30pm"}, {"days": "Sat", "time": "2:00pm"}, {"days": "Sun", "time": "Closed"}], "id": "4797800003", "name": "USPS COLLECTION BOX - BLUE BOX", "address": {"city": "RENSSELAER", "state": "IN", "street": "225 S VAN RENSSELAER ST", "postcode": "47978"}}},
{"geometry": {"type": "Point", "coordinates": [-87.1167280552, 40.9809672825]}, "type": "Feature", "properties": {"collection_times": [{"days": "Mon-Fri", "time": "11:00am"}, {"days": "Sat", "time": "8:30am"}, {"days": "Sun", "time": "Closed"}], "id": "4797800004", "name": "USPS COLLECTION BOX - BLUE BOX", "address": {"city": "RENSSELAER", "state": "IN", "street": "1515 KENKEL DR", "postcode": "47978"}}},
{"geometry": {"type": "Point", "coordinates": [-87.1502879706, 40.9356159254]}, "type": "Feature", "properties": {"collection_times": [{"days": "Mon-Sat", "time": "2:00pm"}, {"days": "Sun", "time": "Closed"}], "id": "4797800005", "name": "USPS COLLECTION BOX - BLUE BOX", "address": {"city": "RENSSELAER", "state": "IN", "street": "120 W HARRISON ST", "postcode": "47978"}}},
{"geometry": {"type": "Point", "coordinates": [-87.1519361334, 40.9360050315]}, "type": "Feature", "properties": {"collection_times": [{"days": "Mon-Sat", "time": "2:00pm"}, {"days": "Sun", "time": "Closed"}], "id": "4797800008", "name": "USPS COLLECTION BOX - BLUE BOX", "address": {"city": "RENSSELAER", "state": "IN", "street": "200 W WASHINGTON ST", "postcode": "47978"}}},
{"geometry": {"type": "Point", "coordinates": [-87.1508632203, 40.9349511832]}, "type": "Feature", "properties": {"collection_times": [{"days": "Mon-Fri", "time": "4:30pm"}, {"days": "Sat", "time": "2:00pm"}, {"days": "Sun", "time": "Closed"}], "id": "4797800012", "name": "USPS COLLECTION BOX - BLUE BOX", "address": {"city": "RENSSELAER", "state": "IN", "street": "225 S VAN RENSSELAER ST", "postcode": "47978"}}},
{"geometry": {"type": "Point", "coordinates": [-87.1508632203, 40.9349511832]}, "type": "Feature", "properties": {"collection_times": [{"days": "Mon-Fri", "time": "4:30pm"}, {"days": "Sat", "time": "2:00pm"}, {"days": "Sun", "time": "Closed"}], "id": "4797800013", "name": "USPS COLLECTION BOX - BLUE BOX", "address": {"city": "RENSSELAER", "state": "IN", "street": "225 S VAN RENSSELAER ST", "postcode": "47978"}}},
{"geometry": {"type": "Point", "coordinates": [-87.1508632203, 40.9349511832]}, "type": "Feature", "properties": {"collection_times": [{"days": "Mon-Fri", "time": "4:30pm"}, {"days": "Sat", "time": "2:00pm"}, {"days": "Sun", "time": "Closed"}], "id": "4797800014", "name": "USPS COLLECTION BOX - PO LOBBY", "address": {"city": "RENSSELAER", "state": "IN", "street": "225 S VAN RENSSELAER ST", "postcode": "47978"}}},
{"geometry": {"type": "Point", "coordinates": [-86.8682275531, 40.7493379489]}, "type": "Feature", "properties": {"collection_times": [{"days": "Mon-Fri", "time": "3:30pm"}, {"days": "Sat", "time": "10:30am"}, {"days": "Sun", "time": "Closed"}], "id": "4798000001", "name": "USPS COLLECTION BOX - BLUE BOX", "address": {"city": "REYNOLDS", "state": "IN", "street": "801 E 2ND ST", "postcode": "47980"}}},
{"geometry": {"type": "Point", "coordinates": [-86.8682275531, 40.7493379489]}, "type": "Feature", "properties": {"collection_times": [{"days": "Mon-Fri", "time": "12:00pm"}, {"days": "Sat", "time": "10:30am"}, {"days": "Sun", "time": "Closed"}], "id": "4798000002", "name": "USPS COLLECTION BOX - PO LOBBY", "address": {"city": "REYNOLDS", "state": "IN", "street": "801 E 2ND ST", "postcode": "47980"}}},
{"geometry": {"type": "Point", "coordinates": [-86.9038261574, 40.2514902321]}, "type": "Feature", "properties": {"collection_times": [{"days": "Mon-Fri", "time": "4:00pm"}, {"days": "Sat", "time": "11:00am"}, {"days": "Sun", "time": "Closed"}], "id": "4798100001", "name": "USPS COLLECTION BOX - BLUE BOX", "address": {"city": "ROMNEY", "state": "IN", "street": "11440 US HIGHWAY 231 S", "postcode": "47981"}}},
{"geometry": {"type": "Point", "coordinates": [-86.9038681375, 40.2522986664]}, "type": "Feature", "properties": {"collection_times": [{"days": "Mon-Fri", "time": "4:00pm"}, {"days": "Sat", "time": "11:00am"}, {"days": "Sun", "time": "Closed"}], "id": "4798100002", "name": "USPS COLLECTION BOX - PO LOBBY", "address": {"city": "ROMNEY", "state": "IN", "street": "11440 US HIGHWAY 231 S", "postcode": "47981"}}},
{"geometry": {"type": "Point", "coordinates": [-87.5253685574, 40.1970122115]}, "type": "Feature", "properties": {"collection_times": [{"days": "Mon-Fri", "time": "3:30pm"}, {"days": "Sat", "time": "11:30am"}, {"days": "Sun", "time": "Closed"}], "id": "4798200001", "name": "USPS COLLECTION BOX - BLUE BOX", "address": {"city": "STATE LINE", "state": "IN", "street": "112 E WOODARD ST", "postcode": "47982"}}},
{"geometry": {"type": "Point", "coordinates": [-87.5253685574, 40.1970122115]}, "type": "Feature", "properties": {"collection_times": [{"days": "Mon-Sat", "time": "9:45am"}, {"days": "Sun", "time": "Closed"}], "id": "4798200002", "name": "USPS COLLECTION BOX - PO LOBBY", "address": {"city": "STATE LINE", "state": "IN", "street": "112 E WOODARD ST", "postcode": "47982"}}},
{"geometry": {"type": "Point", "coordinates": [-86.7711050515, 40.2862247232]}, "type": "Feature", "properties": {"collection_times": [{"days": "Mon-Fri", "time": "4:00pm"}, {"days": "Sat", "time": "11:00am"}, {"days": "Sun", "time": "Closed"}], "id": "4798300001", "name": "USPS COLLECTION BOX - BLUE BOX", "address": {"city": "STOCKWELL", "state": "IN", "street": "9000 COMMERCIAL ST", "postcode": "47983"}}},
{"geometry": {"type": "Point", "coordinates": [-86.7711050515, 40.2862247232]}, "type": "Feature", "properties": {"collection_times": [{"days": "Mon-Fri", "time": "4:00pm"}, {"days": "Sat", "time": "11:00am"}, {"days": "Sun", "time": "Closed"}], "id": "4798300002", "name": "USPS COLLECTION BOX - PO LOBBY", "address": {"city": "STOCKWELL", "state": "IN", "street": "9000 COMMERCIAL ST", "postcode": "47983"}}},
{"geometry": {"type": "Point", "coordinates": [-87.2622199445, 40.1132136848]}, "type": "Feature", "properties": {"collection_times": [{"days": "Mon-Fri", "time": "3:15pm"}, {"days": "Sat", "time": "10:15am"}, {"days": "Sun", "time": "Closed"}], "id": "4798700001", "name": "USPS COLLECTION BOX - BLUE BOX", "address": {"city": "VEEDERSBURG", "state": "IN", "street": "220 N MAIN ST", "postcode": "47987"}}},
{"geometry": {"type": "Point", "coordinates": [-87.2622199445, 40.1132136848]}, "type": "Feature", "properties": {"collection_times": [{"days": "Mon-Fri", "time": "3:15pm"}, {"days": "Sat", "time": "10:15am"}, {"days": "Sun", "time": "Closed"}], "id": "4798700012", "name": "USPS COLLECTION BOX - PO LOBBY", "address": {"city": "VEEDERSBURG", "state": "IN", "street": "220 N MAIN ST", "postcode": "47987"}}},
{"geometry": {"type": "Point", "coordinates": [-87.0447135654, 39.876899677]}, "type": "Feature", "properties": {"collection_times": [{"days": "Mon-Fri", "time": "3:45pm"}, {"days": "Sat", "time": "10:45am"}, {"days": "Sun", "time": "Closed"}], "id": "4798900001", "name": "USPS COLLECTION BOX - BLUE BOX", "address": {"city": "WAVELAND", "state": "IN", "street": "103 W MAIN ST", "postcode": "47989"}}},
{"geometry": {"type": "Point", "coordinates": [-87.0447135654, 39.876899677]}, "type": "Feature", "properties": {"collection_times": [{"days": "Mon-Fri", "time": "11:45am"}, {"days": "Sat", "time": "10:45am"}, {"days": "Sun", "time": "Closed"}], "id": "4798900003", "name": "USPS COLLECTION BOX - PO LOBBY", "address": {"city": "WAVELAND", "state": "IN", "street": "103 W MAIN ST", "postcode": "47989"}}},
{"geometry": {"type": "Point", "coordinates": [-87.0646695817, 40.0882690802]}, "type": "Feature", "properties": {"collection_times": [{"days": "Mon-Fri", "time": "3:00pm"}, {"days": "Sat", "time": "10:30am"}, {"days": "Sun", "time": "Closed"}], "id": "4799000001", "name": "USPS COLLECTION BOX - BLUE BOX", "address": {"city": "WAYNETOWN", "state": "IN", "street": "104 E WASHINGTON ST", "postcode": "47990"}}},
{"geometry": {"type": "Point", "coordinates": [-87.0646695817, 40.0882690802]}, "type": "Feature", "properties": {"collection_times": [{"days": "Mon-Fri", "time": "3:00pm"}, {"days": "Sat", "time": "10:30am"}, {"days": "Sun", "time": "Closed"}], "id": "4799000002", "name": "USPS COLLECTION BOX - PO LOBBY", "address": {"city": "WAYNETOWN", "state": "IN", "street": "104 E WASHINGTON ST", "postcode": "47990"}}},
{"geometry": {"type": "Point", "coordinates": [-87.3867239737, 40.2717153227]}, "type": "Feature", "properties": {"collection_times": [{"days": "Mon-Fri", "time": "3:45pm"}, {"days": "Sat", "time": "10:30am"}, {"days": "Sun", "time": "Closed"}], "id": "4799100001", "name": "USPS COLLECTION BOX - BLUE BOX", "address": {"city": "WEST LEBANON", "state": "IN", "street": "106 HIGH ST", "postcode": "47991"}}},
{"geometry": {"type": "Point", "coordinates": [-87.3867239737, 40.2717153227]}, "type": "Feature", "properties": {"collection_times": [{"days": "Mon-Fri", "time": "11:45am"}, {"days": "Sat", "time": "10:30am"}, {"days": "Sun", "time": "Closed"}], "id": "4799100003", "name": "USPS COLLECTION BOX - PO LOBBY", "address": {"city": "WEST LEBANON", "state": "IN", "street": "106 HIGH ST", "postcode": "47991"}}},
{"geometry": {"type": "Point", "coordinates": [-87.386563001, 40.274573389]}, "type": "Feature", "properties": {"collection_times": [{"days": "Mon-Sat", "time": "10:00am"}, {"days": "Sun", "time": "Closed"}], "id": "4799100004", "name": "USPS COLLECTION BOX - BLUE BOX", "address": {"city": "WEST LEBANON", "state": "IN", "street": "413 N HIGH ST", "postcode": "47991"}}},
{"geometry": {"type": "Point", "coordinates": [-87.0429919768, 40.346019093]}, "type": "Feature", "properties": {"collection_times": [{"days": "Mon-Fri", "time": "3:45pm"}, {"days": "Sat", "time": "10:30am"}, {"days": "Sun", "time": "Closed"}], "id": "4799200000", "name": "USPS COLLECTION BOX - BLUE BOX", "address": {"city": "WESTPOINT", "state": "IN", "street": "4920 WASHINGTON ST", "postcode": "47992"}}},
{"geometry": {"type": "Point", "coordinates": [-87.0429919768, 40.346019093]}, "type": "Feature", "properties": {"collection_times": [{"days": "Mon-Fri", "time": "11:45am"}, {"days": "Sat", "time": "10:30am"}, {"days": "Sun", "time": "Closed"}], "id": "4799200001", "name": "USPS COLLECTION BOX - PO LOBBY", "address": {"city": "WESTPOINT", "state": "IN", "street": "4920 WASHINGTON ST", "postcode": "47992"}}},
{"geometry": {"type": "Point", "coordinates": [-87.2932980006, 40.2883067686]}, "type": "Feature", "properties": {"collection_times": [{"days": "Mon-Fri", "time": "4:30pm"}, {"days": "Sat", "time": "11:30am"}, {"days": "Sun", "time": "Closed"}], "id": "4799300001", "name": "USPS COLLECTION BOX - BLUE BOX", "address": {"city": "WILLIAMSPORT", "state": "IN", "street": "115 E 2ND ST", "postcode": "47993"}}},
{"geometry": {"type": "Point", "coordinates": [-87.4533299122, 40.2508558396]}, "type": "Feature", "properties": {"collection_times": [{"days": "Mon-Sat", "time": "11:00am"}, {"days": "Sun", "time": "Closed"}], "id": "4799300011", "name": "USPS COLLECTION BOX - BLUE BOX", "address": {"city": "WILLIAMSPORT", "state": "IN", "street": "4483 S KENT ST", "postcode": "47993"}}},
{"geometry": {"type": "Point", "coordinates": [-87.2932980006, 40.2883067686]}, "type": "Feature", "properties": {"collection_times": [{"days": "Mon-Fri", "time": "4:15pm"}, {"days": "Sat", "time": "11:30am"}, {"days": "Sun", "time": "Closed"}], "id": "4799300012", "name": "USPS COLLECTION BOX - PO LOBBY", "address": {"city": "WILLIAMSPORT", "state": "IN", "street": "115 E 2ND ST", "postcode": "47993"}}},
{"geometry": {"type": "Point", "coordinates": [-87.0730470033, 40.1721753853]}, "type": "Feature", "properties": {"collection_times": [{"days": "Mon-Fri", "time": "2:45pm"}, {"days": "Sat", "time": "10:45am"}, {"days": "Sun", "time": "Closed"}], "id": "4799400001", "name": "USPS COLLECTION BOX - BLUE BOX", "address": {"city": "WINGATE", "state": "IN", "street": "110 W HIGH ST", "postcode": "47994"}}},
{"geometry": {"type": "Point", "coordinates": [-87.0730470033, 40.1721753853]}, "type": "Feature", "properties": {"collection_times": [{"days": "Mon-Fri", "time": "12:00pm"}, {"days": "Sat", "time": "10:15am"}, {"days": "Sun", "time": "Closed"}], "id": "4799400002", "name": "USPS COLLECTION BOX - PO LOBBY", "address": {"city": "WINGATE", "state": "IN", "street": "110 W HIGH ST", "postcode": "47994"}}},
{"geometry": {"type": "Point", "coordinates": [-87.0734465117, 40.1722734291]}, "type": "Feature", "properties": {"collection_times": [{"days": "Mon-Fri", "time": "2:30pm"}, {"days": "Sat", "time": "12:00pm"}, {"days": "Sun", "time": "Closed"}], "id": "4799400003", "name": "USPS COLLECTION BOX - BLUE BOX", "address": {"city": "WINGATE", "state": "IN", "street": "102 W BOSCUM ST", "postcode": "47994"}}},
{"geometry": {"type": "Point", "coordinates": [-87.0399315193, 40.7583995737]}, "type": "Feature", "properties": {"collection_times": [{"days": "Mon-Fri", "time": "4:00pm"}, {"days": "Sat", "time": "10:30am"}, {"days": "Sun", "time": "Closed"}], "id": "4799500001", "name": "USPS COLLECTION BOX - BLUE BOX", "address": {"city": "WOLCOTT", "state": "IN", "street": "131 W MARKET ST", "postcode": "47995"}}},
{"geometry": {"type": "Point", "coordinates": [-87.0399315193, 40.7583995737]}, "type": "Feature", "properties": {"collection_times": [{"days": "Mon-Fri", "time": "2:45pm"}, {"days": "Sat", "time": "10:30am"}, {"days": "Sun", "time": "Closed"}], "id": "4799500002", "name": "USPS COLLECTION BOX - PO LOBBY", "address": {"city": "WOLCOTT", "state": "IN", "street": "131 W MARKET ST", "postcode": "47995"}}}
]}
