{"type": "FeatureCollection", "features": [
{"geometry": {"type": "Point", "coordinates": [-157.9150396695, 21.3720628958]}, "type": "Feature", "properties": {"collection_times": [{"days": "Mon-Fri", "time": "2:00pm"}, {"days": "Sat-Sun", "time": "Closed"}], "id": "9670100001", "name": "USPS COLLECTION BOX - BLUE BOX", "address": {"city": "AIEA", "state": "HI", "street": "99-859 IWAIWA ST", "postcode": "96701"}}},
{"geometry": {"type": "Point", "coordinates": [-157.9385488567, 21.3926094214]}, "type": "Feature", "properties": {"collection_times": [{"days": "Mon-Sat", "time": "1:00pm"}, {"days": "Sun", "time": "Closed"}], "id": "9670100013", "name": "USPS COLLECTION BOX - BLUE BOX", "address": {"city": "AIEA", "state": "HI", "street": "98-472 KAONOHI ST", "postcode": "96701"}}},
{"geometry": {"type": "Point", "coordinates": [-157.9403953628, 21.3857146937]}, "type": "Feature", "properties": {"collection_times": [{"days": "Mon-Sat", "time": "10:30am"}, {"days": "Sun", "time": "Closed"}], "id": "9670100014", "name": "USPS COLLECTION BOX - BLUE BOX", "address": {"city": "AIEA", "state": "HI", "street": "98-1005 MOANALUA RD", "postcode": "96701"}}},
{"geometry": {"type": "Point", "coordinates": [-157.9403953628, 21.3857146937]}, "type": "Feature", "properties": {"collection_times": [{"days": "Mon-Sat", "time": "11:00am"}, {"days": "Sun", "time": "Closed"}], "id": "9670100016", "name": "USPS COLLECTION BOX - BLUE BOX", "address": {"city": "AIEA", "state": "HI", "street": "98-1005 MOANALUA RD", "postcode": "96701"}}},
{"geometry": {"type": "Point", "coordinates": [-157.9376675009, 21.3838422095]}, "type": "Feature", "properties": {"collection_times": [{"days": "Mon-Sat", "time": "12:00pm"}, {"days": "Sun", "time": "Closed"}], "id": "9670100017", "name": "USPS COLLECTION BOX - BLUE BOX", "address": {"city": "AIEA", "state": "HI", "street": "98-1079 MOANALUA RD", "postcode": "96701"}}},
{"geometry": {"type": "Point", "coordinates": [-157.9387503889, 21.3827009974]}, "type": "Feature", "properties": {"collection_times": [{"days": "Mon-Sat", "time": "12:00pm"}, {"days": "Sun", "time": "Closed"}], "id": "9670100018", "name": "USPS COLLECTION BOX - BLUE BOX", "address": {"city": "AIEA", "state": "HI", "street": "98-211 PALI MOMI ST", "postcode": "96701"}}},
{"geometry": {"type": "Point", "coordinates": [-157.9329946159, 21.3784637889]}, "type": "Feature", "properties": {"collection_times": [{"days": "Mon-Fri", "time": "4:00pm"}, {"days": "Sat", "time": "12:30pm"}, {"days": "Sun", "time": "Closed"}], "id": "9670100021", "name": "USPS COLLECTION BOX - PO LOBBY", "address": {"city": "AIEA", "state": "HI", "street": "99-040 KAUHALE ST", "postcode": "96701"}}},
{"geometry": {"type": "Point", "coordinates": [-157.9329946159, 21.3784637889]}, "type": "Feature", "properties": {"collection_times": [{"days": "Mon-Fri", "time": "3:45pm"}, {"days": "Sat", "time": "12:30pm"}, {"days": "Sun", "time": "Closed"}], "id": "9670100023", "name": "USPS COLLECTION BOX - BLUE BOX", "address": {"city": "AIEA", "state": "HI", "street": "99-040 KAUHALE ST", "postcode": "96701"}}},
{"geometry": {"type": "Point", "coordinates": [-157.9459545783, 21.3965944889]}, "type": "Feature", "properties": {"collection_times": [{"days": "Mon-Sat", "time": "9:30am"}, {"days": "Sun", "time": "Closed"}], "id": "9670100026", "name": "USPS COLLECTION BOX - BLUE BOX", "address": {"city": "AIEA", "state": "HI", "street": "98-456 KAAHELE ST", "postcode": "96701"}}},
{"geometry": {"type": "Point", "coordinates": [-157.9301976847, 21.3793362681]}, "type": "Feature", "properties": {"collection_times": [{"days": "Mon-Sat", "time": "10:00am"}, {"days": "Sun", "time": "Closed"}], "id": "9670100028", "name": "USPS COLLECTION BOX - BLUE BOX", "address": {"city": "AIEA", "state": "HI", "street": "99-128 AIEA HEIGHTS DR", "postcode": "96701"}}},
{"geometry": {"type": "Point", "coordinates": [-157.9512844177, 21.3855933266]}, "type": "Feature", "properties": {"collection_times": [{"days": "Mon-Sat", "time": "10:30am"}, {"days": "Sun", "time": "Closed"}], "id": "9670100029", "name": "USPS COLLECTION BOX - BLUE BOX", "address": {"city": "AIEA", "state": "HI", "street": "98-027 HEKAHA ST", "postcode": "96701"}}},
{"geometry": {"type": "Point", "coordinates": [-157.9329946159, 21.3784637889]}, "type": "Feature", "properties": {"collection_times": [{"days": "Mon-Fri", "time": "4:00pm"}, {"days": "Sat", "time": "12:30pm"}, {"days": "Sun", "time": "Closed"}], "id": "9670100031", "name": "USPS COLLECTION BOX - APC", "address": {"city": "AIEA", "state": "HI", "street": "99-040 KAUHALE ST", "postcode": "96701"}}},
{"geometry": {"type": "Point", "coordinates": [-159.3175314314, 22.1605608839]}, "type": "Feature", "properties": {"collection_times": [{"days": "Mon-Fri", "time": "1:00pm"}, {"days": "Sat", "time": "12:30pm"}, {"days": "Sun", "time": "Closed"}], "id": "9670300001", "name": "USPS COLLECTION BOX - PO LOBBY", "address": {"city": "ANAHOLA", "state": "HI", "street": "4-4350 KUHIO HWY", "postcode": "96703"}}},
{"geometry": {"type": "Point", "coordinates": [-155.9081383035, 19.4878125477]}, "type": "Feature", "properties": {"collection_times": [{"days": "Mon-Fri", "time": "3:00pm"}, {"days": "Sat", "time": "11:00am"}, {"days": "Sun", "time": "Closed"}], "id": "9670400003", "name": "USPS COLLECTION BOX - PO LOBBY", "address": {"city": "CAPTAIN COOK", "state": "HI", "street": "82-6110 MAMALAHOA HWY", "postcode": "96704"}}},
{"geometry": {"type": "Point", "coordinates": [-155.8115484352, 19.334514819]}, "type": "Feature", "properties": {"collection_times": [{"days": "Mon-Sat", "time": "10:30am"}, {"days": "Sun", "time": "Closed"}], "id": "9670400006", "name": "USPS COLLECTION BOX - BLUE BOX", "address": {"city": "CAPTAIN COOK", "state": "HI", "street": "928678 LOTUS BLOSSOM STE #4 LN", "postcode": "96704"}}},
{"geometry": {"type": "Point", "coordinates": [-159.5877278226, 21.9004387946]}, "type": "Feature", "properties": {"collection_times": [{"days": "Mon-Fri", "time": "1:00pm"}, {"days": "Sat", "time": "11:00am"}, {"days": "Sun", "time": "Closed"}], "id": "9670500001", "name": "USPS COLLECTION BOX - PO LOBBY", "address": {"city": "ELEELE", "state": "HI", "street": "4485 WAIALO RD", "postcode": "96705"}}},
{"geometry": {"type": "Point", "coordinates": [-159.5877278226, 21.9004387946]}, "type": "Feature", "properties": {"collection_times": [{"days": "Mon-Fri", "time": "1:00pm"}, {"days": "Sat", "time": "11:00am"}, {"days": "Sun", "time": "Closed"}], "id": "9670500002", "name": "USPS COLLECTION BOX - PO LOBBY", "address": {"city": "ELEELE", "state": "HI", "street": "4485 WAIALO RD", "postcode": "96705"}}},
{"geometry": {"type": "Point", "coordinates": [-158.0364296032, 21.3408846541]}, "type": "Feature", "properties": {"collection_times": [{"days": "Mon-Fri", "time": "2:00pm"}, {"days": "Sat", "time": "1:00pm"}, {"days": "Sun", "time": "Closed"}], "id": "9670600002", "name": "USPS COLLECTION BOX - PO LOBBY", "address": {"city": "EWA BEACH", "state": "HI", "street": "91-1202 RENTON RD", "postcode": "96706"}}},
{"geometry": {"type": "Point", "coordinates": [-158.0144876534, 21.3150283148]}, "type": "Feature", "properties": {"collection_times": [{"days": "Mon-Fri", "time": "5:00pm"}, {"days": "Sat", "time": "4:00pm"}, {"days": "Sun", "time": "Closed"}], "id": "9670600004", "name": "USPS COLLECTION BOX - BLUE BOX", "address": {"city": "EWA BEACH", "state": "HI", "street": "91-760 PAPIPI RD", "postcode": "96706"}}},
{"geometry": {"type": "Point", "coordinates": [-158.0144876534, 21.3150283148]}, "type": "Feature", "properties": {"collection_times": [{"days": "Mon-Fri", "time": "5:00pm"}, {"days": "Sat", "time": "4:00pm"}, {"days": "Sun", "time": "Closed"}], "id": "9670600005", "name": "USPS COLLECTION BOX - PO LOBBY", "address": {"city": "EWA BEACH", "state": "HI", "street": "91-760 PAPIPI RD", "postcode": "96706"}}},
{"geometry": {"type": "Point", "coordinates": [-158.0144876534, 21.3150283148]}, "type": "Feature", "properties": {"collection_times": [{"days": "Mon-Fri", "time": "5:00pm"}, {"days": "Sat", "time": "4:00pm"}, {"days": "Sun", "time": "Closed"}], "id": "9670600009", "name": "USPS COLLECTION BOX - PO LOBBY", "address": {"city": "EWA BEACH", "state": "HI", "street": "91-760 PAPIPI RD", "postcode": "96706"}}},
{"geometry": {"type": "Point", "coordinates": [-158.0739643765, 21.3412675135]}, "type": "Feature", "properties": {"collection_times": [{"days": "Mon-Fri", "time": "2:00pm"}, {"days": "Sat", "time": "10:00am"}, {"days": "Sun", "time": "Closed"}], "id": "9670700001", "name": "USPS COLLECTION BOX - BLUE BOX", "address": {"city": "KAPOLEI", "state": "HI", "street": "91-590 FARRINGTON HWY", "postcode": "96707"}}},
{"geometry": {"type": "Point", "coordinates": [-158.080998158, 21.3349763186]}, "type": "Feature", "properties": {"collection_times": [{"days": "Mon-Fri", "time": "4:00pm"}, {"days": "Sat", "time": "12:00pm"}, {"days": "Sun", "time": "Closed"}], "id": "9670700002", "name": "USPS COLLECTION BOX - BLUE BOX", "address": {"city": "KAPOLEI", "state": "HI", "street": "1001 KAMOKILA BLVD STE 112", "postcode": "96707"}}},
{"geometry": {"type": "Point", "coordinates": [-158.0723848076, 21.3183449562]}, "type": "Feature", "properties": {"collection_times": [{"days": "Mon-Sat", "time": "12:00pm"}, {"days": "Sun", "time": "Closed"}], "id": "9670700012", "name": "USPS COLLECTION BOX - BLUE BOX", "address": {"city": "KAPOLEI", "state": "HI", "street": "91-1049 LEXINGTON ST", "postcode": "96707"}}},
{"geometry": {"type": "Point", "coordinates": [-158.0723848076, 21.3183449562]}, "type": "Feature", "properties": {"collection_times": [{"days": "Mon-Sat", "time": "12:00pm"}, {"days": "Sun", "time": "Closed"}], "id": "9670700013", "name": "USPS COLLECTION BOX - BLUE BOX", "address": {"city": "KAPOLEI", "state": "HI", "street": "91-1049 LEXINGTON ST", "postcode": "96707"}}},
{"geometry": {"type": "Point", "coordinates": [-158.080998158, 21.3349763186]}, "type": "Feature", "properties": {"collection_times": [{"days": "Mon-Fri", "time": "4:00pm"}, {"days": "Sat", "time": "12:00pm"}, {"days": "Sun", "time": "Closed"}], "id": "9670700016", "name": "USPS COLLECTION BOX - PO LOBBY", "address": {"city": "KAPOLEI", "state": "HI", "street": "1001 KAMOKILA BLVD STE 112", "postcode": "96707"}}},
{"geometry": {"type": "Point", "coordinates": [-158.080998158, 21.3349763186]}, "type": "Feature", "properties": {"collection_times": [{"days": "Mon-Fri", "time": "4:00pm"}, {"days": "Sat", "time": "12:00pm"}, {"days": "Sun", "time": "Closed"}], "id": "9670700017", "name": "USPS COLLECTION BOX - PO LOBBY", "address": {"city": "KAPOLEI", "state": "HI", "street": "1001 KAMOKILA BLVD STE 112", "postcode": "96707"}}},
{"geometry": {"type": "Point", "coordinates": [-158.0584722942, 21.3592133337]}, "type": "Feature", "properties": {"collection_times": [{"days": "Mon-Fri", "time": "8:00am"}, {"days": "Sat-Sun", "time": "Closed"}], "id": "9670700021", "name": "USPS COLLECTION BOX - BLUE BOX", "address": {"city": "KAPOLEI", "state": "HI", "street": "91-1001 FARRINGTON HWY", "postcode": "96707"}}},
{"geometry": {"type": "Point", "coordinates": [-156.3231804289, 20.9182856347]}, "type": "Feature", "properties": {"collection_times": [{"days": "Mon-Fri", "time": "3:45pm"}, {"days": "Sat", "time": "1:00pm"}, {"days": "Sun", "time": "Closed"}], "id": "9670800007", "name": "USPS COLLECTION BOX - BLUE BOX", "address": {"city": "HAIKU", "state": "HI", "street": "770 HAIKU RD", "postcode": "96708"}}},
{"geometry": {"type": "Point", "coordinates": [-156.2879198598, 20.9029431489]}, "type": "Feature", "properties": {"collection_times": [{"days": "Mon-Sat", "time": "12:00pm"}, {"days": "Sun", "time": "Closed"}], "id": "9670800008", "name": "USPS COLLECTION BOX - BLUE BOX", "address": {"city": "HAIKU", "state": "HI", "street": "1833 KAUPAKALUA RD", "postcode": "96708"}}},
{"geometry": {"type": "Point", "coordinates": [-155.1193519627, 19.8831861841]}, "type": "Feature", "properties": {"collection_times": [{"days": "Mon-Fri", "time": "2:00pm"}, {"days": "Sat", "time": "10:30am"}, {"days": "Sun", "time": "Closed"}], "id": "9671000001", "name": "USPS COLLECTION BOX - PO LOBBY", "address": {"city": "HAKALAU", "state": "HI", "street": "29-2270 OLD MAMALAHOA HWY", "postcode": "96710"}}},
{"geometry": {"type": "Point", "coordinates": [-155.1193519627, 19.8831861841]}, "type": "Feature", "properties": {"collection_times": [{"days": "Mon-Fri", "time": "2:00pm"}, {"days": "Sat", "time": "10:30am"}, {"days": "Sun", "time": "Closed"}], "id": "9671000002", "name": "USPS COLLECTION BOX - PO LOBBY", "address": {"city": "HAKALAU", "state": "HI", "street": "29-2270 OLD MAMALAHOA HWY", "postcode": "96710"}}},
{"geometry": {"type": "Point", "coordinates": [-158.1046846654, 21.5823825964]}, "type": "Feature", "properties": {"collection_times": [{"days": "Mon-Fri", "time": "3:45pm"}, {"days": "Sat", "time": "1:00pm"}, {"days": "Sun", "time": "Closed"}], "id": "9671200001", "name": "USPS COLLECTION BOX - BLUE BOX", "address": {"city": "HALEIWA", "state": "HI", "street": "66-437 KAMEHAMEHA HWY", "postcode": "96712"}}},
{"geometry": {"type": "Point", "coordinates": [-158.1046846654, 21.5823825964]}, "type": "Feature", "properties": {"collection_times": [{"days": "Mon-Fri", "time": "3:45pm"}, {"days": "Sat", "time": "1:00pm"}, {"days": "Sun", "time": "Closed"}], "id": "9671200007", "name": "USPS COLLECTION BOX - PO LOBBY", "address": {"city": "HALEIWA", "state": "HI", "street": "66-437 KAMEHAMEHA HWY", "postcode": "96712"}}},
{"geometry": {"type": "Point", "coordinates": [-158.1046846654, 21.5823825964]}, "type": "Feature", "properties": {"collection_times": [{"days": "Mon-Fri", "time": "3:45pm"}, {"days": "Sat", "time": "1:00pm"}, {"days": "Sun", "time": "Closed"}], "id": "9671200008", "name": "USPS COLLECTION BOX - PO LOBBY", "address": {"city": "HALEIWA", "state": "HI", "street": "66-437 KAMEHAMEHA HWY", "postcode": "96712"}}},
{"geometry": {"type": "Point", "coordinates": [-158.0623963818, 21.6481795953]}, "type": "Feature", "properties": {"collection_times": [{"days": "Mon-Sat", "time": "12:00pm"}, {"days": "Sun", "time": "Closed"}], "id": "9671200010", "name": "USPS COLLECTION BOX - BLUE BOX", "address": {"city": "HALEIWA", "state": "HI", "street": "59-720 KAMEHAMEHA HWY", "postcode": "96712"}}},
{"geometry": {"type": "Point", "coordinates": [-155.9868373702, 20.7507426043]}, "type": "Feature", "properties": {"collection_times": [{"days": "Mon-Sat", "time": "12:00pm"}, {"days": "Sun", "time": "Closed"}], "id": "9671300003", "name": "USPS COLLECTION BOX - PO LOBBY", "address": {"city": "HANA", "state": "HI", "street": "1 MILL ST", "postcode": "96713"}}},
{"geometry": {"type": "Point", "coordinates": [-155.9868373702, 20.7507426043]}, "type": "Feature", "properties": {"collection_times": [{"days": "Mon-Sat", "time": "12:00pm"}, {"days": "Sun", "time": "Closed"}], "id": "9671300004", "name": "USPS COLLECTION BOX - PO LOBBY", "address": {"city": "HANA", "state": "HI", "street": "1 MILL ST", "postcode": "96713"}}},
{"geometry": {"type": "Point", "coordinates": [-155.9868373702, 20.7507426043]}, "type": "Feature", "properties": {"collection_times": [{"days": "Mon-Sat", "time": "12:00pm"}, {"days": "Sun", "time": "Closed"}], "id": "9671300005", "name": "USPS COLLECTION BOX - PO LOBBY", "address": {"city": "HANA", "state": "HI", "street": "1 MILL ST", "postcode": "96713"}}},
{"geometry": {"type": "Point", "coordinates": [-155.9868373702, 20.7507426043]}, "type": "Feature", "properties": {"collection_times": [{"days": "Mon-Sat", "time": "12:00pm"}, {"days": "Sun", "time": "Closed"}], "id": "9671300006", "name": "USPS COLLECTION BOX - BLUE BOX", "address": {"city": "HANA", "state": "HI", "street": "1 MILL ST", "postcode": "96713"}}},
{"geometry": {"type": "Point", "coordinates": [-159.5020616585, 22.2013009364]}, "type": "Feature", "properties": {"collection_times": [{"days": "Mon-Fri", "time": "12:15pm"}, {"days": "Sat", "time": "11:30am"}, {"days": "Sun", "time": "Closed"}], "id": "9671400002", "name": "USPS COLLECTION BOX - PO LOBBY", "address": {"city": "HANALEI", "state": "HI", "street": "5-5226 KUHIO HWY", "postcode": "96714"}}},
{"geometry": {"type": "Point", "coordinates": [-159.590759846, 22.0339367243]}, "type": "Feature", "properties": {"collection_times": [{"days": "Mon-Fri", "time": "12:30pm"}, {"days": "Sat", "time": "8:30am"}, {"days": "Sun", "time": "Closed"}], "id": "9671600001", "name": "USPS COLLECTION BOX - PO LOBBY", "address": {"city": "HANAPEPE", "state": "HI", "street": "3817 KONA RD", "postcode": "96716"}}},
{"geometry": {"type": "Point", "coordinates": [-157.9156005755, 21.6201156104]}, "type": "Feature", "properties": {"collection_times": [{"days": "Mon-Fri", "time": "2:30pm"}, {"days": "Sat", "time": "11:30am"}, {"days": "Sun", "time": "Closed"}], "id": "9671700003", "name": "USPS COLLECTION BOX - BLUE BOX", "address": {"city": "HAUULA", "state": "HI", "street": "54-316 KAMEHAMEHA HWY", "postcode": "96717"}}},
{"geometry": {"type": "Point", "coordinates": [-155.3060485521, 19.383032348]}, "type": "Feature", "properties": {"collection_times": [{"days": "Mon-Fri", "time": "1:00pm"}, {"days": "Sat", "time": "8:45am"}, {"days": "Sun", "time": "Closed"}], "id": "9671800001", "name": "USPS COLLECTION BOX - BLUE BOX", "address": {"city": "HI NATIONAL PARK", "state": "HI", "street": "1 KILAUEA MILITARY CP", "postcode": "96718"}}},
{"geometry": {"type": "Point", "coordinates": [-155.8306041131, 20.236714344]}, "type": "Feature", "properties": {"collection_times": [{"days": "Mon-Sat", "time": "11:00am"}, {"days": "Sun", "time": "Closed"}], "id": "9671900001", "name": "USPS COLLECTION BOX - PO LOBBY", "address": {"city": "HAWI", "state": "HI", "street": "55-515 HAWI RD", "postcode": "96719"}}},
{"geometry": {"type": "Point", "coordinates": [-155.8306041131, 20.236714344]}, "type": "Feature", "properties": {"collection_times": [{"days": "Mon-Sat", "time": "11:00am"}, {"days": "Sun", "time": "Closed"}], "id": "9671900002", "name": "USPS COLLECTION BOX - PO LOBBY", "address": {"city": "HAWI", "state": "HI", "street": "55-515 HAWI RD", "postcode": "96719"}}},
{"geometry": {"type": "Point", "coordinates": [-155.0661060035, 19.6911501944]}, "type": "Feature", "properties": {"collection_times": [{"days": "Mon-Fri", "time": "12:30pm"}, {"days": "Sat-Sun", "time": "Closed"}], "id": "9672000011", "name": "USPS COLLECTION BOX - BLUE BOX", "address": {"city": "HILO", "state": "HI", "street": "2100 KANOELEHUA AVE", "postcode": "96720"}}},
{"geometry": {"type": "Point", "coordinates": [-155.0671054514, 19.6947930953]}, "type": "Feature", "properties": {"collection_times": [{"days": "Mon-Sat", "time": "12:30pm"}, {"days": "Sun", "time": "Closed"}], "id": "9672000015", "name": "USPS COLLECTION BOX - BLUE BOX", "address": {"city": "HILO", "state": "HI", "street": "50 E PUAINAKO ST", "postcode": "96720"}}},
{"geometry": {"type": "Point", "coordinates": [-155.0763214245, 19.7100603354]}, "type": "Feature", "properties": {"collection_times": [{"days": "Mon-Sat", "time": "12:30pm"}, {"days": "Sun", "time": "Closed"}], "id": "9672000042", "name": "USPS COLLECTION BOX - BLUE BOX", "address": {"city": "HILO", "state": "HI", "street": "1261 KILAUEA AVE", "postcode": "96720"}}},
{"geometry": {"type": "Point", "coordinates": [-155.0794154072, 19.7194132033]}, "type": "Feature", "properties": {"collection_times": [{"days": "Mon-Fri", "time": "12:30pm"}, {"days": "Sat-Sun", "time": "Closed"}], "id": "9672000044", "name": "USPS COLLECTION BOX - BLUE BOX", "address": {"city": "HILO", "state": "HI", "street": "101 PAUAHI ST", "postcode": "96720"}}},
{"geometry": {"type": "Point", "coordinates": [-155.0776260998, 19.7179343701]}, "type": "Feature", "properties": {"collection_times": [{"days": "Mon-Fri", "time": "3:00pm"}, {"days": "Sat", "time": "12:30pm"}, {"days": "Sun", "time": "Closed"}], "id": "9672000045", "name": "USPS COLLECTION BOX - BLUE BOX", "address": {"city": "HILO", "state": "HI", "street": "101 AUPUNI ST", "postcode": "96720"}}},
{"geometry": {"type": "Point", "coordinates": [-155.0777326946, 19.7179518546]}, "type": "Feature", "properties": {"collection_times": [{"days": "Mon-Sat", "time": "12:30pm"}, {"days": "Sun", "time": "Closed"}], "id": "9672000047", "name": "USPS COLLECTION BOX - BLUE BOX", "address": {"city": "HILO", "state": "HI", "street": "75 AUPUNI ST", "postcode": "96720"}}},
{"geometry": {"type": "Point", "coordinates": [-155.0777326946, 19.7179518546]}, "type": "Feature", "properties": {"collection_times": [{"days": "Mon-Sat", "time": "12:30pm"}, {"days": "Sun", "time": "Closed"}], "id": "9672000048", "name": "USPS COLLECTION BOX - BLUE BOX", "address": {"city": "HILO", "state": "HI", "street": "75 AUPUNI ST", "postcode": "96720"}}},
{"geometry": {"type": "Point", "coordinates": [-155.0887294811, 19.7253903006]}, "type": "Feature", "properties": {"collection_times": [{"days": "Mon-Sat", "time": "12:30pm"}, {"days": "Sun", "time": "Closed"}], "id": "9672000052", "name": "USPS COLLECTION BOX - BLUE BOX", "address": {"city": "HILO", "state": "HI", "street": "154 WAIANUENUE AVE", "postcode": "96720"}}},
{"geometry": {"type": "Point", "coordinates": [-155.0887294811, 19.7253903006]}, "type": "Feature", "properties": {"collection_times": [{"days": "Mon-Sat", "time": "12:30pm"}, {"days": "Sun", "time": "Closed"}], "id": "9672000053", "name": "USPS COLLECTION BOX - BLUE BOX", "address": {"city": "HILO", "state": "HI", "street": "154 WAIANUENUE AVE", "postcode": "96720"}}},
{"geometry": {"type": "Point", "coordinates": [-155.0887294811, 19.7253903006]}, "type": "Feature", "properties": {"collection_times": [{"days": "Mon-Fri", "time": "3:30pm"}, {"days": "Sat", "time": "1:30pm"}, {"days": "Sun", "time": "Closed"}], "id": "9672000056", "name": "USPS COLLECTION BOX - PO LOBBY", "address": {"city": "HILO", "state": "HI", "street": "154 WAIANUENUE AVE", "postcode": "96720"}}},
{"geometry": {"type": "Point", "coordinates": [-155.0640863842, 19.6952902033]}, "type": "Feature", "properties": {"collection_times": [{"days": "Mon-Sat", "time": "12:30pm"}, {"days": "Sun", "time": "Closed"}], "id": "9672000057", "name": "USPS COLLECTION BOX - BLUE BOX", "address": {"city": "HILO", "state": "HI", "street": "111 E PUAINAKO ST", "postcode": "96720"}}},
{"geometry": {"type": "Point", "coordinates": [-155.0795004866, 19.7194880877]}, "type": "Feature", "properties": {"collection_times": [{"days": "Mon-Sat", "time": "12:30pm"}, {"days": "Sun", "time": "Closed"}], "id": "9672000064", "name": "USPS COLLECTION BOX - BLUE BOX", "address": {"city": "HILO", "state": "HI", "street": "100 PAUAHI ST", "postcode": "96720"}}},
{"geometry": {"type": "Point", "coordinates": [-155.0418189638, 19.7142375608]}, "type": "Feature", "properties": {"collection_times": [{"days": "Mon-Sat", "time": "5:00pm"}, {"days": "Sun", "time": "Closed"}], "id": "9672000066", "name": "USPS COLLECTION BOX - BLUE BOX", "address": {"city": "HILO", "state": "HI", "street": "1299 KEKUANAOA ST", "postcode": "96720"}}},
{"geometry": {"type": "Point", "coordinates": [-155.0418189638, 19.7142375608]}, "type": "Feature", "properties": {"collection_times": [{"days": "Mon-Sat", "time": "4:00pm"}, {"days": "Sun", "time": "Closed"}], "id": "9672000070", "name": "USPS COLLECTION BOX - PO LOBBY", "address": {"city": "HILO", "state": "HI", "street": "1299 KEKUANAOA ST", "postcode": "96720"}}},
{"geometry": {"type": "Point", "coordinates": [-155.0887294811, 19.7253903006]}, "type": "Feature", "properties": {"collection_times": [{"days": "Mon-Fri", "time": "3:30pm"}, {"days": "Sat", "time": "1:30pm"}, {"days": "Sun", "time": "Closed"}], "id": "9672000071", "name": "USPS COLLECTION BOX - PO LOBBY", "address": {"city": "HILO", "state": "HI", "street": "154 WAIANUENUE AVE", "postcode": "96720"}}},
{"geometry": {"type": "Point", "coordinates": [-155.0887294811, 19.7253903006]}, "type": "Feature", "properties": {"collection_times": [{"days": "Mon-Fri", "time": "3:30pm"}, {"days": "Sat", "time": "1:30pm"}, {"days": "Sun", "time": "Closed"}], "id": "9672000072", "name": "USPS COLLECTION BOX - PO LOBBY", "address": {"city": "HILO", "state": "HI", "street": "154 WAIANUENUE AVE", "postcode": "96720"}}},
{"geometry": {"type": "Point", "coordinates": [-155.0887294811, 19.7253903006]}, "type": "Feature", "properties": {"collection_times": [{"days": "Mon-Fri", "time": "3:30pm"}, {"days": "Sat", "time": "1:30pm"}, {"days": "Sun", "time": "Closed"}], "id": "9672000073", "name": "USPS COLLECTION BOX - PO LOBBY", "address": {"city": "HILO", "state": "HI", "street": "154 WAIANUENUE AVE", "postcode": "96720"}}},
{"geometry": {"type": "Point", "coordinates": [-155.0857571854, 19.7244831315]}, "type": "Feature", "properties": {"collection_times": [{"days": "Mon-Fri", "time": "12:30pm"}, {"days": "Sat-Sun", "time": "Closed"}], "id": "9672000074", "name": "USPS COLLECTION BOX - BLUE BOX", "address": {"city": "HILO", "state": "HI", "street": "250 KAMEHAMEHA AVE", "postcode": "96720"}}},
{"geometry": {"type": "Point", "coordinates": [-155.0418189639, 19.7142375606]}, "type": "Feature", "properties": {"collection_times": [{"days": "Mon-Sat", "time": "4:00pm"}, {"days": "Sun", "time": "Closed"}], "id": "9672000077", "name": "USPS COLLECTION BOX - APC", "address": {"city": "HILO", "state": "HI", "street": "1299 KEKUANAOA ST", "postcode": "96720"}}},
{"geometry": {"type": "Point", "coordinates": [-159.5115510816, 22.1585722479]}, "type": "Feature", "properties": {"collection_times": [{"days": "Mon-Fri", "time": "12:30pm"}, {"days": "Sat", "time": "11:30am"}, {"days": "Sun", "time": "Closed"}], "id": "9672200001", "name": "USPS COLLECTION BOX - PO LOBBY", "address": {"city": "KILAUEA", "state": "HI", "street": "54280 KUHIO HWY", "postcode": "96722"}}},
{"geometry": {"type": "Point", "coordinates": [-155.9485526642, 19.6255582303]}, "type": "Feature", "properties": {"collection_times": [{"days": "Mon-Fri", "time": "3:00pm"}, {"days": "Sat-Sun", "time": "Closed"}], "id": "9672500004", "name": "USPS COLLECTION BOX - PO LOBBY", "address": {"city": "HOLUALOA", "state": "HI", "street": "76-5921 MAMALAHOA HWY", "postcode": "96725"}}},
{"geometry": {"type": "Point", "coordinates": [-155.9485526642, 19.6255582303]}, "type": "Feature", "properties": {"collection_times": [{"days": "Mon-Fri", "time": "3:00pm"}, {"days": "Sat-Sun", "time": "Closed"}], "id": "9672500005", "name": "USPS COLLECTION BOX - PO LOBBY", "address": {"city": "HOLUALOA", "state": "HI", "street": "76-5921 MAMALAHOA HWY", "postcode": "96725"}}},
{"geometry": {"type": "Point", "coordinates": [-155.9345970949, 19.5536330647]}, "type": "Feature", "properties": {"collection_times": [{"days": "Mon-Sat", "time": "12:00pm"}, {"days": "Sun", "time": "Closed"}], "id": "9672500010", "name": "USPS COLLECTION BOX - BLUE BOX", "address": {"city": "HOLUALOA", "state": "HI", "street": "78-7010 MAMALAHOA HWY", "postcode": "96725"}}},
{"geometry": {"type": "Point", "coordinates": [-155.9080950391, 19.419416669]}, "type": "Feature", "properties": {"collection_times": [{"days": "Mon-Fri", "time": "12:00pm"}, {"days": "Sat", "time": "9:00am"}, {"days": "Sun", "time": "Closed"}], "id": "9672600001", "name": "USPS COLLECTION BOX - PO LOBBY", "address": {"city": "HONAUNAU", "state": "HI", "street": "84-4840 CITY OF REFUGE RD", "postcode": "96726"}}},
{"geometry": {"type": "Point", "coordinates": [-155.9080950391, 19.419416669]}, "type": "Feature", "properties": {"collection_times": [{"days": "Mon-Fri", "time": "12:00pm"}, {"days": "Sat", "time": "9:00am"}, {"days": "Sun", "time": "Closed"}], "id": "9672600002", "name": "USPS COLLECTION BOX - PO LOBBY", "address": {"city": "HONAUNAU", "state": "HI", "street": "84-4840 CITY OF REFUGE RD", "postcode": "96726"}}},
{"geometry": {"type": "Point", "coordinates": [-155.4690732712, 20.0811959021]}, "type": "Feature", "properties": {"collection_times": [{"days": "Mon-Fri", "time": "3:30pm"}, {"days": "Sat", "time": "11:15am"}, {"days": "Sun", "time": "Closed"}], "id": "9672700001", "name": "USPS COLLECTION BOX - BLUE BOX", "address": {"city": "HONOKAA", "state": "HI", "street": "45-490 LEHUA ST", "postcode": "96727"}}},
{"geometry": {"type": "Point", "coordinates": [-155.4690732712, 20.0811959021]}, "type": "Feature", "properties": {"collection_times": [{"days": "Mon-Fri", "time": "3:30pm"}, {"days": "Sat", "time": "11:15am"}, {"days": "Sun", "time": "Closed"}], "id": "9672700002", "name": "USPS COLLECTION BOX - PO LOBBY", "address": {"city": "HONOKAA", "state": "HI", "street": "45-490 LEHUA ST", "postcode": "96727"}}},
{"geometry": {"type": "Point", "coordinates": [-155.5663906025, 20.1182392458]}, "type": "Feature", "properties": {"collection_times": [{"days": "Mon-Fri", "time": "11:00am"}, {"days": "Sat-Sun", "time": "Closed"}], "id": "9672700003", "name": "USPS COLLECTION BOX - PO LOBBY", "address": {"city": "HONOKAA", "state": "HI", "street": "48-5300 KUKUIHAELE RD", "postcode": "96727"}}},
{"geometry": {"type": "Point", "coordinates": [-155.4690732712, 20.0811959021]}, "type": "Feature", "properties": {"collection_times": [{"days": "Mon-Fri", "time": "3:30pm"}, {"days": "Sat", "time": "11:15am"}, {"days": "Sun", "time": "Closed"}], "id": "9672700005", "name": "USPS COLLECTION BOX - PO LOBBY", "address": {"city": "HONOKAA", "state": "HI", "street": "45-490 LEHUA ST", "postcode": "96727"}}},
{"geometry": {"type": "Point", "coordinates": [-155.4580456286, 20.0686895179]}, "type": "Feature", "properties": {"collection_times": [{"days": "Mon-Fri", "time": "10:00am"}, {"days": "Sat-Sun", "time": "Closed"}], "id": "9672700009", "name": "USPS COLLECTION BOX - BLUE BOX", "address": {"city": "HONOKAA", "state": "HI", "street": "45-3244 MAMALAHOA HWY", "postcode": "96727"}}},
{"geometry": {"type": "Point", "coordinates": [-155.1349166224, 19.8556402914]}, "type": "Feature", "properties": {"collection_times": [{"days": "Mon-Fri", "time": "2:00pm"}, {"days": "Sat", "time": "10:00am"}, {"days": "Sun", "time": "Closed"}], "id": "9672800001", "name": "USPS COLLECTION BOX - PO LOBBY", "address": {"city": "HONOMU", "state": "HI", "street": "28271 HONOMU RD", "postcode": "96728"}}},
{"geometry": {"type": "Point", "coordinates": [-155.1349166224, 19.8556402914]}, "type": "Feature", "properties": {"collection_times": [{"days": "Mon-Fri", "time": "2:00pm"}, {"days": "Sat", "time": "10:00am"}, {"days": "Sun", "time": "Closed"}], "id": "9672800002", "name": "USPS COLLECTION BOX - PO LOBBY", "address": {"city": "HONOMU", "state": "HI", "street": "28271 HONOMU RD", "postcode": "96728"}}},
{"geometry": {"type": "Point", "coordinates": [-157.0982241296, 21.1572740104]}, "type": "Feature", "properties": {"collection_times": [{"days": "Mon-Fri", "time": "3:45pm"}, {"days": "Sat", "time": "9:30am"}, {"days": "Sun", "time": "Closed"}], "id": "9672900002", "name": "USPS COLLECTION BOX - PO LOBBY", "address": {"city": "HOOLEHUA", "state": "HI", "street": "1 POSTAL WAY", "postcode": "96729"}}},
{"geometry": {"type": "Point", "coordinates": [-157.0982241296, 21.1572740104]}, "type": "Feature", "properties": {"collection_times": [{"days": "Mon-Fri", "time": "3:45pm"}, {"days": "Sat", "time": "9:30am"}, {"days": "Sun", "time": "Closed"}], "id": "9672900003", "name": "USPS COLLECTION BOX - PO LOBBY", "address": {"city": "HOOLEHUA", "state": "HI", "street": "1 POSTAL WAY", "postcode": "96729"}}},
{"geometry": {"type": "Point", "coordinates": [-157.8527952179, 21.5558435361]}, "type": "Feature", "properties": {"collection_times": [{"days": "Mon-Fri", "time": "2:00pm"}, {"days": "Sat", "time": "12:00pm"}, {"days": "Sun", "time": "Closed"}], "id": "9673000001", "name": "USPS COLLECTION BOX - BLUE BOX", "address": {"city": "KAAAWA", "state": "HI", "street": "51-480 KAMEHAMEHA HWY", "postcode": "96730"}}},
{"geometry": {"type": "Point", "coordinates": [-157.9504159725, 21.6774631442]}, "type": "Feature", "properties": {"collection_times": [{"days": "Mon-Fri", "time": "2:30pm"}, {"days": "Sat", "time": "11:00am"}, {"days": "Sun", "time": "Closed"}], "id": "9673100002", "name": "USPS COLLECTION BOX - PO LOBBY", "address": {"city": "KAHUKU", "state": "HI", "street": "56-565 KAMEHAMEHA HWY", "postcode": "96731"}}},
{"geometry": {"type": "Point", "coordinates": [-157.9504159725, 21.6774631442]}, "type": "Feature", "properties": {"collection_times": [{"days": "Mon-Fri", "time": "2:30pm"}, {"days": "Sat", "time": "11:00am"}, {"days": "Sun", "time": "Closed"}], "id": "9673100005", "name": "USPS COLLECTION BOX - BLUE BOX", "address": {"city": "KAHUKU", "state": "HI", "street": "56-565 KAMEHAMEHA HWY", "postcode": "96731"}}},
{"geometry": {"type": "Point", "coordinates": [-156.4747028929, 20.8886472118]}, "type": "Feature", "properties": {"collection_times": [{"days": "Mon-Sat", "time": "11:00am"}, {"days": "Sun", "time": "Closed"}], "id": "9673200006", "name": "USPS COLLECTION BOX - BLUE BOX", "address": {"city": "KAHULUI", "state": "HI", "street": "285 W KAAHUMANU AVE", "postcode": "96732"}}},
{"geometry": {"type": "Point", "coordinates": [-156.469012674, 20.8876698279]}, "type": "Feature", "properties": {"collection_times": [{"days": "Mon-Sat", "time": "12:00pm"}, {"days": "Sun", "time": "Closed"}], "id": "9673200008", "name": "USPS COLLECTION BOX - BLUE BOX", "address": {"city": "KAHULUI", "state": "HI", "street": "95 LONO AVE", "postcode": "96732"}}},
{"geometry": {"type": "Point", "coordinates": [-156.4549253388, 20.8823481618]}, "type": "Feature", "properties": {"collection_times": [{"days": "Mon-Sat", "time": "12:00pm"}, {"days": "Sun", "time": "Closed"}], "id": "9673200013", "name": "USPS COLLECTION BOX - BLUE BOX", "address": {"city": "KAHULUI", "state": "HI", "street": "333 DAIRY RD", "postcode": "96732"}}},
{"geometry": {"type": "Point", "coordinates": [-156.4695347391, 20.8890026138]}, "type": "Feature", "properties": {"collection_times": [{"days": "Mon-Sat", "time": "12:00pm"}, {"days": "Sun", "time": "Closed"}], "id": "9673200014", "name": "USPS COLLECTION BOX - BLUE BOX", "address": {"city": "KAHULUI", "state": "HI", "street": "33 LONO AVE", "postcode": "96732"}}},
{"geometry": {"type": "Point", "coordinates": [-156.4656669021, 20.8875587711]}, "type": "Feature", "properties": {"collection_times": [{"days": "Mon-Sat", "time": "4:30pm"}, {"days": "Sun", "time": "Closed"}], "id": "9673200018", "name": "USPS COLLECTION BOX - BLUE BOX", "address": {"city": "KAHULUI", "state": "HI", "street": "138 S PUUNENE AVE", "postcode": "96732"}}},
{"geometry": {"type": "Point", "coordinates": [-156.4656669021, 20.8875587711]}, "type": "Feature", "properties": {"collection_times": [{"days": "Mon-Sat", "time": "4:30pm"}, {"days": "Sun", "time": "Closed"}], "id": "9673200020", "name": "USPS COLLECTION BOX - PO LOBBY", "address": {"city": "KAHULUI", "state": "HI", "street": "138 S PUUNENE AVE", "postcode": "96732"}}},
{"geometry": {"type": "Point", "coordinates": [-156.4656669021, 20.8875587711]}, "type": "Feature", "properties": {"collection_times": [{"days": "Mon-Sat", "time": "4:30pm"}, {"days": "Sun", "time": "Closed"}], "id": "9673200024", "name": "USPS COLLECTION BOX - BLUE BOX", "address": {"city": "KAHULUI", "state": "HI", "street": "138 S PUUNENE AVE", "postcode": "96732"}}},
{"geometry": {"type": "Point", "coordinates": [-157.7424325312, 21.3957782965]}, "type": "Feature", "properties": {"collection_times": [{"days": "Mon-Sat", "time": "2:00pm"}, {"days": "Sun", "time": "Closed"}], "id": "9673400002", "name": "USPS COLLECTION BOX - BLUE BOX", "address": {"city": "KAILUA", "state": "HI", "street": "30 AULIKE ST", "postcode": "96734"}}},
{"geometry": {"type": "Point", "coordinates": [-157.7447900982, 21.3959217981]}, "type": "Feature", "properties": {"collection_times": [{"days": "Mon-Sat", "time": "11:00am"}, {"days": "Sun", "time": "Closed"}], "id": "9673400003", "name": "USPS COLLECTION BOX - BLUE BOX", "address": {"city": "KAILUA", "state": "HI", "street": "112 ONEAWA ST", "postcode": "96734"}}},
{"geometry": {"type": "Point", "coordinates": [-157.7288561162, 21.3763562232]}, "type": "Feature", "properties": {"collection_times": [{"days": "Mon-Sat", "time": "2:00pm"}, {"days": "Sun", "time": "Closed"}], "id": "9673400005", "name": "USPS COLLECTION BOX - BLUE BOX", "address": {"city": "KAILUA", "state": "HI", "street": "1090 KEOLU DR", "postcode": "96734"}}},
{"geometry": {"type": "Point", "coordinates": [-157.7480236004, 21.4205787781]}, "type": "Feature", "properties": {"collection_times": [{"days": "Mon-Fri", "time": "1:00pm"}, {"days": "Sat", "time": "10:00am"}, {"days": "Sun", "time": "Closed"}], "id": "9673400008", "name": "USPS COLLECTION BOX - BLUE BOX", "address": {"city": "KAILUA", "state": "HI", "street": "970 N KALAHEO AVE", "postcode": "96734"}}},
{"geometry": {"type": "Point", "coordinates": [-157.7489983585, 21.4227116532]}, "type": "Feature", "properties": {"collection_times": [{"days": "Mon-Sat", "time": "10:00am"}, {"days": "Sun", "time": "Closed"}], "id": "9673400023", "name": "USPS COLLECTION BOX - BLUE BOX", "address": {"city": "KAILUA", "state": "HI", "street": "25 KANEOHE BAY DR", "postcode": "96734"}}},
{"geometry": {"type": "Point", "coordinates": [-157.7406561319, 21.3926384703]}, "type": "Feature", "properties": {"collection_times": [{"days": "Mon-Fri", "time": "5:00pm"}, {"days": "Sat", "time": "4:00pm"}, {"days": "Sun", "time": "Closed"}], "id": "9673400025", "name": "USPS COLLECTION BOX - BLUE BOX", "address": {"city": "KAILUA", "state": "HI", "street": "335 HAHANI ST", "postcode": "96734"}}},
{"geometry": {"type": "Point", "coordinates": [-157.7418064952, 21.397782744]}, "type": "Feature", "properties": {"collection_times": [{"days": "Mon-Fri", "time": "5:00pm"}, {"days": "Sat", "time": "4:00pm"}, {"days": "Sun", "time": "Closed"}], "id": "9673400027", "name": "USPS COLLECTION BOX - EXPRESS", "address": {"city": "KAILUA", "state": "HI", "street": "335 HAHANI ST", "postcode": "96734"}}},
{"geometry": {"type": "Point", "coordinates": [-157.7406561319, 21.3926384703]}, "type": "Feature", "properties": {"collection_times": [{"days": "Mon-Fri", "time": "5:00pm"}, {"days": "Sat", "time": "4:00pm"}, {"days": "Sun", "time": "Closed"}], "id": "9673400028", "name": "USPS COLLECTION BOX - PO LOBBY", "address": {"city": "KAILUA", "state": "HI", "street": "335 HAHANI ST", "postcode": "96734"}}},
{"geometry": {"type": "Point", "coordinates": [-157.7418064948, 21.3977827903]}, "type": "Feature", "properties": {"collection_times": [{"days": "Mon-Fri", "time": "5:00pm"}, {"days": "Sat", "time": "4:00pm"}, {"days": "Sun", "time": "Closed"}], "id": "9673400034", "name": "USPS COLLECTION BOX - APC", "address": {"city": "KAILUA", "state": "HI", "street": "335 HAHANI ST", "postcode": "96734"}}},
{"geometry": {"type": "Point", "coordinates": [-157.7658247669, 21.3676520111]}, "type": "Feature", "properties": {"collection_times": [{"days": "Mon-Sat", "time": "9:30am"}, {"days": "Sun", "time": "Closed"}], "id": "9673400035", "name": "USPS COLLECTION BOX - BLUE BOX", "address": {"city": "KAILUA", "state": "HI", "street": "1066 MAUNAWILI RD", "postcode": "96734"}}},
{"geometry": {"type": "Point", "coordinates": [-157.7406561319, 21.3926384703]}, "type": "Feature", "properties": {"collection_times": [{"days": "Mon-Fri", "time": "5:00pm"}, {"days": "Sat", "time": "4:00pm"}, {"days": "Sun", "time": "Closed"}], "id": "9673400036", "name": "USPS COLLECTION BOX - APC", "address": {"city": "KAILUA", "state": "HI", "street": "335 HAHANI ST", "postcode": "96734"}}},
{"geometry": {"type": "Point", "coordinates": [-157.7406561315, 21.3926384704]}, "type": "Feature", "properties": {"collection_times": [{"days": "Mon-Fri", "time": "5:00pm"}, {"days": "Sat", "time": "4:00pm"}, {"days": "Sun", "time": "Closed"}], "id": "9673400038", "name": "USPS COLLECTION BOX - APC", "address": {"city": "KAILUA", "state": "HI", "street": "335 HAHANI ST", "postcode": "96734"}}},
{"geometry": {"type": "Point", "coordinates": [-155.7999062221, 19.9395206881]}, "type": "Feature", "properties": {"collection_times": [{"days": "Mon-Fri", "time": "2:30pm"}, {"days": "Sat", "time": "2:00pm"}, {"days": "Sun", "time": "Closed"}], "id": "9673800002", "name": "USPS COLLECTION BOX - PO LOBBY", "address": {"city": "WAIKOLOA", "state": "HI", "street": "68-1875 PUA MELIA ST", "postcode": "96738"}}},
{"geometry": {"type": "Point", "coordinates": [-155.7999062221, 19.9395206881]}, "type": "Feature", "properties": {"collection_times": [{"days": "Mon-Fri", "time": "2:30pm"}, {"days": "Sat", "time": "2:00pm"}, {"days": "Sun", "time": "Closed"}], "id": "9673800003", "name": "USPS COLLECTION BOX - BLUE BOX", "address": {"city": "WAIKOLOA", "state": "HI", "street": "68-1875 PUA MELIA ST", "postcode": "96738"}}},
{"geometry": {"type": "Point", "coordinates": [-155.7782878197, 19.9230121251]}, "type": "Feature", "properties": {"collection_times": [{"days": "Mon-Sat", "time": "12:30pm"}, {"days": "Sun", "time": "Closed"}], "id": "9673800004", "name": "USPS COLLECTION BOX - BLUE BOX", "address": {"city": "WAIKOLOA", "state": "HI", "street": "68-1845 WAIKOLOA RD", "postcode": "96738"}}},
{"geometry": {"type": "Point", "coordinates": [-155.8835013883, 19.9168119966]}, "type": "Feature", "properties": {"collection_times": [{"days": "Mon-Sat", "time": "12:30pm"}, {"days": "Sun", "time": "Closed"}], "id": "9673800005", "name": "USPS COLLECTION BOX - BLUE BOX", "address": {"city": "WAIKOLOA", "state": "HI", "street": "69-250 WAIKOLOA BEACH DR", "postcode": "96738"}}},
{"geometry": {"type": "Point", "coordinates": [-155.7999062221, 19.9395206881]}, "type": "Feature", "properties": {"collection_times": [{"days": "Mon-Fri", "time": "2:30pm"}, {"days": "Sat", "time": "2:00pm"}, {"days": "Sun", "time": "Closed"}], "id": "9673800006", "name": "USPS COLLECTION BOX - PO LOBBY", "address": {"city": "WAIKOLOA", "state": "HI", "street": "68-1875 PUA MELIA ST", "postcode": "96738"}}},
{"geometry": {"type": "Point", "coordinates": [-155.7999062221, 19.9395206881]}, "type": "Feature", "properties": {"collection_times": [{"days": "Mon-Fri", "time": "2:30pm"}, {"days": "Sat", "time": "2:00pm"}, {"days": "Sun", "time": "Closed"}], "id": "9673800007", "name": "USPS COLLECTION BOX - PO LOBBY", "address": {"city": "WAIKOLOA", "state": "HI", "street": "68-1875 PUA MELIA ST", "postcode": "96738"}}},
{"geometry": {"type": "Point", "coordinates": [-155.8929935152, 19.7948505838]}, "type": "Feature", "properties": {"collection_times": [{"days": "Mon-Sat", "time": "12:00pm"}, {"days": "Sun", "time": "Closed"}], "id": "9674000003", "name": "USPS COLLECTION BOX - BLUE BOX", "address": {"city": "KAILUA-KONA", "state": "HI", "street": "75240 NANI KAILUA DR", "postcode": "96740"}}},
{"geometry": {"type": "Point", "coordinates": [-155.8929935152, 19.7948505838]}, "type": "Feature", "properties": {"collection_times": [{"days": "Mon-Fri", "time": "12:00pm"}, {"days": "Sat-Sun", "time": "Closed"}], "id": "9674000009", "name": "USPS COLLECTION BOX - BLUE BOX", "address": {"city": "KAILUA-KONA", "state": "HI", "street": "75138 HUALALAI RD", "postcode": "96740"}}},
{"geometry": {"type": "Point", "coordinates": [-155.96327, 19.571394]}, "type": "Feature", "properties": {"collection_times": [{"days": "Mon-Sat", "time": "3:00pm"}, {"days": "Sun", "time": "Closed"}], "id": "9674000015", "name": "USPS COLLECTION BOX - BLUE BOX", "address": {"city": "KAILUA-KONA", "state": "HI", "street": "78-6831 ALII DR", "postcode": "96740"}}},
{"geometry": {"type": "Point", "coordinates": [-155.8929935152, 19.7948505838]}, "type": "Feature", "properties": {"collection_times": [{"days": "Mon-Sat", "time": "3:40pm"}, {"days": "Sun", "time": "Closed"}], "id": "9674000018", "name": "USPS COLLECTION BOX - PO LOBBY", "address": {"city": "KAILUA-KONA", "state": "HI", "street": "745577 PALANI RD", "postcode": "96740"}}},
{"geometry": {"type": "Point", "coordinates": [-155.99294, 19.64747]}, "type": "Feature", "properties": {"collection_times": [{"days": "Mon-Fri", "time": "5:00pm"}, {"days": "Sat", "time": "3:40pm"}, {"days": "Sun", "time": "Closed"}], "id": "9674000019", "name": "USPS COLLECTION BOX - BLUE BOX", "address": {"city": "KAILUA-KONA", "state": "HI", "street": "74-5577 PALANI RD", "postcode": "96740"}}},
{"geometry": {"type": "Point", "coordinates": [-155.8929935152, 19.7948505838]}, "type": "Feature", "properties": {"collection_times": [{"days": "Mon-Fri", "time": "5:00pm"}, {"days": "Sat", "time": "3:40pm"}, {"days": "Sun", "time": "Closed"}], "id": "9674000020", "name": "USPS COLLECTION BOX - BLUE BOX", "address": {"city": "KAILUA-KONA", "state": "HI", "street": "74-5577 PALANI RD", "postcode": "96740"}}},
{"geometry": {"type": "Point", "coordinates": [-155.9966319069, 19.6413586091]}, "type": "Feature", "properties": {"collection_times": [{"days": "Mon-Fri", "time": "12:00pm"}, {"days": "Sat-Sun", "time": "Closed"}], "id": "9674000024", "name": "USPS COLLECTION BOX - BLUE BOX", "address": {"city": "KAILUA-KONA", "state": "HI", "street": "75-5660 PALANI RD", "postcode": "96740"}}},
{"geometry": {"type": "Point", "coordinates": [-155.8929935152, 19.7948505838]}, "type": "Feature", "properties": {"collection_times": [{"days": "Mon-Sat", "time": "3:40pm"}, {"days": "Sun", "time": "Closed"}], "id": "9674000026", "name": "USPS COLLECTION BOX - APC", "address": {"city": "KAILUA-KONA", "state": "HI", "street": "74-5577 PALANI RD", "postcode": "96740"}}},
{"geometry": {"type": "Point", "coordinates": [-155.8929935152, 19.7948505838]}, "type": "Feature", "properties": {"collection_times": [{"days": "Mon-Sat", "time": "11:30am"}, {"days": "Sun", "time": "Closed"}], "id": "9674000029", "name": "USPS COLLECTION BOX - BLUE BOX", "address": {"city": "KAILUA-KONA", "state": "HI", "street": "735600 MAIAU ST", "postcode": "96740"}}},
{"geometry": {"type": "Point", "coordinates": [-155.9777804531, 19.716611519]}, "type": "Feature", "properties": {"collection_times": [{"days": "Mon-Sat", "time": "1:00pm"}, {"days": "Sun", "time": "Closed"}], "id": "9674000033", "name": "USPS COLLECTION BOX - BLUE BOX", "address": {"city": "KAILUA-KONA", "state": "HI", "street": "73-4354 MAMALAHOA HWY", "postcode": "96740"}}},
{"geometry": {"type": "Point", "coordinates": [-159.5273786259, 21.925082404]}, "type": "Feature", "properties": {"collection_times": [{"days": "Mon-Fri", "time": "1:00pm"}, {"days": "Sat", "time": "12:00pm"}, {"days": "Sun", "time": "Closed"}], "id": "9674100002", "name": "USPS COLLECTION BOX - PO LOBBY", "address": {"city": "KALAHEO", "state": "HI", "street": "4489 PAPALINA RD", "postcode": "96741"}}},
{"geometry": {"type": "Point", "coordinates": [-156.9249309816, 21.1515226726]}, "type": "Feature", "properties": {"collection_times": [{"days": "Mon-Sat", "time": "7:00am"}, {"days": "Sun", "time": "Closed"}], "id": "9674200001", "name": "USPS COLLECTION BOX - PO LOBBY", "address": {"city": "KALAUPAPA", "state": "HI", "street": "290 BERETANIA ST", "postcode": "96742"}}},
{"geometry": {"type": "Point", "coordinates": [-155.6687230315, 20.0205167488]}, "type": "Feature", "properties": {"collection_times": [{"days": "Mon-Fri", "time": "3:45pm"}, {"days": "Sat", "time": "1:30pm"}, {"days": "Sun", "time": "Closed"}], "id": "9674300004", "name": "USPS COLLECTION BOX - BLUE BOX", "address": {"city": "KAMUELA", "state": "HI", "street": "67-1197 MAMALAHOA HWY", "postcode": "96743"}}},
{"geometry": {"type": "Point", "coordinates": [-155.6731464014, 20.0163806619]}, "type": "Feature", "properties": {"collection_times": [{"days": "Mon-Fri", "time": "4:00pm"}, {"days": "Sat", "time": "2:30pm"}, {"days": "Sun", "time": "Closed"}], "id": "9674300007", "name": "USPS COLLECTION BOX - PO LOBBY", "address": {"city": "KAMUELA", "state": "HI", "street": "67-1197 MAMALAHOA HWY", "postcode": "96743"}}},
{"geometry": {"type": "Point", "coordinates": [-155.6731464014, 20.0163806619]}, "type": "Feature", "properties": {"collection_times": [{"days": "Mon-Fri", "time": "4:00pm"}, {"days": "Sat", "time": "2:30pm"}, {"days": "Sun", "time": "Closed"}], "id": "9674300008", "name": "USPS COLLECTION BOX - PO LOBBY", "address": {"city": "KAMUELA", "state": "HI", "street": "67-1197 MAMALAHOA HWY", "postcode": "96743"}}},
{"geometry": {"type": "Point", "coordinates": [-155.6732190576, 20.016226966]}, "type": "Feature", "properties": {"collection_times": [{"days": "Mon-Sat", "time": "12:30pm"}, {"days": "Sun", "time": "Closed"}], "id": "9674300012", "name": "USPS COLLECTION BOX - BLUE BOX", "address": {"city": "KAMUELA", "state": "HI", "street": "65-1158 MAMALAHOA HWY", "postcode": "96743"}}},
{"geometry": {"type": "Point", "coordinates": [-155.6731464014, 20.0163806619]}, "type": "Feature", "properties": {"collection_times": [{"days": "Mon-Sat", "time": "12:30pm"}, {"days": "Sun", "time": "Closed"}], "id": "9674300014", "name": "USPS COLLECTION BOX - BLUE BOX", "address": {"city": "KAMUELA", "state": "HI", "street": "67-1185 MAMALAHOA HWY", "postcode": "96743"}}},
{"geometry": {"type": "Point", "coordinates": [-155.8286083177, 20.0379306691]}, "type": "Feature", "properties": {"collection_times": [{"days": "Mon-Sat", "time": "12:45pm"}, {"days": "Sun", "time": "Closed"}], "id": "9674300015", "name": "USPS COLLECTION BOX - BLUE BOX", "address": {"city": "KAMUELA", "state": "HI", "street": "61-3657 AKONI PULE HWY", "postcode": "96743"}}},
{"geometry": {"type": "Point", "coordinates": [-157.8282850793, 21.43776707]}, "type": "Feature", "properties": {"collection_times": [{"days": "Mon-Sat", "time": "1:00pm"}, {"days": "Sun", "time": "Closed"}], "id": "9674400002", "name": "USPS COLLECTION BOX - BLUE BOX", "address": {"city": "KANEOHE", "state": "HI", "street": "47-388 HUI IWA ST", "postcode": "96744"}}},
{"geometry": {"type": "Point", "coordinates": [-157.803259228, 21.4205273959]}, "type": "Feature", "properties": {"collection_times": [{"days": "Mon-Sat", "time": "1:00pm"}, {"days": "Sun", "time": "Closed"}], "id": "9674400003", "name": "USPS COLLECTION BOX - BLUE BOX", "address": {"city": "KANEOHE", "state": "HI", "street": "46-047 KAMEHAMEHA HWY", "postcode": "96744"}}},
{"geometry": {"type": "Point", "coordinates": [-157.8035218738, 21.4207463096]}, "type": "Feature", "properties": {"collection_times": [{"days": "Mon-Sat", "time": "1:00pm"}, {"days": "Sun", "time": "Closed"}], "id": "9674400004", "name": "USPS COLLECTION BOX - BLUE BOX", "address": {"city": "KANEOHE", "state": "HI", "street": "46-056 KAMEHAMEHA HWY", "postcode": "96744"}}},
{"geometry": {"type": "Point", "coordinates": [-157.7999410404, 21.4000194125]}, "type": "Feature", "properties": {"collection_times": [{"days": "Mon-Sat", "time": "12:00pm"}, {"days": "Sun", "time": "Closed"}], "id": "9674400007", "name": "USPS COLLECTION BOX - BLUE BOX", "address": {"city": "KANEOHE", "state": "HI", "street": "45-513 LULUKU RD", "postcode": "96744"}}},
{"geometry": {"type": "Point", "coordinates": [-157.7983746128, 21.4028149373]}, "type": "Feature", "properties": {"collection_times": [{"days": "Mon-Sat", "time": "12:00pm"}, {"days": "Sun", "time": "Closed"}], "id": "9674400009", "name": "USPS COLLECTION BOX - BLUE BOX", "address": {"city": "KANEOHE", "state": "HI", "street": "45-480 KANEOHE BAY DR", "postcode": "96744"}}},
{"geometry": {"type": "Point", "coordinates": [-157.8028663446, 21.4196758107]}, "type": "Feature", "properties": {"collection_times": [{"days": "Mon-Fri", "time": "5:00pm"}, {"days": "Sat", "time": "4:30pm"}, {"days": "Sun", "time": "Closed"}], "id": "9674400013", "name": "USPS COLLECTION BOX - EXPRESS", "address": {"city": "KANEOHE", "state": "HI", "street": "46-036 KAMEHAMEHA HWY", "postcode": "96744"}}},
{"geometry": {"type": "Point", "coordinates": [-157.8028663446, 21.4196758107]}, "type": "Feature", "properties": {"collection_times": [{"days": "Mon-Fri", "time": "5:00pm"}, {"days": "Sat", "time": "4:30pm"}, {"days": "Sun", "time": "Closed"}], "id": "9674400014", "name": "USPS COLLECTION BOX - BLUE BOX", "address": {"city": "KANEOHE", "state": "HI", "street": "46-036 KAMEHAMEHA HWY", "postcode": "96744"}}},
{"geometry": {"type": "Point", "coordinates": [-157.8003325572, 21.4142964846]}, "type": "Feature", "properties": {"collection_times": [{"days": "Mon-Sat", "time": "1:00pm"}, {"days": "Sun", "time": "Closed"}], "id": "9674400022", "name": "USPS COLLECTION BOX - BLUE BOX", "address": {"city": "KANEOHE", "state": "HI", "street": "45-955 KAMEHAMEHA HWY", "postcode": "96744"}}},
{"geometry": {"type": "Point", "coordinates": [-157.8085675047, 21.4212023236]}, "type": "Feature", "properties": {"collection_times": [{"days": "Mon-Fri", "time": "5:00pm"}, {"days": "Sat", "time": "4:30pm"}, {"days": "Sun", "time": "Closed"}], "id": "9674400024", "name": "USPS COLLECTION BOX - BLUE BOX", "address": {"city": "KANEOHE", "state": "HI", "street": "46-036 KAMEHAMEHA HWY", "postcode": "96744"}}},
{"geometry": {"type": "Point", "coordinates": [-157.8019568809, 21.418246718]}, "type": "Feature", "properties": {"collection_times": [{"days": "Mon-Sat", "time": "1:00pm"}, {"days": "Sun", "time": "Closed"}], "id": "9674400025", "name": "USPS COLLECTION BOX - BLUE BOX", "address": {"city": "KANEOHE", "state": "HI", "street": "46-001 KAMEHAMEHA HWY", "postcode": "96744"}}},
{"geometry": {"type": "Point", "coordinates": [-157.803028591, 21.4199078058]}, "type": "Feature", "properties": {"collection_times": [{"days": "Mon-Fri", "time": "5:00pm"}, {"days": "Sat", "time": "4:30pm"}, {"days": "Sun", "time": "Closed"}], "id": "9674400027", "name": "USPS COLLECTION BOX - APC", "address": {"city": "KANEOHE", "state": "HI", "street": "46-036 KAMEHAMEHA HWY", "postcode": "96744"}}},
{"geometry": {"type": "Point", "coordinates": [-157.8506561688, 21.4932096341]}, "type": "Feature", "properties": {"collection_times": [{"days": "Mon-Sat", "time": "10:30am"}, {"days": "Sun", "time": "Closed"}], "id": "9674400028", "name": "USPS COLLECTION BOX - BLUE BOX", "address": {"city": "KANEOHE", "state": "HI", "street": "48-377 KAMEHAMEHA HWY", "postcode": "96744"}}},
{"geometry": {"type": "Point", "coordinates": [-159.3194407345, 22.0687476595]}, "type": "Feature", "properties": {"collection_times": [{"days": "Mon-Sat", "time": "10:30am"}, {"days": "Sun", "time": "Closed"}], "id": "9674600002", "name": "USPS COLLECTION BOX - BLUE BOX", "address": {"city": "KAPAA", "state": "HI", "street": "4-1105 KUHIO HWY", "postcode": "96746"}}},
{"geometry": {"type": "Point", "coordinates": [-159.3212072032, 22.0610260869]}, "type": "Feature", "properties": {"collection_times": [{"days": "Mon-Fri", "time": "10:30am"}, {"days": "Sat-Sun", "time": "Closed"}], "id": "9674600003", "name": "USPS COLLECTION BOX - BLUE BOX", "address": {"city": "KAPAA", "state": "HI", "street": "4-831 KUHIO HWY", "postcode": "96746"}}},
{"geometry": {"type": "Point", "coordinates": [-159.3225724365, 22.0598360324]}, "type": "Feature", "properties": {"collection_times": [{"days": "Mon-Sat", "time": "10:30am"}, {"days": "Sun", "time": "Closed"}], "id": "9674600004", "name": "USPS COLLECTION BOX - BLUE BOX", "address": {"city": "KAPAA", "state": "HI", "street": "4-771 KUHIO HWY", "postcode": "96746"}}},
{"geometry": {"type": "Point", "coordinates": [-159.3292054968, 22.0551168152]}, "type": "Feature", "properties": {"collection_times": [{"days": "Mon-Sat", "time": "10:30am"}, {"days": "Sun", "time": "Closed"}], "id": "9674600006", "name": "USPS COLLECTION BOX - BLUE BOX", "address": {"city": "KAPAA", "state": "HI", "street": "4-484 KUHIO HWY", "postcode": "96746"}}},
{"geometry": {"type": "Point", "coordinates": [-159.3513877126, 22.0790926414]}, "type": "Feature", "properties": {"collection_times": [{"days": "Mon-Fri", "time": "1:45pm"}, {"days": "Sat", "time": "1:15pm"}, {"days": "Sun", "time": "Closed"}], "id": "9674600009", "name": "USPS COLLECTION BOX - EXPRESS", "address": {"city": "KAPAA", "state": "HI", "street": "4-1101 KUHIO HWY", "postcode": "96746"}}},
{"geometry": {"type": "Point", "coordinates": [-159.3194347463, 22.0686262996]}, "type": "Feature", "properties": {"collection_times": [{"days": "Mon-Fri", "time": "1:45pm"}, {"days": "Sat", "time": "1:15pm"}, {"days": "Sun", "time": "Closed"}], "id": "9674600010", "name": "USPS COLLECTION BOX - PO LOBBY", "address": {"city": "KAPAA", "state": "HI", "street": "4-1101 KUHIO HWY", "postcode": "96746"}}},
{"geometry": {"type": "Point", "coordinates": [-159.3181535377, 22.0763580448]}, "type": "Feature", "properties": {"collection_times": [{"days": "Mon-Fri", "time": "10:30am"}, {"days": "Sat-Sun", "time": "Closed"}], "id": "9674600013", "name": "USPS COLLECTION BOX - BLUE BOX", "address": {"city": "KAPAA", "state": "HI", "street": "4-1359 KUHIO HWY", "postcode": "96746"}}},
{"geometry": {"type": "Point", "coordinates": [-159.6207881373, 21.9163312449]}, "type": "Feature", "properties": {"collection_times": [{"days": "Mon-Fri", "time": "11:30am"}, {"days": "Sat", "time": "10:00am"}, {"days": "Sun", "time": "Closed"}], "id": "9674700001", "name": "USPS COLLECTION BOX - BLUE BOX", "address": {"city": "KAUMAKANI", "state": "HI", "street": "1-2600 KAUMUALII HWY", "postcode": "96747"}}},
{"geometry": {"type": "Point", "coordinates": [-157.0174324054, 21.0916497766]}, "type": "Feature", "properties": {"collection_times": [{"days": "Mon-Fri", "time": "3:15pm"}, {"days": "Sat", "time": "10:30am"}, {"days": "Sun", "time": "Closed"}], "id": "9674800003", "name": "USPS COLLECTION BOX - BLUE BOX", "address": {"city": "KAUNAKAKAI", "state": "HI", "street": "120 ALAMALAMA ST", "postcode": "96748"}}},
{"geometry": {"type": "Point", "coordinates": [-157.0174324054, 21.0916497766]}, "type": "Feature", "properties": {"collection_times": [{"days": "Mon-Fri", "time": "3:15pm"}, {"days": "Sat", "time": "10:30am"}, {"days": "Sun", "time": "Closed"}], "id": "9674800004", "name": "USPS COLLECTION BOX - BLUE BOX", "address": {"city": "KAUNAKAKAI", "state": "HI", "street": "120 ALAMALAMA ST", "postcode": "96748"}}},
{"geometry": {"type": "Point", "coordinates": [-157.0174324054, 21.0916497766]}, "type": "Feature", "properties": {"collection_times": [{"days": "Mon-Fri", "time": "3:15pm"}, {"days": "Sat", "time": "10:30am"}, {"days": "Sun", "time": "Closed"}], "id": "9674800006", "name": "USPS COLLECTION BOX - PO LOBBY", "address": {"city": "KAUNAKAKAI", "state": "HI", "street": "120 ALAMALAMA ST", "postcode": "96748"}}},
{"geometry": {"type": "Point", "coordinates": [-155.0392341956, 19.6224384225]}, "type": "Feature", "properties": {"collection_times": [{"days": "Mon-Fri", "time": "2:15pm"}, {"days": "Sat", "time": "1:10pm"}, {"days": "Sun", "time": "Closed"}], "id": "9674900001", "name": "USPS COLLECTION BOX - PO LOBBY", "address": {"city": "KEAAU", "state": "HI", "street": "16-578 OLD VOLCANO RD", "postcode": "96749"}}},
{"geometry": {"type": "Point", "coordinates": [-155.0392341956, 19.6224384225]}, "type": "Feature", "properties": {"collection_times": [{"days": "Mon-Fri", "time": "1:45pm"}, {"days": "Sat", "time": "12:45pm"}, {"days": "Sun", "time": "Closed"}], "id": "9674900002", "name": "USPS COLLECTION BOX - BLUE BOX", "address": {"city": "KEAAU", "state": "HI", "street": "16-578 OLD VOLCANO RD", "postcode": "96749"}}},
{"geometry": {"type": "Point", "coordinates": [-155.0392341956, 19.6224384225]}, "type": "Feature", "properties": {"collection_times": [{"days": "Mon-Fri", "time": "2:15pm"}, {"days": "Sat", "time": "1:10pm"}, {"days": "Sun", "time": "Closed"}], "id": "9674900005", "name": "USPS COLLECTION BOX - PO LOBBY", "address": {"city": "KEAAU", "state": "HI", "street": "16-578 OLD VOLCANO RD", "postcode": "96749"}}},
{"geometry": {"type": "Point", "coordinates": [-155.9205971386, 19.5183174844]}, "type": "Feature", "properties": {"collection_times": [{"days": "Mon-Fri", "time": "3:15pm"}, {"days": "Sat", "time": "1:30pm"}, {"days": "Sun", "time": "Closed"}], "id": "9675000001", "name": "USPS COLLECTION BOX - PO LOBBY", "address": {"city": "KEALAKEKUA", "state": "HI", "street": "81-990 HALEKII ST", "postcode": "96750"}}},
{"geometry": {"type": "Point", "coordinates": [-155.9205971386, 19.5183174844]}, "type": "Feature", "properties": {"collection_times": [{"days": "Mon-Fri", "time": "3:15pm"}, {"days": "Sat", "time": "1:30pm"}, {"days": "Sun", "time": "Closed"}], "id": "9675000002", "name": "USPS COLLECTION BOX - PO LOBBY", "address": {"city": "KEALAKEKUA", "state": "HI", "street": "81-990 HALEKII ST", "postcode": "96750"}}},
{"geometry": {"type": "Point", "coordinates": [-155.9326263131, 19.5163710382]}, "type": "Feature", "properties": {"collection_times": [{"days": "Mon-Fri", "time": "10:30am"}, {"days": "Sat-Sun", "time": "Closed"}], "id": "9675000007", "name": "USPS COLLECTION BOX - BLUE BOX", "address": {"city": "KEALAKEKUA", "state": "HI", "street": "791000 MAMALAHOA HWY", "postcode": "96750"}}},
{"geometry": {"type": "Point", "coordinates": [-159.319757892, 22.0684745872]}, "type": "Feature", "properties": {"collection_times": [{"days": "Mon-Fri", "time": "1:30pm"}, {"days": "Sat-Sun", "time": "Closed"}], "id": "9675100001", "name": "USPS COLLECTION BOX - PO LOBBY", "address": {"city": "KEALIA", "state": "HI", "street": "2340 KEALIA RD", "postcode": "96751"}}},
{"geometry": {"type": "Point", "coordinates": [-159.7133322021, 21.9707394899]}, "type": "Feature", "properties": {"collection_times": [{"days": "Mon-Fri", "time": "1:45pm"}, {"days": "Sat", "time": "11:45am"}, {"days": "Sun", "time": "Closed"}], "id": "9675200001", "name": "USPS COLLECTION BOX - PO LOBBY", "address": {"city": "KEKAHA", "state": "HI", "street": "8230 KEKEHA RD", "postcode": "96752"}}},
{"geometry": {"type": "Point", "coordinates": [-156.4563191146, 20.7521345138]}, "type": "Feature", "properties": {"collection_times": [{"days": "Mon-Sat", "time": "3:30pm"}, {"days": "Sun", "time": "Closed"}], "id": "9675300003", "name": "USPS COLLECTION BOX - BLUE BOX", "address": {"city": "KIHEI", "state": "HI", "street": "1254 S KIHEI RD", "postcode": "96753"}}},
{"geometry": {"type": "Point", "coordinates": [-156.4473532891, 20.722419388]}, "type": "Feature", "properties": {"collection_times": [{"days": "Mon-Sat", "time": "10:30am"}, {"days": "Sun", "time": "Closed"}], "id": "9675300007", "name": "USPS COLLECTION BOX - BLUE BOX", "address": {"city": "KIHEI", "state": "HI", "street": "2439 S KIHEI RD", "postcode": "96753"}}},
{"geometry": {"type": "Point", "coordinates": [-156.4563191146, 20.7521345138]}, "type": "Feature", "properties": {"collection_times": [{"days": "Mon-Sat", "time": "3:30pm"}, {"days": "Sun", "time": "Closed"}], "id": "9675300009", "name": "USPS COLLECTION BOX - PO LOBBY", "address": {"city": "KIHEI", "state": "HI", "street": "1254 S KIHEI RD", "postcode": "96753"}}},
{"geometry": {"type": "Point", "coordinates": [-156.4412568988, 20.6915670577]}, "type": "Feature", "properties": {"collection_times": [{"days": "Mon-Sat", "time": "11:00am"}, {"days": "Sun", "time": "Closed"}], "id": "9675300013", "name": "USPS COLLECTION BOX - BLUE BOX", "address": {"city": "KIHEI", "state": "HI", "street": "3750 WAILEA ALANUI DR", "postcode": "96753"}}},
{"geometry": {"type": "Point", "coordinates": [-156.4510523691, 20.7506694222]}, "type": "Feature", "properties": {"collection_times": [{"days": "Mon-Sat", "time": "11:00am"}, {"days": "Sun", "time": "Closed"}], "id": "9675300014", "name": "USPS COLLECTION BOX - BLUE BOX", "address": {"city": "KIHEI", "state": "HI", "street": "247 PIIKEA AVE", "postcode": "96753"}}},
{"geometry": {"type": "Point", "coordinates": [-156.4560546449, 20.7659383848]}, "type": "Feature", "properties": {"collection_times": [{"days": "Mon-Sat", "time": "10:00am"}, {"days": "Sun", "time": "Closed"}], "id": "9675300016", "name": "USPS COLLECTION BOX - BLUE BOX", "address": {"city": "KIHEI", "state": "HI", "street": "1 HALILI LN", "postcode": "96753"}}},
{"geometry": {"type": "Point", "coordinates": [-156.4563191146, 20.7521345138]}, "type": "Feature", "properties": {"collection_times": [{"days": "Mon-Sat", "time": "3:30pm"}, {"days": "Sun", "time": "Closed"}], "id": "9675300017", "name": "USPS COLLECTION BOX - APC", "address": {"city": "KIHEI", "state": "HI", "street": "1254 S KIHEI RD", "postcode": "96753"}}},
{"geometry": {"type": "Point", "coordinates": [-156.4514219911, 20.7299906564]}, "type": "Feature", "properties": {"collection_times": [{"days": "Mon-Sat", "time": "10:30am"}, {"days": "Sun", "time": "Closed"}], "id": "9675300019", "name": "USPS COLLECTION BOX - BLUE BOX", "address": {"city": "KIHEI", "state": "HI", "street": "1993 S KIHEI RD", "postcode": "96753"}}},
{"geometry": {"type": "Point", "coordinates": [-156.4520096549, 20.7717435881]}, "type": "Feature", "properties": {"collection_times": [{"days": "Mon-Sat", "time": "10:30am"}, {"days": "Sun", "time": "Closed"}], "id": "9675300020", "name": "USPS COLLECTION BOX - BLUE BOX", "address": {"city": "KIHEI", "state": "HI", "street": "30 MANAO KALA ST", "postcode": "96753"}}},
{"geometry": {"type": "Point", "coordinates": [-159.4108375859, 22.2066242916]}, "type": "Feature", "properties": {"collection_times": [{"days": "Mon-Fri", "time": "12:45pm"}, {"days": "Sat", "time": "12:00pm"}, {"days": "Sun", "time": "Closed"}], "id": "9675400004", "name": "USPS COLLECTION BOX - BLUE BOX", "address": {"city": "KILAUEA", "state": "HI", "street": "2521 KOLO RD", "postcode": "96754"}}},
{"geometry": {"type": "Point", "coordinates": [-159.4108375859, 22.2066242916]}, "type": "Feature", "properties": {"collection_times": [{"days": "Mon-Fri", "time": "12:45pm"}, {"days": "Sat", "time": "12:00pm"}, {"days": "Sun", "time": "Closed"}], "id": "9675400006", "name": "USPS COLLECTION BOX - PO LOBBY", "address": {"city": "KILAUEA", "state": "HI", "street": "2521 KOLO RD", "postcode": "96754"}}},
{"geometry": {"type": "Point", "coordinates": [-159.4108375859, 22.2066242916]}, "type": "Feature", "properties": {"collection_times": [{"days": "Mon-Fri", "time": "12:45pm"}, {"days": "Sat", "time": "12:00pm"}, {"days": "Sun", "time": "Closed"}], "id": "9675400008", "name": "USPS COLLECTION BOX - PO LOBBY", "address": {"city": "KILAUEA", "state": "HI", "street": "2521 KOLO RD", "postcode": "96754"}}},
{"geometry": {"type": "Point", "coordinates": [-155.7830361215, 20.1680084011]}, "type": "Feature", "properties": {"collection_times": [{"days": "Mon-Sat", "time": "11:15am"}, {"days": "Sun", "time": "Closed"}], "id": "9675500005", "name": "USPS COLLECTION BOX - BLUE BOX", "address": {"city": "KAPAAU", "state": "HI", "street": "54-396 UNION MILL RD", "postcode": "96755"}}},
{"geometry": {"type": "Point", "coordinates": [-159.5081283859, 21.9259572491]}, "type": "Feature", "properties": {"collection_times": [{"days": "Mon-Fri", "time": "1:30pm"}, {"days": "Sat", "time": "12:30pm"}, {"days": "Sun", "time": "Closed"}], "id": "9675600003", "name": "USPS COLLECTION BOX - PO LOBBY", "address": {"city": "KOLOA", "state": "HI", "street": "5485 KOLOA RD", "postcode": "96756"}}},
{"geometry": {"type": "Point", "coordinates": [-157.0436714662, 21.1605615364]}, "type": "Feature", "properties": {"collection_times": [{"days": "Mon-Fri", "time": "3:40pm"}, {"days": "Sat", "time": "7:15am"}, {"days": "Sun", "time": "Closed"}], "id": "9675700000", "name": "USPS COLLECTION BOX - PO LOBBY", "address": {"city": "KUALAPUU", "state": "HI", "street": "308 FARRINGTON AVE", "postcode": "96757"}}},
{"geometry": {"type": "Point", "coordinates": [-158.0583537006, 21.4568451095]}, "type": "Feature", "properties": {"collection_times": [{"days": "Mon-Fri", "time": "2:45pm"}, {"days": "Sat", "time": "7:00am"}, {"days": "Sun", "time": "Closed"}], "id": "9675900004", "name": "USPS COLLECTION BOX - PO LOBBY", "address": {"city": "KUNIA", "state": "HI", "street": "92-1770 KUNIA RD", "postcode": "96759"}}},
{"geometry": {"type": "Point", "coordinates": [-155.0575208283, 19.5934656839]}, "type": "Feature", "properties": {"collection_times": [{"days": "Mon-Fri", "time": "2:00pm"}, {"days": "Sat", "time": "12:30pm"}, {"days": "Sun", "time": "Closed"}], "id": "9676000001", "name": "USPS COLLECTION BOX - PO LOBBY", "address": {"city": "KURTISTOWN", "state": "HI", "street": "17-345 VOLCANO RD", "postcode": "96760"}}},
{"geometry": {"type": "Point", "coordinates": [-155.0575208283, 19.5934656839]}, "type": "Feature", "properties": {"collection_times": [{"days": "Mon-Fri", "time": "2:00pm"}, {"days": "Sat", "time": "12:30pm"}, {"days": "Sun", "time": "Closed"}], "id": "9676000003", "name": "USPS COLLECTION BOX - PO LOBBY", "address": {"city": "KURTISTOWN", "state": "HI", "street": "17-345 VOLCANO RD", "postcode": "96760"}}},
{"geometry": {"type": "Point", "coordinates": [-156.6799643482, 20.8752786098]}, "type": "Feature", "properties": {"collection_times": [{"days": "Mon-Sat", "time": "10:00am"}, {"days": "Sun", "time": "Closed"}], "id": "9676100006", "name": "USPS COLLECTION BOX - BLUE BOX", "address": {"city": "LAHAINA", "state": "HI", "street": "811 FRONT ST", "postcode": "96761"}}},
{"geometry": {"type": "Point", "coordinates": [-156.6820941799, 20.8839983785]}, "type": "Feature", "properties": {"collection_times": [{"days": "Mon-Sat", "time": "9:00am"}, {"days": "Sun", "time": "Closed"}], "id": "9676100014", "name": "USPS COLLECTION BOX - BLUE BOX", "address": {"city": "LAHAINA", "state": "HI", "street": "1221 HONOAPIILANI HWY", "postcode": "96761"}}},
{"geometry": {"type": "Point", "coordinates": [-156.6806449248, 20.8774828786]}, "type": "Feature", "properties": {"collection_times": [{"days": "Mon-Fri", "time": "2:30pm"}, {"days": "Sat", "time": "10:00am"}, {"days": "Sun", "time": "Closed"}], "id": "9676100015", "name": "USPS COLLECTION BOX - BLUE BOX", "address": {"city": "LAHAINA", "state": "HI", "street": "132 PAPALAUA ST", "postcode": "96761"}}},
{"geometry": {"type": "Point", "coordinates": [-156.6806449248, 20.8774828786]}, "type": "Feature", "properties": {"collection_times": [{"days": "Mon-Fri", "time": "2:30pm"}, {"days": "Sat", "time": "10:00am"}, {"days": "Sun", "time": "Closed"}], "id": "9676100016", "name": "USPS COLLECTION BOX - BLUE BOX", "address": {"city": "LAHAINA", "state": "HI", "street": "132 PAPALAUA ST", "postcode": "96761"}}},
{"geometry": {"type": "Point", "coordinates": [-156.6806449248, 20.8774828786]}, "type": "Feature", "properties": {"collection_times": [{"days": "Mon-Fri", "time": "2:30pm"}, {"days": "Sat", "time": "10:00am"}, {"days": "Sun", "time": "Closed"}], "id": "9676100017", "name": "USPS COLLECTION BOX - BLUE BOX", "address": {"city": "LAHAINA", "state": "HI", "street": "132 PAPALAUA ST", "postcode": "96761"}}},
{"geometry": {"type": "Point", "coordinates": [-156.6845936929, 20.9028616716]}, "type": "Feature", "properties": {"collection_times": [{"days": "Mon-Sat", "time": "3:30pm"}, {"days": "Sun", "time": "Closed"}], "id": "9676100019", "name": "USPS COLLECTION BOX - BLUE BOX", "address": {"city": "LAHAINA", "state": "HI", "street": "1760 HONOAPIILANI HWY", "postcode": "96761"}}},
{"geometry": {"type": "Point", "coordinates": [-156.6813992129, 20.9170904405]}, "type": "Feature", "properties": {"collection_times": [{"days": "Mon-Sat", "time": "3:30pm"}, {"days": "Sun", "time": "Closed"}], "id": "9676100020", "name": "USPS COLLECTION BOX - EXPRESS", "address": {"city": "LAHAINA", "state": "HI", "street": "1760 HONOAPIILANI HWY", "postcode": "96761"}}},
{"geometry": {"type": "Point", "coordinates": [-156.6883013705, 20.9473047114]}, "type": "Feature", "properties": {"collection_times": [{"days": "Mon-Sat", "time": "10:00am"}, {"days": "Sun", "time": "Closed"}], "id": "9676100025", "name": "USPS COLLECTION BOX - BLUE BOX", "address": {"city": "LAHAINA", "state": "HI", "street": "3350 LOWER HONOAPIILANI RD", "postcode": "96761"}}},
{"geometry": {"type": "Point", "coordinates": [-156.6670339142, 20.9858546797]}, "type": "Feature", "properties": {"collection_times": [{"days": "Mon-Sat", "time": "10:00am"}, {"days": "Sun", "time": "Closed"}], "id": "9676100029", "name": "USPS COLLECTION BOX - BLUE BOX", "address": {"city": "LAHAINA", "state": "HI", "street": "5095 NAPILIHAU ST", "postcode": "96761"}}},
{"geometry": {"type": "Point", "coordinates": [-156.6513662295, 20.9943083246]}, "type": "Feature", "properties": {"collection_times": [{"days": "Mon-Sat", "time": "10:00am"}, {"days": "Sun", "time": "Closed"}], "id": "9676100030", "name": "USPS COLLECTION BOX - BLUE BOX", "address": {"city": "LAHAINA", "state": "HI", "street": "4405 HONOAPIILANI HWY", "postcode": "96761"}}},
{"geometry": {"type": "Point", "coordinates": [-156.6772017915, 20.8718917445]}, "type": "Feature", "properties": {"collection_times": [{"days": "Mon-Sat", "time": "10:00am"}, {"days": "Sun", "time": "Closed"}], "id": "9676100031", "name": "USPS COLLECTION BOX - BLUE BOX", "address": {"city": "LAHAINA", "state": "HI", "street": "658 FRONT ST", "postcode": "96761"}}},
{"geometry": {"type": "Point", "coordinates": [-156.6845936929, 20.9028616716]}, "type": "Feature", "properties": {"collection_times": [{"days": "Mon-Sat", "time": "3:30pm"}, {"days": "Sun", "time": "Closed"}], "id": "9676100035", "name": "USPS COLLECTION BOX - BLUE BOX", "address": {"city": "LAHAINA", "state": "HI", "street": "1760 HONOAPIILANI HWY", "postcode": "96761"}}},
{"geometry": {"type": "Point", "coordinates": [-156.6845936929, 20.9028616716]}, "type": "Feature", "properties": {"collection_times": [{"days": "Mon-Sat", "time": "3:30pm"}, {"days": "Sun", "time": "Closed"}], "id": "9676100037", "name": "USPS COLLECTION BOX - APC", "address": {"city": "LAHAINA", "state": "HI", "street": "1760 HONOAPIILANI HWY", "postcode": "96761"}}},
{"geometry": {"type": "Point", "coordinates": [-157.9215182737, 21.6471380002]}, "type": "Feature", "properties": {"collection_times": [{"days": "Mon-Fri", "time": "3:15pm"}, {"days": "Sat", "time": "11:30am"}, {"days": "Sun", "time": "Closed"}], "id": "9676200004", "name": "USPS COLLECTION BOX - PO LOBBY", "address": {"city": "LAIE", "state": "HI", "street": "55-510 KAMEHAMEHA HWY", "postcode": "96762"}}},
{"geometry": {"type": "Point", "coordinates": [-156.9199573944, 20.8268707921]}, "type": "Feature", "properties": {"collection_times": [{"days": "Mon-Fri", "time": "3:00pm"}, {"days": "Sat", "time": "11:30am"}, {"days": "Sun", "time": "Closed"}], "id": "9676300002", "name": "USPS COLLECTION BOX - PO LOBBY", "address": {"city": "LANAI CITY", "state": "HI", "street": "620 JACARANDA ST", "postcode": "96763"}}},
{"geometry": {"type": "Point", "coordinates": [-155.2786815954, 19.9385274682]}, "type": "Feature", "properties": {"collection_times": [{"days": "Mon-Fri", "time": "1:30pm"}, {"days": "Sat", "time": "11:00am"}, {"days": "Sun", "time": "Closed"}], "id": "9676400001", "name": "USPS COLLECTION BOX - PO LOBBY", "address": {"city": "LAUPAHOEHOE", "state": "HI", "street": "1 POSTAL WAY", "postcode": "96764"}}},
{"geometry": {"type": "Point", "coordinates": [-159.4841469803, 21.9331703888]}, "type": "Feature", "properties": {"collection_times": [{"days": "Mon-Fri", "time": "12:45pm"}, {"days": "Sat", "time": "12:30pm"}, {"days": "Sun", "time": "Closed"}], "id": "9676500000", "name": "USPS COLLECTION BOX - PO LOBBY", "address": {"city": "LAWAI", "state": "HI", "street": "2-3675 KAUMUALII HWY", "postcode": "96765"}}},
{"geometry": {"type": "Point", "coordinates": [-159.4841469803, 21.9331703888]}, "type": "Feature", "properties": {"collection_times": [{"days": "Mon-Fri", "time": "12:45pm"}, {"days": "Sat", "time": "12:30pm"}, {"days": "Sun", "time": "Closed"}], "id": "9676500001", "name": "USPS COLLECTION BOX - PO LOBBY", "address": {"city": "LAWAI", "state": "HI", "street": "2-3675 KAUMUALII HWY", "postcode": "96765"}}},
{"geometry": {"type": "Point", "coordinates": [-159.3675119512, 21.9761304346]}, "type": "Feature", "properties": {"collection_times": [{"days": "Mon-Fri", "time": "9:30am"}, {"days": "Sat-Sun", "time": "Closed"}], "id": "9676600003", "name": "USPS COLLECTION BOX - BLUE BOX", "address": {"city": "LIHUE", "state": "HI", "street": "3060 EIWA ST", "postcode": "96766"}}},
{"geometry": {"type": "Point", "coordinates": [-159.3657663644, 21.9719923136]}, "type": "Feature", "properties": {"collection_times": [{"days": "Mon-Fri", "time": "12:30pm"}, {"days": "Sat-Sun", "time": "Closed"}], "id": "9676600004", "name": "USPS COLLECTION BOX - BLUE BOX", "address": {"city": "LIHUE", "state": "HI", "street": "2970 KRESS ST", "postcode": "96766"}}},
{"geometry": {"type": "Point", "coordinates": [-159.3530387182, 21.9599802115]}, "type": "Feature", "properties": {"collection_times": [{"days": "Mon-Sat", "time": "9:30am"}, {"days": "Sun", "time": "Closed"}], "id": "9676600007", "name": "USPS COLLECTION BOX - BLUE BOX", "address": {"city": "LIHUE", "state": "HI", "street": "3416 RICE ST", "postcode": "96766"}}},
{"geometry": {"type": "Point", "coordinates": [-159.369166307, 21.9751292409]}, "type": "Feature", "properties": {"collection_times": [{"days": "Mon-Fri", "time": "9:30am"}, {"days": "Sat-Sun", "time": "Closed"}], "id": "9676600011", "name": "USPS COLLECTION BOX - BLUE BOX", "address": {"city": "LIHUE", "state": "HI", "street": "4444 RICE ST", "postcode": "96766"}}},
{"geometry": {"type": "Point", "coordinates": [-159.3519263892, 21.9782980863]}, "type": "Feature", "properties": {"collection_times": [{"days": "Mon-Sat", "time": "4:30pm"}, {"days": "Sun", "time": "Closed"}], "id": "9676600014", "name": "USPS COLLECTION BOX - BLUE BOX", "address": {"city": "LIHUE", "state": "HI", "street": "3230 KAPULE HWY", "postcode": "96766"}}},
{"geometry": {"type": "Point", "coordinates": [-159.3690899253, 21.9749907634]}, "type": "Feature", "properties": {"collection_times": [{"days": "Mon-Fri", "time": "4:00pm"}, {"days": "Sat", "time": "1:00pm"}, {"days": "Sun", "time": "Closed"}], "id": "9676600017", "name": "USPS COLLECTION BOX - PO LOBBY", "address": {"city": "LIHUE", "state": "HI", "street": "4441 RICE ST", "postcode": "96766"}}},
{"geometry": {"type": "Point", "coordinates": [-159.3690899253, 21.9749907634]}, "type": "Feature", "properties": {"collection_times": [{"days": "Mon-Fri", "time": "4:00pm"}, {"days": "Sat", "time": "1:00pm"}, {"days": "Sun", "time": "Closed"}], "id": "9676600018", "name": "USPS COLLECTION BOX - PO LOBBY", "address": {"city": "LIHUE", "state": "HI", "street": "4441 RICE ST", "postcode": "96766"}}},
{"geometry": {"type": "Point", "coordinates": [-159.3690899253, 21.9749907634]}, "type": "Feature", "properties": {"collection_times": [{"days": "Mon-Fri", "time": "4:00pm"}, {"days": "Sat", "time": "1:00pm"}, {"days": "Sun", "time": "Closed"}], "id": "9676600024", "name": "USPS COLLECTION BOX - BLUE BOX", "address": {"city": "LIHUE", "state": "HI", "street": "4441 RICE ST", "postcode": "96766"}}},
{"geometry": {"type": "Point", "coordinates": [-159.3847154313, 21.9677864694]}, "type": "Feature", "properties": {"collection_times": [{"days": "Mon-Fri", "time": "10:00am"}, {"days": "Sat-Sun", "time": "Closed"}], "id": "9676600026", "name": "USPS COLLECTION BOX - BLUE BOX", "address": {"city": "LIHUE", "state": "HI", "street": "4473 PAHEE ST", "postcode": "96766"}}},
{"geometry": {"type": "Point", "coordinates": [-159.3660898556, 21.987545549]}, "type": "Feature", "properties": {"collection_times": [{"days": "Mon-Fri", "time": "8:00am"}, {"days": "Sat-Sun", "time": "Closed"}], "id": "9676600030", "name": "USPS COLLECTION BOX - BLUE BOX", "address": {"city": "LIHUE", "state": "HI", "street": "3-3420 KUHIO HWY", "postcode": "96766"}}},
{"geometry": {"type": "Point", "coordinates": [-159.3666657114, 21.9846277184]}, "type": "Feature", "properties": {"collection_times": [{"days": "Mon-Sat", "time": "8:00am"}, {"days": "Sun", "time": "Closed"}], "id": "9676600035", "name": "USPS COLLECTION BOX - BLUE BOX", "address": {"city": "LIHUE", "state": "HI", "street": "3-3300 KUHIO HWY", "postcode": "96766"}}},
{"geometry": {"type": "Point", "coordinates": [-159.3512065536, 21.9948882195]}, "type": "Feature", "properties": {"collection_times": [{"days": "Mon-Sat", "time": "10:00am"}, {"days": "Sun", "time": "Closed"}], "id": "9676600037", "name": "USPS COLLECTION BOX - BLUE BOX", "address": {"city": "LIHUE", "state": "HI", "street": "4380 HANAMAULU RD", "postcode": "96766"}}},
{"geometry": {"type": "Point", "coordinates": [-156.3135650955, 20.8516449266]}, "type": "Feature", "properties": {"collection_times": [{"days": "Mon-Sat", "time": "4:15pm"}, {"days": "Sun", "time": "Closed"}], "id": "9676800001", "name": "USPS COLLECTION BOX - PO LOBBY", "address": {"city": "MAKAWAO", "state": "HI", "street": "1075 MAKAWAO AVE", "postcode": "96768"}}},
{"geometry": {"type": "Point", "coordinates": [-156.342791326, 20.8383247896]}, "type": "Feature", "properties": {"collection_times": [{"days": "Mon-Fri", "time": "3:15pm"}, {"days": "Sat", "time": "1:15pm"}, {"days": "Sun", "time": "Closed"}], "id": "9676800002", "name": "USPS COLLECTION BOX - PO LOBBY", "address": {"city": "MAKAWAO", "state": "HI", "street": "55 PUKALANI ST STE 12", "postcode": "96768"}}},
{"geometry": {"type": "Point", "coordinates": [-160.1483796022, 21.9025851499]}, "type": "Feature", "properties": {"collection_times": [{"days": "Mon-Fri", "time": "2:00pm"}, {"days": "Sat", "time": "10:30am"}, {"days": "Sun", "time": "Closed"}], "id": "9676900001", "name": "USPS COLLECTION BOX - PO LOBBY", "address": {"city": "MAKAWELI", "state": "HI", "street": "1-1100 KAUMUALII HWY", "postcode": "96769"}}},
{"geometry": {"type": "Point", "coordinates": [-160.1483796022, 21.9025851499]}, "type": "Feature", "properties": {"collection_times": [{"days": "Mon-Fri", "time": "2:00pm"}, {"days": "Sat", "time": "10:30am"}, {"days": "Sun", "time": "Closed"}], "id": "9676900002", "name": "USPS COLLECTION BOX - PO LOBBY", "address": {"city": "MAKAWELI", "state": "HI", "street": "1-1100 KAUMUALII HWY", "postcode": "96769"}}},
{"geometry": {"type": "Point", "coordinates": [-157.2084060073, 21.1428530425]}, "type": "Feature", "properties": {"collection_times": [{"days": "Mon-Sat", "time": "9:45am"}, {"days": "Sun", "time": "Closed"}], "id": "9677000001", "name": "USPS COLLECTION BOX - PO LOBBY", "address": {"city": "MAUNALOA", "state": "HI", "street": "1 POSTAL WAY", "postcode": "96770"}}},
{"geometry": {"type": "Point", "coordinates": [-155.1082842941, 19.5495594724]}, "type": "Feature", "properties": {"collection_times": [{"days": "Mon-Fri", "time": "1:45pm"}, {"days": "Sat", "time": "11:00am"}, {"days": "Sun", "time": "Closed"}], "id": "9677100004", "name": "USPS COLLECTION BOX - BLUE BOX", "address": {"city": "MOUNTAIN VIEW", "state": "HI", "street": "18-1350 VOLCANO RD", "postcode": "96771"}}},
{"geometry": {"type": "Point", "coordinates": [-155.5868576501, 19.060402155]}, "type": "Feature", "properties": {"collection_times": [{"days": "Mon-Fri", "time": "11:30am"}, {"days": "Sat", "time": "11:15am"}, {"days": "Sun", "time": "Closed"}], "id": "9677200001", "name": "USPS COLLECTION BOX - PO LOBBY", "address": {"city": "NAALEHU", "state": "HI", "street": "95-5663 MAMALAHOA HWY", "postcode": "96772"}}},
{"geometry": {"type": "Point", "coordinates": [-155.5868576501, 19.060402155]}, "type": "Feature", "properties": {"collection_times": [{"days": "Mon-Fri", "time": "11:30am"}, {"days": "Sat", "time": "11:15am"}, {"days": "Sun", "time": "Closed"}], "id": "9677200002", "name": "USPS COLLECTION BOX - PO LOBBY", "address": {"city": "NAALEHU", "state": "HI", "street": "95-5663 MAMALAHOA HWY", "postcode": "96772"}}},
{"geometry": {"type": "Point", "coordinates": [-155.2044157421, 19.8751405657]}, "type": "Feature", "properties": {"collection_times": [{"days": "Mon-Fri", "time": "11:00am"}, {"days": "Sat", "time": "9:00am"}, {"days": "Sun", "time": "Closed"}], "id": "9677300001", "name": "USPS COLLECTION BOX - PO LOBBY", "address": {"city": "NINOLE", "state": "HI", "street": "1 POSTAL WAY", "postcode": "96773"}}},
{"geometry": {"type": "Point", "coordinates": [-155.2730282919, 19.9907470006]}, "type": "Feature", "properties": {"collection_times": [{"days": "Mon-Fri", "time": "11:00am"}, {"days": "Sat", "time": "8:30am"}, {"days": "Sun", "time": "Closed"}], "id": "9677400001", "name": "USPS COLLECTION BOX - PO LOBBY", "address": {"city": "OOKALA", "state": "HI", "street": "393325 OLD MAMALAHOA HWY", "postcode": "96774"}}},
{"geometry": {"type": "Point", "coordinates": [-155.3682648913, 20.0392352177]}, "type": "Feature", "properties": {"collection_times": [{"days": "Mon-Fri", "time": "12:45pm"}, {"days": "Sat", "time": "11:00am"}, {"days": "Sun", "time": "Closed"}], "id": "9677600001", "name": "USPS COLLECTION BOX - PO LOBBY", "address": {"city": "PAAUILO", "state": "HI", "street": "43-1355 MAMALAHOA HWY", "postcode": "96776"}}},
{"geometry": {"type": "Point", "coordinates": [-155.4772650649, 19.2015786548]}, "type": "Feature", "properties": {"collection_times": [{"days": "Mon-Sat", "time": "11:30am"}, {"days": "Sun", "time": "Closed"}], "id": "9677700001", "name": "USPS COLLECTION BOX - PO LOBBY", "address": {"city": "PAHALA", "state": "HI", "street": "96-3163 PIKAKE ST", "postcode": "96777"}}},
{"geometry": {"type": "Point", "coordinates": [-155.4772650649, 19.2015786548]}, "type": "Feature", "properties": {"collection_times": [{"days": "Mon-Sat", "time": "11:30am"}, {"days": "Sun", "time": "Closed"}], "id": "9677700002", "name": "USPS COLLECTION BOX - PO LOBBY", "address": {"city": "PAHALA", "state": "HI", "street": "96-3163 PIKAKE ST", "postcode": "96777"}}},
{"geometry": {"type": "Point", "coordinates": [-154.9493173753, 19.495514238]}, "type": "Feature", "properties": {"collection_times": [{"days": "Mon-Sat", "time": "3:00pm"}, {"days": "Sun", "time": "Closed"}], "id": "9677800002", "name": "USPS COLLECTION BOX - BLUE BOX", "address": {"city": "PAHOA", "state": "HI", "street": "15-2859 PAHOA VILLAGE RD", "postcode": "96778"}}},
{"geometry": {"type": "Point", "coordinates": [-154.9493173753, 19.495514238]}, "type": "Feature", "properties": {"collection_times": [{"days": "Mon-Sat", "time": "3:00pm"}, {"days": "Sun", "time": "Closed"}], "id": "9677800003", "name": "USPS COLLECTION BOX - PO LOBBY", "address": {"city": "PAHOA", "state": "HI", "street": "15-2859 PAHOA VILLAGE RD", "postcode": "96778"}}},
{"geometry": {"type": "Point", "coordinates": [-156.379151337, 20.9142841472]}, "type": "Feature", "properties": {"collection_times": [{"days": "Mon-Fri", "time": "4:00pm"}, {"days": "Sat", "time": "1:15pm"}, {"days": "Sun", "time": "Closed"}], "id": "9677900002", "name": "USPS COLLECTION BOX - PO LOBBY", "address": {"city": "PAIA", "state": "HI", "street": "120 BALDWIN AVE", "postcode": "96779"}}},
{"geometry": {"type": "Point", "coordinates": [-155.1979505605, 19.9516767176]}, "type": "Feature", "properties": {"collection_times": [{"days": "Mon-Fri", "time": "1:30pm"}, {"days": "Sat", "time": "8:15am"}, {"days": "Sun", "time": "Closed"}], "id": "9678000001", "name": "USPS COLLECTION BOX - PO LOBBY", "address": {"city": "PAPAALOA", "state": "HI", "street": "35-2030 MAMALAHOA HWY", "postcode": "96780"}}},
{"geometry": {"type": "Point", "coordinates": [-155.0937525342, 19.7874067957]}, "type": "Feature", "properties": {"collection_times": [{"days": "Mon-Fri", "time": "2:30pm"}, {"days": "Sat", "time": "11:00am"}, {"days": "Sun", "time": "Closed"}], "id": "9678100001", "name": "USPS COLLECTION BOX - PO LOBBY", "address": {"city": "PAPAIKOU", "state": "HI", "street": "27-250 OLD MAMALAHOA HWY", "postcode": "96781"}}},
{"geometry": {"type": "Point", "coordinates": [-155.0937525342, 19.7874067957]}, "type": "Feature", "properties": {"collection_times": [{"days": "Mon-Fri", "time": "2:30pm"}, {"days": "Sat", "time": "11:00am"}, {"days": "Sun", "time": "Closed"}], "id": "9678100003", "name": "USPS COLLECTION BOX - PO LOBBY", "address": {"city": "PAPAIKOU", "state": "HI", "street": "27-250 OLD MAMALAHOA HWY", "postcode": "96781"}}},
{"geometry": {"type": "Point", "coordinates": [-157.9683728426, 21.3933692562]}, "type": "Feature", "properties": {"collection_times": [{"days": "Mon-Sat", "time": "10:00am"}, {"days": "Sun", "time": "Closed"}], "id": "9678200002", "name": "USPS COLLECTION BOX - BLUE BOX", "address": {"city": "PEARL CITY", "state": "HI", "street": "850 KAMEHAMEHA HWY", "postcode": "96782"}}},
{"geometry": {"type": "Point", "coordinates": [-157.9683728426, 21.3933692562]}, "type": "Feature", "properties": {"collection_times": [{"days": "Mon-Sat", "time": "10:00am"}, {"days": "Sun", "time": "Closed"}], "id": "9678200005", "name": "USPS COLLECTION BOX - BLUE BOX", "address": {"city": "PEARL CITY", "state": "HI", "street": "850 KAMEHAMEHA HWY", "postcode": "96782"}}},
{"geometry": {"type": "Point", "coordinates": [-157.9841912261, 21.394925579]}, "type": "Feature", "properties": {"collection_times": [{"days": "Mon-Fri", "time": "11:00am"}, {"days": "Sat-Sun", "time": "Closed"}], "id": "9678200006", "name": "USPS COLLECTION BOX - BLUE BOX", "address": {"city": "PEARL CITY", "state": "HI", "street": "96-045 ALA IKE ST", "postcode": "96782"}}},
{"geometry": {"type": "Point", "coordinates": [-157.9534458905, 21.3894369869]}, "type": "Feature", "properties": {"collection_times": [{"days": "Mon-Sat", "time": "10:00am"}, {"days": "Sun", "time": "Closed"}], "id": "9678200010", "name": "USPS COLLECTION BOX - BLUE BOX", "address": {"city": "PEARL CITY", "state": "HI", "street": "98-1268 KAAHUMANU ST", "postcode": "96782"}}},
{"geometry": {"type": "Point", "coordinates": [-157.9738426175, 21.3952529624]}, "type": "Feature", "properties": {"collection_times": [{"days": "Mon-Fri", "time": "4:45pm"}, {"days": "Sat", "time": "3:30pm"}, {"days": "Sun", "time": "Closed"}], "id": "9678200012", "name": "USPS COLLECTION BOX - PO LOBBY", "address": {"city": "PEARL CITY", "state": "HI", "street": "950 KAMEHAMEHA HWY", "postcode": "96782"}}},
{"geometry": {"type": "Point", "coordinates": [-157.9738426175, 21.3952529624]}, "type": "Feature", "properties": {"collection_times": [{"days": "Mon-Fri", "time": "4:45pm"}, {"days": "Sat", "time": "3:30pm"}, {"days": "Sun", "time": "Closed"}], "id": "9678200015", "name": "USPS COLLECTION BOX - PO LOBBY", "address": {"city": "PEARL CITY", "state": "HI", "street": "950 KAMEHAMEHA HWY", "postcode": "96782"}}},
{"geometry": {"type": "Point", "coordinates": [-157.9738426175, 21.3952529624]}, "type": "Feature", "properties": {"collection_times": [{"days": "Mon-Fri", "time": "4:45pm"}, {"days": "Sat", "time": "3:30pm"}, {"days": "Sun", "time": "Closed"}], "id": "9678200016", "name": "USPS COLLECTION BOX - PO LOBBY", "address": {"city": "PEARL CITY", "state": "HI", "street": "950 KAMEHAMEHA HWY", "postcode": "96782"}}},
{"geometry": {"type": "Point", "coordinates": [-157.9486367284, 21.4078047073]}, "type": "Feature", "properties": {"collection_times": [{"days": "Mon-Sat", "time": "1:00pm"}, {"days": "Sun", "time": "Closed"}], "id": "9678200017", "name": "USPS COLLECTION BOX - BLUE BOX", "address": {"city": "PEARL CITY", "state": "HI", "street": "98-1722 KAAHUMANU ST", "postcode": "96782"}}},
{"geometry": {"type": "Point", "coordinates": [-155.1126207951, 19.8643272922]}, "type": "Feature", "properties": {"collection_times": [{"days": "Mon-Fri", "time": "2:00pm"}, {"days": "Sat", "time": "11:15am"}, {"days": "Sun", "time": "Closed"}], "id": "9678300001", "name": "USPS COLLECTION BOX - PO LOBBY", "address": {"city": "PEPEEKEO", "state": "HI", "street": "28-2825 MAMALAHOA HWY", "postcode": "96783"}}},
{"geometry": {"type": "Point", "coordinates": [-155.1126207951, 19.8643272922]}, "type": "Feature", "properties": {"collection_times": [{"days": "Mon-Fri", "time": "2:00pm"}, {"days": "Sat", "time": "11:15am"}, {"days": "Sun", "time": "Closed"}], "id": "9678300002", "name": "USPS COLLECTION BOX - BLUE BOX", "address": {"city": "PEPEEKEO", "state": "HI", "street": "28-2825 MAMALAHOA HWY", "postcode": "96783"}}},
{"geometry": {"type": "Point", "coordinates": [-156.455618697, 20.868576179]}, "type": "Feature", "properties": {"collection_times": [{"days": "Mon-Fri", "time": "4:00pm"}, {"days": "Sat", "time": "11:00am"}, {"days": "Sun", "time": "Closed"}], "id": "9678400002", "name": "USPS COLLECTION BOX - BLUE BOX", "address": {"city": "PUUNENE", "state": "HI", "street": "1 HANSEN ST", "postcode": "96784"}}},
{"geometry": {"type": "Point", "coordinates": [-156.455618697, 20.868576179]}, "type": "Feature", "properties": {"collection_times": [{"days": "Mon-Fri", "time": "4:00pm"}, {"days": "Sat", "time": "11:00am"}, {"days": "Sun", "time": "Closed"}], "id": "9678400003", "name": "USPS COLLECTION BOX - PO LOBBY", "address": {"city": "PUUNENE", "state": "HI", "street": "1 HANSEN ST", "postcode": "96784"}}},
{"geometry": {"type": "Point", "coordinates": [-155.2090972287, 19.4942281038]}, "type": "Feature", "properties": {"collection_times": [{"days": "Mon-Sat", "time": "12:30pm"}, {"days": "Sun", "time": "Closed"}], "id": "9678500003", "name": "USPS COLLECTION BOX - BLUE BOX", "address": {"city": "VOLCANO", "state": "HI", "street": "19-4030 OLD VOLCANO HWY", "postcode": "96785"}}},
{"geometry": {"type": "Point", "coordinates": [-158.0269953116, 21.4977156028]}, "type": "Feature", "properties": {"collection_times": [{"days": "Mon-Fri", "time": "5:00pm"}, {"days": "Sat", "time": "4:00pm"}, {"days": "Sun", "time": "Closed"}], "id": "9678600002", "name": "USPS COLLECTION BOX - BLUE BOX", "address": {"city": "WAHIAWA", "state": "HI", "street": "115 LEHUA ST", "postcode": "96786"}}},
{"geometry": {"type": "Point", "coordinates": [-158.042545479, 21.4834339479]}, "type": "Feature", "properties": {"collection_times": [{"days": "Mon-Fri", "time": "12:00pm"}, {"days": "Sat-Sun", "time": "Closed"}], "id": "9678600008", "name": "USPS COLLECTION BOX - BLUE BOX", "address": {"city": "WAHIAWA", "state": "HI", "street": "502 WRIGHT AVE", "postcode": "96786"}}},
{"geometry": {"type": "Point", "coordinates": [-158.0259754309, 21.508911197]}, "type": "Feature", "properties": {"collection_times": [{"days": "Mon-Fri", "time": "5:00pm"}, {"days": "Sat", "time": "12:30pm"}, {"days": "Sun", "time": "Closed"}], "id": "9678600014", "name": "USPS COLLECTION BOX - BLUE BOX", "address": {"city": "WAHIAWA", "state": "HI", "street": "258 FOOTE ST", "postcode": "96786"}}},
{"geometry": {"type": "Point", "coordinates": [-158.024927086, 21.4978957931]}, "type": "Feature", "properties": {"collection_times": [{"days": "Mon-Fri", "time": "1:00pm"}, {"days": "Sat-Sun", "time": "Closed"}], "id": "9678600016", "name": "USPS COLLECTION BOX - BLUE BOX", "address": {"city": "WAHIAWA", "state": "HI", "street": "935 CALIFORNIA AVE", "postcode": "96786"}}},
{"geometry": {"type": "Point", "coordinates": [-158.0269953116, 21.4977156028]}, "type": "Feature", "properties": {"collection_times": [{"days": "Mon-Fri", "time": "5:00pm"}, {"days": "Sat", "time": "4:00pm"}, {"days": "Sun", "time": "Closed"}], "id": "9678600021", "name": "USPS COLLECTION BOX - PO LOBBY", "address": {"city": "WAHIAWA", "state": "HI", "street": "115 LEHUA ST", "postcode": "96786"}}},
{"geometry": {"type": "Point", "coordinates": [-158.0354680369, 21.4982914112]}, "type": "Feature", "properties": {"collection_times": [{"days": "Mon-Fri", "time": "4:00pm"}, {"days": "Sat-Sun", "time": "Closed"}], "id": "9678600024", "name": "USPS COLLECTION BOX - PO LOBBY", "address": {"city": "WAHIAWA", "state": "HI", "street": "1 SCHOFIELD BARRACKS", "postcode": "96786"}}},
{"geometry": {"type": "Point", "coordinates": [-157.9602555994, 21.4600347718]}, "type": "Feature", "properties": {"collection_times": [{"days": "Mon-Sat", "time": "1:30pm"}, {"days": "Sun", "time": "Closed"}], "id": "9678900001", "name": "USPS COLLECTION BOX - BLUE BOX", "address": {"city": "WAHIAWA", "state": "HI", "street": "94780 MEHEULA PKWY", "postcode": "96789"}}},
{"geometry": {"type": "Point", "coordinates": [-157.9602555994, 21.4600347718]}, "type": "Feature", "properties": {"collection_times": [{"days": "Mon-Sat", "time": "1:30pm"}, {"days": "Sun", "time": "Closed"}], "id": "9678900004", "name": "USPS COLLECTION BOX - BLUE BOX", "address": {"city": "WAHIAWA", "state": "HI", "street": "951249 MEHEULA PKWY", "postcode": "96789"}}},
{"geometry": {"type": "Point", "coordinates": [-157.9602555994, 21.4600347718]}, "type": "Feature", "properties": {"collection_times": [{"days": "Mon-Sat", "time": "1:30pm"}, {"days": "Sun", "time": "Closed"}], "id": "9678900010", "name": "USPS COLLECTION BOX - BLUE BOX", "address": {"city": "WAHIAWA", "state": "HI", "street": "95720 LANIKUHANA AVE", "postcode": "96789"}}},
{"geometry": {"type": "Point", "coordinates": [-158.01608, 21.43762]}, "type": "Feature", "properties": {"collection_times": [{"days": "Mon-Sat", "time": "1:30pm"}, {"days": "Sun", "time": "Closed"}], "id": "9678900012", "name": "USPS COLLECTION BOX - BLUE BOX", "address": {"city": "WAHIAWA", "state": "HI", "street": "94-390 KUAHELANI AVE", "postcode": "96789"}}},
{"geometry": {"type": "Point", "coordinates": [-157.9602555994, 21.4600347718]}, "type": "Feature", "properties": {"collection_times": [{"days": "Mon-Fri", "time": "5:00pm"}, {"days": "Sat", "time": "4:00pm"}, {"days": "Sun", "time": "Closed"}], "id": "9678900014", "name": "USPS COLLECTION BOX - PO LOBBY", "address": {"city": "WAHIAWA", "state": "HI", "street": "95-1030 MEHEULA PKWY", "postcode": "96789"}}},
{"geometry": {"type": "Point", "coordinates": [-157.9602555994, 21.4600347718]}, "type": "Feature", "properties": {"collection_times": [{"days": "Mon-Fri", "time": "5:00pm"}, {"days": "Sat", "time": "4:00pm"}, {"days": "Sun", "time": "Closed"}], "id": "9678900019", "name": "USPS COLLECTION BOX - BLUE BOX", "address": {"city": "WAHIAWA", "state": "HI", "street": "951030 MEHEULA PKWY", "postcode": "96789"}}},
{"geometry": {"type": "Point", "coordinates": [-157.9602555994, 21.4600347718]}, "type": "Feature", "properties": {"collection_times": [{"days": "Mon-Fri", "time": "5:00pm"}, {"days": "Sat", "time": "4:00pm"}, {"days": "Sun", "time": "Closed"}], "id": "9678900020", "name": "USPS COLLECTION BOX - APC", "address": {"city": "WAHIAWA", "state": "HI", "street": "951030 MEHEULA PKWY", "postcode": "96789"}}},
{"geometry": {"type": "Point", "coordinates": [-157.9999206271, 21.4674324043]}, "type": "Feature", "properties": {"collection_times": [{"days": "Mon-Sat", "time": "10:00am"}, {"days": "Sun", "time": "Closed"}], "id": "9678900021", "name": "USPS COLLECTION BOX - BLUE BOX", "address": {"city": "WAHIAWA", "state": "HI", "street": "951099 AINAMAKUA DR", "postcode": "96789"}}},
{"geometry": {"type": "Point", "coordinates": [-156.3267952245, 20.7704197612]}, "type": "Feature", "properties": {"collection_times": [{"days": "Mon-Fri", "time": "3:00pm"}, {"days": "Sat", "time": "2:30pm"}, {"days": "Sun", "time": "Closed"}], "id": "9679000001", "name": "USPS COLLECTION BOX - PO LOBBY", "address": {"city": "KULA", "state": "HI", "street": "4450 KULA HWY", "postcode": "96790"}}},
{"geometry": {"type": "Point", "coordinates": [-156.3280569517, 20.7661992956]}, "type": "Feature", "properties": {"collection_times": [{"days": "Mon-Fri", "time": "3:00pm"}, {"days": "Sat", "time": "2:30pm"}, {"days": "Sun", "time": "Closed"}], "id": "9679000003", "name": "USPS COLLECTION BOX - BLUE BOX", "address": {"city": "KULA", "state": "HI", "street": "4450 KULA HWY", "postcode": "96790"}}},
{"geometry": {"type": "Point", "coordinates": [-158.122489333, 21.5732349282]}, "type": "Feature", "properties": {"collection_times": [{"days": "Mon-Fri", "time": "4:00pm"}, {"days": "Sat", "time": "3:30pm"}, {"days": "Sun", "time": "Closed"}], "id": "9679100001", "name": "USPS COLLECTION BOX - PO LOBBY", "address": {"city": "WAIALUA", "state": "HI", "street": "67-071 NAUAHI ST", "postcode": "96791"}}},
{"geometry": {"type": "Point", "coordinates": [-158.1864694647, 21.4409369496]}, "type": "Feature", "properties": {"collection_times": [{"days": "Mon-Fri", "time": "5:00pm"}, {"days": "Sat", "time": "4:30pm"}, {"days": "Sun", "time": "Closed"}], "id": "9679200001", "name": "USPS COLLECTION BOX - BLUE BOX", "address": {"city": "WAIANAE", "state": "HI", "street": "86-014 FARRINGTON HWY", "postcode": "96792"}}},
{"geometry": {"type": "Point", "coordinates": [-158.1864694647, 21.4409369496]}, "type": "Feature", "properties": {"collection_times": [{"days": "Mon-Fri", "time": "5:00pm"}, {"days": "Sat", "time": "4:30pm"}, {"days": "Sun", "time": "Closed"}], "id": "9679200002", "name": "USPS COLLECTION BOX - BLUE BOX", "address": {"city": "WAIANAE", "state": "HI", "street": "86-014 FARRINGTON HWY", "postcode": "96792"}}},
{"geometry": {"type": "Point", "coordinates": [-158.1864694647, 21.4409369496]}, "type": "Feature", "properties": {"collection_times": [{"days": "Mon-Fri", "time": "5:00pm"}, {"days": "Sat", "time": "4:30pm"}, {"days": "Sun", "time": "Closed"}], "id": "9679200003", "name": "USPS COLLECTION BOX - PO LOBBY", "address": {"city": "WAIANAE", "state": "HI", "street": "86-014 FARRINGTON HWY", "postcode": "96792"}}},
{"geometry": {"type": "Point", "coordinates": [-158.1847998687, 21.4356263056]}, "type": "Feature", "properties": {"collection_times": [{"days": "Mon-Sat", "time": "1:30pm"}, {"days": "Sun", "time": "Closed"}], "id": "9679200006", "name": "USPS COLLECTION BOX - BLUE BOX", "address": {"city": "WAIANAE", "state": "HI", "street": "86-120 FARRINGTON HWY", "postcode": "96792"}}},
{"geometry": {"type": "Point", "coordinates": [-158.1509144313, 21.3865945074]}, "type": "Feature", "properties": {"collection_times": [{"days": "Mon-Fri", "time": "4:00pm"}, {"days": "Sat-Sun", "time": "Closed"}], "id": "9679200007", "name": "USPS COLLECTION BOX - PO LOBBY", "address": {"city": "WAIANAE", "state": "HI", "street": "87-2070 FARRINGTON HWY", "postcode": "96792"}}},
{"geometry": {"type": "Point", "coordinates": [-158.1509144313, 21.3865945074]}, "type": "Feature", "properties": {"collection_times": [{"days": "Mon-Sat", "time": "2:00pm"}, {"days": "Sun", "time": "Closed"}], "id": "9679200011", "name": "USPS COLLECTION BOX - BLUE BOX", "address": {"city": "WAIANAE", "state": "HI", "street": "87-2070 FARRINGTON HWY", "postcode": "96792"}}},
{"geometry": {"type": "Point", "coordinates": [-156.5001120545, 20.8954831693]}, "type": "Feature", "properties": {"collection_times": [{"days": "Mon-Sat", "time": "3:30pm"}, {"days": "Sun", "time": "Closed"}], "id": "9679300001", "name": "USPS COLLECTION BOX - BLUE BOX", "address": {"city": "WAILUKU", "state": "HI", "street": "250 IMI KALA ST", "postcode": "96793"}}},
{"geometry": {"type": "Point", "coordinates": [-156.5001120545, 20.8954831693]}, "type": "Feature", "properties": {"collection_times": [{"days": "Mon-Sat", "time": "3:30pm"}, {"days": "Sun", "time": "Closed"}], "id": "9679300004", "name": "USPS COLLECTION BOX - PO LOBBY", "address": {"city": "WAILUKU", "state": "HI", "street": "250 IMI KALA ST", "postcode": "96793"}}},
{"geometry": {"type": "Point", "coordinates": [-156.5001120545, 20.8954831693]}, "type": "Feature", "properties": {"collection_times": [{"days": "Mon-Sat", "time": "3:30pm"}, {"days": "Sun", "time": "Closed"}], "id": "9679300005", "name": "USPS COLLECTION BOX - APC", "address": {"city": "WAILUKU", "state": "HI", "street": "250 IMI KALA ST", "postcode": "96793"}}},
{"geometry": {"type": "Point", "coordinates": [-156.5046869643, 20.8859023594]}, "type": "Feature", "properties": {"collection_times": [{"days": "Mon-Sat", "time": "11:00am"}, {"days": "Sun", "time": "Closed"}], "id": "9679300009", "name": "USPS COLLECTION BOX - BLUE BOX", "address": {"city": "WAILUKU", "state": "HI", "street": "70 S HIGH ST", "postcode": "96793"}}},
{"geometry": {"type": "Point", "coordinates": [-156.501606182, 20.8879800115]}, "type": "Feature", "properties": {"collection_times": [{"days": "Mon-Sat", "time": "11:00am"}, {"days": "Sun", "time": "Closed"}], "id": "9679300010", "name": "USPS COLLECTION BOX - BLUE BOX", "address": {"city": "WAILUKU", "state": "HI", "street": "10 N MARKET ST", "postcode": "96793"}}},
{"geometry": {"type": "Point", "coordinates": [-156.5001120545, 20.8954831693]}, "type": "Feature", "properties": {"collection_times": [{"days": "Mon-Sat", "time": "3:30pm"}, {"days": "Sun", "time": "Closed"}], "id": "9679300017", "name": "USPS COLLECTION BOX - BLUE BOX", "address": {"city": "WAILUKU", "state": "HI", "street": "250 IMI KALA ST", "postcode": "96793"}}},
{"geometry": {"type": "Point", "coordinates": [-157.6977967296, 21.3332830279]}, "type": "Feature", "properties": {"collection_times": [{"days": "Mon-Fri", "time": "5:00pm"}, {"days": "Sat", "time": "4:00pm"}, {"days": "Sun", "time": "Closed"}], "id": "9679500001", "name": "USPS COLLECTION BOX - BLUE BOX", "address": {"city": "WAIMANALO", "state": "HI", "street": "41-859 KALANIANAOLE HWY", "postcode": "96795"}}},
{"geometry": {"type": "Point", "coordinates": [-157.6977967296, 21.3332830279]}, "type": "Feature", "properties": {"collection_times": [{"days": "Mon-Fri", "time": "4:00pm"}, {"days": "Sat", "time": "11:00am"}, {"days": "Sun", "time": "Closed"}], "id": "9679500002", "name": "USPS COLLECTION BOX - PO LOBBY", "address": {"city": "WAIMANALO", "state": "HI", "street": "41-859 KALANIANAOLE HWY", "postcode": "96795"}}},
{"geometry": {"type": "Point", "coordinates": [-157.7218450789, 21.3480076744]}, "type": "Feature", "properties": {"collection_times": [{"days": "Mon-Sat", "time": "12:00pm"}, {"days": "Sun", "time": "Closed"}], "id": "9679500004", "name": "USPS COLLECTION BOX - BLUE BOX", "address": {"city": "WAIMANALO", "state": "HI", "street": "41-1537 KALANIANAOLE HWY", "postcode": "96795"}}},
{"geometry": {"type": "Point", "coordinates": [-159.666745063, 21.9549770301]}, "type": "Feature", "properties": {"collection_times": [{"days": "Mon-Fri", "time": "12:15pm"}, {"days": "Sat", "time": "11:45am"}, {"days": "Sun", "time": "Closed"}], "id": "9679600001", "name": "USPS COLLECTION BOX - PO LOBBY", "address": {"city": "WAIMEA", "state": "HI", "street": "9911 WAIMEA RD", "postcode": "96796"}}},
{"geometry": {"type": "Point", "coordinates": [-159.666745063, 21.9549770301]}, "type": "Feature", "properties": {"collection_times": [{"days": "Mon-Fri", "time": "12:15pm"}, {"days": "Sat", "time": "11:45am"}, {"days": "Sun", "time": "Closed"}], "id": "9679600002", "name": "USPS COLLECTION BOX - PO LOBBY", "address": {"city": "WAIMEA", "state": "HI", "street": "9911 WAIMEA RD", "postcode": "96796"}}},
{"geometry": {"type": "Point", "coordinates": [-158.0336789179, 21.3904071517]}, "type": "Feature", "properties": {"collection_times": [{"days": "Mon-Sat", "time": "10:00am"}, {"days": "Sun", "time": "Closed"}], "id": "9679700009", "name": "USPS COLLECTION BOX - BLUE BOX", "address": {"city": "WAIPAHU", "state": "HI", "street": "94-595 KUPUOHI ST", "postcode": "96797"}}},
{"geometry": {"type": "Point", "coordinates": [-158.0244142265, 21.3798271363]}, "type": "Feature", "properties": {"collection_times": [{"days": "Mon-Sat", "time": "4:00pm"}, {"days": "Sun", "time": "Closed"}], "id": "9679700013", "name": "USPS COLLECTION BOX - PO LOBBY", "address": {"city": "WAIPAHU", "state": "HI", "street": "94-245 LEOKU ST", "postcode": "96797"}}},
{"geometry": {"type": "Point", "coordinates": [-158.0244142265, 21.3798271363]}, "type": "Feature", "properties": {"collection_times": [{"days": "Mon-Fri", "time": "5:00pm"}, {"days": "Sat", "time": "4:00pm"}, {"days": "Sun", "time": "Closed"}], "id": "9679700015", "name": "USPS COLLECTION BOX - BLUE BOX", "address": {"city": "WAIPAHU", "state": "HI", "street": "94-245 LEOKU ST", "postcode": "96797"}}},
{"geometry": {"type": "Point", "coordinates": [-157.9981063325, 21.4113650934]}, "type": "Feature", "properties": {"collection_times": [{"days": "Mon-Fri", "time": "2:00pm"}, {"days": "Sat", "time": "10:00am"}, {"days": "Sun", "time": "Closed"}], "id": "9679700017", "name": "USPS COLLECTION BOX - BLUE BOX", "address": {"city": "WAIPAHU", "state": "HI", "street": "94-1040 WAIPIO UKA ST", "postcode": "96797"}}},
{"geometry": {"type": "Point", "coordinates": [-158.0244142265, 21.3798271363]}, "type": "Feature", "properties": {"collection_times": [{"days": "Mon-Sat", "time": "4:00pm"}, {"days": "Sun", "time": "Closed"}], "id": "9679700018", "name": "USPS COLLECTION BOX - APC", "address": {"city": "WAIPAHU", "state": "HI", "street": "94-245 LEOKU ST", "postcode": "96797"}}}
]}
