{"type": "FeatureCollection", "features": [
{"geometry": {"type": "Point", "coordinates": [-157.8536078317, 21.3100440479]}, "type": "Feature", "properties": {"collection_times": [{"days": "Mon-Fri", "time": "5:00pm"}, {"days": "Sat", "time": "2:00pm"}, {"days": "Sun", "time": "Closed"}], "id": "9681300005", "name": "USPS COLLECTION BOX - EXPRESS", "address": {"city": "HONOLULU", "state": "HI", "street": "1132 BISHOP ST", "postcode": "96813"}}},
{"geometry": {"type": "Point", "coordinates": [-157.8625758023, 21.3072867468]}, "type": "Feature", "properties": {"collection_times": [{"days": "Mon-Fri", "time": "5:00pm"}, {"days": "Sat", "time": "2:00pm"}, {"days": "Sun", "time": "Closed"}], "id": "9681300010", "name": "USPS COLLECTION BOX - BLUE BOX", "address": {"city": "HONOLULU", "state": "HI", "street": "163 QUEEN ST", "postcode": "96813"}}},
{"geometry": {"type": "Point", "coordinates": [-157.8625758023, 21.3072867468]}, "type": "Feature", "properties": {"collection_times": [{"days": "Mon-Fri", "time": "5:00pm"}, {"days": "Sat", "time": "2:00pm"}, {"days": "Sun", "time": "Closed"}], "id": "9681300011", "name": "USPS COLLECTION BOX - BLUE BOX", "address": {"city": "HONOLULU", "state": "HI", "street": "163 QUEEN ST", "postcode": "96813"}}},
{"geometry": {"type": "Point", "coordinates": [-157.8536078317, 21.3100440479]}, "type": "Feature", "properties": {"collection_times": [{"days": "Mon-Fri", "time": "5:00pm"}, {"days": "Sat", "time": "2:00pm"}, {"days": "Sun", "time": "Closed"}], "id": "9681300013", "name": "USPS COLLECTION BOX - EXPRESS", "address": {"city": "HONOLULU", "state": "HI", "street": "163 QUEEN ST", "postcode": "96813"}}},
{"geometry": {"type": "Point", "coordinates": [-157.8550246047, 21.3081373456]}, "type": "Feature", "properties": {"collection_times": [{"days": "Mon-Fri", "time": "12:00pm"}, {"days": "Sat", "time": "2:00pm"}, {"days": "Sun", "time": "Closed"}], "id": "9681300014", "name": "USPS COLLECTION BOX - BLUE BOX", "address": {"city": "HONOLULU", "state": "HI", "street": "1301 PUNCHBOWL ST", "postcode": "96813"}}},
{"geometry": {"type": "Point", "coordinates": [-157.8536078317, 21.3100440479]}, "type": "Feature", "properties": {"collection_times": [{"days": "Mon-Fri", "time": "12:00pm"}, {"days": "Sat", "time": "2:00pm"}, {"days": "Sun", "time": "Closed"}], "id": "9681300015", "name": "USPS COLLECTION BOX - EXPRESS", "address": {"city": "HONOLULU", "state": "HI", "street": "1301 PUNCHBOWL ST", "postcode": "96813"}}},
{"geometry": {"type": "Point", "coordinates": [-157.86257162, 21.307365913]}, "type": "Feature", "properties": {"collection_times": [{"days": "Mon-Fri", "time": "5:00pm"}, {"days": "Sat", "time": "2:00pm"}, {"days": "Sun", "time": "Closed"}], "id": "9681300016", "name": "USPS COLLECTION BOX - BLUE BOX", "address": {"city": "HONOLULU", "state": "HI", "street": "163 QUEEN ST", "postcode": "96813"}}},
{"geometry": {"type": "Point", "coordinates": [-157.8612467473, 21.3034545306]}, "type": "Feature", "properties": {"collection_times": [{"days": "Mon-Fri", "time": "12:00pm"}, {"days": "Sat-Sun", "time": "Closed"}], "id": "9681300017", "name": "USPS COLLECTION BOX - BLUE BOX", "address": {"city": "HONOLULU", "state": "HI", "street": "798 PUNCHBOWL ST", "postcode": "96813"}}},
{"geometry": {"type": "Point", "coordinates": [-157.8606981653, 21.3055290013]}, "type": "Feature", "properties": {"collection_times": [{"days": "Mon-Fri", "time": "5:00pm"}, {"days": "Sat-Sun", "time": "Closed"}], "id": "9681300019", "name": "USPS COLLECTION BOX - BLUE BOX", "address": {"city": "HONOLULU", "state": "HI", "street": "820 MILILANI ST", "postcode": "96813"}}},
{"geometry": {"type": "Point", "coordinates": [-157.8606981653, 21.3055290013]}, "type": "Feature", "properties": {"collection_times": [{"days": "Mon-Fri", "time": "5:00pm"}, {"days": "Sat-Sun", "time": "Closed"}], "id": "9681300020", "name": "USPS COLLECTION BOX - BLUE BOX", "address": {"city": "HONOLULU", "state": "HI", "street": "820 MILILANI ST", "postcode": "96813"}}},
{"geometry": {"type": "Point", "coordinates": [-157.8628557368, 21.3087439767]}, "type": "Feature", "properties": {"collection_times": [{"days": "Mon-Fri", "time": "12:00pm"}, {"days": "Sat", "time": "2:00pm"}, {"days": "Sun", "time": "Closed"}], "id": "9681300025", "name": "USPS COLLECTION BOX - BLUE BOX", "address": {"city": "HONOLULU", "state": "HI", "street": "101 MERCHANT ST", "postcode": "96813"}}},
{"geometry": {"type": "Point", "coordinates": [-157.8522363704, 21.3070253641]}, "type": "Feature", "properties": {"collection_times": [{"days": "Mon-Fri", "time": "12:00pm"}, {"days": "Sat", "time": "10:00am"}, {"days": "Sun", "time": "Closed"}], "id": "9681300027", "name": "USPS COLLECTION BOX - BLUE BOX", "address": {"city": "HONOLULU", "state": "HI", "street": "1329 LUSITANA ST", "postcode": "96813"}}},
{"geometry": {"type": "Point", "coordinates": [-157.8572700773, 21.3045994286]}, "type": "Feature", "properties": {"collection_times": [{"days": "Mon-Fri", "time": "12:00pm"}, {"days": "Sat-Sun", "time": "Closed"}], "id": "9681300031", "name": "USPS COLLECTION BOX - BLUE BOX", "address": {"city": "HONOLULU", "state": "HI", "street": "530 S KING ST", "postcode": "96813"}}},
{"geometry": {"type": "Point", "coordinates": [-157.8510463137, 21.3033664721]}, "type": "Feature", "properties": {"collection_times": [{"days": "Mon-Fri", "time": "12:00pm"}, {"days": "Sat", "time": "2:00pm"}, {"days": "Sun", "time": "Closed"}], "id": "9681300049", "name": "USPS COLLECTION BOX - BLUE BOX", "address": {"city": "HONOLULU", "state": "HI", "street": "832 S HOTEL ST", "postcode": "96813"}}},
{"geometry": {"type": "Point", "coordinates": [-157.8609027278, 21.3089405747]}, "type": "Feature", "properties": {"collection_times": [{"days": "Mon-Fri", "time": "5:00pm"}, {"days": "Sat", "time": "2:00pm"}, {"days": "Sun", "time": "Closed"}], "id": "9681300052", "name": "USPS COLLECTION BOX - BLUE BOX", "address": {"city": "HONOLULU", "state": "HI", "street": "1060 BISHOP ST", "postcode": "96813"}}},
{"geometry": {"type": "Point", "coordinates": [-157.8609027278, 21.3089405747]}, "type": "Feature", "properties": {"collection_times": [{"days": "Mon-Fri", "time": "5:00pm"}, {"days": "Sat", "time": "2:00pm"}, {"days": "Sun", "time": "Closed"}], "id": "9681300053", "name": "USPS COLLECTION BOX - BLUE BOX", "address": {"city": "HONOLULU", "state": "HI", "street": "1060 BISHOP ST", "postcode": "96813"}}},
{"geometry": {"type": "Point", "coordinates": [-157.8614734424, 21.3084714986]}, "type": "Feature", "properties": {"collection_times": [{"days": "Mon-Fri", "time": "12:00pm"}, {"days": "Sat", "time": "2:00pm"}, {"days": "Sun", "time": "Closed"}], "id": "9681300057", "name": "USPS COLLECTION BOX - BLUE BOX", "address": {"city": "HONOLULU", "state": "HI", "street": "1001 BISHOP ST", "postcode": "96813"}}},
{"geometry": {"type": "Point", "coordinates": [-157.8505648494, 21.3042489594]}, "type": "Feature", "properties": {"collection_times": [{"days": "Mon-Fri", "time": "12:00pm"}, {"days": "Sat", "time": "2:00pm"}, {"days": "Sun", "time": "Closed"}], "id": "9681300059", "name": "USPS COLLECTION BOX - BLUE BOX", "address": {"city": "HONOLULU", "state": "HI", "street": "838 S BERETANIA ST", "postcode": "96813"}}},
{"geometry": {"type": "Point", "coordinates": [-157.8631077633, 21.3011425092]}, "type": "Feature", "properties": {"collection_times": [{"days": "Mon-Fri", "time": "12:00pm"}, {"days": "Sat", "time": "9:00am"}, {"days": "Sun", "time": "Closed"}], "id": "9681300063", "name": "USPS COLLECTION BOX - BLUE BOX", "address": {"city": "HONOLULU", "state": "HI", "street": "500 ALA MOANA BLVD", "postcode": "96813"}}},
{"geometry": {"type": "Point", "coordinates": [-157.8595507319, 21.3020258477]}, "type": "Feature", "properties": {"collection_times": [{"days": "Mon-Fri", "time": "12:00pm"}, {"days": "Sat-Sun", "time": "Closed"}], "id": "9681300078", "name": "USPS COLLECTION BOX - BLUE BOX", "address": {"city": "HONOLULU", "state": "HI", "street": "614 SOUTH ST", "postcode": "96813"}}},
{"geometry": {"type": "Point", "coordinates": [-157.8614054478, 21.3016664423]}, "type": "Feature", "properties": {"collection_times": [{"days": "Mon-Fri", "time": "12:00pm"}, {"days": "Sat-Sun", "time": "Closed"}], "id": "9681300081", "name": "USPS COLLECTION BOX - BLUE BOX", "address": {"city": "HONOLULU", "state": "HI", "street": "540 POHUKAINA ST", "postcode": "96813"}}},
{"geometry": {"type": "Point", "coordinates": [-157.8603952384, 21.3004457464]}, "type": "Feature", "properties": {"collection_times": [{"days": "Mon-Fri", "time": "12:00pm"}, {"days": "Sat-Sun", "time": "Closed"}], "id": "9681300082", "name": "USPS COLLECTION BOX - BLUE BOX", "address": {"city": "HONOLULU", "state": "HI", "street": "629 POHUKAINA ST", "postcode": "96813"}}},
{"geometry": {"type": "Point", "coordinates": [-157.8630084068, 21.3077457395]}, "type": "Feature", "properties": {"collection_times": [{"days": "Mon-Fri", "time": "12:00pm"}, {"days": "Sat", "time": "2:00pm"}, {"days": "Sun", "time": "Closed"}], "id": "9681300083", "name": "USPS COLLECTION BOX - BLUE BOX", "address": {"city": "HONOLULU", "state": "HI", "street": "125 QUEEN ST", "postcode": "96813"}}},
{"geometry": {"type": "Point", "coordinates": [-157.8630084068, 21.3077457395]}, "type": "Feature", "properties": {"collection_times": [{"days": "Mon-Fri", "time": "12:00pm"}, {"days": "Sat", "time": "2:00pm"}, {"days": "Sun", "time": "Closed"}], "id": "9681300084", "name": "USPS COLLECTION BOX - BLUE BOX", "address": {"city": "HONOLULU", "state": "HI", "street": "125 QUEEN ST", "postcode": "96813"}}},
{"geometry": {"type": "Point", "coordinates": [-157.8649579044, 21.3121795312]}, "type": "Feature", "properties": {"collection_times": [{"days": "Mon-Fri", "time": "12:00pm"}, {"days": "Sat-Sun", "time": "Closed"}], "id": "9681300086", "name": "USPS COLLECTION BOX - BLUE BOX", "address": {"city": "HONOLULU", "state": "HI", "street": "162 S NIMITZ HWY", "postcode": "96813"}}},
{"geometry": {"type": "Point", "coordinates": [-157.8635857146, 21.3071060012]}, "type": "Feature", "properties": {"collection_times": [{"days": "Mon-Fri", "time": "5:00pm"}, {"days": "Sat", "time": "2:00pm"}, {"days": "Sun", "time": "Closed"}], "id": "9681300087", "name": "USPS COLLECTION BOX - BLUE BOX", "address": {"city": "HONOLULU", "state": "HI", "street": "700 BISHOP ST", "postcode": "96813"}}},
{"geometry": {"type": "Point", "coordinates": [-157.8620622152, 21.3078013183]}, "type": "Feature", "properties": {"collection_times": [{"days": "Mon-Fri", "time": "12:00pm"}, {"days": "Sat", "time": "2:00pm"}, {"days": "Sun", "time": "Closed"}], "id": "9681300092", "name": "USPS COLLECTION BOX - BLUE BOX", "address": {"city": "HONOLULU", "state": "HI", "street": "163 MERCHANT ST", "postcode": "96813"}}},
{"geometry": {"type": "Point", "coordinates": [-157.8635857146, 21.3071060012]}, "type": "Feature", "properties": {"collection_times": [{"days": "Mon-Fri", "time": "5:00pm"}, {"days": "Sat", "time": "2:00pm"}, {"days": "Sun", "time": "Closed"}], "id": "9681300097", "name": "USPS COLLECTION BOX - BLUE BOX", "address": {"city": "HONOLULU", "state": "HI", "street": "700 BISHOP ST", "postcode": "96813"}}},
{"geometry": {"type": "Point", "coordinates": [-157.8614734424, 21.3084714986]}, "type": "Feature", "properties": {"collection_times": [{"days": "Mon-Fri", "time": "12:00pm"}, {"days": "Sat-Sun", "time": "Closed"}], "id": "9681300106", "name": "USPS COLLECTION BOX - BLUE BOX", "address": {"city": "HONOLULU", "state": "HI", "street": "1001 BISHOP ST", "postcode": "96813"}}},
{"geometry": {"type": "Point", "coordinates": [-157.858745865, 21.3104217685]}, "type": "Feature", "properties": {"collection_times": [{"days": "Mon-Fri", "time": "5:00pm"}, {"days": "Sat-Sun", "time": "Closed"}], "id": "9681300108", "name": "USPS COLLECTION BOX - BLUE BOX", "address": {"city": "HONOLULU", "state": "HI", "street": "1189 BISHOP ST", "postcode": "96813"}}},
{"geometry": {"type": "Point", "coordinates": [-157.8536078317, 21.3100440479]}, "type": "Feature", "properties": {"collection_times": [{"days": "Mon-Fri", "time": "5:00pm"}, {"days": "Sat-Sun", "time": "Closed"}], "id": "9681300109", "name": "USPS COLLECTION BOX - EXPRESS", "address": {"city": "HONOLULU", "state": "HI", "street": "1189 BISHOP ST", "postcode": "96813"}}},
{"geometry": {"type": "Point", "coordinates": [-157.8603746424, 21.311226691]}, "type": "Feature", "properties": {"collection_times": [{"days": "Mon-Fri", "time": "12:00pm"}, {"days": "Sat", "time": "2:00pm"}, {"days": "Sun", "time": "Closed"}], "id": "9681300112", "name": "USPS COLLECTION BOX - BLUE BOX", "address": {"city": "HONOLULU", "state": "HI", "street": "1157 BETHEL ST", "postcode": "96813"}}},
{"geometry": {"type": "Point", "coordinates": [-157.8619753082, 21.3102299781]}, "type": "Feature", "properties": {"collection_times": [{"days": "Mon-Fri", "time": "12:00pm"}, {"days": "Sat", "time": "2:00pm"}, {"days": "Sun", "time": "Closed"}], "id": "9681300113", "name": "USPS COLLECTION BOX - BLUE BOX", "address": {"city": "HONOLULU", "state": "HI", "street": "1061 BETHEL ST", "postcode": "96813"}}},
{"geometry": {"type": "Point", "coordinates": [-157.858935467, 21.3103613084]}, "type": "Feature", "properties": {"collection_times": [{"days": "Mon-Fri", "time": "5:00pm"}, {"days": "Sat-Sun", "time": "Closed"}], "id": "9681300114", "name": "USPS COLLECTION BOX - BLUE BOX", "address": {"city": "HONOLULU", "state": "HI", "street": "1188 BISHOP ST", "postcode": "96813"}}},
{"geometry": {"type": "Point", "coordinates": [-157.8482480059, 21.3194052663]}, "type": "Feature", "properties": {"collection_times": [{"days": "Mon-Fri", "time": "10:00am"}, {"days": "Sat-Sun", "time": "Closed"}], "id": "9681300116", "name": "USPS COLLECTION BOX - BLUE BOX", "address": {"city": "HONOLULU", "state": "HI", "street": "2104 KANEALII AVE", "postcode": "96813"}}},
{"geometry": {"type": "Point", "coordinates": [-157.839938329, 21.3205039986]}, "type": "Feature", "properties": {"collection_times": [{"days": "Mon-Fri", "time": "10:00am"}, {"days": "Sat-Sun", "time": "Closed"}], "id": "9681300117", "name": "USPS COLLECTION BOX - BLUE BOX", "address": {"city": "HONOLULU", "state": "HI", "street": "2504 PAUOA RD", "postcode": "96813"}}},
{"geometry": {"type": "Point", "coordinates": [-157.8593278202, 21.3113142321]}, "type": "Feature", "properties": {"collection_times": [{"days": "Mon-Fri", "time": "12:00pm"}, {"days": "Sat", "time": "2:00pm"}, {"days": "Sun", "time": "Closed"}], "id": "9681300120", "name": "USPS COLLECTION BOX - BLUE BOX", "address": {"city": "HONOLULU", "state": "HI", "street": "1200 FORT ST", "postcode": "96813"}}},
{"geometry": {"type": "Point", "coordinates": [-157.8561910022, 21.3111302317]}, "type": "Feature", "properties": {"collection_times": [{"days": "Mon-Fri", "time": "12:00pm"}, {"days": "Sat-Sun", "time": "Closed"}], "id": "9681300121", "name": "USPS COLLECTION BOX - BLUE BOX", "address": {"city": "HONOLULU", "state": "HI", "street": "1387 QUEEN EMMA ST", "postcode": "96813"}}},
{"geometry": {"type": "Point", "coordinates": [-157.8601298058, 21.3094200593]}, "type": "Feature", "properties": {"collection_times": [{"days": "Mon-Fri", "time": "5:00pm"}, {"days": "Sat-Sun", "time": "Closed"}], "id": "9681300123", "name": "USPS COLLECTION BOX - BLUE BOX", "address": {"city": "HONOLULU", "state": "HI", "street": "1111 BISHOP ST", "postcode": "96813"}}},
{"geometry": {"type": "Point", "coordinates": [-157.8584213426, 21.309639027]}, "type": "Feature", "properties": {"collection_times": [{"days": "Mon-Fri", "time": "12:00pm"}, {"days": "Sat-Sun", "time": "Closed"}], "id": "9681300125", "name": "USPS COLLECTION BOX - BLUE BOX", "address": {"city": "HONOLULU", "state": "HI", "street": "1181 ALAKEA ST", "postcode": "96813"}}},
{"geometry": {"type": "Point", "coordinates": [-157.8632650968, 21.3013282338]}, "type": "Feature", "properties": {"collection_times": [{"days": "Mon-Fri", "time": "5:00pm"}, {"days": "Sat", "time": "2:00pm"}, {"days": "Sun", "time": "Closed"}], "id": "9681300132", "name": "USPS COLLECTION BOX - BLUE BOX", "address": {"city": "HONOLULU", "state": "HI", "street": "521 ALA MOANA BLVD", "postcode": "96813"}}},
{"geometry": {"type": "Point", "coordinates": [-157.860521815, 21.3026744411]}, "type": "Feature", "properties": {"collection_times": [{"days": "Mon-Fri", "time": "12:00pm"}, {"days": "Sat", "time": "10:00am"}, {"days": "Sun", "time": "Closed"}], "id": "9681300135", "name": "USPS COLLECTION BOX - BLUE BOX", "address": {"city": "HONOLULU", "state": "HI", "street": "550 HALEKAUWILA ST", "postcode": "96813"}}},
{"geometry": {"type": "Point", "coordinates": [-157.8625553153, 21.3099115728]}, "type": "Feature", "properties": {"collection_times": [{"days": "Mon-Fri", "time": "12:00pm"}, {"days": "Sat", "time": "2:00pm"}, {"days": "Sun", "time": "Closed"}], "id": "9681300141", "name": "USPS COLLECTION BOX - BLUE BOX", "address": {"city": "HONOLULU", "state": "HI", "street": "999 BETHEL ST", "postcode": "96813"}}},
{"geometry": {"type": "Point", "coordinates": [-157.854409466, 21.301206389]}, "type": "Feature", "properties": {"collection_times": [{"days": "Mon-Fri", "time": "12:00pm"}, {"days": "Sat-Sun", "time": "Closed"}], "id": "9681300152", "name": "USPS COLLECTION BOX - BLUE BOX", "address": {"city": "HONOLULU", "state": "HI", "street": "725 KAPIOLANI BLVD", "postcode": "96813"}}},
{"geometry": {"type": "Point", "coordinates": [-157.8552635624, 21.3029500705]}, "type": "Feature", "properties": {"collection_times": [{"days": "Mon-Fri", "time": "5:00pm"}, {"days": "Sat-Sun", "time": "Closed"}], "id": "9681300154", "name": "USPS COLLECTION BOX - BLUE BOX", "address": {"city": "HONOLULU", "state": "HI", "street": "605 KAPIOLANI BLVD", "postcode": "96813"}}},
{"geometry": {"type": "Point", "coordinates": [-157.8574137881, 21.3013396582]}, "type": "Feature", "properties": {"collection_times": [{"days": "Mon-Fri", "time": "5:00pm"}, {"days": "Sat-Sun", "time": "Closed"}], "id": "9681300157", "name": "USPS COLLECTION BOX - BLUE BOX", "address": {"city": "HONOLULU", "state": "HI", "street": "700 EMILY ST", "postcode": "96813"}}},
{"geometry": {"type": "Point", "coordinates": [-157.8563192184, 21.2976352174]}, "type": "Feature", "properties": {"collection_times": [{"days": "Mon-Fri", "time": "11:00am"}, {"days": "Sat-Sun", "time": "Closed"}], "id": "9681300160", "name": "USPS COLLECTION BOX - BLUE BOX", "address": {"city": "HONOLULU", "state": "HI", "street": "863 HALEKAUWILA ST", "postcode": "96813"}}},
{"geometry": {"type": "Point", "coordinates": [-157.8503117857, 21.3070339264]}, "type": "Feature", "properties": {"collection_times": [{"days": "Mon-Fri", "time": "11:00am"}, {"days": "Sat-Sun", "time": "Closed"}], "id": "9681300161", "name": "USPS COLLECTION BOX - BLUE BOX", "address": {"city": "HONOLULU", "state": "HI", "street": "730 CAPTAIN COOK AVE", "postcode": "96813"}}},
{"geometry": {"type": "Point", "coordinates": [-157.8579500129, 21.3095250272]}, "type": "Feature", "properties": {"collection_times": [{"days": "Mon-Fri", "time": "12:00pm"}, {"days": "Sat-Sun", "time": "Closed"}], "id": "9681300164", "name": "USPS COLLECTION BOX - BLUE BOX", "address": {"city": "HONOLULU", "state": "HI", "street": "235 S BERETANIA ST", "postcode": "96813"}}},
{"geometry": {"type": "Point", "coordinates": [-157.8579500129, 21.3095250272]}, "type": "Feature", "properties": {"collection_times": [{"days": "Mon-Fri", "time": "12:00pm"}, {"days": "Sat-Sun", "time": "Closed"}], "id": "9681300165", "name": "USPS COLLECTION BOX - BLUE BOX", "address": {"city": "HONOLULU", "state": "HI", "street": "235 S BERETANIA ST", "postcode": "96813"}}},
{"geometry": {"type": "Point", "coordinates": [-157.8593459538, 21.3089535872]}, "type": "Feature", "properties": {"collection_times": [{"days": "Mon-Fri", "time": "5:00pm"}, {"days": "Sat-Sun", "time": "Closed"}], "id": "9681300166", "name": "USPS COLLECTION BOX - BLUE BOX", "address": {"city": "HONOLULU", "state": "HI", "street": "1100 ALAKEA ST", "postcode": "96813"}}},
{"geometry": {"type": "Point", "coordinates": [-157.8614757665, 21.3061845283]}, "type": "Feature", "properties": {"collection_times": [{"days": "Mon-Fri", "time": "5:30pm"}, {"days": "Sat", "time": "4:15pm"}, {"days": "Sun", "time": "Closed"}], "id": "9681300171", "name": "USPS COLLECTION BOX - BLUE BOX", "address": {"city": "HONOLULU", "state": "HI", "street": "801 RICHARDS ST", "postcode": "96813"}}},
{"geometry": {"type": "Point", "coordinates": [-157.8614757665, 21.3061845283]}, "type": "Feature", "properties": {"collection_times": [{"days": "Mon-Fri", "time": "5:30pm"}, {"days": "Sat", "time": "4:15pm"}, {"days": "Sun", "time": "Closed"}], "id": "9681300173", "name": "USPS COLLECTION BOX - BLUE BOX", "address": {"city": "HONOLULU", "state": "HI", "street": "801 RICHARDS ST", "postcode": "96813"}}},
{"geometry": {"type": "Point", "coordinates": [-157.8536078317, 21.3100440479]}, "type": "Feature", "properties": {"collection_times": [{"days": "Mon-Fri", "time": "5:30pm"}, {"days": "Sat", "time": "4:15pm"}, {"days": "Sun", "time": "Closed"}], "id": "9681300174", "name": "USPS COLLECTION BOX - EXPRESS", "address": {"city": "HONOLULU", "state": "HI", "street": "801 RICHARDS ST", "postcode": "96813"}}},
{"geometry": {"type": "Point", "coordinates": [-157.8602781254, 21.306482386]}, "type": "Feature", "properties": {"collection_times": [{"days": "Mon-Fri", "time": "5:30pm"}, {"days": "Sat", "time": "4:15pm"}, {"days": "Sun", "time": "Closed"}], "id": "9681300176", "name": "USPS COLLECTION BOX - BLUE BOX", "address": {"city": "HONOLULU", "state": "HI", "street": "335 MERCHANT ST", "postcode": "96813"}}},
{"geometry": {"type": "Point", "coordinates": [-157.8602781254, 21.306482386]}, "type": "Feature", "properties": {"collection_times": [{"days": "Mon-Fri", "time": "5:30pm"}, {"days": "Sat", "time": "4:15pm"}, {"days": "Sun", "time": "Closed"}], "id": "9681300177", "name": "USPS COLLECTION BOX - BLUE BOX", "address": {"city": "HONOLULU", "state": "HI", "street": "335 MERCHANT ST", "postcode": "96813"}}},
{"geometry": {"type": "Point", "coordinates": [-157.8562631627, 21.3063924811]}, "type": "Feature", "properties": {"collection_times": [{"days": "Mon-Fri", "time": "12:00pm"}, {"days": "Sat-Sun", "time": "Closed"}], "id": "9681300180", "name": "USPS COLLECTION BOX - BLUE BOX", "address": {"city": "HONOLULU", "state": "HI", "street": "1151 PUNCHBOWL ST", "postcode": "96813"}}},
{"geometry": {"type": "Point", "coordinates": [-157.8649519963, 21.307058487]}, "type": "Feature", "properties": {"collection_times": [{"days": "Mon-Fri", "time": "12:00pm"}, {"days": "Sat-Sun", "time": "Closed"}], "id": "9681300181", "name": "USPS COLLECTION BOX - BLUE BOX", "address": {"city": "HONOLULU", "state": "HI", "street": "1 ALOHA TOWER DR", "postcode": "96813"}}},
{"geometry": {"type": "Point", "coordinates": [-157.8614734424, 21.3084714986]}, "type": "Feature", "properties": {"collection_times": [{"days": "Mon-Fri", "time": "12:00pm"}, {"days": "Sat-Sun", "time": "Closed"}], "id": "9681300185", "name": "USPS COLLECTION BOX - BLUE BOX", "address": {"city": "HONOLULU", "state": "HI", "street": "1001 BISHOP ST", "postcode": "96813"}}},
{"geometry": {"type": "Point", "coordinates": [-157.8614757665, 21.3061845283]}, "type": "Feature", "properties": {"collection_times": [{"days": "Mon-Fri", "time": "5:30pm"}, {"days": "Sat", "time": "4:15pm"}, {"days": "Sun", "time": "Closed"}], "id": "9681300196", "name": "USPS COLLECTION BOX - BLUE BOX", "address": {"city": "HONOLULU", "state": "HI", "street": "801 RICHARDS ST", "postcode": "96813"}}},
{"geometry": {"type": "Point", "coordinates": [-157.8606981653, 21.3055290013]}, "type": "Feature", "properties": {"collection_times": [{"days": "Mon-Fri", "time": "5:00pm"}, {"days": "Sat-Sun", "time": "Closed"}], "id": "9681300197", "name": "USPS COLLECTION BOX - BLUE BOX", "address": {"city": "HONOLULU", "state": "HI", "street": "820 MILILANI ST", "postcode": "96813"}}},
{"geometry": {"type": "Point", "coordinates": [-157.8625198926, 21.3077336598]}, "type": "Feature", "properties": {"collection_times": [{"days": "Mon-Fri", "time": "5:00pm"}, {"days": "Sat-Sun", "time": "Closed"}], "id": "9681300199", "name": "USPS COLLECTION BOX - BLUE BOX", "address": {"city": "HONOLULU", "state": "HI", "street": "841 BISHOP ST", "postcode": "96813"}}},
{"geometry": {"type": "Point", "coordinates": [-157.8593459538, 21.3089535872]}, "type": "Feature", "properties": {"collection_times": [{"days": "Mon-Fri", "time": "5:00pm"}, {"days": "Sat-Sun", "time": "Closed"}], "id": "9681300206", "name": "USPS COLLECTION BOX - BLUE BOX", "address": {"city": "HONOLULU", "state": "HI", "street": "1100 ALAKEA ST", "postcode": "96813"}}},
{"geometry": {"type": "Point", "coordinates": [-157.8542793405, 21.2997146777]}, "type": "Feature", "properties": {"collection_times": [{"days": "Mon-Fri", "time": "11:00am"}, {"days": "Sat", "time": "9:00am"}, {"days": "Sun", "time": "Closed"}], "id": "9681300207", "name": "USPS COLLECTION BOX - BLUE BOX", "address": {"city": "HONOLULU", "state": "HI", "street": "875 WAIMANU ST", "postcode": "96813"}}},
{"geometry": {"type": "Point", "coordinates": [-157.8600829372, 21.3095237735]}, "type": "Feature", "properties": {"collection_times": [{"days": "Mon-Fri", "time": "5:00pm"}, {"days": "Sat", "time": "2:00pm"}, {"days": "Sun", "time": "Closed"}], "id": "9681300213", "name": "USPS COLLECTION BOX - BLUE BOX", "address": {"city": "HONOLULU", "state": "HI", "street": "1132 BISHOP ST", "postcode": "96813"}}},
{"geometry": {"type": "Point", "coordinates": [-157.8526728822, 21.3081290648]}, "type": "Feature", "properties": {"collection_times": [{"days": "Mon-Fri", "time": "12:00pm"}, {"days": "Sat", "time": "10:00am"}, {"days": "Sun", "time": "Closed"}], "id": "9681300214", "name": "USPS COLLECTION BOX - BLUE BOX", "address": {"city": "HONOLULU", "state": "HI", "street": "1380 LUSITANA ST", "postcode": "96813"}}},
{"geometry": {"type": "Point", "coordinates": [-157.8547655366, 21.303598332]}, "type": "Feature", "properties": {"collection_times": [{"days": "Mon-Fri", "time": "5:00pm"}, {"days": "Sat-Sun", "time": "Closed"}], "id": "9681300218", "name": "USPS COLLECTION BOX - BLUE BOX", "address": {"city": "HONOLULU", "state": "HI", "street": "650 S KING ST", "postcode": "96813"}}},
{"geometry": {"type": "Point", "coordinates": [-157.8602781254, 21.306482386]}, "type": "Feature", "properties": {"collection_times": [{"days": "Mon-Fri", "time": "5:30pm"}, {"days": "Sat", "time": "4:15pm"}, {"days": "Sun", "time": "Closed"}], "id": "9681300222", "name": "USPS COLLECTION BOX - APC", "address": {"city": "HONOLULU", "state": "HI", "street": "335 MERCHANT ST", "postcode": "96813"}}},
{"geometry": {"type": "Point", "coordinates": [-157.8631077633, 21.3011425092]}, "type": "Feature", "properties": {"collection_times": [{"days": "Mon-Fri", "time": "12:00pm"}, {"days": "Sat", "time": "9:00am"}, {"days": "Sun", "time": "Closed"}], "id": "9681300226", "name": "USPS COLLECTION BOX - BLUE BOX", "address": {"city": "HONOLULU", "state": "HI", "street": "500 ALA MOANA BLVD", "postcode": "96813"}}},
{"geometry": {"type": "Point", "coordinates": [-157.8630834236, 21.2974674972]}, "type": "Feature", "properties": {"collection_times": [{"days": "Mon-Fri", "time": "5:00pm"}, {"days": "Sat-Sun", "time": "Closed"}], "id": "9681300233", "name": "USPS COLLECTION BOX - BLUE BOX", "address": {"city": "HONOLULU", "state": "HI", "street": "233 KEAWE ST", "postcode": "96813"}}},
{"geometry": {"type": "Point", "coordinates": [-157.8410166263, 21.296671447]}, "type": "Feature", "properties": {"collection_times": [{"days": "Mon-Fri", "time": "12:00pm"}, {"days": "Sat-Sun", "time": "Closed"}], "id": "9681400001", "name": "USPS COLLECTION BOX - BLUE BOX", "address": {"city": "HONOLULU", "state": "HI", "street": "818 KEEAUMOKU ST", "postcode": "96814"}}},
{"geometry": {"type": "Point", "coordinates": [-157.8463854553, 21.302733589]}, "type": "Feature", "properties": {"collection_times": [{"days": "Mon-Fri", "time": "12:00pm"}, {"days": "Sat-Sun", "time": "Closed"}], "id": "9681400002", "name": "USPS COLLECTION BOX - BLUE BOX", "address": {"city": "HONOLULU", "state": "HI", "street": "1055 S BERETANIA ST", "postcode": "96814"}}},
{"geometry": {"type": "Point", "coordinates": [-157.8442833373, 21.2897766395]}, "type": "Feature", "properties": {"collection_times": [{"days": "Mon-Fri", "time": "12:00pm"}, {"days": "Sat", "time": "2:00pm"}, {"days": "Sun", "time": "Closed"}], "id": "9681400003", "name": "USPS COLLECTION BOX - BLUE BOX", "address": {"city": "HONOLULU", "state": "HI", "street": "1450 ALA MOANA BLVD", "postcode": "96814"}}},
{"geometry": {"type": "Point", "coordinates": [-157.8561578793, 21.2961788134]}, "type": "Feature", "properties": {"collection_times": [{"days": "Mon-Fri", "time": "12:00pm"}, {"days": "Sat-Sun", "time": "Closed"}], "id": "9681400008", "name": "USPS COLLECTION BOX - BLUE BOX", "address": {"city": "HONOLULU", "state": "HI", "street": "320 WARD AVE", "postcode": "96814"}}},
{"geometry": {"type": "Point", "coordinates": [-157.8398201773, 21.2955547687]}, "type": "Feature", "properties": {"collection_times": [{"days": "Mon-Fri", "time": "11:00am"}, {"days": "Sat", "time": "2:00pm"}, {"days": "Sun", "time": "Closed"}], "id": "9681400009", "name": "USPS COLLECTION BOX - BLUE BOX", "address": {"city": "HONOLULU", "state": "HI", "street": "1525 RYCROFT ST", "postcode": "96814"}}},
{"geometry": {"type": "Point", "coordinates": [-157.8546756318, 21.2980112168]}, "type": "Feature", "properties": {"collection_times": [{"days": "Mon-Fri", "time": "12:00pm"}, {"days": "Sat", "time": "2:00pm"}, {"days": "Sun", "time": "Closed"}], "id": "9681400010", "name": "USPS COLLECTION BOX - BLUE BOX", "address": {"city": "HONOLULU", "state": "HI", "street": "929 QUEEN ST", "postcode": "96814"}}},
{"geometry": {"type": "Point", "coordinates": [-157.8459891641, 21.295353108]}, "type": "Feature", "properties": {"collection_times": [{"days": "Mon-Fri", "time": "12:00pm"}, {"days": "Sat", "time": "2:00pm"}, {"days": "Sun", "time": "Closed"}], "id": "9681400011", "name": "USPS COLLECTION BOX - BLUE BOX", "address": {"city": "HONOLULU", "state": "HI", "street": "615 PIIKOI ST", "postcode": "96814"}}},
{"geometry": {"type": "Point", "coordinates": [-157.8459891641, 21.295353108]}, "type": "Feature", "properties": {"collection_times": [{"days": "Mon-Fri", "time": "12:00pm"}, {"days": "Sat", "time": "2:00pm"}, {"days": "Sun", "time": "Closed"}], "id": "9681400012", "name": "USPS COLLECTION BOX - BLUE BOX", "address": {"city": "HONOLULU", "state": "HI", "street": "615 PIIKOI ST", "postcode": "96814"}}},
{"geometry": {"type": "Point", "coordinates": [-157.8390286335, 21.2980597181]}, "type": "Feature", "properties": {"collection_times": [{"days": "Mon-Fri", "time": "12:00pm"}, {"days": "Sat", "time": "2:00pm"}, {"days": "Sun", "time": "Closed"}], "id": "9681400018", "name": "USPS COLLECTION BOX - BLUE BOX", "address": {"city": "HONOLULU", "state": "HI", "street": "1451 S KING ST", "postcode": "96814"}}},
{"geometry": {"type": "Point", "coordinates": [-157.8415838249, 21.2989646817]}, "type": "Feature", "properties": {"collection_times": [{"days": "Mon-Fri", "time": "12:00pm"}, {"days": "Sat", "time": "2:00pm"}, {"days": "Sun", "time": "Closed"}], "id": "9681400019", "name": "USPS COLLECTION BOX - BLUE BOX", "address": {"city": "HONOLULU", "state": "HI", "street": "1314 S KING ST", "postcode": "96814"}}},
{"geometry": {"type": "Point", "coordinates": [-157.8455940558, 21.3003783177]}, "type": "Feature", "properties": {"collection_times": [{"days": "Mon-Fri", "time": "12:00pm"}, {"days": "Sat-Sun", "time": "Closed"}], "id": "9681400023", "name": "USPS COLLECTION BOX - BLUE BOX", "address": {"city": "HONOLULU", "state": "HI", "street": "1120 S KING ST", "postcode": "96814"}}},
{"geometry": {"type": "Point", "coordinates": [-157.8484503153, 21.3014069568]}, "type": "Feature", "properties": {"collection_times": [{"days": "Mon-Fri", "time": "12:00pm"}, {"days": "Sat-Sun", "time": "Closed"}], "id": "9681400025", "name": "USPS COLLECTION BOX - BLUE BOX", "address": {"city": "HONOLULU", "state": "HI", "street": "1010 S KING ST", "postcode": "96814"}}},
{"geometry": {"type": "Point", "coordinates": [-157.8397621544, 21.2918350107]}, "type": "Feature", "properties": {"collection_times": [{"days": "Mon-Fri", "time": "5:00pm"}, {"days": "Sat-Sun", "time": "Closed"}], "id": "9681400027", "name": "USPS COLLECTION BOX - BLUE BOX", "address": {"city": "HONOLULU", "state": "HI", "street": "1601 KAPIOLANI BLVD", "postcode": "96814"}}},
{"geometry": {"type": "Point", "coordinates": [-157.8400956625, 21.2920408229]}, "type": "Feature", "properties": {"collection_times": [{"days": "Mon-Fri", "time": "5:00pm"}, {"days": "Sat", "time": "2:00pm"}, {"days": "Sun", "time": "Closed"}], "id": "9681400031", "name": "USPS COLLECTION BOX - BLUE BOX", "address": {"city": "HONOLULU", "state": "HI", "street": "1585 KAPIOLANI BLVD", "postcode": "96814"}}},
{"geometry": {"type": "Point", "coordinates": [-157.8400956625, 21.2920408229]}, "type": "Feature", "properties": {"collection_times": [{"days": "Mon-Fri", "time": "5:00pm"}, {"days": "Sat", "time": "2:00pm"}, {"days": "Sun", "time": "Closed"}], "id": "9681400032", "name": "USPS COLLECTION BOX - BLUE BOX", "address": {"city": "HONOLULU", "state": "HI", "street": "1585 KAPIOLANI BLVD", "postcode": "96814"}}},
{"geometry": {"type": "Point", "coordinates": [-157.8400956625, 21.2920408229]}, "type": "Feature", "properties": {"collection_times": [{"days": "Mon-Fri", "time": "5:00pm"}, {"days": "Sat", "time": "2:00pm"}, {"days": "Sun", "time": "Closed"}], "id": "9681400033", "name": "USPS COLLECTION BOX - BLUE BOX", "address": {"city": "HONOLULU", "state": "HI", "street": "1585 KAPIOLANI BLVD", "postcode": "96814"}}},
{"geometry": {"type": "Point", "coordinates": [-157.8400956625, 21.2920408229]}, "type": "Feature", "properties": {"collection_times": [{"days": "Mon-Fri", "time": "5:00pm"}, {"days": "Sat", "time": "2:00pm"}, {"days": "Sun", "time": "Closed"}], "id": "9681400034", "name": "USPS COLLECTION BOX - BLUE BOX", "address": {"city": "HONOLULU", "state": "HI", "street": "1585 KAPIOLANI BLVD", "postcode": "96814"}}},
{"geometry": {"type": "Point", "coordinates": [-157.8435928147, 21.2936522145]}, "type": "Feature", "properties": {"collection_times": [{"days": "Mon-Fri", "time": "12:00pm"}, {"days": "Sat-Sun", "time": "Closed"}], "id": "9681400040", "name": "USPS COLLECTION BOX - BLUE BOX", "address": {"city": "HONOLULU", "state": "HI", "street": "1400 KAPIOLANI BLVD", "postcode": "96814"}}},
{"geometry": {"type": "Point", "coordinates": [-157.845762036, 21.2945522448]}, "type": "Feature", "properties": {"collection_times": [{"days": "Mon-Fri", "time": "5:00pm"}, {"days": "Sat", "time": "2:00pm"}, {"days": "Sun", "time": "Closed"}], "id": "9681400041", "name": "USPS COLLECTION BOX - BLUE BOX", "address": {"city": "HONOLULU", "state": "HI", "street": "1311 KAPIOLANI BLVD", "postcode": "96814"}}},
{"geometry": {"type": "Point", "coordinates": [-157.8473826897, 21.2952703009]}, "type": "Feature", "properties": {"collection_times": [{"days": "Mon-Fri", "time": "12:00pm"}, {"days": "Sat", "time": "2:00pm"}, {"days": "Sun", "time": "Closed"}], "id": "9681400042", "name": "USPS COLLECTION BOX - BLUE BOX", "address": {"city": "HONOLULU", "state": "HI", "street": "1221 KAPIOLANI BLVD", "postcode": "96814"}}},
{"geometry": {"type": "Point", "coordinates": [-157.8473826897, 21.2952703009]}, "type": "Feature", "properties": {"collection_times": [{"days": "Mon-Fri", "time": "12:00pm"}, {"days": "Sat", "time": "2:00pm"}, {"days": "Sun", "time": "Closed"}], "id": "9681400043", "name": "USPS COLLECTION BOX - BLUE BOX", "address": {"city": "HONOLULU", "state": "HI", "street": "1221 KAPIOLANI BLVD", "postcode": "96814"}}},
{"geometry": {"type": "Point", "coordinates": [-157.8564193133, 21.2944907309]}, "type": "Feature", "properties": {"collection_times": [{"days": "Mon-Fri", "time": "11:00am"}, {"days": "Sat", "time": "2:00pm"}, {"days": "Sun", "time": "Closed"}], "id": "9681400051", "name": "USPS COLLECTION BOX - BLUE BOX", "address": {"city": "HONOLULU", "state": "HI", "street": "1050 ALA MOANA BLVD", "postcode": "96814"}}},
{"geometry": {"type": "Point", "coordinates": [-157.8390783178, 21.2899245093]}, "type": "Feature", "properties": {"collection_times": [{"days": "Mon-Fri", "time": "12:00pm"}, {"days": "Sat-Sun", "time": "Closed"}], "id": "9681400053", "name": "USPS COLLECTION BOX - BLUE BOX", "address": {"city": "HONOLULU", "state": "HI", "street": "435 ATKINSON DR", "postcode": "96814"}}},
{"geometry": {"type": "Point", "coordinates": [-157.8402234221, 21.294604295]}, "type": "Feature", "properties": {"collection_times": [{"days": "Mon-Sat", "time": "2:00pm"}, {"days": "Sun", "time": "Closed"}], "id": "9681400054", "name": "USPS COLLECTION BOX - BLUE BOX", "address": {"city": "HONOLULU", "state": "HI", "street": "780 AMANA ST", "postcode": "96814"}}},
{"geometry": {"type": "Point", "coordinates": [-157.8392261877, 21.2934367145]}, "type": "Feature", "properties": {"collection_times": [{"days": "Mon-Fri", "time": "12:00pm"}, {"days": "Sat", "time": "2:00pm"}, {"days": "Sun", "time": "Closed"}], "id": "9681400055", "name": "USPS COLLECTION BOX - BLUE BOX", "address": {"city": "HONOLULU", "state": "HI", "street": "801 KAHEKA ST", "postcode": "96814"}}},
{"geometry": {"type": "Point", "coordinates": [-157.8442833373, 21.2897766395]}, "type": "Feature", "properties": {"collection_times": [{"days": "Mon-Fri", "time": "12:00pm"}, {"days": "Sat", "time": "2:00pm"}, {"days": "Sun", "time": "Closed"}], "id": "9681400056", "name": "USPS COLLECTION BOX - BLUE BOX", "address": {"city": "HONOLULU", "state": "HI", "street": "1450 ALA MOANA BLVD", "postcode": "96814"}}},
{"geometry": {"type": "Point", "coordinates": [-157.8442833373, 21.2897766395]}, "type": "Feature", "properties": {"collection_times": [{"days": "Mon-Sat", "time": "5:00pm"}, {"days": "Sun", "time": "Closed"}], "id": "9681400059", "name": "USPS COLLECTION BOX - BLUE BOX", "address": {"city": "HONOLULU", "state": "HI", "street": "1450 ALA MOANA BLVD", "postcode": "96814"}}},
{"geometry": {"type": "Point", "coordinates": [-157.8440184046, 21.2971828316]}, "type": "Feature", "properties": {"collection_times": [{"days": "Mon-Sat", "time": "5:00pm"}, {"days": "Sun", "time": "Closed"}], "id": "9681400061", "name": "USPS COLLECTION BOX - EXPRESS", "address": {"city": "HONOLULU", "state": "HI", "street": "1450 ALA MOANA BLVD", "postcode": "96814"}}},
{"geometry": {"type": "Point", "coordinates": [-157.8442833373, 21.2897766395]}, "type": "Feature", "properties": {"collection_times": [{"days": "Mon-Sat", "time": "5:00pm"}, {"days": "Sun", "time": "Closed"}], "id": "9681400067", "name": "USPS COLLECTION BOX - BLUE BOX", "address": {"city": "HONOLULU", "state": "HI", "street": "1450 ALA MOANA BLVD", "postcode": "96814"}}},
{"geometry": {"type": "Point", "coordinates": [-157.8428602376, 21.2932663684]}, "type": "Feature", "properties": {"collection_times": [{"days": "Mon-Fri", "time": "12:00pm"}, {"days": "Sat", "time": "2:00pm"}, {"days": "Sun", "time": "Closed"}], "id": "9681400074", "name": "USPS COLLECTION BOX - BLUE BOX", "address": {"city": "HONOLULU", "state": "HI", "street": "1440 KAPIOLANI BLVD", "postcode": "96814"}}},
{"geometry": {"type": "Point", "coordinates": [-157.8428602376, 21.2932663684]}, "type": "Feature", "properties": {"collection_times": [{"days": "Mon-Fri", "time": "12:00pm"}, {"days": "Sat", "time": "2:00pm"}, {"days": "Sun", "time": "Closed"}], "id": "9681400075", "name": "USPS COLLECTION BOX - BLUE BOX", "address": {"city": "HONOLULU", "state": "HI", "street": "1440 KAPIOLANI BLVD", "postcode": "96814"}}},
{"geometry": {"type": "Point", "coordinates": [-157.8442833373, 21.2897766395]}, "type": "Feature", "properties": {"collection_times": [{"days": "Mon-Fri", "time": "12:00pm"}, {"days": "Sat", "time": "2:00pm"}, {"days": "Sun", "time": "Closed"}], "id": "9681400076", "name": "USPS COLLECTION BOX - BLUE BOX", "address": {"city": "HONOLULU", "state": "HI", "street": "1450 ALA MOANA BLVD", "postcode": "96814"}}},
{"geometry": {"type": "Point", "coordinates": [-157.85114142, 21.2949566198]}, "type": "Feature", "properties": {"collection_times": [{"days": "Mon-Fri", "time": "12:00pm"}, {"days": "Sat", "time": "2:00pm"}, {"days": "Sun", "time": "Closed"}], "id": "9681400082", "name": "USPS COLLECTION BOX - BLUE BOX", "address": {"city": "HONOLULU", "state": "HI", "street": "401 KAMAKEE ST", "postcode": "96814"}}},
{"geometry": {"type": "Point", "coordinates": [-157.8354797566, 21.2901551863]}, "type": "Feature", "properties": {"collection_times": [{"days": "Mon-Fri", "time": "12:00pm"}, {"days": "Sat-Sun", "time": "Closed"}], "id": "9681400083", "name": "USPS COLLECTION BOX - BLUE BOX", "address": {"city": "HONOLULU", "state": "HI", "street": "1801 KALAKAUA AVE", "postcode": "96814"}}},
{"geometry": {"type": "Point", "coordinates": [-157.840340535, 21.3005332853]}, "type": "Feature", "properties": {"collection_times": [{"days": "Mon-Fri", "time": "12:00pm"}, {"days": "Sat", "time": "2:00pm"}, {"days": "Sun", "time": "Closed"}], "id": "9681400085", "name": "USPS COLLECTION BOX - BLUE BOX", "address": {"city": "HONOLULU", "state": "HI", "street": "1338 S BERETANIA ST", "postcode": "96814"}}},
{"geometry": {"type": "Point", "coordinates": [-157.837440023, 21.2927884323]}, "type": "Feature", "properties": {"collection_times": [{"days": "Mon-Fri", "time": "10:00am"}, {"days": "Sat-Sun", "time": "Closed"}], "id": "9681400087", "name": "USPS COLLECTION BOX - BLUE BOX", "address": {"city": "HONOLULU", "state": "HI", "street": "1650 MAKALOA ST", "postcode": "96814"}}},
{"geometry": {"type": "Point", "coordinates": [-157.8421927255, 21.2893070975]}, "type": "Feature", "properties": {"collection_times": [{"days": "Mon-Sat", "time": "5:00pm"}, {"days": "Sun", "time": "Closed"}], "id": "9681400089", "name": "USPS COLLECTION BOX - APC", "address": {"city": "HONOLULU", "state": "HI", "street": "1450 ALA MOANA BLVD", "postcode": "96814"}}},
{"geometry": {"type": "Point", "coordinates": [-157.8419931287, 21.2942245652]}, "type": "Feature", "properties": {"collection_times": [{"days": "Mon-Fri", "time": "12:00pm"}, {"days": "Sat-Sun", "time": "Closed"}], "id": "9681400090", "name": "USPS COLLECTION BOX - BLUE BOX", "address": {"city": "HONOLULU", "state": "HI", "street": "641 KEEAUMOKU ST", "postcode": "96814"}}},
{"geometry": {"type": "Point", "coordinates": [-157.8510186369, 21.3010800824]}, "type": "Feature", "properties": {"collection_times": [{"days": "Mon-Fri", "time": "12:00pm"}, {"days": "Sat-Sun", "time": "Closed"}], "id": "9681400092", "name": "USPS COLLECTION BOX - BLUE BOX", "address": {"city": "HONOLULU", "state": "HI", "street": "932 WARD AVE", "postcode": "96814"}}},
{"geometry": {"type": "Point", "coordinates": [-157.8440184046, 21.2971828316]}, "type": "Feature", "properties": {"collection_times": [{"days": "Mon-Fri", "time": "12:00pm"}, {"days": "Sat", "time": "9:00am"}, {"days": "Sun", "time": "Closed"}], "id": "9681400093", "name": "USPS COLLECTION BOX - BLUE BOX", "address": {"city": "HONOLULU", "state": "HI", "street": "1441 KAPIOLANI BLVD", "postcode": "96814"}}},
{"geometry": {"type": "Point", "coordinates": [-157.8440184046, 21.2971828316]}, "type": "Feature", "properties": {"collection_times": [{"days": "Mon-Fri", "time": "12:00pm"}, {"days": "Sat", "time": "9:00am"}, {"days": "Sun", "time": "Closed"}], "id": "9681400094", "name": "USPS COLLECTION BOX - BLUE BOX", "address": {"city": "HONOLULU", "state": "HI", "street": "1441 KAPIOLANI BLVD", "postcode": "96814"}}},
{"geometry": {"type": "Point", "coordinates": [-157.8401410775, 21.2870306705]}, "type": "Feature", "properties": {"collection_times": [{"days": "Mon-Fri", "time": "9:00am"}, {"days": "Sat-Sun", "time": "Closed"}], "id": "9681500001", "name": "USPS COLLECTION BOX - BLUE BOX", "address": {"city": "HONOLULU", "state": "HI", "street": "1741 ALA MOANA BLVD", "postcode": "96815"}}},
{"geometry": {"type": "Point", "coordinates": [-157.8352715559, 21.2860183788]}, "type": "Feature", "properties": {"collection_times": [{"days": "Mon-Sat", "time": "2:00pm"}, {"days": "Sun", "time": "Closed"}], "id": "9681500007", "name": "USPS COLLECTION BOX - BLUE BOX", "address": {"city": "HONOLULU", "state": "HI", "street": "425 ENA RD", "postcode": "96815"}}},
{"geometry": {"type": "Point", "coordinates": [-157.8384068601, 21.2857781114]}, "type": "Feature", "properties": {"collection_times": [{"days": "Mon-Sat", "time": "1:00pm"}, {"days": "Sun", "time": "Closed"}], "id": "9681500008", "name": "USPS COLLECTION BOX - BLUE BOX", "address": {"city": "HONOLULU", "state": "HI", "street": "315 HOBRON LN", "postcode": "96815"}}},
{"geometry": {"type": "Point", "coordinates": [-157.8359107413, 21.2868868831]}, "type": "Feature", "properties": {"collection_times": [{"days": "Mon-Sat", "time": "3:00pm"}, {"days": "Sun", "time": "Closed"}], "id": "9681500009", "name": "USPS COLLECTION BOX - BLUE BOX", "address": {"city": "HONOLULU", "state": "HI", "street": "438 HOBRON LN", "postcode": "96815"}}},
{"geometry": {"type": "Point", "coordinates": [-157.8303703143, 21.2831711968]}, "type": "Feature", "properties": {"collection_times": [{"days": "Mon-Sat", "time": "9:00am"}, {"days": "Sun", "time": "Closed"}], "id": "9681500012", "name": "USPS COLLECTION BOX - BLUE BOX", "address": {"city": "HONOLULU", "state": "HI", "street": "2092 KUHIO AVE", "postcode": "96815"}}},
{"geometry": {"type": "Point", "coordinates": [-157.8355968696, 21.2883535398]}, "type": "Feature", "properties": {"collection_times": [{"days": "Mon-Fri", "time": "2:00pm"}, {"days": "Sat-Sun", "time": "Closed"}], "id": "9681500013", "name": "USPS COLLECTION BOX - BLUE BOX", "address": {"city": "HONOLULU", "state": "HI", "street": "1717 ALA WAI BLVD", "postcode": "96815"}}},
{"geometry": {"type": "Point", "coordinates": [-157.8271351641, 21.2814166685]}, "type": "Feature", "properties": {"collection_times": [{"days": "Mon-Sat", "time": "11:00am"}, {"days": "Sun", "time": "Closed"}], "id": "9681500017", "name": "USPS COLLECTION BOX - BLUE BOX", "address": {"city": "HONOLULU", "state": "HI", "street": "422 ROYAL HAWAIIAN AVE", "postcode": "96815"}}},
{"geometry": {"type": "Point", "coordinates": [-157.8148335738, 21.2667243181]}, "type": "Feature", "properties": {"collection_times": [{"days": "Mon-Sat", "time": "11:00am"}, {"days": "Sun", "time": "Closed"}], "id": "9681500024", "name": "USPS COLLECTION BOX - BLUE BOX", "address": {"city": "HONOLULU", "state": "HI", "street": "3131 PUALEI CIR", "postcode": "96815"}}},
{"geometry": {"type": "Point", "coordinates": [-157.8212511262, 21.2751777429]}, "type": "Feature", "properties": {"collection_times": [{"days": "Mon-Fri", "time": "10:00am"}, {"days": "Sat", "time": "9:00am"}, {"days": "Sun", "time": "Closed"}], "id": "9681500033", "name": "USPS COLLECTION BOX - BLUE BOX", "address": {"city": "HONOLULU", "state": "HI", "street": "228 OHUA AVE", "postcode": "96815"}}},
{"geometry": {"type": "Point", "coordinates": [-157.8117815397, 21.2694427578]}, "type": "Feature", "properties": {"collection_times": [{"days": "Mon-Sat", "time": "10:00am"}, {"days": "Sun", "time": "Closed"}], "id": "9681500039", "name": "USPS COLLECTION BOX - BLUE BOX", "address": {"city": "HONOLULU", "state": "HI", "street": "3150 MONSARRAT AVE", "postcode": "96815"}}},
{"geometry": {"type": "Point", "coordinates": [-157.8229628814, 21.2721082924]}, "type": "Feature", "properties": {"collection_times": [{"days": "Mon-Sat", "time": "9:30am"}, {"days": "Sun", "time": "Closed"}], "id": "9681500041", "name": "USPS COLLECTION BOX - BLUE BOX", "address": {"city": "HONOLULU", "state": "HI", "street": "2570 KALAKAUA AVE", "postcode": "96815"}}},
{"geometry": {"type": "Point", "coordinates": [-157.8205389849, 21.2630240225]}, "type": "Feature", "properties": {"collection_times": [{"days": "Mon-Sat", "time": "10:00am"}, {"days": "Sun", "time": "Closed"}], "id": "9681500042", "name": "USPS COLLECTION BOX - BLUE BOX", "address": {"city": "HONOLULU", "state": "HI", "street": "2877 KALAKAUA AVE", "postcode": "96815"}}},
{"geometry": {"type": "Point", "coordinates": [-157.8355625638, 21.2840948876]}, "type": "Feature", "properties": {"collection_times": [{"days": "Mon-Sat", "time": "2:00pm"}, {"days": "Sun", "time": "Closed"}], "id": "9681500045", "name": "USPS COLLECTION BOX - BLUE BOX", "address": {"city": "HONOLULU", "state": "HI", "street": "2005 KALIA RD", "postcode": "96815"}}},
{"geometry": {"type": "Point", "coordinates": [-157.8158591992, 21.2747104741]}, "type": "Feature", "properties": {"collection_times": [{"days": "Mon-Sat", "time": "9:00am"}, {"days": "Sun", "time": "Closed"}], "id": "9681500047", "name": "USPS COLLECTION BOX - BLUE BOX", "address": {"city": "HONOLULU", "state": "HI", "street": "415 KAPAHULU AVE", "postcode": "96815"}}},
{"geometry": {"type": "Point", "coordinates": [-157.8140338936, 21.2777838015]}, "type": "Feature", "properties": {"collection_times": [{"days": "Mon-Sat", "time": "9:30am"}, {"days": "Sun", "time": "Closed"}], "id": "9681500048", "name": "USPS COLLECTION BOX - BLUE BOX", "address": {"city": "HONOLULU", "state": "HI", "street": "559 KAPAHULU AVE", "postcode": "96815"}}},
{"geometry": {"type": "Point", "coordinates": [-157.825364684, 21.2769909287]}, "type": "Feature", "properties": {"collection_times": [{"days": "Mon-Sat", "time": "10:00am"}, {"days": "Sun", "time": "Closed"}], "id": "9681500049", "name": "USPS COLLECTION BOX - BLUE BOX", "address": {"city": "HONOLULU", "state": "HI", "street": "2400 KOA AVE", "postcode": "96815"}}},
{"geometry": {"type": "Point", "coordinates": [-157.827397781, 21.2805341811]}, "type": "Feature", "properties": {"collection_times": [{"days": "Mon-Sat", "time": "12:00pm"}, {"days": "Sun", "time": "Closed"}], "id": "9681500053", "name": "USPS COLLECTION BOX - BLUE BOX", "address": {"city": "HONOLULU", "state": "HI", "street": "2240 KUHIO AVE", "postcode": "96815"}}},
{"geometry": {"type": "Point", "coordinates": [-157.8268713642, 21.280075193]}, "type": "Feature", "properties": {"collection_times": [{"days": "Mon-Sat", "time": "2:00pm"}, {"days": "Sun", "time": "Closed"}], "id": "9681500054", "name": "USPS COLLECTION BOX - BLUE BOX", "address": {"city": "HONOLULU", "state": "HI", "street": "2255 KUHIO AVE", "postcode": "96815"}}},
{"geometry": {"type": "Point", "coordinates": [-157.8311565107, 21.2841873953]}, "type": "Feature", "properties": {"collection_times": [{"days": "Mon-Sat", "time": "11:00am"}, {"days": "Sun", "time": "Closed"}], "id": "9681500055", "name": "USPS COLLECTION BOX - BLUE BOX", "address": {"city": "HONOLULU", "state": "HI", "street": "410 NAMAHANA ST", "postcode": "96815"}}},
{"geometry": {"type": "Point", "coordinates": [-157.8262952898, 21.2796708125]}, "type": "Feature", "properties": {"collection_times": [{"days": "Mon-Sat", "time": "10:30am"}, {"days": "Sun", "time": "Closed"}], "id": "9681500057", "name": "USPS COLLECTION BOX - BLUE BOX", "address": {"city": "HONOLULU", "state": "HI", "street": "2300 KUHIO AVE", "postcode": "96815"}}},
{"geometry": {"type": "Point", "coordinates": [-157.8246483701, 21.2779518373]}, "type": "Feature", "properties": {"collection_times": [{"days": "Mon-Fri", "time": "5:30pm"}, {"days": "Sat", "time": "4:30pm"}, {"days": "Sun", "time": "Closed"}], "id": "9681500061", "name": "USPS COLLECTION BOX - BLUE BOX", "address": {"city": "HONOLULU", "state": "HI", "street": "330 SARATOGA RD", "postcode": "96815"}}},
{"geometry": {"type": "Point", "coordinates": [-157.8246483701, 21.2779518373]}, "type": "Feature", "properties": {"collection_times": [{"days": "Mon-Fri", "time": "4:30pm"}, {"days": "Sat", "time": "12:30pm"}, {"days": "Sun", "time": "Closed"}], "id": "9681500071", "name": "USPS COLLECTION BOX - PO LOBBY", "address": {"city": "HONOLULU", "state": "HI", "street": "330 SARATOGA RD", "postcode": "96815"}}},
{"geometry": {"type": "Point", "coordinates": [-157.8246483701, 21.2779518373]}, "type": "Feature", "properties": {"collection_times": [{"days": "Mon-Fri", "time": "4:30pm"}, {"days": "Sat", "time": "12:30pm"}, {"days": "Sun", "time": "Closed"}], "id": "9681500076", "name": "USPS COLLECTION BOX - APC", "address": {"city": "HONOLULU", "state": "HI", "street": "330 SARATOGA RD", "postcode": "96815"}}},
{"geometry": {"type": "Point", "coordinates": [-157.828234706, 21.2785373104]}, "type": "Feature", "properties": {"collection_times": [{"days": "Mon-Sat", "time": "2:00pm"}, {"days": "Sun", "time": "Closed"}], "id": "9681500077", "name": "USPS COLLECTION BOX - BLUE BOX", "address": {"city": "HONOLULU", "state": "HI", "street": "2270 KALAKAUA AVE", "postcode": "96815"}}},
{"geometry": {"type": "Point", "coordinates": [-157.8293721395, 21.2804383614]}, "type": "Feature", "properties": {"collection_times": [{"days": "Mon-Sat", "time": "2:00pm"}, {"days": "Sun", "time": "Closed"}], "id": "9681500078", "name": "USPS COLLECTION BOX - BLUE BOX", "address": {"city": "HONOLULU", "state": "HI", "street": "307 LEWERS ST", "postcode": "96815"}}},
{"geometry": {"type": "Point", "coordinates": [-157.7859599114, 21.2784225993]}, "type": "Feature", "properties": {"collection_times": [{"days": "Mon-Sat", "time": "2:00pm"}, {"days": "Sun", "time": "Closed"}], "id": "9681600001", "name": "USPS COLLECTION BOX - BLUE BOX", "address": {"city": "HONOLULU", "state": "HI", "street": "4211 WAIALAE AVE", "postcode": "96816"}}},
{"geometry": {"type": "Point", "coordinates": [-157.802356833, 21.2843937112]}, "type": "Feature", "properties": {"collection_times": [{"days": "Mon-Fri", "time": "3:00pm"}, {"days": "Sat", "time": "2:00pm"}, {"days": "Sun", "time": "Closed"}], "id": "9681600003", "name": "USPS COLLECTION BOX - BLUE BOX", "address": {"city": "HONOLULU", "state": "HI", "street": "3441 WAIALAE AVE", "postcode": "96816"}}},
{"geometry": {"type": "Point", "coordinates": [-157.8074814839, 21.2870688464]}, "type": "Feature", "properties": {"collection_times": [{"days": "Mon-Fri", "time": "3:00pm"}, {"days": "Sat", "time": "2:00pm"}, {"days": "Sun", "time": "Closed"}], "id": "9681600004", "name": "USPS COLLECTION BOX - BLUE BOX", "address": {"city": "HONOLULU", "state": "HI", "street": "3221 WAIALAE AVE", "postcode": "96816"}}},
{"geometry": {"type": "Point", "coordinates": [-157.8138647304, 21.2882577202]}, "type": "Feature", "properties": {"collection_times": [{"days": "Mon-Fri", "time": "9:00am"}, {"days": "Sat", "time": "2:00pm"}, {"days": "Sun", "time": "Closed"}], "id": "9681600011", "name": "USPS COLLECTION BOX - BLUE BOX", "address": {"city": "HONOLULU", "state": "HI", "street": "2939 HARDING AVE", "postcode": "96816"}}},
{"geometry": {"type": "Point", "coordinates": [-157.798569647, 21.2839435999]}, "type": "Feature", "properties": {"collection_times": [{"days": "Mon-Sat", "time": "5:00pm"}, {"days": "Sun", "time": "Closed"}], "id": "9681600016", "name": "USPS COLLECTION BOX - BLUE BOX", "address": {"city": "HONOLULU", "state": "HI", "street": "4354 PAHOA AVE", "postcode": "96816"}}},
{"geometry": {"type": "Point", "coordinates": [-157.7985586578, 21.2814320482]}, "type": "Feature", "properties": {"collection_times": [{"days": "Mon-Fri", "time": "3:00pm"}, {"days": "Sat", "time": "2:00pm"}, {"days": "Sun", "time": "Closed"}], "id": "9681600018", "name": "USPS COLLECTION BOX - BLUE BOX", "address": {"city": "HONOLULU", "state": "HI", "street": "1130 KOKO HEAD AVE", "postcode": "96816"}}},
{"geometry": {"type": "Point", "coordinates": [-157.7985586578, 21.2814320482]}, "type": "Feature", "properties": {"collection_times": [{"days": "Mon-Fri", "time": "3:00pm"}, {"days": "Sat", "time": "2:00pm"}, {"days": "Sun", "time": "Closed"}], "id": "9681600019", "name": "USPS COLLECTION BOX - BLUE BOX", "address": {"city": "HONOLULU", "state": "HI", "street": "1130 KOKO HEAD AVE", "postcode": "96816"}}},
{"geometry": {"type": "Point", "coordinates": [-157.798569647, 21.2839435999]}, "type": "Feature", "properties": {"collection_times": [{"days": "Mon-Fri", "time": "3:45pm"}, {"days": "Sat", "time": "5:00pm"}, {"days": "Sun", "time": "Closed"}], "id": "9681600024", "name": "USPS COLLECTION BOX - PO LOBBY", "address": {"city": "HONOLULU", "state": "HI", "street": "4354 PAHOA AVE", "postcode": "96816"}}},
{"geometry": {"type": "Point", "coordinates": [-157.7990067658, 21.2827474973]}, "type": "Feature", "properties": {"collection_times": [{"days": "Mon-Fri", "time": "3:00pm"}, {"days": "Sat", "time": "2:00pm"}, {"days": "Sun", "time": "Closed"}], "id": "9681600025", "name": "USPS COLLECTION BOX - BLUE BOX", "address": {"city": "HONOLULU", "state": "HI", "street": "3599 WAIALAE AVE", "postcode": "96816"}}},
{"geometry": {"type": "Point", "coordinates": [-157.798569647, 21.2839435999]}, "type": "Feature", "properties": {"collection_times": [{"days": "Mon-Fri", "time": "3:45pm"}, {"days": "Sat", "time": "5:00pm"}, {"days": "Sun", "time": "Closed"}], "id": "9681600026", "name": "USPS COLLECTION BOX - APC", "address": {"city": "HONOLULU", "state": "HI", "street": "4354 PAHOA AVE", "postcode": "96816"}}},
{"geometry": {"type": "Point", "coordinates": [-157.8703932834, 21.3205146978]}, "type": "Feature", "properties": {"collection_times": [{"days": "Mon-Fri", "time": "1:00pm"}, {"days": "Sat-Sun", "time": "Closed"}], "id": "9681700001", "name": "USPS COLLECTION BOX - BLUE BOX", "address": {"city": "HONOLULU", "state": "HI", "street": "874 DILLINGHAM BLVD", "postcode": "96817"}}},
{"geometry": {"type": "Point", "coordinates": [-157.878278029, 21.3223624271]}, "type": "Feature", "properties": {"collection_times": [{"days": "Mon-Fri", "time": "1:00pm"}, {"days": "Sat-Sun", "time": "Closed"}], "id": "9681700002", "name": "USPS COLLECTION BOX - BLUE BOX", "address": {"city": "HONOLULU", "state": "HI", "street": "420 WAIAKAMILO RD", "postcode": "96817"}}},
{"geometry": {"type": "Point", "coordinates": [-157.8692236611, 21.3357310464]}, "type": "Feature", "properties": {"collection_times": [{"days": "Mon-Sat", "time": "11:00am"}, {"days": "Sun", "time": "Closed"}], "id": "9681700003", "name": "USPS COLLECTION BOX - BLUE BOX", "address": {"city": "HONOLULU", "state": "HI", "street": "1620 N SCHOOL ST", "postcode": "96817"}}},
{"geometry": {"type": "Point", "coordinates": [-157.8702895825, 21.3163447351]}, "type": "Feature", "properties": {"collection_times": [{"days": "Mon-Fri", "time": "3:30pm"}, {"days": "Sat", "time": "2:00pm"}, {"days": "Sun", "time": "Closed"}], "id": "9681700004", "name": "USPS COLLECTION BOX - BLUE BOX", "address": {"city": "HONOLULU", "state": "HI", "street": "680 IWILEI RD", "postcode": "96817"}}},
{"geometry": {"type": "Point", "coordinates": [-157.862735707, 21.3123565031]}, "type": "Feature", "properties": {"collection_times": [{"days": "Mon-Fri", "time": "4:00pm"}, {"days": "Sat-Sun", "time": "Closed"}], "id": "9681700006", "name": "USPS COLLECTION BOX - BLUE BOX", "address": {"city": "HONOLULU", "state": "HI", "street": "1100 MAUNAKEA ST", "postcode": "96817"}}},
{"geometry": {"type": "Point", "coordinates": [-157.858069541, 21.3141408623]}, "type": "Feature", "properties": {"collection_times": [{"days": "Mon-Sat", "time": "1:00pm"}, {"days": "Sun", "time": "Closed"}], "id": "9681700009", "name": "USPS COLLECTION BOX - BLUE BOX", "address": {"city": "HONOLULU", "state": "HI", "street": "1365 NUUANU AVE", "postcode": "96817"}}},
{"geometry": {"type": "Point", "coordinates": [-157.8522020646, 21.3282630264]}, "type": "Feature", "properties": {"collection_times": [{"days": "Mon-Sat", "time": "1:00pm"}, {"days": "Sun", "time": "Closed"}], "id": "9681700013", "name": "USPS COLLECTION BOX - BLUE BOX", "address": {"city": "HONOLULU", "state": "HI", "street": "2230 LILIHA ST", "postcode": "96817"}}},
{"geometry": {"type": "Point", "coordinates": [-157.8595973527, 21.3219818876]}, "type": "Feature", "properties": {"collection_times": [{"days": "Mon-Sat", "time": "1:00pm"}, {"days": "Sun", "time": "Closed"}], "id": "9681700014", "name": "USPS COLLECTION BOX - BLUE BOX", "address": {"city": "HONOLULU", "state": "HI", "street": "1610 LILIHA ST", "postcode": "96817"}}},
{"geometry": {"type": "Point", "coordinates": [-157.8617402627, 21.3202260032]}, "type": "Feature", "properties": {"collection_times": [{"days": "Mon-Sat", "time": "1:00pm"}, {"days": "Sun", "time": "Closed"}], "id": "9681700015", "name": "USPS COLLECTION BOX - BLUE BOX", "address": {"city": "HONOLULU", "state": "HI", "street": "1420 LILIHA ST", "postcode": "96817"}}},
{"geometry": {"type": "Point", "coordinates": [-157.8575646844, 21.3236555753]}, "type": "Feature", "properties": {"collection_times": [{"days": "Mon-Sat", "time": "1:00pm"}, {"days": "Sun", "time": "Closed"}], "id": "9681700016", "name": "USPS COLLECTION BOX - BLUE BOX", "address": {"city": "HONOLULU", "state": "HI", "street": "505 N KUAKINI ST", "postcode": "96817"}}},
{"geometry": {"type": "Point", "coordinates": [-157.8642931472, 21.3155100431]}, "type": "Feature", "properties": {"collection_times": [{"days": "Mon-Fri", "time": "3:30pm"}, {"days": "Sat-Sun", "time": "Closed"}], "id": "9681700019", "name": "USPS COLLECTION BOX - BLUE BOX", "address": {"city": "HONOLULU", "state": "HI", "street": "333 N KING ST", "postcode": "96817"}}},
{"geometry": {"type": "Point", "coordinates": [-157.8634509992, 21.3111547283]}, "type": "Feature", "properties": {"collection_times": [{"days": "Mon-Fri", "time": "3:30pm"}, {"days": "Sat", "time": "2:00pm"}, {"days": "Sun", "time": "Closed"}], "id": "9681700021", "name": "USPS COLLECTION BOX - BLUE BOX", "address": {"city": "HONOLULU", "state": "HI", "street": "999 SMITH ST", "postcode": "96817"}}},
{"geometry": {"type": "Point", "coordinates": [-157.862890282, 21.3106216816]}, "type": "Feature", "properties": {"collection_times": [{"days": "Mon-Fri", "time": "4:15pm"}, {"days": "Sat", "time": "2:00pm"}, {"days": "Sun", "time": "Closed"}], "id": "9681700022", "name": "USPS COLLECTION BOX - BLUE BOX", "address": {"city": "HONOLULU", "state": "HI", "street": "1002 NUUANU AVE", "postcode": "96817"}}},
{"geometry": {"type": "Point", "coordinates": [-157.8787275534, 21.3253103609]}, "type": "Feature", "properties": {"collection_times": [{"days": "Mon-Fri", "time": "3:00pm"}, {"days": "Sat-Sun", "time": "Closed"}], "id": "9681700030", "name": "USPS COLLECTION BOX - BLUE BOX", "address": {"city": "HONOLULU", "state": "HI", "street": "1535 COLBURN ST", "postcode": "96817"}}},
{"geometry": {"type": "Point", "coordinates": [-157.8607158202, 21.3117950547]}, "type": "Feature", "properties": {"collection_times": [{"days": "Mon-Fri", "time": "4:00pm"}, {"days": "Sat", "time": "2:00pm"}, {"days": "Sun", "time": "Closed"}], "id": "9681700032", "name": "USPS COLLECTION BOX - BLUE BOX", "address": {"city": "HONOLULU", "state": "HI", "street": "1170 NUUANU AVE", "postcode": "96817"}}},
{"geometry": {"type": "Point", "coordinates": [-157.8607158202, 21.3117950547]}, "type": "Feature", "properties": {"collection_times": [{"days": "Mon-Fri", "time": "4:00pm"}, {"days": "Sat", "time": "2:00pm"}, {"days": "Sun", "time": "Closed"}], "id": "9681700033", "name": "USPS COLLECTION BOX - BLUE BOX", "address": {"city": "HONOLULU", "state": "HI", "street": "1170 NUUANU AVE", "postcode": "96817"}}},
{"geometry": {"type": "Point", "coordinates": [-157.8704468407, 21.3272243885]}, "type": "Feature", "properties": {"collection_times": [{"days": "Mon-Sat", "time": "5:00pm"}, {"days": "Sun", "time": "Closed"}], "id": "9681700034", "name": "USPS COLLECTION BOX - BLUE BOX", "address": {"city": "HONOLULU", "state": "HI", "street": "1271 N KING ST", "postcode": "96817"}}},
{"geometry": {"type": "Point", "coordinates": [-157.8600471299, 21.32354398]}, "type": "Feature", "properties": {"collection_times": [{"days": "Mon-Sat", "time": "5:00pm"}, {"days": "Sun", "time": "Closed"}], "id": "9681700039", "name": "USPS COLLECTION BOX - EXPRESS", "address": {"city": "HONOLULU", "state": "HI", "street": "1271 N KING ST", "postcode": "96817"}}},
{"geometry": {"type": "Point", "coordinates": [-157.8615344278, 21.3137362903]}, "type": "Feature", "properties": {"collection_times": [{"days": "Mon-Fri", "time": "4:30pm"}, {"days": "Sat", "time": "2:00pm"}, {"days": "Sun", "time": "Closed"}], "id": "9681700041", "name": "USPS COLLECTION BOX - BLUE BOX", "address": {"city": "HONOLULU", "state": "HI", "street": "100 N BERETANIA ST", "postcode": "96817"}}},
{"geometry": {"type": "Point", "coordinates": [-157.8702895825, 21.3163447351]}, "type": "Feature", "properties": {"collection_times": [{"days": "Mon-Fri", "time": "3:30pm"}, {"days": "Sat", "time": "2:00pm"}, {"days": "Sun", "time": "Closed"}], "id": "9681700043", "name": "USPS COLLECTION BOX - BLUE BOX", "address": {"city": "HONOLULU", "state": "HI", "street": "680 IWILEI RD", "postcode": "96817"}}},
{"geometry": {"type": "Point", "coordinates": [-157.8646053893, 21.3296944068]}, "type": "Feature", "properties": {"collection_times": [{"days": "Mon-Fri", "time": "12:00pm"}, {"days": "Sat-Sun", "time": "Closed"}], "id": "9681700044", "name": "USPS COLLECTION BOX - BLUE BOX", "address": {"city": "HONOLULU", "state": "HI", "street": "1135 N SCHOOL ST", "postcode": "96817"}}},
{"geometry": {"type": "Point", "coordinates": [-157.8567439812, 21.3227006882]}, "type": "Feature", "properties": {"collection_times": [{"days": "Mon-Sat", "time": "1:00pm"}, {"days": "Sun", "time": "Closed"}], "id": "9681700048", "name": "USPS COLLECTION BOX - BLUE BOX", "address": {"city": "HONOLULU", "state": "HI", "street": "405 N KUAKINI ST", "postcode": "96817"}}},
{"geometry": {"type": "Point", "coordinates": [-157.870662921, 21.327463761]}, "type": "Feature", "properties": {"collection_times": [{"days": "Mon-Sat", "time": "5:00pm"}, {"days": "Sun", "time": "Closed"}], "id": "9681700049", "name": "USPS COLLECTION BOX - PO LOBBY", "address": {"city": "HONOLULU", "state": "HI", "street": "1271 N KING ST", "postcode": "96817"}}},
{"geometry": {"type": "Point", "coordinates": [-157.8704468407, 21.3272243885]}, "type": "Feature", "properties": {"collection_times": [{"days": "Mon-Sat", "time": "5:00pm"}, {"days": "Sun", "time": "Closed"}], "id": "9681700050", "name": "USPS COLLECTION BOX - BLUE BOX", "address": {"city": "HONOLULU", "state": "HI", "street": "1271 N KING ST", "postcode": "96817"}}},
{"geometry": {"type": "Point", "coordinates": [-157.8704468407, 21.3272243885]}, "type": "Feature", "properties": {"collection_times": [{"days": "Mon-Sat", "time": "5:00pm"}, {"days": "Sun", "time": "Closed"}], "id": "9681700051", "name": "USPS COLLECTION BOX - BLUE BOX", "address": {"city": "HONOLULU", "state": "HI", "street": "1271 N KING ST", "postcode": "96817"}}},
{"geometry": {"type": "Point", "coordinates": [-157.8737733213, 21.3224014648]}, "type": "Feature", "properties": {"collection_times": [{"days": "Mon-Fri", "time": "11:00am"}, {"days": "Sat-Sun", "time": "Closed"}], "id": "9681700052", "name": "USPS COLLECTION BOX - BLUE BOX", "address": {"city": "HONOLULU", "state": "HI", "street": "1199 DILLINGHAM BLVD", "postcode": "96817"}}},
{"geometry": {"type": "Point", "coordinates": [-157.9245480538, 21.3657505313]}, "type": "Feature", "properties": {"collection_times": [{"days": "Mon-Fri", "time": "9:00am"}, {"days": "Sat-Sun", "time": "Closed"}], "id": "9681800001", "name": "USPS COLLECTION BOX - BLUE BOX", "address": {"city": "HONOLULU", "state": "HI", "street": "1227 ALA ALII ST", "postcode": "96818"}}},
{"geometry": {"type": "Point", "coordinates": [-157.9286247626, 21.3647360172]}, "type": "Feature", "properties": {"collection_times": [{"days": "Mon-Sat", "time": "9:00am"}, {"days": "Sun", "time": "Closed"}], "id": "9681800015", "name": "USPS COLLECTION BOX - BLUE BOX", "address": {"city": "HONOLULU", "state": "HI", "street": "4510 SALT LAKE BLVD", "postcode": "96818"}}},
{"geometry": {"type": "Point", "coordinates": [-157.9262836868, 21.361226178]}, "type": "Feature", "properties": {"collection_times": [{"days": "Mon-Sat", "time": "10:00am"}, {"days": "Sun", "time": "Closed"}], "id": "9681800017", "name": "USPS COLLECTION BOX - BLUE BOX", "address": {"city": "HONOLULU", "state": "HI", "street": "1040 ALA OLI ST", "postcode": "96818"}}},
{"geometry": {"type": "Point", "coordinates": [-157.9145375793, 21.3537486866]}, "type": "Feature", "properties": {"collection_times": [{"days": "Mon-Fri", "time": "3:00pm"}, {"days": "Sat", "time": "2:00pm"}, {"days": "Sun", "time": "Closed"}], "id": "9681800022", "name": "USPS COLLECTION BOX - BLUE BOX", "address": {"city": "HONOLULU", "state": "HI", "street": "1300 FREEDOM AVE", "postcode": "96818"}}},
{"geometry": {"type": "Point", "coordinates": [-157.9294173451, 21.3661650317]}, "type": "Feature", "properties": {"collection_times": [{"days": "Mon-Sat", "time": "9:00am"}, {"days": "Sun", "time": "Closed"}], "id": "9681800030", "name": "USPS COLLECTION BOX - BLUE BOX", "address": {"city": "HONOLULU", "state": "HI", "street": "4561 SALT LAKE BLVD", "postcode": "96818"}}},
{"geometry": {"type": "Point", "coordinates": [-157.9295920004, 21.3568022265]}, "type": "Feature", "properties": {"collection_times": [{"days": "Mon-Sat", "time": "2:00pm"}, {"days": "Sun", "time": "Closed"}], "id": "9681800036", "name": "USPS COLLECTION BOX - BLUE BOX", "address": {"city": "HONOLULU", "state": "HI", "street": "4725 BOUGAINVILLE DR", "postcode": "96818"}}},
{"geometry": {"type": "Point", "coordinates": [-157.9009936663, 21.3577445709]}, "type": "Feature", "properties": {"collection_times": [{"days": "Mon-Sat", "time": "9:30am"}, {"days": "Sun", "time": "Closed"}], "id": "9681800037", "name": "USPS COLLECTION BOX - BLUE BOX", "address": {"city": "HONOLULU", "state": "HI", "street": "1554 ALA NAPUNANI ST", "postcode": "96818"}}},
{"geometry": {"type": "Point", "coordinates": [-157.9145375793, 21.3537486866]}, "type": "Feature", "properties": {"collection_times": [{"days": "Mon-Fri", "time": "9:00am"}, {"days": "Sat-Sun", "time": "Closed"}], "id": "9681800039", "name": "USPS COLLECTION BOX - BLUE BOX", "address": {"city": "HONOLULU", "state": "HI", "street": "400 RUSSELL AVE", "postcode": "96818"}}},
{"geometry": {"type": "Point", "coordinates": [-157.9145375793, 21.3537486866]}, "type": "Feature", "properties": {"collection_times": [{"days": "Mon-Sat", "time": "9:00am"}, {"days": "Sun", "time": "Closed"}], "id": "9681800040", "name": "USPS COLLECTION BOX - BLUE BOX", "address": {"city": "HONOLULU", "state": "HI", "street": "852 TICONDEROGA ST", "postcode": "96818"}}},
{"geometry": {"type": "Point", "coordinates": [-157.9145375793, 21.3537486866]}, "type": "Feature", "properties": {"collection_times": [{"days": "Mon-Fri", "time": "8:30am"}, {"days": "Sat-Sun", "time": "Closed"}], "id": "9681800042", "name": "USPS COLLECTION BOX - BLUE BOX", "address": {"city": "HONOLULU", "state": "HI", "street": "1477 NORTH RD", "postcode": "96818"}}},
{"geometry": {"type": "Point", "coordinates": [-157.8736246541, 21.3539689083]}, "type": "Feature", "properties": {"collection_times": [{"days": "Mon-Fri", "time": "12:00pm"}, {"days": "Sat-Sun", "time": "Closed"}], "id": "9681900011", "name": "USPS COLLECTION BOX - BLUE BOX", "address": {"city": "HONOLULU", "state": "HI", "street": "G WING TRIPLER HOSPITAL", "postcode": "96819"}}},
{"geometry": {"type": "Point", "coordinates": [-157.896814996, 21.3458713706]}, "type": "Feature", "properties": {"collection_times": [{"days": "Mon-Fri", "time": "1:00pm"}, {"days": "Sat-Sun", "time": "Closed"}], "id": "9681900019", "name": "USPS COLLECTION BOX - BLUE BOX", "address": {"city": "HONOLULU", "state": "HI", "street": "2886 PAA ST", "postcode": "96819"}}},
{"geometry": {"type": "Point", "coordinates": [-157.8982605719, 21.344189203]}, "type": "Feature", "properties": {"collection_times": [{"days": "Mon-Fri", "time": "1:00pm"}, {"days": "Sat-Sun", "time": "Closed"}], "id": "9681900024", "name": "USPS COLLECTION BOX - BLUE BOX", "address": {"city": "HONOLULU", "state": "HI", "street": "960 MAPUNAPUNA ST", "postcode": "96819"}}},
{"geometry": {"type": "Point", "coordinates": [-157.8802121669, 21.3343943027]}, "type": "Feature", "properties": {"collection_times": [{"days": "Mon-Sat", "time": "1:00pm"}, {"days": "Sun", "time": "Closed"}], "id": "9681900029", "name": "USPS COLLECTION BOX - BLUE BOX", "address": {"city": "HONOLULU", "state": "HI", "street": "2153 N KING ST", "postcode": "96819"}}},
{"geometry": {"type": "Point", "coordinates": [-157.8774688851, 21.331820184]}, "type": "Feature", "properties": {"collection_times": [{"days": "Mon-Sat", "time": "1:00pm"}, {"days": "Sun", "time": "Closed"}], "id": "9681900030", "name": "USPS COLLECTION BOX - BLUE BOX", "address": {"city": "HONOLULU", "state": "HI", "street": "1881 N KING ST", "postcode": "96819"}}},
{"geometry": {"type": "Point", "coordinates": [-157.8790983316, 21.3333636415]}, "type": "Feature", "properties": {"collection_times": [{"days": "Mon-Sat", "time": "1:00pm"}, {"days": "Sun", "time": "Closed"}], "id": "9681900032", "name": "USPS COLLECTION BOX - BLUE BOX", "address": {"city": "HONOLULU", "state": "HI", "street": "1001 GULICK AVE", "postcode": "96819"}}},
{"geometry": {"type": "Point", "coordinates": [-157.9188266076, 21.3352044496]}, "type": "Feature", "properties": {"collection_times": [{"days": "Mon-Fri", "time": "12:30pm"}, {"days": "Sat", "time": "12:00pm"}, {"days": "Sun", "time": "Closed"}], "id": "9681900037", "name": "USPS COLLECTION BOX - BLUE BOX", "address": {"city": "HONOLULU", "state": "HI", "street": "400 RODGERS BLVD", "postcode": "96819"}}},
{"geometry": {"type": "Point", "coordinates": [-157.9165609471, 21.3362338039]}, "type": "Feature", "properties": {"collection_times": [{"days": "Mon-Sat", "time": "11:00am"}, {"days": "Sun", "time": "Closed"}], "id": "9681900038", "name": "USPS COLLECTION BOX - BLUE BOX", "address": {"city": "HONOLULU", "state": "HI", "street": "3375 KOAPAKA ST", "postcode": "96819"}}},
{"geometry": {"type": "Point", "coordinates": [-157.880952188, 21.3253310589]}, "type": "Feature", "properties": {"collection_times": [{"days": "Mon-Sat", "time": "2:00pm"}, {"days": "Sun", "time": "Closed"}], "id": "9681900039", "name": "USPS COLLECTION BOX - BLUE BOX", "address": {"city": "HONOLULU", "state": "HI", "street": "421 KALIHI ST", "postcode": "96819"}}},
{"geometry": {"type": "Point", "coordinates": [-157.8736246541, 21.3539689083]}, "type": "Feature", "properties": {"collection_times": [{"days": "Mon-Fri", "time": "2:00pm"}, {"days": "Sat-Sun", "time": "Closed"}], "id": "9681900043", "name": "USPS COLLECTION BOX - BLUE BOX", "address": {"city": "HONOLULU", "state": "HI", "street": "BLDG 434", "postcode": "96819"}}},
{"geometry": {"type": "Point", "coordinates": [-157.8736246541, 21.3539689083]}, "type": "Feature", "properties": {"collection_times": [{"days": "Mon-Sat", "time": "11:00am"}, {"days": "Sun", "time": "Closed"}], "id": "9681900044", "name": "USPS COLLECTION BOX - BLUE BOX", "address": {"city": "HONOLULU", "state": "HI", "street": "T-550 FORT SHAFTER EXCHANGE", "postcode": "96819"}}},
{"geometry": {"type": "Point", "coordinates": [-157.8898769417, 21.3496189846]}, "type": "Feature", "properties": {"collection_times": [{"days": "Mon-Fri", "time": "1:00pm"}, {"days": "Sat", "time": "12:00pm"}, {"days": "Sun", "time": "Closed"}], "id": "9681900046", "name": "USPS COLLECTION BOX - BLUE BOX", "address": {"city": "HONOLULU", "state": "HI", "street": "1401 MAHIOLE ST", "postcode": "96819"}}},
{"geometry": {"type": "Point", "coordinates": [-157.8736246541, 21.3539689083]}, "type": "Feature", "properties": {"collection_times": [{"days": "Mon-Fri", "time": "11:00am"}, {"days": "Sat", "time": "2:00pm"}, {"days": "Sun", "time": "Closed"}], "id": "9681900049", "name": "USPS COLLECTION BOX - BLUE BOX", "address": {"city": "HONOLULU", "state": "HI", "street": "1 JARRETT WHITE RD", "postcode": "96819"}}},
{"geometry": {"type": "Point", "coordinates": [-157.8869888335, 21.3222911644]}, "type": "Feature", "properties": {"collection_times": [{"days": "Mon-Fri", "time": "1:00pm"}, {"days": "Sat-Sun", "time": "Closed"}], "id": "9681900050", "name": "USPS COLLECTION BOX - BLUE BOX", "address": {"city": "HONOLULU", "state": "HI", "street": "120 MOKAUEA ST", "postcode": "96819"}}},
{"geometry": {"type": "Point", "coordinates": [-157.9229063244, 21.336970047]}, "type": "Feature", "properties": {"collection_times": [{"days": "Mon-Sat", "time": "8:00pm"}, {"days": "Sun", "time": "Closed"}], "id": "9682000005", "name": "USPS COLLECTION BOX - EXPRESS", "address": {"city": "HONOLULU", "state": "HI", "street": "3600 AOLELE ST", "postcode": "96820"}}},
{"geometry": {"type": "Point", "coordinates": [-157.9229063244, 21.336970047]}, "type": "Feature", "properties": {"collection_times": [{"days": "Mon-Sat", "time": "8:00pm"}, {"days": "Sun", "time": "Closed"}], "id": "9682000010", "name": "USPS COLLECTION BOX - EXPRESS", "address": {"city": "HONOLULU", "state": "HI", "street": "3600 AOLELE ST", "postcode": "96820"}}},
{"geometry": {"type": "Point", "coordinates": [-157.9229063244, 21.336970047]}, "type": "Feature", "properties": {"collection_times": [{"days": "Mon-Sat", "time": "8:00pm"}, {"days": "Sun", "time": "Closed"}], "id": "9682000011", "name": "USPS COLLECTION BOX - BLUE BOX", "address": {"city": "HONOLULU", "state": "HI", "street": "3600 AOLELE ST", "postcode": "96820"}}},
{"geometry": {"type": "Point", "coordinates": [-157.9229063244, 21.336970047]}, "type": "Feature", "properties": {"collection_times": [{"days": "Mon-Sat", "time": "8:00pm"}, {"days": "Sun", "time": "Closed"}], "id": "9682000017", "name": "USPS COLLECTION BOX - BLUE BOX", "address": {"city": "HONOLULU", "state": "HI", "street": "3600 AOLELE ST", "postcode": "96820"}}},
{"geometry": {"type": "Point", "coordinates": [-157.9229063244, 21.336970047]}, "type": "Feature", "properties": {"collection_times": [{"days": "Mon-Sat", "time": "8:00pm"}, {"days": "Sun", "time": "Closed"}], "id": "9682000018", "name": "USPS COLLECTION BOX - APC", "address": {"city": "HONOLULU", "state": "HI", "street": "3600 AOLELE ST", "postcode": "96820"}}},
{"geometry": {"type": "Point", "coordinates": [-157.9229063244, 21.336970047]}, "type": "Feature", "properties": {"collection_times": [{"days": "Mon-Sat", "time": "8:00pm"}, {"days": "Sun", "time": "Closed"}], "id": "9682000019", "name": "USPS COLLECTION BOX - PO LOBBY", "address": {"city": "HONOLULU", "state": "HI", "street": "3600 AOLELE ST", "postcode": "96820"}}},
{"geometry": {"type": "Point", "coordinates": [-157.9229063244, 21.336970047]}, "type": "Feature", "properties": {"collection_times": [{"days": "Mon-Sat", "time": "8:00pm"}, {"days": "Sun", "time": "Closed"}], "id": "9682000020", "name": "USPS COLLECTION BOX - BLUE BOX", "address": {"city": "HONOLULU", "state": "HI", "street": "3600 AOLELE ST", "postcode": "96820"}}},
{"geometry": {"type": "Point", "coordinates": [-157.9229063244, 21.336970047]}, "type": "Feature", "properties": {"collection_times": [{"days": "Mon-Sat", "time": "8:00pm"}, {"days": "Sun", "time": "Closed"}], "id": "9682000021", "name": "USPS COLLECTION BOX - PO LOBBY", "address": {"city": "HONOLULU", "state": "HI", "street": "3600 AOLELE ST", "postcode": "96820"}}},
{"geometry": {"type": "Point", "coordinates": [-157.9229063244, 21.336970047]}, "type": "Feature", "properties": {"collection_times": [{"days": "Mon-Sat", "time": "8:00pm"}, {"days": "Sun", "time": "Closed"}], "id": "9682000022", "name": "USPS COLLECTION BOX - APC", "address": {"city": "HONOLULU", "state": "HI", "street": "3600 AOLELE ST", "postcode": "96820"}}},
{"geometry": {"type": "Point", "coordinates": [-157.7357897388, 21.2818381202]}, "type": "Feature", "properties": {"collection_times": [{"days": "Mon-Sat", "time": "10:30am"}, {"days": "Sun", "time": "Closed"}], "id": "9682100002", "name": "USPS COLLECTION BOX - BLUE BOX", "address": {"city": "HONOLULU", "state": "HI", "street": "5740 KALANIANAOLE HWY", "postcode": "96821"}}},
{"geometry": {"type": "Point", "coordinates": [-157.7552550285, 21.27854681]}, "type": "Feature", "properties": {"collection_times": [{"days": "Mon-Fri", "time": "4:30pm"}, {"days": "Sat", "time": "12:00pm"}, {"days": "Sun", "time": "Closed"}], "id": "9682100003", "name": "USPS COLLECTION BOX - BLUE BOX", "address": {"city": "HONOLULU", "state": "HI", "street": "820 W HIND DR STE 128", "postcode": "96821"}}},
{"geometry": {"type": "Point", "coordinates": [-157.7552550285, 21.27854681]}, "type": "Feature", "properties": {"collection_times": [{"days": "Mon-Fri", "time": "4:30pm"}, {"days": "Sat", "time": "12:00pm"}, {"days": "Sun", "time": "Closed"}], "id": "9682100005", "name": "USPS COLLECTION BOX - APC", "address": {"city": "HONOLULU", "state": "HI", "street": "820 W HIND DR", "postcode": "96821"}}},
{"geometry": {"type": "Point", "coordinates": [-157.8272582769, 21.2995588922]}, "type": "Feature", "properties": {"collection_times": [{"days": "Mon-Fri", "time": "10:00am"}, {"days": "Sat-Sun", "time": "Closed"}], "id": "9682200001", "name": "USPS COLLECTION BOX - BLUE BOX", "address": {"city": "HONOLULU", "state": "HI", "street": "2030 WILDER AVE", "postcode": "96822"}}},
{"geometry": {"type": "Point", "coordinates": [-157.8335314232, 21.3033345322]}, "type": "Feature", "properties": {"collection_times": [{"days": "Mon-Fri", "time": "10:00am"}, {"days": "Sat-Sun", "time": "Closed"}], "id": "9682200002", "name": "USPS COLLECTION BOX - BLUE BOX", "address": {"city": "HONOLULU", "state": "HI", "street": "1550 WILDER AVE", "postcode": "96822"}}},
{"geometry": {"type": "Point", "coordinates": [-157.8469698371, 21.3081456263]}, "type": "Feature", "properties": {"collection_times": [{"days": "Mon-Sat", "time": "11:00am"}, {"days": "Sun", "time": "Closed"}], "id": "9682200004", "name": "USPS COLLECTION BOX - BLUE BOX", "address": {"city": "HONOLULU", "state": "HI", "street": "927 PROSPECT ST", "postcode": "96822"}}},
{"geometry": {"type": "Point", "coordinates": [-157.8183040777, 21.3000732715]}, "type": "Feature", "properties": {"collection_times": [{"days": "Mon-Sat", "time": "10:00am"}, {"days": "Sun", "time": "Closed"}], "id": "9682200007", "name": "USPS COLLECTION BOX - BLUE BOX", "address": {"city": "HONOLULU", "state": "HI", "street": "2600 CAMPUS RD", "postcode": "96822"}}},
{"geometry": {"type": "Point", "coordinates": [-157.8378644636, 21.305526174]}, "type": "Feature", "properties": {"collection_times": [{"days": "Mon-Sat", "time": "12:00pm"}, {"days": "Sun", "time": "Closed"}], "id": "9682200008", "name": "USPS COLLECTION BOX - BLUE BOX", "address": {"city": "HONOLULU", "state": "HI", "street": "1600 KEWALO ST", "postcode": "96822"}}},
{"geometry": {"type": "Point", "coordinates": [-157.814598963, 21.298532249]}, "type": "Feature", "properties": {"collection_times": [{"days": "Mon-Fri", "time": "11:00am"}, {"days": "Sat", "time": "10:00am"}, {"days": "Sun", "time": "Closed"}], "id": "9682200010", "name": "USPS COLLECTION BOX - BLUE BOX", "address": {"city": "HONOLULU", "state": "HI", "street": "1777 EAST WEST RD", "postcode": "96822"}}},
{"geometry": {"type": "Point", "coordinates": [-157.8204380709, 21.2993368435]}, "type": "Feature", "properties": {"collection_times": [{"days": "Mon-Fri", "time": "3:00pm"}, {"days": "Sat", "time": "10:00am"}, {"days": "Sun", "time": "Closed"}], "id": "9682200015", "name": "USPS COLLECTION BOX - BLUE BOX", "address": {"city": "HONOLULU", "state": "HI", "street": "2440 CAMPUS RD", "postcode": "96822"}}},
{"geometry": {"type": "Point", "coordinates": [-157.8204380709, 21.2993368435]}, "type": "Feature", "properties": {"collection_times": [{"days": "Mon-Fri", "time": "3:00pm"}, {"days": "Sat", "time": "10:00am"}, {"days": "Sun", "time": "Closed"}], "id": "9682200016", "name": "USPS COLLECTION BOX - BLUE BOX", "address": {"city": "HONOLULU", "state": "HI", "street": "2440 CAMPUS RD", "postcode": "96822"}}},
{"geometry": {"type": "Point", "coordinates": [-157.8439692124, 21.3042234138]}, "type": "Feature", "properties": {"collection_times": [{"days": "Mon-Fri", "time": "5:00pm"}, {"days": "Sat", "time": "2:00pm"}, {"days": "Sun", "time": "Closed"}], "id": "9682200018", "name": "USPS COLLECTION BOX - BLUE BOX", "address": {"city": "HONOLULU", "state": "HI", "street": "1111 LUNALILO ST", "postcode": "96822"}}},
{"geometry": {"type": "Point", "coordinates": [-157.8439692124, 21.3042234138]}, "type": "Feature", "properties": {"collection_times": [{"days": "Mon-Fri", "time": "5:00pm"}, {"days": "Sat", "time": "2:00pm"}, {"days": "Sun", "time": "Closed"}], "id": "9682200019", "name": "USPS COLLECTION BOX - BLUE BOX", "address": {"city": "HONOLULU", "state": "HI", "street": "1111 LUNALILO ST", "postcode": "96822"}}},
{"geometry": {"type": "Point", "coordinates": [-157.8282981747, 21.3071633093]}, "type": "Feature", "properties": {"collection_times": [{"days": "Mon-Fri", "time": "5:00pm"}, {"days": "Sat", "time": "2:00pm"}, {"days": "Sun", "time": "Closed"}], "id": "9682200020", "name": "USPS COLLECTION BOX - EXPRESS", "address": {"city": "HONOLULU", "state": "HI", "street": "1111 LUNALILO ST", "postcode": "96822"}}},
{"geometry": {"type": "Point", "coordinates": [-157.8439692124, 21.3042234138]}, "type": "Feature", "properties": {"collection_times": [{"days": "Mon-Fri", "time": "5:00pm"}, {"days": "Sat", "time": "2:00pm"}, {"days": "Sun", "time": "Closed"}], "id": "9682200024", "name": "USPS COLLECTION BOX - BLUE BOX", "address": {"city": "HONOLULU", "state": "HI", "street": "1111 LUNALILO ST", "postcode": "96822"}}},
{"geometry": {"type": "Point", "coordinates": [-157.8091233042, 21.3079802882]}, "type": "Feature", "properties": {"collection_times": [{"days": "Mon-Fri", "time": "3:00pm"}, {"days": "Sat", "time": "2:00pm"}, {"days": "Sun", "time": "Closed"}], "id": "9682200026", "name": "USPS COLLECTION BOX - BLUE BOX", "address": {"city": "HONOLULU", "state": "HI", "street": "2754 WOODLAWN DR", "postcode": "96822"}}},
{"geometry": {"type": "Point", "coordinates": [-157.7968809516, 21.3275735643]}, "type": "Feature", "properties": {"collection_times": [{"days": "Mon-Fri", "time": "3:00pm"}, {"days": "Sat", "time": "10:00am"}, {"days": "Sun", "time": "Closed"}], "id": "9682200030", "name": "USPS COLLECTION BOX - BLUE BOX", "address": {"city": "HONOLULU", "state": "HI", "street": "1601 EAST WEST RD", "postcode": "96822"}}},
{"geometry": {"type": "Point", "coordinates": [-157.8439692124, 21.3042234138]}, "type": "Feature", "properties": {"collection_times": [{"days": "Mon-Fri", "time": "5:00pm"}, {"days": "Sat", "time": "2:00pm"}, {"days": "Sun", "time": "Closed"}], "id": "9682200031", "name": "USPS COLLECTION BOX - PO LOBBY", "address": {"city": "HONOLULU", "state": "HI", "street": "1111 LUNALILO ST", "postcode": "96822"}}},
{"geometry": {"type": "Point", "coordinates": [-157.8091233042, 21.3079802882]}, "type": "Feature", "properties": {"collection_times": [{"days": "Mon-Fri", "time": "3:00pm"}, {"days": "Sat", "time": "2:00pm"}, {"days": "Sun", "time": "Closed"}], "id": "9682200032", "name": "USPS COLLECTION BOX - BLUE BOX", "address": {"city": "HONOLULU", "state": "HI", "street": "2754 WOODLAWN DR", "postcode": "96822"}}},
{"geometry": {"type": "Point", "coordinates": [-157.8091233042, 21.3079802882]}, "type": "Feature", "properties": {"collection_times": [{"days": "Mon-Fri", "time": "3:00pm"}, {"days": "Sat", "time": "2:00pm"}, {"days": "Sun", "time": "Closed"}], "id": "9682200033", "name": "USPS COLLECTION BOX - BLUE BOX", "address": {"city": "HONOLULU", "state": "HI", "street": "2754 WOODLAWN DR", "postcode": "96822"}}},
{"geometry": {"type": "Point", "coordinates": [-157.8354040473, 21.3055726905]}, "type": "Feature", "properties": {"collection_times": [{"days": "Mon-Sat", "time": "10:00am"}, {"days": "Sun", "time": "Closed"}], "id": "9682200035", "name": "USPS COLLECTION BOX - BLUE BOX", "address": {"city": "HONOLULU", "state": "HI", "street": "1648 KEEAUMOKU ST", "postcode": "96822"}}},
{"geometry": {"type": "Point", "coordinates": [-157.8195030115, 21.3011132419]}, "type": "Feature", "properties": {"collection_times": [{"days": "Mon-Sat", "time": "10:00am"}, {"days": "Sun", "time": "Closed"}], "id": "9682200036", "name": "USPS COLLECTION BOX - BLUE BOX", "address": {"city": "HONOLULU", "state": "HI", "street": "2540 MAILE WAY", "postcode": "96822"}}},
{"geometry": {"type": "Point", "coordinates": [-157.8439692124, 21.3042234138]}, "type": "Feature", "properties": {"collection_times": [{"days": "Mon-Fri", "time": "5:00pm"}, {"days": "Sat", "time": "2:00pm"}, {"days": "Sun", "time": "Closed"}], "id": "9682200037", "name": "USPS COLLECTION BOX - APC", "address": {"city": "HONOLULU", "state": "HI", "street": "1111 LUNALILO ST", "postcode": "96822"}}},
{"geometry": {"type": "Point", "coordinates": [-157.8439692124, 21.3042234138]}, "type": "Feature", "properties": {"collection_times": [{"days": "Mon-Fri", "time": "5:00pm"}, {"days": "Sat", "time": "2:00pm"}, {"days": "Sun", "time": "Closed"}], "id": "9682200038", "name": "USPS COLLECTION BOX - BLUE BOX", "address": {"city": "HONOLULU", "state": "HI", "street": "1111 LUNALILO ST", "postcode": "96822"}}},
{"geometry": {"type": "Point", "coordinates": [-157.7143897111, 21.2826800686]}, "type": "Feature", "properties": {"collection_times": [{"days": "Mon-Sat", "time": "2:00pm"}, {"days": "Sun", "time": "Closed"}], "id": "9682500001", "name": "USPS COLLECTION BOX - BLUE BOX", "address": {"city": "HONOLULU", "state": "HI", "street": "6600 KALANIANAOLE HWY", "postcode": "96825"}}},
{"geometry": {"type": "Point", "coordinates": [-157.6733363031, 21.2966661925]}, "type": "Feature", "properties": {"collection_times": [{"days": "Mon-Sat", "time": "10:30am"}, {"days": "Sun", "time": "Closed"}], "id": "9682500002", "name": "USPS COLLECTION BOX - BLUE BOX", "address": {"city": "HONOLULU", "state": "HI", "street": "501 KEALAHOU ST", "postcode": "96825"}}},
{"geometry": {"type": "Point", "coordinates": [-157.7085529915, 21.2854612052]}, "type": "Feature", "properties": {"collection_times": [{"days": "Mon-Sat", "time": "2:00pm"}, {"days": "Sun", "time": "Closed"}], "id": "9682500003", "name": "USPS COLLECTION BOX - BLUE BOX", "address": {"city": "HONOLULU", "state": "HI", "street": "377 KEAHOLE ST", "postcode": "96825"}}},
{"geometry": {"type": "Point", "coordinates": [-157.706664989, 21.2775176357]}, "type": "Feature", "properties": {"collection_times": [{"days": "Mon-Sat", "time": "2:00pm"}, {"days": "Sun", "time": "Closed"}], "id": "9682500004", "name": "USPS COLLECTION BOX - BLUE BOX", "address": {"city": "HONOLULU", "state": "HI", "street": "7192 KALANIANAOLE HWY", "postcode": "96825"}}},
{"geometry": {"type": "Point", "coordinates": [-157.7096578752, 21.2849844727]}, "type": "Feature", "properties": {"collection_times": [{"days": "Mon-Sat", "time": "2:00pm"}, {"days": "Sun", "time": "Closed"}], "id": "9682500010", "name": "USPS COLLECTION BOX - BLUE BOX", "address": {"city": "HONOLULU", "state": "HI", "street": "333 KEAHOLE ST", "postcode": "96825"}}},
{"geometry": {"type": "Point", "coordinates": [-157.6982782301, 21.2924728457]}, "type": "Feature", "properties": {"collection_times": [{"days": "Mon-Fri", "time": "5:00pm"}, {"days": "Sat", "time": "4:00pm"}, {"days": "Sun", "time": "Closed"}], "id": "9682500014", "name": "USPS COLLECTION BOX - BLUE BOX", "address": {"city": "HONOLULU", "state": "HI", "street": "7040 HAWAII KAI DR", "postcode": "96825"}}},
{"geometry": {"type": "Point", "coordinates": [-157.6982782301, 21.2924728457]}, "type": "Feature", "properties": {"collection_times": [{"days": "Mon-Fri", "time": "5:00pm"}, {"days": "Sat", "time": "4:00pm"}, {"days": "Sun", "time": "Closed"}], "id": "9682500015", "name": "USPS COLLECTION BOX - APC", "address": {"city": "HONOLULU", "state": "HI", "street": "7040 HAWAII KAI DR", "postcode": "96825"}}},
{"geometry": {"type": "Point", "coordinates": [-157.7018010142, 21.2887286518]}, "type": "Feature", "properties": {"collection_times": [{"days": "Mon-Fri", "time": "5:00pm"}, {"days": "Sat-Sun", "time": "Closed"}], "id": "9682500017", "name": "USPS COLLECTION BOX - APC", "address": {"city": "HONOLULU", "state": "HI", "street": "7040 HAWAII KAI DR", "postcode": "96825"}}},
{"geometry": {"type": "Point", "coordinates": [-157.8227120805, 21.2909158289]}, "type": "Feature", "properties": {"collection_times": [{"days": "Mon-Fri", "time": "3:00pm"}, {"days": "Sat", "time": "10:00am"}, {"days": "Sun", "time": "Closed"}], "id": "9682600002", "name": "USPS COLLECTION BOX - BLUE BOX", "address": {"city": "HONOLULU", "state": "HI", "street": "909 UNIVERSITY AVE", "postcode": "96826"}}},
{"geometry": {"type": "Point", "coordinates": [-157.8343985321, 21.300167751]}, "type": "Feature", "properties": {"collection_times": [{"days": "Mon-Fri", "time": "3:00pm"}, {"days": "Sat", "time": "9:00am"}, {"days": "Sun", "time": "Closed"}], "id": "9682600003", "name": "USPS COLLECTION BOX - BLUE BOX", "address": {"city": "HONOLULU", "state": "HI", "street": "1319 PUNAHOU ST", "postcode": "96826"}}},
{"geometry": {"type": "Point", "coordinates": [-157.8231722516, 21.2923826981]}, "type": "Feature", "properties": {"collection_times": [{"days": "Mon-Fri", "time": "3:00pm"}, {"days": "Sat", "time": "10:00am"}, {"days": "Sun", "time": "Closed"}], "id": "9682600007", "name": "USPS COLLECTION BOX - BLUE BOX", "address": {"city": "HONOLULU", "state": "HI", "street": "2525 S KING ST", "postcode": "96826"}}},
{"geometry": {"type": "Point", "coordinates": [-157.8263299041, 21.2935268731]}, "type": "Feature", "properties": {"collection_times": [{"days": "Mon-Fri", "time": "3:00pm"}, {"days": "Sat-Sun", "time": "Closed"}], "id": "9682600008", "name": "USPS COLLECTION BOX - BLUE BOX", "address": {"city": "HONOLULU", "state": "HI", "street": "2320 S KING ST", "postcode": "96826"}}},
{"geometry": {"type": "Point", "coordinates": [-157.82992899, 21.2948265274]}, "type": "Feature", "properties": {"collection_times": [{"days": "Mon-Fri", "time": "3:00pm"}, {"days": "Sat", "time": "9:00am"}, {"days": "Sun", "time": "Closed"}], "id": "9682600009", "name": "USPS COLLECTION BOX - BLUE BOX", "address": {"city": "HONOLULU", "state": "HI", "street": "2002 S KING ST", "postcode": "96826"}}},
{"geometry": {"type": "Point", "coordinates": [-157.8325554821, 21.2957493993]}, "type": "Feature", "properties": {"collection_times": [{"days": "Mon-Fri", "time": "3:00pm"}, {"days": "Sat", "time": "10:00am"}, {"days": "Sun", "time": "Closed"}], "id": "9682600010", "name": "USPS COLLECTION BOX - BLUE BOX", "address": {"city": "HONOLULU", "state": "HI", "street": "1806 S KING ST", "postcode": "96826"}}},
{"geometry": {"type": "Point", "coordinates": [-157.836967919, 21.295671324]}, "type": "Feature", "properties": {"collection_times": [{"days": "Mon-Sat", "time": "10:00am"}, {"days": "Sun", "time": "Closed"}], "id": "9682600011", "name": "USPS COLLECTION BOX - BLUE BOX", "address": {"city": "HONOLULU", "state": "HI", "street": "1545 KALAKAUA AVE", "postcode": "96826"}}},
{"geometry": {"type": "Point", "coordinates": [-157.8367727193, 21.2990443853]}, "type": "Feature", "properties": {"collection_times": [{"days": "Mon-Fri", "time": "3:00pm"}, {"days": "Sat", "time": "10:00am"}, {"days": "Sun", "time": "Closed"}], "id": "9682600012", "name": "USPS COLLECTION BOX - BLUE BOX", "address": {"city": "HONOLULU", "state": "HI", "street": "1319 KALAKAUA AVE", "postcode": "96826"}}},
{"geometry": {"type": "Point", "coordinates": [-157.8253549055, 21.288960152]}, "type": "Feature", "properties": {"collection_times": [{"days": "Mon-Sat", "time": "11:00am"}, {"days": "Sun", "time": "Closed"}], "id": "9682600014", "name": "USPS COLLECTION BOX - BLUE BOX", "address": {"city": "HONOLULU", "state": "HI", "street": "2407 DATE ST", "postcode": "96826"}}},
{"geometry": {"type": "Point", "coordinates": [-157.8260385238, 21.2953245684]}, "type": "Feature", "properties": {"collection_times": [{"days": "Mon-Fri", "time": "3:00pm"}, {"days": "Sat-Sun", "time": "Closed"}], "id": "9682600017", "name": "USPS COLLECTION BOX - BLUE BOX", "address": {"city": "HONOLULU", "state": "HI", "street": "2305 S BERETANIA ST", "postcode": "96826"}}},
{"geometry": {"type": "Point", "coordinates": [-157.8201971098, 21.290913463]}, "type": "Feature", "properties": {"collection_times": [{"days": "Mon-Fri", "time": "3:00pm"}, {"days": "Sat", "time": "2:00pm"}, {"days": "Sun", "time": "Closed"}], "id": "9682600019", "name": "USPS COLLECTION BOX - BLUE BOX", "address": {"city": "HONOLULU", "state": "HI", "street": "2700 S KING ST", "postcode": "96826"}}},
{"geometry": {"type": "Point", "coordinates": [-157.8201971098, 21.290913463]}, "type": "Feature", "properties": {"collection_times": [{"days": "Mon-Fri", "time": "3:00pm"}, {"days": "Sat", "time": "2:00pm"}, {"days": "Sun", "time": "Closed"}], "id": "9682600020", "name": "USPS COLLECTION BOX - BLUE BOX", "address": {"city": "HONOLULU", "state": "HI", "street": "2700 S KING ST", "postcode": "96826"}}},
{"geometry": {"type": "Point", "coordinates": [-157.8276160088, 21.291112859]}, "type": "Feature", "properties": {"collection_times": [{"days": "Mon-Fri", "time": "3:00pm"}, {"days": "Sat", "time": "2:00pm"}, {"days": "Sun", "time": "Closed"}], "id": "9682600021", "name": "USPS COLLECTION BOX - EXPRESS", "address": {"city": "HONOLULU", "state": "HI", "street": "2700 S KING ST", "postcode": "96826"}}},
{"geometry": {"type": "Point", "coordinates": [-157.8343985321, 21.300167751]}, "type": "Feature", "properties": {"collection_times": [{"days": "Mon-Fri", "time": "3:00pm"}, {"days": "Sat", "time": "9:00am"}, {"days": "Sun", "time": "Closed"}], "id": "9682600022", "name": "USPS COLLECTION BOX - BLUE BOX", "address": {"city": "HONOLULU", "state": "HI", "street": "1319 PUNAHOU ST", "postcode": "96826"}}},
{"geometry": {"type": "Point", "coordinates": [-157.8320065152, 21.2975896584]}, "type": "Feature", "properties": {"collection_times": [{"days": "Mon-Fri", "time": "3:00pm"}, {"days": "Sat-Sun", "time": "Closed"}], "id": "9682600023", "name": "USPS COLLECTION BOX - BLUE BOX", "address": {"city": "HONOLULU", "state": "HI", "street": "1800 S BERETANIA ST", "postcode": "96826"}}},
{"geometry": {"type": "Point", "coordinates": [-157.8201971098, 21.290913463]}, "type": "Feature", "properties": {"collection_times": [{"days": "Mon-Fri", "time": "3:00pm"}, {"days": "Sat", "time": "2:00pm"}, {"days": "Sun", "time": "Closed"}], "id": "9682600024", "name": "USPS COLLECTION BOX - BLUE BOX", "address": {"city": "HONOLULU", "state": "HI", "street": "2700 S KING ST", "postcode": "96826"}}},
{"geometry": {"type": "Point", "coordinates": [-157.8201971098, 21.290913463]}, "type": "Feature", "properties": {"collection_times": [{"days": "Mon-Fri", "time": "3:00pm"}, {"days": "Sat-Sun", "time": "Closed"}], "id": "9682600027", "name": "USPS COLLECTION BOX - APC", "address": {"city": "HONOLULU", "state": "HI", "street": "2700 S KING ST", "postcode": "96826"}}},
{"geometry": {"type": "Point", "coordinates": [-157.8330333975, 21.2897293211]}, "type": "Feature", "properties": {"collection_times": [{"days": "Mon-Sat", "time": "9:00am"}, {"days": "Sun", "time": "Closed"}], "id": "9682600028", "name": "USPS COLLECTION BOX - BLUE BOX", "address": {"city": "HONOLULU", "state": "HI", "street": "1960 KAPIOLANI BLVD", "postcode": "96826"}}}
]}
