{"type": "FeatureCollection", "features": [
{"geometry": {"type": "Point", "coordinates": [-92.7831763077, 44.9035818902]}, "type": "Feature", "properties": {"collection_times": [{"days": "Mon-Fri", "time": "4:30pm"}, {"days": "Sat", "time": "10:00am"}, {"days": "Sun", "time": "Closed"}], "id": "5500100001", "name": "USPS COLLECTION BOX - BLUE BOX", "address": {"city": "AFTON", "state": "MN", "street": "3121 SAINT CROIX TRL S", "postcode": "55001"}}},
{"geometry": {"type": "Point", "coordinates": [-92.7831763077, 44.9035818902]}, "type": "Feature", "properties": {"collection_times": [{"days": "Mon-Fri", "time": "4:30pm"}, {"days": "Sat", "time": "10:00am"}, {"days": "Sun", "time": "Closed"}], "id": "5500100002", "name": "USPS COLLECTION BOX - PO LOBBY", "address": {"city": "AFTON", "state": "MN", "street": "3121 SAINT CROIX TRL S", "postcode": "55001"}}},
{"geometry": {"type": "Point", "coordinates": [-92.7794236703, 45.0176758281]}, "type": "Feature", "properties": {"collection_times": [{"days": "Mon-Fri", "time": "4:45pm"}, {"days": "Sat", "time": "11:00am"}, {"days": "Sun", "time": "Closed"}], "id": "5500300001", "name": "USPS COLLECTION BOX - BLUE BOX", "address": {"city": "BAYPORT", "state": "MN", "street": "209 3RD ST N", "postcode": "55003"}}},
{"geometry": {"type": "Point", "coordinates": [-92.784561055, 45.0276850854]}, "type": "Feature", "properties": {"collection_times": [{"days": "Mon-Fri", "time": "1:00pm"}, {"days": "Sat-Sun", "time": "Closed"}], "id": "5500300008", "name": "USPS COLLECTION BOX - BLUE BOX", "address": {"city": "BAYPORT", "state": "MN", "street": "950 HIGHWAY 95 N", "postcode": "55003"}}},
{"geometry": {"type": "Point", "coordinates": [-92.7794236703, 45.0176758281]}, "type": "Feature", "properties": {"collection_times": [{"days": "Mon-Fri", "time": "4:45pm"}, {"days": "Sat", "time": "11:00am"}, {"days": "Sun", "time": "Closed"}], "id": "5500300009", "name": "USPS COLLECTION BOX - PO LOBBY", "address": {"city": "BAYPORT", "state": "MN", "street": "209 3RD ST N", "postcode": "55003"}}},
{"geometry": {"type": "Point", "coordinates": [-93.2671969675, 45.4037161226]}, "type": "Feature", "properties": {"collection_times": [{"days": "Mon-Fri", "time": "4:45pm"}, {"days": "Sat", "time": "12:00pm"}, {"days": "Sun", "time": "Closed"}], "id": "5500500001", "name": "USPS COLLECTION BOX - BLUE BOX", "address": {"city": "BETHEL", "state": "MN", "street": "103 MAIN ST NW", "postcode": "55005"}}},
{"geometry": {"type": "Point", "coordinates": [-93.2349821302, 45.4111201897]}, "type": "Feature", "properties": {"collection_times": [{"days": "Mon-Sat", "time": "10:00am"}, {"days": "Sun", "time": "Closed"}], "id": "5500500002", "name": "USPS COLLECTION BOX - BLUE BOX", "address": {"city": "BETHEL", "state": "MN", "street": "24355 HIGHWAY 65 NE", "postcode": "55005"}}},
{"geometry": {"type": "Point", "coordinates": [-93.2671969675, 45.4037161226]}, "type": "Feature", "properties": {"collection_times": [{"days": "Mon-Fri", "time": "5:00pm"}, {"days": "Sat", "time": "12:00pm"}, {"days": "Sun", "time": "Closed"}], "id": "5500500003", "name": "USPS COLLECTION BOX - PO LOBBY", "address": {"city": "BETHEL", "state": "MN", "street": "103 MAIN ST NW", "postcode": "55005"}}},
{"geometry": {"type": "Point", "coordinates": [-93.1722345473, 45.723846449]}, "type": "Feature", "properties": {"collection_times": [{"days": "Mon-Fri", "time": "3:30pm"}, {"days": "Sat", "time": "10:30am"}, {"days": "Sun", "time": "Closed"}], "id": "5500600001", "name": "USPS COLLECTION BOX - BLUE BOX", "address": {"city": "BRAHAM", "state": "MN", "street": "120 2ND ST SW", "postcode": "55006"}}},
{"geometry": {"type": "Point", "coordinates": [-93.1722345473, 45.723846449]}, "type": "Feature", "properties": {"collection_times": [{"days": "Mon-Fri", "time": "3:30pm"}, {"days": "Sat", "time": "10:30am"}, {"days": "Sun", "time": "Closed"}], "id": "5500600002", "name": "USPS COLLECTION BOX - PO LOBBY", "address": {"city": "BRAHAM", "state": "MN", "street": "120 2ND ST SW", "postcode": "55006"}}},
{"geometry": {"type": "Point", "coordinates": [-93.072622627, 45.9491300234]}, "type": "Feature", "properties": {"collection_times": [{"days": "Mon-Fri", "time": "2:45pm"}, {"days": "Sat", "time": "10:00am"}, {"days": "Sun", "time": "Closed"}], "id": "5500700001", "name": "USPS COLLECTION BOX - BLUE BOX", "address": {"city": "BROOK PARK", "state": "MN", "street": "509 3RD ST N", "postcode": "55007"}}},
{"geometry": {"type": "Point", "coordinates": [-93.072622627, 45.9491300234]}, "type": "Feature", "properties": {"collection_times": [{"days": "Mon-Fri", "time": "12:00pm"}, {"days": "Sat", "time": "10:00am"}, {"days": "Sun", "time": "Closed"}], "id": "5500700003", "name": "USPS COLLECTION BOX - PO LOBBY", "address": {"city": "BROOK PARK", "state": "MN", "street": "509 3RD ST N", "postcode": "55007"}}},
{"geometry": {"type": "Point", "coordinates": [-93.224159454, 45.5713797904]}, "type": "Feature", "properties": {"collection_times": [{"days": "Mon-Fri", "time": "5:00pm"}, {"days": "Sat", "time": "3:30pm"}, {"days": "Sun", "time": "Closed"}], "id": "5500800001", "name": "USPS COLLECTION BOX - BLUE BOX", "address": {"city": "CAMBRIDGE", "state": "MN", "street": "209 MAIN ST S", "postcode": "55008"}}},
{"geometry": {"type": "Point", "coordinates": [-93.2253226469, 45.5723253044]}, "type": "Feature", "properties": {"collection_times": [{"days": "Mon-Sat", "time": "3:00pm"}, {"days": "Sun", "time": "Closed"}], "id": "5500800010", "name": "USPS COLLECTION BOX - BLUE BOX", "address": {"city": "CAMBRIDGE", "state": "MN", "street": "128 ASHLAND ST S", "postcode": "55008"}}},
{"geometry": {"type": "Point", "coordinates": [-93.2214486478, 45.5715195252]}, "type": "Feature", "properties": {"collection_times": [{"days": "Mon-Sat", "time": "3:00pm"}, {"days": "Sun", "time": "Closed"}], "id": "5500800013", "name": "USPS COLLECTION BOX - BLUE BOX", "address": {"city": "CAMBRIDGE", "state": "MN", "street": "300 3RD AVE NE", "postcode": "55008"}}},
{"geometry": {"type": "Point", "coordinates": [-93.224159454, 45.5713797904]}, "type": "Feature", "properties": {"collection_times": [{"days": "Mon-Fri", "time": "4:30pm"}, {"days": "Sat", "time": "3:30pm"}, {"days": "Sun", "time": "Closed"}], "id": "5500800014", "name": "USPS COLLECTION BOX - PO LOBBY", "address": {"city": "CAMBRIDGE", "state": "MN", "street": "209 MAIN ST S", "postcode": "55008"}}},
{"geometry": {"type": "Point", "coordinates": [-93.2738036242, 45.5725636725]}, "type": "Feature", "properties": {"collection_times": [{"days": "Mon-Sat", "time": "10:00am"}, {"days": "Sun", "time": "Closed"}], "id": "5500800017", "name": "USPS COLLECTION BOX - BLUE BOX", "address": {"city": "CAMBRIDGE", "state": "MN", "street": "100 WAL MART LN", "postcode": "55008"}}},
{"geometry": {"type": "Point", "coordinates": [-93.23081, 45.552208]}, "type": "Feature", "properties": {"collection_times": [{"days": "Mon-Sat", "time": "11:00am"}, {"days": "Sun", "time": "Closed"}], "id": "5500800018", "name": "USPS COLLECTION BOX - BLUE BOX", "address": {"city": "CAMBRIDGE", "state": "MN", "street": "2290 MAIN ST S", "postcode": "55008"}}},
{"geometry": {"type": "Point", "coordinates": [-93.2738036242, 45.5725636725]}, "type": "Feature", "properties": {"collection_times": [{"days": "Mon-Sat", "time": "9:30am"}, {"days": "Sun", "time": "Closed"}], "id": "5500800019", "name": "USPS COLLECTION BOX - BLUE BOX", "address": {"city": "CAMBRIDGE", "state": "MN", "street": "100 OPPORTUNITY BLVD N", "postcode": "55008"}}},
{"geometry": {"type": "Point", "coordinates": [-92.9048698745, 44.506808423]}, "type": "Feature", "properties": {"collection_times": [{"days": "Mon-Fri", "time": "5:00pm"}, {"days": "Sat", "time": "10:00am"}, {"days": "Sun", "time": "Closed"}], "id": "5500900001", "name": "USPS COLLECTION BOX - BLUE BOX", "address": {"city": "CANNON FALLS", "state": "MN", "street": "419 MAIN ST W", "postcode": "55009"}}},
{"geometry": {"type": "Point", "coordinates": [-92.9048698745, 44.506808423]}, "type": "Feature", "properties": {"collection_times": [{"days": "Mon-Fri", "time": "5:00pm"}, {"days": "Sat", "time": "10:30am"}, {"days": "Sun", "time": "Closed"}], "id": "5500900003", "name": "USPS COLLECTION BOX - PO LOBBY", "address": {"city": "CANNON FALLS", "state": "MN", "street": "419 MAIN ST W", "postcode": "55009"}}},
{"geometry": {"type": "Point", "coordinates": [-92.9048698745, 44.506808423]}, "type": "Feature", "properties": {"collection_times": [{"days": "Mon-Fri", "time": "5:00pm"}, {"days": "Sat", "time": "10:00am"}, {"days": "Sun", "time": "Closed"}], "id": "5500900004", "name": "USPS COLLECTION BOX - BLUE BOX", "address": {"city": "CANNON FALLS", "state": "MN", "street": "419 MAIN ST W", "postcode": "55009"}}},
{"geometry": {"type": "Point", "coordinates": [-93.1190431959, 44.5436382704]}, "type": "Feature", "properties": {"collection_times": [{"days": "Mon-Fri", "time": "4:00pm"}, {"days": "Sat", "time": "9:30am"}, {"days": "Sun", "time": "Closed"}], "id": "5501000001", "name": "USPS COLLECTION BOX - BLUE BOX", "address": {"city": "CASTLE ROCK", "state": "MN", "street": "4379 280TH ST", "postcode": "55010"}}},
{"geometry": {"type": "Point", "coordinates": [-93.1190431959, 44.5436382704]}, "type": "Feature", "properties": {"collection_times": [{"days": "Mon-Fri", "time": "4:00pm"}, {"days": "Sat", "time": "9:30am"}, {"days": "Sun", "time": "Closed"}], "id": "5501000002", "name": "USPS COLLECTION BOX - PO LOBBY", "address": {"city": "CASTLE ROCK", "state": "MN", "street": "4379 280TH ST", "postcode": "55010"}}},
{"geometry": {"type": "Point", "coordinates": [-93.2349258469, 45.3581189693]}, "type": "Feature", "properties": {"collection_times": [{"days": "Mon-Fri", "time": "4:45pm"}, {"days": "Sat", "time": "11:45am"}, {"days": "Sun", "time": "Closed"}], "id": "5501100001", "name": "USPS COLLECTION BOX - BLUE BOX", "address": {"city": "CEDAR", "state": "MN", "street": "21427 ABERDEEN ST NE", "postcode": "55011"}}},
{"geometry": {"type": "Point", "coordinates": [-93.2344832315, 45.2991003316]}, "type": "Feature", "properties": {"collection_times": [{"days": "Mon-Sat", "time": "9:00am"}, {"days": "Sun", "time": "Closed"}], "id": "5501100003", "name": "USPS COLLECTION BOX - BLUE BOX", "address": {"city": "CEDAR", "state": "MN", "street": "18164 HIGHWAY 65 NE", "postcode": "55011"}}},
{"geometry": {"type": "Point", "coordinates": [-93.3458483602, 45.3199685427]}, "type": "Feature", "properties": {"collection_times": [{"days": "Mon-Sat", "time": "9:30am"}, {"days": "Sun", "time": "Closed"}], "id": "5501100004", "name": "USPS COLLECTION BOX - BLUE BOX", "address": {"city": "CEDAR", "state": "MN", "street": "3146 VIKING BLVD NW", "postcode": "55011"}}},
{"geometry": {"type": "Point", "coordinates": [-93.2349258469, 45.3581189693]}, "type": "Feature", "properties": {"collection_times": [{"days": "Mon-Fri", "time": "5:00pm"}, {"days": "Sat", "time": "12:00pm"}, {"days": "Sun", "time": "Closed"}], "id": "5501100005", "name": "USPS COLLECTION BOX - PO LOBBY", "address": {"city": "CEDAR", "state": "MN", "street": "21427 ABERDEEN ST NE", "postcode": "55011"}}},
{"geometry": {"type": "Point", "coordinates": [-92.8175341546, 45.3913790435]}, "type": "Feature", "properties": {"collection_times": [{"days": "Mon-Fri", "time": "3:30pm"}, {"days": "Sat", "time": "10:30am"}, {"days": "Sun", "time": "Closed"}], "id": "5501200001", "name": "USPS COLLECTION BOX - BLUE BOX", "address": {"city": "CENTER CITY", "state": "MN", "street": "280 ANDREWS AVE", "postcode": "55012"}}},
{"geometry": {"type": "Point", "coordinates": [-92.8175341546, 45.3913790435]}, "type": "Feature", "properties": {"collection_times": [{"days": "Mon-Fri", "time": "3:30pm"}, {"days": "Sat", "time": "10:30am"}, {"days": "Sun", "time": "Closed"}], "id": "5501200003", "name": "USPS COLLECTION BOX - PO LOBBY", "address": {"city": "CENTER CITY", "state": "MN", "street": "280 ANDREWS AVE", "postcode": "55012"}}},
{"geometry": {"type": "Point", "coordinates": [-92.8897881052, 45.3729509088]}, "type": "Feature", "properties": {"collection_times": [{"days": "Mon-Fri", "time": "4:00pm"}, {"days": "Sat", "time": "12:00pm"}, {"days": "Sun", "time": "Closed"}], "id": "5501300001", "name": "USPS COLLECTION BOX - BLUE BOX", "address": {"city": "CHISAGO CITY", "state": "MN", "street": "29385 OLD TOWNE RD", "postcode": "55013"}}},
{"geometry": {"type": "Point", "coordinates": [-92.8897881052, 45.3729509088]}, "type": "Feature", "properties": {"collection_times": [{"days": "Mon-Fri", "time": "4:00pm"}, {"days": "Sat", "time": "12:00pm"}, {"days": "Sun", "time": "Closed"}], "id": "5501300002", "name": "USPS COLLECTION BOX - PO LOBBY", "address": {"city": "CHISAGO CITY", "state": "MN", "street": "29385 OLD TOWNE RD", "postcode": "55013"}}},
{"geometry": {"type": "Point", "coordinates": [-92.8897881052, 45.3729509088]}, "type": "Feature", "properties": {"collection_times": [{"days": "Mon-Fri", "time": "4:00pm"}, {"days": "Sat", "time": "12:00pm"}, {"days": "Sun", "time": "Closed"}], "id": "5501300003", "name": "USPS COLLECTION BOX - BLUE BOX", "address": {"city": "CHISAGO CITY", "state": "MN", "street": "29385 OLD TOWNE RD", "postcode": "55013"}}},
{"geometry": {"type": "Point", "coordinates": [-93.1544195746, 45.1450325709]}, "type": "Feature", "properties": {"collection_times": [{"days": "Mon-Fri", "time": "5:00pm"}, {"days": "Sat", "time": "2:30pm"}, {"days": "Sun", "time": "Closed"}], "id": "5501400001", "name": "USPS COLLECTION BOX - BLUE BOX", "address": {"city": "CIRCLE PINES", "state": "MN", "street": "300 CIVIC HEIGHTS DR", "postcode": "55014"}}},
{"geometry": {"type": "Point", "coordinates": [-93.1009900499, 45.1959092701]}, "type": "Feature", "properties": {"collection_times": [{"days": "Mon-Sat", "time": "1:00pm"}, {"days": "Sun", "time": "Closed"}], "id": "5501400002", "name": "USPS COLLECTION BOX - BLUE BOX", "address": {"city": "CIRCLE PINES", "state": "MN", "street": "7997 LAKE DR", "postcode": "55014"}}},
{"geometry": {"type": "Point", "coordinates": [-93.1233065708, 45.143443857]}, "type": "Feature", "properties": {"collection_times": [{"days": "Mon-Fri", "time": "2:00pm"}, {"days": "Sat", "time": "1:00pm"}, {"days": "Sun", "time": "Closed"}], "id": "5501400003", "name": "USPS COLLECTION BOX - BLUE BOX", "address": {"city": "CIRCLE PINES", "state": "MN", "street": "6501 WARE RD", "postcode": "55014"}}},
{"geometry": {"type": "Point", "coordinates": [-93.1635032733, 45.1388455617]}, "type": "Feature", "properties": {"collection_times": [{"days": "Mon-Sat", "time": "12:00pm"}, {"days": "Sun", "time": "Closed"}], "id": "5501400004", "name": "USPS COLLECTION BOX - BLUE BOX", "address": {"city": "CIRCLE PINES", "state": "MN", "street": "9201 LEXINGTON AVE N", "postcode": "55014"}}},
{"geometry": {"type": "Point", "coordinates": [-93.1700110985, 45.1368713977]}, "type": "Feature", "properties": {"collection_times": [{"days": "Mon-Sat", "time": "1:00pm"}, {"days": "Sun", "time": "Closed"}], "id": "5501400009", "name": "USPS COLLECTION BOX - BLUE BOX", "address": {"city": "CIRCLE PINES", "state": "MN", "street": "9101 S HIGHWAY DR", "postcode": "55014"}}},
{"geometry": {"type": "Point", "coordinates": [-93.1544195746, 45.1450325709]}, "type": "Feature", "properties": {"collection_times": [{"days": "Mon-Fri", "time": "5:00pm"}, {"days": "Sat", "time": "3:00pm"}, {"days": "Sun", "time": "Closed"}], "id": "5501400011", "name": "USPS COLLECTION BOX - PO LOBBY", "address": {"city": "CIRCLE PINES", "state": "MN", "street": "300 CIVIC HEIGHTS DR", "postcode": "55014"}}},
{"geometry": {"type": "Point", "coordinates": [-93.1107352659, 45.1836538152]}, "type": "Feature", "properties": {"collection_times": [{"days": "Mon-Sat", "time": "11:00am"}, {"days": "Sun", "time": "Closed"}], "id": "5501400012", "name": "USPS COLLECTION BOX - BLUE BOX", "address": {"city": "CIRCLE PINES", "state": "MN", "street": "7641 LAKE DR", "postcode": "55014"}}},
{"geometry": {"type": "Point", "coordinates": [-93.1544195746, 45.1450325709]}, "type": "Feature", "properties": {"collection_times": [{"days": "Mon-Fri", "time": "5:00pm"}, {"days": "Sat", "time": "2:30pm"}, {"days": "Sun", "time": "Closed"}], "id": "5501400014", "name": "USPS COLLECTION BOX - BLUE BOX", "address": {"city": "CIRCLE PINES", "state": "MN", "street": "300 CIVIC HEIGHTS DR", "postcode": "55014"}}},
{"geometry": {"type": "Point", "coordinates": [-93.1544195746, 45.1450325709]}, "type": "Feature", "properties": {"collection_times": [{"days": "Mon-Fri", "time": "5:00pm"}, {"days": "Sat", "time": "2:30pm"}, {"days": "Sun", "time": "Closed"}], "id": "5501400015", "name": "USPS COLLECTION BOX - BLUE BOX", "address": {"city": "CIRCLE PINES", "state": "MN", "street": "300 CIVIC HEIGHTS DR", "postcode": "55014"}}},
{"geometry": {"type": "Point", "coordinates": [-93.1544195746, 45.1450325709]}, "type": "Feature", "properties": {"collection_times": [{"days": "Mon-Fri", "time": "5:00pm"}, {"days": "Sat", "time": "2:30pm"}, {"days": "Sun", "time": "Closed"}], "id": "5501400016", "name": "USPS COLLECTION BOX - BLUE BOX", "address": {"city": "CIRCLE PINES", "state": "MN", "street": "300 CIVIC HEIGHTS DR", "postcode": "55014"}}},
{"geometry": {"type": "Point", "coordinates": [-93.1544195746, 45.1450325709]}, "type": "Feature", "properties": {"collection_times": [{"days": "Mon-Fri", "time": "5:00pm"}, {"days": "Sat", "time": "3:00pm"}, {"days": "Sun", "time": "Closed"}], "id": "5501400017", "name": "USPS COLLECTION BOX - PO LOBBY", "address": {"city": "CIRCLE PINES", "state": "MN", "street": "300 CIVIC HEIGHTS DR", "postcode": "55014"}}},
{"geometry": {"type": "Point", "coordinates": [-92.9581541669, 44.8330906083]}, "type": "Feature", "properties": {"collection_times": [{"days": "Mon-Fri", "time": "5:00pm"}, {"days": "Sat", "time": "1:15pm"}, {"days": "Sun", "time": "Closed"}], "id": "5501600001", "name": "USPS COLLECTION BOX - BLUE BOX", "address": {"city": "COTTAGE GROVE", "state": "MN", "street": "7523 95TH ST S", "postcode": "55016"}}},
{"geometry": {"type": "Point", "coordinates": [-92.9538062955, 44.8336410996]}, "type": "Feature", "properties": {"collection_times": [{"days": "Mon-Sat", "time": "1:30pm"}, {"days": "Sun", "time": "Closed"}], "id": "5501600004", "name": "USPS COLLECTION BOX - BLUE BOX", "address": {"city": "COTTAGE GROVE", "state": "MN", "street": "7516 80TH ST S", "postcode": "55016"}}},
{"geometry": {"type": "Point", "coordinates": [-92.9303908058, 44.8178639759]}, "type": "Feature", "properties": {"collection_times": [{"days": "Mon-Sat", "time": "1:30pm"}, {"days": "Sun", "time": "Closed"}], "id": "5501600005", "name": "USPS COLLECTION BOX - BLUE BOX", "address": {"city": "COTTAGE GROVE", "state": "MN", "street": "8690 E POINT DOUGLAS RD S", "postcode": "55016"}}},
{"geometry": {"type": "Point", "coordinates": [-92.9315512885, 44.8162764449]}, "type": "Feature", "properties": {"collection_times": [{"days": "Mon-Sat", "time": "1:30pm"}, {"days": "Sun", "time": "Closed"}], "id": "5501600012", "name": "USPS COLLECTION BOX - BLUE BOX", "address": {"city": "COTTAGE GROVE", "state": "MN", "street": "8655 E POINT DOUGLAS RD S", "postcode": "55016"}}},
{"geometry": {"type": "Point", "coordinates": [-92.9581541669, 44.8330906083]}, "type": "Feature", "properties": {"collection_times": [{"days": "Mon-Fri", "time": "5:00pm"}, {"days": "Sat", "time": "1:15pm"}, {"days": "Sun", "time": "Closed"}], "id": "5501600013", "name": "USPS COLLECTION BOX - PO LOBBY", "address": {"city": "COTTAGE GROVE", "state": "MN", "street": "7523 95TH ST S", "postcode": "55016"}}},
{"geometry": {"type": "Point", "coordinates": [-92.9581541669, 44.8330906083]}, "type": "Feature", "properties": {"collection_times": [{"days": "Mon-Fri", "time": "5:00pm"}, {"days": "Sat", "time": "1:15pm"}, {"days": "Sun", "time": "Closed"}], "id": "5501600016", "name": "USPS COLLECTION BOX - BLUE BOX", "address": {"city": "COTTAGE GROVE", "state": "MN", "street": "7523 95TH ST S", "postcode": "55016"}}},
{"geometry": {"type": "Point", "coordinates": [-93.39862, 45.65881]}, "type": "Feature", "properties": {"collection_times": [{"days": "Mon-Fri", "time": "4:15pm"}, {"days": "Sat", "time": "11:30am"}, {"days": "Sun", "time": "Closed"}], "id": "5501700001", "name": "USPS COLLECTION BOX - BLUE BOX", "address": {"city": "DALBO", "state": "MN", "street": "5180 HIGHWAY 47 NW", "postcode": "55017"}}},
{"geometry": {"type": "Point", "coordinates": [-93.3975111932, 45.6587189447]}, "type": "Feature", "properties": {"collection_times": [{"days": "Mon-Fri", "time": "12:00pm"}, {"days": "Sat", "time": "11:30am"}, {"days": "Sun", "time": "Closed"}], "id": "5501700002", "name": "USPS COLLECTION BOX - PO LOBBY", "address": {"city": "DALBO", "state": "MN", "street": "5180 HIGHWAY 47 NW", "postcode": "55017"}}},
{"geometry": {"type": "Point", "coordinates": [-93.0394386531, 44.4055353614]}, "type": "Feature", "properties": {"collection_times": [{"days": "Mon-Fri", "time": "4:15pm"}, {"days": "Sat", "time": "11:45am"}, {"days": "Sun", "time": "Closed"}], "id": "5501800001", "name": "USPS COLLECTION BOX - BLUE BOX", "address": {"city": "DENNISON", "state": "MN", "street": "37598 GOODHUE AVE", "postcode": "55018"}}},
{"geometry": {"type": "Point", "coordinates": [-93.0386699677, 44.4719198414]}, "type": "Feature", "properties": {"collection_times": [{"days": "Mon-Sat", "time": "11:00am"}, {"days": "Sun", "time": "Closed"}], "id": "5501800002", "name": "USPS COLLECTION BOX - BLUE BOX", "address": {"city": "DENNISON", "state": "MN", "street": "317 HIGHWAY 19 BLVD", "postcode": "55018"}}},
{"geometry": {"type": "Point", "coordinates": [-93.0394386531, 44.4055353614]}, "type": "Feature", "properties": {"collection_times": [{"days": "Mon-Fri", "time": "4:15pm"}, {"days": "Sat", "time": "11:45am"}, {"days": "Sun", "time": "Closed"}], "id": "5501800003", "name": "USPS COLLECTION BOX - PO LOBBY", "address": {"city": "DENNISON", "state": "MN", "street": "37598 GOODHUE AVE", "postcode": "55018"}}},
{"geometry": {"type": "Point", "coordinates": [-93.1997020231, 44.4317771548]}, "type": "Feature", "properties": {"collection_times": [{"days": "Mon-Fri", "time": "4:15pm"}, {"days": "Sat", "time": "10:45am"}, {"days": "Sun", "time": "Closed"}], "id": "5501900001", "name": "USPS COLLECTION BOX - BLUE BOX", "address": {"city": "DUNDAS", "state": "MN", "street": "211 COUNTY ROAD 1 E", "postcode": "55019"}}},
{"geometry": {"type": "Point", "coordinates": [-93.1997020231, 44.4317771548]}, "type": "Feature", "properties": {"collection_times": [{"days": "Mon-Fri", "time": "4:15pm"}, {"days": "Sat", "time": "10:45am"}, {"days": "Sun", "time": "Closed"}], "id": "5501900002", "name": "USPS COLLECTION BOX - PO LOBBY", "address": {"city": "DUNDAS", "state": "MN", "street": "211 COUNTY ROAD 1 E", "postcode": "55019"}}},
{"geometry": {"type": "Point", "coordinates": [-93.3262604277, 44.5652668807]}, "type": "Feature", "properties": {"collection_times": [{"days": "Mon-Fri", "time": "4:00pm"}, {"days": "Sat", "time": "11:30am"}, {"days": "Sun", "time": "Closed"}], "id": "5502000003", "name": "USPS COLLECTION BOX - BLUE BOX", "address": {"city": "ELKO NEW MARKET", "state": "MN", "street": "26045 MARKETPLACE BLVD", "postcode": "55020"}}},
{"geometry": {"type": "Point", "coordinates": [-93.3262604277, 44.5652668807]}, "type": "Feature", "properties": {"collection_times": [{"days": "Mon-Fri", "time": "4:00pm"}, {"days": "Sat", "time": "12:00pm"}, {"days": "Sun", "time": "Closed"}], "id": "5502000004", "name": "USPS COLLECTION BOX - PO LOBBY", "address": {"city": "ELKO NEW MARKET", "state": "MN", "street": "26045 MARKETPLACE BLVD", "postcode": "55020"}}},
{"geometry": {"type": "Point", "coordinates": [-93.3030717321, 44.3096296425]}, "type": "Feature", "properties": {"collection_times": [{"days": "Mon-Sat", "time": "10:00am"}, {"days": "Sun", "time": "Closed"}], "id": "5502100007", "name": "USPS COLLECTION BOX - BLUE BOX", "address": {"city": "FARIBAULT", "state": "MN", "street": "150 WESTERN AVE NW", "postcode": "55021"}}},
{"geometry": {"type": "Point", "coordinates": [-93.2716163991, 44.2951035457]}, "type": "Feature", "properties": {"collection_times": [{"days": "Mon-Sat", "time": "3:00pm"}, {"days": "Sun", "time": "Closed"}], "id": "5502100009", "name": "USPS COLLECTION BOX - BLUE BOX", "address": {"city": "FARIBAULT", "state": "MN", "street": "430 2ND AVE NW", "postcode": "55021"}}},
{"geometry": {"type": "Point", "coordinates": [-93.2718327654, 44.2936902067]}, "type": "Feature", "properties": {"collection_times": [{"days": "Mon-Fri", "time": "3:45pm"}, {"days": "Sat-Sun", "time": "Closed"}], "id": "5502100010", "name": "USPS COLLECTION BOX - BLUE BOX", "address": {"city": "FARIBAULT", "state": "MN", "street": "218 3RD ST NW", "postcode": "55021"}}},
{"geometry": {"type": "Point", "coordinates": [-93.2700568159, 44.2925827523]}, "type": "Feature", "properties": {"collection_times": [{"days": "Mon-Fri", "time": "3:45pm"}, {"days": "Sat-Sun", "time": "Closed"}], "id": "5502100023", "name": "USPS COLLECTION BOX - BLUE BOX", "address": {"city": "FARIBAULT", "state": "MN", "street": "208 1ST AVE NW", "postcode": "55021"}}},
{"geometry": {"type": "Point", "coordinates": [-93.2679841742, 44.2937206458]}, "type": "Feature", "properties": {"collection_times": [{"days": "Mon-Fri", "time": "5:00pm"}, {"days": "Sat", "time": "3:00pm"}, {"days": "Sun", "time": "Closed"}], "id": "5502100030", "name": "USPS COLLECTION BOX - PO LOBBY", "address": {"city": "FARIBAULT", "state": "MN", "street": "28 3RD ST NE", "postcode": "55021"}}},
{"geometry": {"type": "Point", "coordinates": [-93.2827715794, 44.2739833485]}, "type": "Feature", "properties": {"collection_times": [{"days": "Mon-Sat", "time": "1:00pm"}, {"days": "Sun", "time": "Closed"}], "id": "5502100035", "name": "USPS COLLECTION BOX - BLUE BOX", "address": {"city": "FARIBAULT", "state": "MN", "street": "1508 9TH AVE SW", "postcode": "55021"}}},
{"geometry": {"type": "Point", "coordinates": [-93.2718327654, 44.2936902067]}, "type": "Feature", "properties": {"collection_times": [{"days": "Mon-Fri", "time": "3:45pm"}, {"days": "Sat-Sun", "time": "Closed"}], "id": "5502100039", "name": "USPS COLLECTION BOX - BLUE BOX", "address": {"city": "FARIBAULT", "state": "MN", "street": "218 3RD ST NW", "postcode": "55021"}}},
{"geometry": {"type": "Point", "coordinates": [-93.2679841742, 44.2937206458]}, "type": "Feature", "properties": {"collection_times": [{"days": "Mon-Fri", "time": "5:00pm"}, {"days": "Sat", "time": "3:00pm"}, {"days": "Sun", "time": "Closed"}], "id": "5502100044", "name": "USPS COLLECTION BOX - BLUE BOX", "address": {"city": "FARIBAULT", "state": "MN", "street": "28 3RD ST NE", "postcode": "55021"}}},
{"geometry": {"type": "Point", "coordinates": [-93.2962935772, 44.2946837484]}, "type": "Feature", "properties": {"collection_times": [{"days": "Mon-Sat", "time": "2:30pm"}, {"days": "Sun", "time": "Closed"}], "id": "5502100046", "name": "USPS COLLECTION BOX - BLUE BOX", "address": {"city": "FARIBAULT", "state": "MN", "street": "1920 GRANT ST NW", "postcode": "55021"}}},
{"geometry": {"type": "Point", "coordinates": [-93.2679841742, 44.2937206458]}, "type": "Feature", "properties": {"collection_times": [{"days": "Mon-Fri", "time": "5:00pm"}, {"days": "Sat", "time": "3:00pm"}, {"days": "Sun", "time": "Closed"}], "id": "5502100047", "name": "USPS COLLECTION BOX - BLUE BOX", "address": {"city": "FARIBAULT", "state": "MN", "street": "28 3RD ST NE", "postcode": "55021"}}},
{"geometry": {"type": "Point", "coordinates": [-93.1447639976, 44.6392236325]}, "type": "Feature", "properties": {"collection_times": [{"days": "Mon-Sat", "time": "1:15pm"}, {"days": "Sun", "time": "Closed"}], "id": "5502400002", "name": "USPS COLLECTION BOX - BLUE BOX", "address": {"city": "FARMINGTON", "state": "MN", "street": "325 OAK ST", "postcode": "55024"}}},
{"geometry": {"type": "Point", "coordinates": [-93.14766133, 44.6403988379]}, "type": "Feature", "properties": {"collection_times": [{"days": "Mon-Sat", "time": "9:00am"}, {"days": "Sun", "time": "Closed"}], "id": "5502400012", "name": "USPS COLLECTION BOX - BLUE BOX", "address": {"city": "FARMINGTON", "state": "MN", "street": "115 ELM ST", "postcode": "55024"}}},
{"geometry": {"type": "Point", "coordinates": [-93.1339543845, 44.6380092608]}, "type": "Feature", "properties": {"collection_times": [{"days": "Mon-Sat", "time": "10:30am"}, {"days": "Sun", "time": "Closed"}], "id": "5502400014", "name": "USPS COLLECTION BOX - BLUE BOX", "address": {"city": "FARMINGTON", "state": "MN", "street": "917 SPRUCE ST", "postcode": "55024"}}},
{"geometry": {"type": "Point", "coordinates": [-93.1456479338, 44.6391815731]}, "type": "Feature", "properties": {"collection_times": [{"days": "Mon-Fri", "time": "5:00pm"}, {"days": "Sat", "time": "1:00pm"}, {"days": "Sun", "time": "Closed"}], "id": "5502400015", "name": "USPS COLLECTION BOX - PO LOBBY", "address": {"city": "FARMINGTON", "state": "MN", "street": "216 OAK ST", "postcode": "55024"}}},
{"geometry": {"type": "Point", "coordinates": [-93.1576360535, 44.6618286182]}, "type": "Feature", "properties": {"collection_times": [{"days": "Mon-Sat", "time": "11:00am"}, {"days": "Sun", "time": "Closed"}], "id": "5502400016", "name": "USPS COLLECTION BOX - BLUE BOX", "address": {"city": "FARMINGTON", "state": "MN", "street": "18290 PILOT KNOB RD", "postcode": "55024"}}},
{"geometry": {"type": "Point", "coordinates": [-93.1456479338, 44.6391815731]}, "type": "Feature", "properties": {"collection_times": [{"days": "Mon-Fri", "time": "5:00pm"}, {"days": "Sat", "time": "1:00pm"}, {"days": "Sun", "time": "Closed"}], "id": "5502400019", "name": "USPS COLLECTION BOX - BLUE BOX", "address": {"city": "FARMINGTON", "state": "MN", "street": "216 OAK ST", "postcode": "55024"}}},
{"geometry": {"type": "Point", "coordinates": [-93.1456479338, 44.6391815731]}, "type": "Feature", "properties": {"collection_times": [{"days": "Mon-Fri", "time": "5:00pm"}, {"days": "Sat", "time": "1:00pm"}, {"days": "Sun", "time": "Closed"}], "id": "5502400020", "name": "USPS COLLECTION BOX - PO LOBBY", "address": {"city": "FARMINGTON", "state": "MN", "street": "216 OAK ST", "postcode": "55024"}}},
{"geometry": {"type": "Point", "coordinates": [-93.1463550206, 44.6391698792]}, "type": "Feature", "properties": {"collection_times": [{"days": "Mon-Sat", "time": "1:00pm"}, {"days": "Sun", "time": "Closed"}], "id": "5502400021", "name": "USPS COLLECTION BOX - BLUE BOX", "address": {"city": "FARMINGTON", "state": "MN", "street": "300 2ND ST", "postcode": "55024"}}},
{"geometry": {"type": "Point", "coordinates": [-93.1463550206, 44.6391698792]}, "type": "Feature", "properties": {"collection_times": [{"days": "Mon-Sat", "time": "1:00pm"}, {"days": "Sun", "time": "Closed"}], "id": "5502400022", "name": "USPS COLLECTION BOX - BLUE BOX", "address": {"city": "FARMINGTON", "state": "MN", "street": "300 2ND ST", "postcode": "55024"}}},
{"geometry": {"type": "Point", "coordinates": [-92.9987380373, 45.2771765174]}, "type": "Feature", "properties": {"collection_times": [{"days": "Mon-Sat", "time": "10:00am"}, {"days": "Sun", "time": "Closed"}], "id": "5502500001", "name": "USPS COLLECTION BOX - BLUE BOX", "address": {"city": "FOREST LAKE", "state": "MN", "street": "209 12TH ST SW", "postcode": "55025"}}},
{"geometry": {"type": "Point", "coordinates": [-92.9808049032, 45.2601051148]}, "type": "Feature", "properties": {"collection_times": [{"days": "Mon-Sat", "time": "9:30am"}, {"days": "Sun", "time": "Closed"}], "id": "5502500008", "name": "USPS COLLECTION BOX - BLUE BOX", "address": {"city": "FOREST LAKE", "state": "MN", "street": "255 HIGHWAY 97", "postcode": "55025"}}},
{"geometry": {"type": "Point", "coordinates": [-92.9841538077, 45.2822732834]}, "type": "Feature", "properties": {"collection_times": [{"days": "Mon-Fri", "time": "2:30pm"}, {"days": "Sat", "time": "1:00pm"}, {"days": "Sun", "time": "Closed"}], "id": "5502500011", "name": "USPS COLLECTION BOX - BLUE BOX", "address": {"city": "FOREST LAKE", "state": "MN", "street": "244 LAKE ST N", "postcode": "55025"}}},
{"geometry": {"type": "Point", "coordinates": [-93.0273425737, 45.2504495932]}, "type": "Feature", "properties": {"collection_times": [{"days": "Mon-Sat", "time": "10:30am"}, {"days": "Sun", "time": "Closed"}], "id": "5502500012", "name": "USPS COLLECTION BOX - BLUE BOX", "address": {"city": "FOREST LAKE", "state": "MN", "street": "9444 LAKE DR NE", "postcode": "55025"}}},
{"geometry": {"type": "Point", "coordinates": [-92.9830548277, 45.264048735]}, "type": "Feature", "properties": {"collection_times": [{"days": "Mon-Sat", "time": "9:30am"}, {"days": "Sun", "time": "Closed"}], "id": "5502500013", "name": "USPS COLLECTION BOX - BLUE BOX", "address": {"city": "FOREST LAKE", "state": "MN", "street": "1543 LAKE ST S", "postcode": "55025"}}},
{"geometry": {"type": "Point", "coordinates": [-92.985412036, 45.2726303336]}, "type": "Feature", "properties": {"collection_times": [{"days": "Mon-Fri", "time": "5:00pm"}, {"days": "Sat", "time": "3:00pm"}, {"days": "Sun", "time": "Closed"}], "id": "5502500015", "name": "USPS COLLECTION BOX - PO LOBBY", "address": {"city": "FOREST LAKE", "state": "MN", "street": "78 6TH AVE SW", "postcode": "55025"}}},
{"geometry": {"type": "Point", "coordinates": [-92.985412036, 45.2726303336]}, "type": "Feature", "properties": {"collection_times": [{"days": "Mon-Fri", "time": "5:00pm"}, {"days": "Sat", "time": "3:00pm"}, {"days": "Sun", "time": "Closed"}], "id": "5502500016", "name": "USPS COLLECTION BOX - BLUE BOX", "address": {"city": "FOREST LAKE", "state": "MN", "street": "78 6TH AVE SW", "postcode": "55025"}}},
{"geometry": {"type": "Point", "coordinates": [-93.010861891, 45.2819252135]}, "type": "Feature", "properties": {"collection_times": [{"days": "Mon-Sat", "time": "10:00am"}, {"days": "Sun", "time": "Closed"}], "id": "5502500018", "name": "USPS COLLECTION BOX - BLUE BOX", "address": {"city": "FOREST LAKE", "state": "MN", "street": "2013 W BROADWAY AVE", "postcode": "55025"}}},
{"geometry": {"type": "Point", "coordinates": [-92.985412036, 45.2726303336]}, "type": "Feature", "properties": {"collection_times": [{"days": "Mon-Fri", "time": "5:00pm"}, {"days": "Sat", "time": "3:00pm"}, {"days": "Sun", "time": "Closed"}], "id": "5502500019", "name": "USPS COLLECTION BOX - PO LOBBY", "address": {"city": "FOREST LAKE", "state": "MN", "street": "78 6TH AVE SW", "postcode": "55025"}}},
{"geometry": {"type": "Point", "coordinates": [-92.9861896835, 45.2398990869]}, "type": "Feature", "properties": {"collection_times": [{"days": "Mon-Sat", "time": "10:30am"}, {"days": "Sun", "time": "Closed"}], "id": "5502500020", "name": "USPS COLLECTION BOX - BLUE BOX", "address": {"city": "FOREST LAKE", "state": "MN", "street": "19955 FOREST RD N", "postcode": "55025"}}},
{"geometry": {"type": "Point", "coordinates": [-92.3350455013, 44.5186921272]}, "type": "Feature", "properties": {"collection_times": [{"days": "Mon-Fri", "time": "2:00pm"}, {"days": "Sat", "time": "9:00am"}, {"days": "Sun", "time": "Closed"}], "id": "5502600001", "name": "USPS COLLECTION BOX - BLUE BOX", "address": {"city": "FRONTENAC", "state": "MN", "street": "33923 HIGHWAY 61 BLVD", "postcode": "55026"}}},
{"geometry": {"type": "Point", "coordinates": [-92.3350455013, 44.5186921272]}, "type": "Feature", "properties": {"collection_times": [{"days": "Mon-Fri", "time": "12:00pm"}, {"days": "Sat", "time": "9:00am"}, {"days": "Sun", "time": "Closed"}], "id": "5502600002", "name": "USPS COLLECTION BOX - PO LOBBY", "address": {"city": "FRONTENAC", "state": "MN", "street": "33923 HIGHWAY 61 BLVD", "postcode": "55026"}}},
{"geometry": {"type": "Point", "coordinates": [-92.6228201369, 44.4008851018]}, "type": "Feature", "properties": {"collection_times": [{"days": "Mon-Fri", "time": "4:30pm"}, {"days": "Sat", "time": "10:45am"}, {"days": "Sun", "time": "Closed"}], "id": "5502700001", "name": "USPS COLLECTION BOX - BLUE BOX", "address": {"city": "GOODHUE", "state": "MN", "street": "205 N BROADWAY", "postcode": "55027"}}},
{"geometry": {"type": "Point", "coordinates": [-92.6228201369, 44.4008851018]}, "type": "Feature", "properties": {"collection_times": [{"days": "Mon-Fri", "time": "4:30pm"}, {"days": "Sat", "time": "10:45am"}, {"days": "Sun", "time": "Closed"}], "id": "5502700002", "name": "USPS COLLECTION BOX - PO LOBBY", "address": {"city": "GOODHUE", "state": "MN", "street": "205 N BROADWAY", "postcode": "55027"}}},
{"geometry": {"type": "Point", "coordinates": [-93.1941061097, 45.6377251356]}, "type": "Feature", "properties": {"collection_times": [{"days": "Mon-Fri", "time": "3:45pm"}, {"days": "Sat", "time": "9:30am"}, {"days": "Sun", "time": "Closed"}], "id": "5502900001", "name": "USPS COLLECTION BOX - BLUE BOX", "address": {"city": "GRANDY", "state": "MN", "street": "2961 369TH AVE NE", "postcode": "55029"}}},
{"geometry": {"type": "Point", "coordinates": [-93.1941061097, 45.6377251356]}, "type": "Feature", "properties": {"collection_times": [{"days": "Mon-Fri", "time": "10:00am"}, {"days": "Sat", "time": "9:30am"}, {"days": "Sun", "time": "Closed"}], "id": "5502900002", "name": "USPS COLLECTION BOX - PO LOBBY", "address": {"city": "GRANDY", "state": "MN", "street": "2961 369TH AVE NE", "postcode": "55029"}}},
{"geometry": {"type": "Point", "coordinates": [-93.1550397533, 45.79232134]}, "type": "Feature", "properties": {"collection_times": [{"days": "Mon-Fri", "time": "3:15pm"}, {"days": "Sat", "time": "9:30am"}, {"days": "Sun", "time": "Closed"}], "id": "5503000001", "name": "USPS COLLECTION BOX - BLUE BOX", "address": {"city": "GRASSTON", "state": "MN", "street": "200 PINE ST", "postcode": "55030"}}},
{"geometry": {"type": "Point", "coordinates": [-93.1550397533, 45.79232134]}, "type": "Feature", "properties": {"collection_times": [{"days": "Mon-Fri", "time": "12:00pm"}, {"days": "Sat", "time": "9:30am"}, {"days": "Sun", "time": "Closed"}], "id": "5503000003", "name": "USPS COLLECTION BOX - PO LOBBY", "address": {"city": "GRASSTON", "state": "MN", "street": "200 PINE ST", "postcode": "55030"}}},
{"geometry": {"type": "Point", "coordinates": [-92.999803289, 44.6107787283]}, "type": "Feature", "properties": {"collection_times": [{"days": "Mon-Fri", "time": "4:15pm"}, {"days": "Sat", "time": "11:30am"}, {"days": "Sun", "time": "Closed"}], "id": "5503100001", "name": "USPS COLLECTION BOX - BLUE BOX", "address": {"city": "HAMPTON", "state": "MN", "street": "23335 WATER ST", "postcode": "55031"}}},
{"geometry": {"type": "Point", "coordinates": [-92.999803289, 44.6107787283]}, "type": "Feature", "properties": {"collection_times": [{"days": "Mon-Fri", "time": "4:15pm"}, {"days": "Sat", "time": "11:30am"}, {"days": "Sun", "time": "Closed"}], "id": "5503100002", "name": "USPS COLLECTION BOX - PO LOBBY", "address": {"city": "HAMPTON", "state": "MN", "street": "23335 WATER ST", "postcode": "55031"}}},
{"geometry": {"type": "Point", "coordinates": [-92.9755527927, 45.5846356919]}, "type": "Feature", "properties": {"collection_times": [{"days": "Mon-Fri", "time": "4:15pm"}, {"days": "Sat", "time": "10:30am"}, {"days": "Sun", "time": "Closed"}], "id": "5503200001", "name": "USPS COLLECTION BOX - BLUE BOX", "address": {"city": "HARRIS", "state": "MN", "street": "43812 GINGER AVE", "postcode": "55032"}}},
{"geometry": {"type": "Point", "coordinates": [-92.9755527927, 45.5846356919]}, "type": "Feature", "properties": {"collection_times": [{"days": "Mon-Fri", "time": "4:15pm"}, {"days": "Sat", "time": "10:30am"}, {"days": "Sun", "time": "Closed"}], "id": "5503200002", "name": "USPS COLLECTION BOX - PO LOBBY", "address": {"city": "HARRIS", "state": "MN", "street": "43812 GINGER AVE", "postcode": "55032"}}},
{"geometry": {"type": "Point", "coordinates": [-92.8526306069, 44.7350711842]}, "type": "Feature", "properties": {"collection_times": [{"days": "Mon-Sat", "time": "2:00pm"}, {"days": "Sun", "time": "Closed"}], "id": "5503300009", "name": "USPS COLLECTION BOX - BLUE BOX", "address": {"city": "HASTINGS", "state": "MN", "street": "1110 VERMILLION ST", "postcode": "55033"}}},
{"geometry": {"type": "Point", "coordinates": [-92.8464125488, 44.7154209125]}, "type": "Feature", "properties": {"collection_times": [{"days": "Mon-Sat", "time": "1:00pm"}, {"days": "Sun", "time": "Closed"}], "id": "5503300014", "name": "USPS COLLECTION BOX - BLUE BOX", "address": {"city": "HASTINGS", "state": "MN", "street": "225 33RD ST W", "postcode": "55033"}}},
{"geometry": {"type": "Point", "coordinates": [-92.8498968055, 44.7442979238]}, "type": "Feature", "properties": {"collection_times": [{"days": "Mon-Fri", "time": "5:00pm"}, {"days": "Sat", "time": "3:00pm"}, {"days": "Sun", "time": "Closed"}], "id": "5503300019", "name": "USPS COLLECTION BOX - BLUE BOX", "address": {"city": "HASTINGS", "state": "MN", "street": "300 2ND ST E", "postcode": "55033"}}},
{"geometry": {"type": "Point", "coordinates": [-92.8498968055, 44.7442979238]}, "type": "Feature", "properties": {"collection_times": [{"days": "Mon-Fri", "time": "5:00pm"}, {"days": "Sat", "time": "2:00pm"}, {"days": "Sun", "time": "Closed"}], "id": "5503300023", "name": "USPS COLLECTION BOX - BLUE BOX", "address": {"city": "HASTINGS", "state": "MN", "street": "300 2ND ST E", "postcode": "55033"}}},
{"geometry": {"type": "Point", "coordinates": [-92.8498968055, 44.7442979238]}, "type": "Feature", "properties": {"collection_times": [{"days": "Mon-Fri", "time": "5:00pm"}, {"days": "Sat", "time": "2:00pm"}, {"days": "Sun", "time": "Closed"}], "id": "5503300025", "name": "USPS COLLECTION BOX - PO LOBBY", "address": {"city": "HASTINGS", "state": "MN", "street": "300 2ND ST E", "postcode": "55033"}}},
{"geometry": {"type": "Point", "coordinates": [-92.8793780663, 44.7373411421]}, "type": "Feature", "properties": {"collection_times": [{"days": "Mon-Fri", "time": "2:00pm"}, {"days": "Sat", "time": "12:00pm"}, {"days": "Sun", "time": "Closed"}], "id": "5503300026", "name": "USPS COLLECTION BOX - BLUE BOX", "address": {"city": "HASTINGS", "state": "MN", "street": "1355 S FRONTAGE RD", "postcode": "55033"}}},
{"geometry": {"type": "Point", "coordinates": [-92.8498968055, 44.7442979238]}, "type": "Feature", "properties": {"collection_times": [{"days": "Mon-Fri", "time": "5:00pm"}, {"days": "Sat", "time": "3:00pm"}, {"days": "Sun", "time": "Closed"}], "id": "5503300027", "name": "USPS COLLECTION BOX - BLUE BOX", "address": {"city": "HASTINGS", "state": "MN", "street": "300 2ND ST E", "postcode": "55033"}}},
{"geometry": {"type": "Point", "coordinates": [-92.8498968055, 44.7442979238]}, "type": "Feature", "properties": {"collection_times": [{"days": "Mon-Fri", "time": "5:00pm"}, {"days": "Sat", "time": "2:00pm"}, {"days": "Sun", "time": "Closed"}], "id": "5503300028", "name": "USPS COLLECTION BOX - PO LOBBY", "address": {"city": "HASTINGS", "state": "MN", "street": "300 2ND ST E", "postcode": "55033"}}},
{"geometry": {"type": "Point", "coordinates": [-92.8926875376, 44.7372595179]}, "type": "Feature", "properties": {"collection_times": [{"days": "Mon-Sat", "time": "11:00am"}, {"days": "Sun", "time": "Closed"}], "id": "5503300029", "name": "USPS COLLECTION BOX - BLUE BOX", "address": {"city": "HASTINGS", "state": "MN", "street": "1729 MARKET BLVD", "postcode": "55033"}}},
{"geometry": {"type": "Point", "coordinates": [-92.9298744075, 46.011027184]}, "type": "Feature", "properties": {"collection_times": [{"days": "Mon-Sat", "time": "1:30pm"}, {"days": "Sun", "time": "Closed"}], "id": "5503700001", "name": "USPS COLLECTION BOX - BLUE BOX", "address": {"city": "HINCKLEY", "state": "MN", "street": "402 WEBER AVE", "postcode": "55037"}}},
{"geometry": {"type": "Point", "coordinates": [-92.9409673592, 46.0155509006]}, "type": "Feature", "properties": {"collection_times": [{"days": "Mon-Fri", "time": "3:15pm"}, {"days": "Sat", "time": "11:00am"}, {"days": "Sun", "time": "Closed"}], "id": "5503700002", "name": "USPS COLLECTION BOX - BLUE BOX", "address": {"city": "HINCKLEY", "state": "MN", "street": "204 MAIN ST E", "postcode": "55037"}}},
{"geometry": {"type": "Point", "coordinates": [-92.936819806, 46.0111631564]}, "type": "Feature", "properties": {"collection_times": [{"days": "Mon-Sat", "time": "1:30pm"}, {"days": "Sun", "time": "Closed"}], "id": "5503700003", "name": "USPS COLLECTION BOX - BLUE BOX", "address": {"city": "HINCKLEY", "state": "MN", "street": "401 FIRE MONUMENT RD", "postcode": "55037"}}},
{"geometry": {"type": "Point", "coordinates": [-92.9016803967, 46.0097212393]}, "type": "Feature", "properties": {"collection_times": [{"days": "Mon-Sat", "time": "1:30pm"}, {"days": "Sun", "time": "Closed"}], "id": "5503700004", "name": "USPS COLLECTION BOX - BLUE BOX", "address": {"city": "HINCKLEY", "state": "MN", "street": "777 LADY LUCK DR", "postcode": "55037"}}},
{"geometry": {"type": "Point", "coordinates": [-92.9409673592, 46.0155509006]}, "type": "Feature", "properties": {"collection_times": [{"days": "Mon-Fri", "time": "3:15pm"}, {"days": "Sat", "time": "11:00am"}, {"days": "Sun", "time": "Closed"}], "id": "5503700006", "name": "USPS COLLECTION BOX - PO LOBBY", "address": {"city": "HINCKLEY", "state": "MN", "street": "204 MAIN ST E", "postcode": "55037"}}},
{"geometry": {"type": "Point", "coordinates": [-93.0418253108, 45.1637945828]}, "type": "Feature", "properties": {"collection_times": [{"days": "Mon-Fri", "time": "1:30pm"}, {"days": "Sat", "time": "12:00pm"}, {"days": "Sun", "time": "Closed"}], "id": "5503800003", "name": "USPS COLLECTION BOX - BLUE BOX", "address": {"city": "HUGO", "state": "MN", "street": "1990 MAIN ST", "postcode": "55038"}}},
{"geometry": {"type": "Point", "coordinates": [-92.9922428512, 45.1666999332]}, "type": "Feature", "properties": {"collection_times": [{"days": "Mon-Fri", "time": "5:00pm"}, {"days": "Sat", "time": "11:30am"}, {"days": "Sun", "time": "Closed"}], "id": "5503800005", "name": "USPS COLLECTION BOX - BLUE BOX", "address": {"city": "HUGO", "state": "MN", "street": "5615 150TH ST N", "postcode": "55038"}}},
{"geometry": {"type": "Point", "coordinates": [-92.9922428512, 45.1666999332]}, "type": "Feature", "properties": {"collection_times": [{"days": "Mon-Fri", "time": "5:00pm"}, {"days": "Sat", "time": "11:30am"}, {"days": "Sun", "time": "Closed"}], "id": "5503800006", "name": "USPS COLLECTION BOX - PO LOBBY", "address": {"city": "HUGO", "state": "MN", "street": "5615 150TH ST N", "postcode": "55038"}}},
{"geometry": {"type": "Point", "coordinates": [-92.9922428512, 45.1666999332]}, "type": "Feature", "properties": {"collection_times": [{"days": "Mon-Fri", "time": "5:00pm"}, {"days": "Sat", "time": "11:30am"}, {"days": "Sun", "time": "Closed"}], "id": "5503800010", "name": "USPS COLLECTION BOX - PO LOBBY", "address": {"city": "HUGO", "state": "MN", "street": "5615 150TH ST N", "postcode": "55038"}}},
{"geometry": {"type": "Point", "coordinates": [-93.0497998667, 45.1639374381]}, "type": "Feature", "properties": {"collection_times": [{"days": "Mon-Fri", "time": "12:00pm"}, {"days": "Sat", "time": "10:30am"}, {"days": "Sun", "time": "Closed"}], "id": "5503800011", "name": "USPS COLLECTION BOX - BLUE BOX", "address": {"city": "HUGO", "state": "MN", "street": "1801 MAIN ST", "postcode": "55038"}}},
{"geometry": {"type": "Point", "coordinates": [-92.9922428512, 45.1666999332]}, "type": "Feature", "properties": {"collection_times": [{"days": "Mon-Fri", "time": "5:00pm"}, {"days": "Sat", "time": "11:30am"}, {"days": "Sun", "time": "Closed"}], "id": "5503800012", "name": "USPS COLLECTION BOX - BLUE BOX", "address": {"city": "HUGO", "state": "MN", "street": "5615 150TH ST N", "postcode": "55038"}}},
{"geometry": {"type": "Point", "coordinates": [-93.2466611999, 45.4903848755]}, "type": "Feature", "properties": {"collection_times": [{"days": "Mon-Fri", "time": "4:15pm"}, {"days": "Sat", "time": "11:30am"}, {"days": "Sun", "time": "Closed"}], "id": "5504000001", "name": "USPS COLLECTION BOX - BLUE BOX", "address": {"city": "ISANTI", "state": "MN", "street": "25 W MAIN ST", "postcode": "55040"}}},
{"geometry": {"type": "Point", "coordinates": [-93.2419665738, 45.4930121601]}, "type": "Feature", "properties": {"collection_times": [{"days": "Mon-Sat", "time": "10:30am"}, {"days": "Sun", "time": "Closed"}], "id": "5504000002", "name": "USPS COLLECTION BOX - BLUE BOX", "address": {"city": "ISANTI", "state": "MN", "street": "400 E DUAL BLVD", "postcode": "55040"}}},
{"geometry": {"type": "Point", "coordinates": [-93.2466611999, 45.4903848755]}, "type": "Feature", "properties": {"collection_times": [{"days": "Mon-Fri", "time": "4:15pm"}, {"days": "Sat", "time": "11:30am"}, {"days": "Sun", "time": "Closed"}], "id": "5504000003", "name": "USPS COLLECTION BOX - PO LOBBY", "address": {"city": "ISANTI", "state": "MN", "street": "25 W MAIN ST", "postcode": "55040"}}},
{"geometry": {"type": "Point", "coordinates": [-93.2466611999, 45.4903848755]}, "type": "Feature", "properties": {"collection_times": [{"days": "Mon-Fri", "time": "4:15pm"}, {"days": "Sat", "time": "11:30am"}, {"days": "Sun", "time": "Closed"}], "id": "5504000004", "name": "USPS COLLECTION BOX - PO LOBBY", "address": {"city": "ISANTI", "state": "MN", "street": "25 W MAIN ST", "postcode": "55040"}}},
{"geometry": {"type": "Point", "coordinates": [-92.264330371, 44.4478568081]}, "type": "Feature", "properties": {"collection_times": [{"days": "Mon-Sat", "time": "1:00pm"}, {"days": "Sun", "time": "Closed"}], "id": "5504100001", "name": "USPS COLLECTION BOX - BLUE BOX", "address": {"city": "LAKE CITY", "state": "MN", "street": "310 S LAKESHORE DR", "postcode": "55041"}}},
{"geometry": {"type": "Point", "coordinates": [-92.2673438095, 44.4486953954]}, "type": "Feature", "properties": {"collection_times": [{"days": "Mon-Fri", "time": "5:00pm"}, {"days": "Sat", "time": "3:00pm"}, {"days": "Sun", "time": "Closed"}], "id": "5504100008", "name": "USPS COLLECTION BOX - BLUE BOX", "address": {"city": "LAKE CITY", "state": "MN", "street": "111 S HIGH ST", "postcode": "55041"}}},
{"geometry": {"type": "Point", "coordinates": [-92.2673438095, 44.4486953954]}, "type": "Feature", "properties": {"collection_times": [{"days": "Mon-Fri", "time": "5:00pm"}, {"days": "Sat", "time": "3:00pm"}, {"days": "Sun", "time": "Closed"}], "id": "5504100009", "name": "USPS COLLECTION BOX - PO LOBBY", "address": {"city": "LAKE CITY", "state": "MN", "street": "111 S HIGH ST", "postcode": "55041"}}},
{"geometry": {"type": "Point", "coordinates": [-92.8799883201, 44.9989423976]}, "type": "Feature", "properties": {"collection_times": [{"days": "Mon-Fri", "time": "4:30pm"}, {"days": "Sat", "time": "11:00am"}, {"days": "Sun", "time": "Closed"}], "id": "5504200001", "name": "USPS COLLECTION BOX - BLUE BOX", "address": {"city": "LAKE ELMO", "state": "MN", "street": "3469 LAKE ELMO AVE N", "postcode": "55042"}}},
{"geometry": {"type": "Point", "coordinates": [-92.8757592918, 45.0059816258]}, "type": "Feature", "properties": {"collection_times": [{"days": "Mon-Sat", "time": "10:00am"}, {"days": "Sun", "time": "Closed"}], "id": "5504200003", "name": "USPS COLLECTION BOX - BLUE BOX", "address": {"city": "LAKE ELMO", "state": "MN", "street": "11465 39TH ST N", "postcode": "55042"}}},
{"geometry": {"type": "Point", "coordinates": [-92.8799883201, 44.9989423976]}, "type": "Feature", "properties": {"collection_times": [{"days": "Mon-Fri", "time": "4:30pm"}, {"days": "Sat", "time": "11:00am"}, {"days": "Sun", "time": "Closed"}], "id": "5504200004", "name": "USPS COLLECTION BOX - PO LOBBY", "address": {"city": "LAKE ELMO", "state": "MN", "street": "3469 LAKE ELMO AVE N", "postcode": "55042"}}},
{"geometry": {"type": "Point", "coordinates": [-92.9299611758, 44.9519265419]}, "type": "Feature", "properties": {"collection_times": [{"days": "Mon-Sat", "time": "10:00am"}, {"days": "Sun", "time": "Closed"}], "id": "5504200005", "name": "USPS COLLECTION BOX - BLUE BOX", "address": {"city": "LAKE ELMO", "state": "MN", "street": "8519 EAGLE POINT BLVD", "postcode": "55042"}}},
{"geometry": {"type": "Point", "coordinates": [-92.9275718146, 44.9531246869]}, "type": "Feature", "properties": {"collection_times": [{"days": "Mon-Sat", "time": "10:00am"}, {"days": "Sun", "time": "Closed"}], "id": "5504200006", "name": "USPS COLLECTION BOX - BLUE BOX", "address": {"city": "LAKE ELMO", "state": "MN", "street": "8671 EAGLE POINT BLVD", "postcode": "55042"}}},
{"geometry": {"type": "Point", "coordinates": [-92.7710295323, 44.9540096797]}, "type": "Feature", "properties": {"collection_times": [{"days": "Mon-Fri", "time": "4:30pm"}, {"days": "Sat", "time": "11:00am"}, {"days": "Sun", "time": "Closed"}], "id": "5504300002", "name": "USPS COLLECTION BOX - BLUE BOX", "address": {"city": "LAKELAND", "state": "MN", "street": "396 ST CROIX TRL", "postcode": "55043"}}},
{"geometry": {"type": "Point", "coordinates": [-92.7711198042, 44.9444553256]}, "type": "Feature", "properties": {"collection_times": [{"days": "Mon-Fri", "time": "4:30pm"}, {"days": "Sat", "time": "11:00am"}, {"days": "Sun", "time": "Closed"}], "id": "5504300003", "name": "USPS COLLECTION BOX - PO LOBBY", "address": {"city": "LAKELAND", "state": "MN", "street": "396 SAINT CROIX TRL S", "postcode": "55043"}}},
{"geometry": {"type": "Point", "coordinates": [-93.2831135685, 44.6917363979]}, "type": "Feature", "properties": {"collection_times": [{"days": "Mon-Sat", "time": "1:00pm"}, {"days": "Sun", "time": "Closed"}], "id": "5504400002", "name": "USPS COLLECTION BOX - BLUE BOX", "address": {"city": "LAKEVILLE", "state": "MN", "street": "17756 KENWOOD TRL", "postcode": "55044"}}},
{"geometry": {"type": "Point", "coordinates": [-93.2097331322, 44.6951900731]}, "type": "Feature", "properties": {"collection_times": [{"days": "Mon-Sat", "time": "1:00pm"}, {"days": "Sun", "time": "Closed"}], "id": "5504400003", "name": "USPS COLLECTION BOX - BLUE BOX", "address": {"city": "LAKEVILLE", "state": "MN", "street": "17587 GLASGOW AVE", "postcode": "55044"}}},
{"geometry": {"type": "Point", "coordinates": [-93.2841025334, 44.6926589924]}, "type": "Feature", "properties": {"collection_times": [{"days": "Mon-Sat", "time": "1:00pm"}, {"days": "Sun", "time": "Closed"}], "id": "5504400004", "name": "USPS COLLECTION BOX - BLUE BOX", "address": {"city": "LAKEVILLE", "state": "MN", "street": "17697 KENWOOD TRL", "postcode": "55044"}}},
{"geometry": {"type": "Point", "coordinates": [-93.2415683456, 44.649484697]}, "type": "Feature", "properties": {"collection_times": [{"days": "Mon-Fri", "time": "5:00pm"}, {"days": "Sat", "time": "2:45pm"}, {"days": "Sun", "time": "Closed"}], "id": "5504400005", "name": "USPS COLLECTION BOX - BLUE BOX", "address": {"city": "LAKEVILLE", "state": "MN", "street": "20711 HOLT AVE", "postcode": "55044"}}},
{"geometry": {"type": "Point", "coordinates": [-93.2841700627, 44.695832295]}, "type": "Feature", "properties": {"collection_times": [{"days": "Mon-Sat", "time": "1:00pm"}, {"days": "Sun", "time": "Closed"}], "id": "5504400006", "name": "USPS COLLECTION BOX - BLUE BOX", "address": {"city": "LAKEVILLE", "state": "MN", "street": "10880 175TH CT W", "postcode": "55044"}}},
{"geometry": {"type": "Point", "coordinates": [-93.2857493129, 44.6952076926]}, "type": "Feature", "properties": {"collection_times": [{"days": "Mon-Sat", "time": "1:00pm"}, {"days": "Sun", "time": "Closed"}], "id": "5504400009", "name": "USPS COLLECTION BOX - BLUE BOX", "address": {"city": "LAKEVILLE", "state": "MN", "street": "17555 KENWOOD TRL", "postcode": "55044"}}},
{"geometry": {"type": "Point", "coordinates": [-93.2801149713, 44.7102563662]}, "type": "Feature", "properties": {"collection_times": [{"days": "Mon-Sat", "time": "1:00pm"}, {"days": "Sun", "time": "Closed"}], "id": "5504400010", "name": "USPS COLLECTION BOX - BLUE BOX", "address": {"city": "LAKEVILLE", "state": "MN", "street": "10609 165TH ST W", "postcode": "55044"}}},
{"geometry": {"type": "Point", "coordinates": [-93.2885020095, 44.6845000843]}, "type": "Feature", "properties": {"collection_times": [{"days": "Mon-Sat", "time": "1:00pm"}, {"days": "Sun", "time": "Closed"}], "id": "5504400011", "name": "USPS COLLECTION BOX - BLUE BOX", "address": {"city": "LAKEVILLE", "state": "MN", "street": "18275 KENRICK AVE", "postcode": "55044"}}},
{"geometry": {"type": "Point", "coordinates": [-93.2415683456, 44.649484697]}, "type": "Feature", "properties": {"collection_times": [{"days": "Mon-Fri", "time": "5:00pm"}, {"days": "Sat", "time": "2:45pm"}, {"days": "Sun", "time": "Closed"}], "id": "5504400015", "name": "USPS COLLECTION BOX - PO LOBBY", "address": {"city": "LAKEVILLE", "state": "MN", "street": "20711 HOLT AVE", "postcode": "55044"}}},
{"geometry": {"type": "Point", "coordinates": [-93.2938123612, 44.6434721653]}, "type": "Feature", "properties": {"collection_times": [{"days": "Mon-Sat", "time": "1:00pm"}, {"days": "Sun", "time": "Closed"}], "id": "5504400016", "name": "USPS COLLECTION BOX - BLUE BOX", "address": {"city": "LAKEVILLE", "state": "MN", "street": "21100 KENRICK AVE", "postcode": "55044"}}},
{"geometry": {"type": "Point", "coordinates": [-93.2679861578, 44.6694497118]}, "type": "Feature", "properties": {"collection_times": [{"days": "Mon-Sat", "time": "1:00pm"}, {"days": "Sun", "time": "Closed"}], "id": "5504400017", "name": "USPS COLLECTION BOX - BLUE BOX", "address": {"city": "LAKEVILLE", "state": "MN", "street": "16179 KENRICK AVE", "postcode": "55044"}}},
{"geometry": {"type": "Point", "coordinates": [-93.2679861578, 44.6694497118]}, "type": "Feature", "properties": {"collection_times": [{"days": "Mon-Sat", "time": "1:00pm"}, {"days": "Sun", "time": "Closed"}], "id": "5504400018", "name": "USPS COLLECTION BOX - BLUE BOX", "address": {"city": "LAKEVILLE", "state": "MN", "street": "16179 KENRICK AVE", "postcode": "55044"}}},
{"geometry": {"type": "Point", "coordinates": [-92.8478888816, 45.3902753428]}, "type": "Feature", "properties": {"collection_times": [{"days": "Mon-Fri", "time": "3:45pm"}, {"days": "Sat", "time": "12:00pm"}, {"days": "Sun", "time": "Closed"}], "id": "5504500002", "name": "USPS COLLECTION BOX - BLUE BOX", "address": {"city": "LINDSTROM", "state": "MN", "street": "12760 N 1ST AVE", "postcode": "55045"}}},
{"geometry": {"type": "Point", "coordinates": [-92.8478888816, 45.3902753428]}, "type": "Feature", "properties": {"collection_times": [{"days": "Mon-Fri", "time": "3:45pm"}, {"days": "Sat", "time": "12:00pm"}, {"days": "Sun", "time": "Closed"}], "id": "5504500003", "name": "USPS COLLECTION BOX - PO LOBBY", "address": {"city": "LINDSTROM", "state": "MN", "street": "12760 N 1ST AVE", "postcode": "55045"}}},
{"geometry": {"type": "Point", "coordinates": [-92.8568286269, 45.3929007438]}, "type": "Feature", "properties": {"collection_times": [{"days": "Mon-Sat", "time": "11:00am"}, {"days": "Sun", "time": "Closed"}], "id": "5504500005", "name": "USPS COLLECTION BOX - BLUE BOX", "address": {"city": "LINDSTROM", "state": "MN", "street": "12298 LAKE LN", "postcode": "55045"}}},
{"geometry": {"type": "Point", "coordinates": [-92.8363489665, 45.387739951]}, "type": "Feature", "properties": {"collection_times": [{"days": "Mon-Sat", "time": "12:00pm"}, {"days": "Sun", "time": "Closed"}], "id": "5504500006", "name": "USPS COLLECTION BOX - BLUE BOX", "address": {"city": "LINDSTROM", "state": "MN", "street": "12855 LAKE BLVD", "postcode": "55045"}}},
{"geometry": {"type": "Point", "coordinates": [-93.431328834, 44.4804831367]}, "type": "Feature", "properties": {"collection_times": [{"days": "Mon-Fri", "time": "4:15pm"}, {"days": "Sat", "time": "11:30am"}, {"days": "Sun", "time": "Closed"}], "id": "5504600001", "name": "USPS COLLECTION BOX - BLUE BOX", "address": {"city": "LONSDALE", "state": "MN", "street": "108 RAILWAY ST NW", "postcode": "55046"}}},
{"geometry": {"type": "Point", "coordinates": [-93.431328834, 44.4804831367]}, "type": "Feature", "properties": {"collection_times": [{"days": "Mon-Fri", "time": "4:30pm"}, {"days": "Sat", "time": "11:30am"}, {"days": "Sun", "time": "Closed"}], "id": "5504600002", "name": "USPS COLLECTION BOX - PO LOBBY", "address": {"city": "LONSDALE", "state": "MN", "street": "108 RAILWAY ST NW", "postcode": "55046"}}},
{"geometry": {"type": "Point", "coordinates": [-92.769956728, 45.1990464772]}, "type": "Feature", "properties": {"collection_times": [{"days": "Mon-Fri", "time": "4:00pm"}, {"days": "Sat", "time": "11:00am"}, {"days": "Sun", "time": "Closed"}], "id": "5504700001", "name": "USPS COLLECTION BOX - BLUE BOX", "address": {"city": "MARINE ST CRX", "state": "MN", "street": "11 JUDD ST", "postcode": "55047"}}},
{"geometry": {"type": "Point", "coordinates": [-92.769956728, 45.1990464772]}, "type": "Feature", "properties": {"collection_times": [{"days": "Mon-Fri", "time": "4:00pm"}, {"days": "Sat", "time": "11:00am"}, {"days": "Sun", "time": "Closed"}], "id": "5504700003", "name": "USPS COLLECTION BOX - PO LOBBY", "address": {"city": "MARINE ST CRX", "state": "MN", "street": "11 JUDD ST", "postcode": "55047"}}},
{"geometry": {"type": "Point", "coordinates": [-92.8857672277, 45.227910676]}, "type": "Feature", "properties": {"collection_times": [{"days": "Mon-Sat", "time": "11:00am"}, {"days": "Sun", "time": "Closed"}], "id": "5504700004", "name": "USPS COLLECTION BOX - BLUE BOX", "address": {"city": "MARINE ST CRX", "state": "MN", "street": "19261 MANNING TRL N", "postcode": "55047"}}},
{"geometry": {"type": "Point", "coordinates": [-93.2468634602, 44.1744053097]}, "type": "Feature", "properties": {"collection_times": [{"days": "Mon-Fri", "time": "4:00pm"}, {"days": "Sat", "time": "11:30am"}, {"days": "Sun", "time": "Closed"}], "id": "5504900001", "name": "USPS COLLECTION BOX - BLUE BOX", "address": {"city": "MEDFORD", "state": "MN", "street": "221 N MAIN ST", "postcode": "55049"}}},
{"geometry": {"type": "Point", "coordinates": [-93.2468634602, 44.1744053097]}, "type": "Feature", "properties": {"collection_times": [{"days": "Mon-Fri", "time": "4:15pm"}, {"days": "Sat", "time": "11:30am"}, {"days": "Sun", "time": "Closed"}], "id": "5504900003", "name": "USPS COLLECTION BOX - PO LOBBY", "address": {"city": "MEDFORD", "state": "MN", "street": "221 N MAIN ST", "postcode": "55049"}}},
{"geometry": {"type": "Point", "coordinates": [-93.2859729379, 45.8751067306]}, "type": "Feature", "properties": {"collection_times": [{"days": "Mon-Fri", "time": "5:00pm"}, {"days": "Sat", "time": "3:00pm"}, {"days": "Sun", "time": "Closed"}], "id": "5505100001", "name": "USPS COLLECTION BOX - BLUE BOX", "address": {"city": "MORA", "state": "MN", "street": "810 HOWE AVE", "postcode": "55051"}}},
{"geometry": {"type": "Point", "coordinates": [-93.2916015297, 45.8692412416]}, "type": "Feature", "properties": {"collection_times": [{"days": "Mon-Sat", "time": "3:00pm"}, {"days": "Sun", "time": "Closed"}], "id": "5505100004", "name": "USPS COLLECTION BOX - BLUE BOX", "address": {"city": "MORA", "state": "MN", "street": "710 FRANKIE LN", "postcode": "55051"}}},
{"geometry": {"type": "Point", "coordinates": [-93.2859729379, 45.8751067306]}, "type": "Feature", "properties": {"collection_times": [{"days": "Mon-Fri", "time": "4:45pm"}, {"days": "Sat", "time": "3:00pm"}, {"days": "Sun", "time": "Closed"}], "id": "5505100005", "name": "USPS COLLECTION BOX - PO LOBBY", "address": {"city": "MORA", "state": "MN", "street": "810 HOWE AVE", "postcode": "55051"}}},
{"geometry": {"type": "Point", "coordinates": [-93.2859729379, 45.8751067306]}, "type": "Feature", "properties": {"collection_times": [{"days": "Mon-Fri", "time": "4:45pm"}, {"days": "Sat", "time": "3:00pm"}, {"days": "Sun", "time": "Closed"}], "id": "5505100007", "name": "USPS COLLECTION BOX - PO LOBBY", "address": {"city": "MORA", "state": "MN", "street": "810 HOWE AVE", "postcode": "55051"}}},
{"geometry": {"type": "Point", "coordinates": [-93.2987328836, 45.8767104296]}, "type": "Feature", "properties": {"collection_times": [{"days": "Mon-Sat", "time": "3:00pm"}, {"days": "Sun", "time": "Closed"}], "id": "5505100009", "name": "USPS COLLECTION BOX - BLUE BOX", "address": {"city": "MORA", "state": "MN", "street": "211 RAILROAD AVE NW", "postcode": "55051"}}},
{"geometry": {"type": "Point", "coordinates": [-93.4443625172, 44.2261802919]}, "type": "Feature", "properties": {"collection_times": [{"days": "Mon-Fri", "time": "4:15pm"}, {"days": "Sat", "time": "10:00am"}, {"days": "Sun", "time": "Closed"}], "id": "5505200001", "name": "USPS COLLECTION BOX - BLUE BOX", "address": {"city": "MORRISTOWN", "state": "MN", "street": "104 DIVISION ST S", "postcode": "55052"}}},
{"geometry": {"type": "Point", "coordinates": [-93.4443625172, 44.2261802919]}, "type": "Feature", "properties": {"collection_times": [{"days": "Mon-Fri", "time": "4:15pm"}, {"days": "Sat", "time": "10:00am"}, {"days": "Sun", "time": "Closed"}], "id": "5505200002", "name": "USPS COLLECTION BOX - PO LOBBY", "address": {"city": "MORRISTOWN", "state": "MN", "street": "104 DIVISION ST S", "postcode": "55052"}}},
{"geometry": {"type": "Point", "coordinates": [-93.0662980678, 44.3418341936]}, "type": "Feature", "properties": {"collection_times": [{"days": "Mon-Fri", "time": "3:30pm"}, {"days": "Sat", "time": "9:30am"}, {"days": "Sun", "time": "Closed"}], "id": "5505300001", "name": "USPS COLLECTION BOX - BLUE BOX", "address": {"city": "NERSTRAND", "state": "MN", "street": "309 MAIN ST", "postcode": "55053"}}},
{"geometry": {"type": "Point", "coordinates": [-93.0662980678, 44.3418341936]}, "type": "Feature", "properties": {"collection_times": [{"days": "Mon-Fri", "time": "12:30pm"}, {"days": "Sat", "time": "9:30am"}, {"days": "Sun", "time": "Closed"}], "id": "5505300002", "name": "USPS COLLECTION BOX - PO LOBBY", "address": {"city": "NERSTRAND", "state": "MN", "street": "309 MAIN ST", "postcode": "55053"}}},
{"geometry": {"type": "Point", "coordinates": [-93.0048036565, 44.8799539431]}, "type": "Feature", "properties": {"collection_times": [{"days": "Mon-Fri", "time": "3:45pm"}, {"days": "Sat", "time": "12:00pm"}, {"days": "Sun", "time": "Closed"}], "id": "5505500001", "name": "USPS COLLECTION BOX - BLUE BOX", "address": {"city": "NEWPORT", "state": "MN", "street": "303 21ST ST", "postcode": "55055"}}},
{"geometry": {"type": "Point", "coordinates": [-93.0008208927, 44.8747473683]}, "type": "Feature", "properties": {"collection_times": [{"days": "Mon-Sat", "time": "12:30pm"}, {"days": "Sun", "time": "Closed"}], "id": "5505500002", "name": "USPS COLLECTION BOX - BLUE BOX", "address": {"city": "NEWPORT", "state": "MN", "street": "1668 HASTINGS AVE", "postcode": "55055"}}},
{"geometry": {"type": "Point", "coordinates": [-93.0048036565, 44.8799539431]}, "type": "Feature", "properties": {"collection_times": [{"days": "Mon-Fri", "time": "3:30pm"}, {"days": "Sat", "time": "12:00pm"}, {"days": "Sun", "time": "Closed"}], "id": "5505500005", "name": "USPS COLLECTION BOX - PO LOBBY", "address": {"city": "NEWPORT", "state": "MN", "street": "303 21ST ST", "postcode": "55055"}}},
{"geometry": {"type": "Point", "coordinates": [-92.9647132655, 45.5091085723]}, "type": "Feature", "properties": {"collection_times": [{"days": "Mon-Fri", "time": "4:30pm"}, {"days": "Sat", "time": "12:00pm"}, {"days": "Sun", "time": "Closed"}], "id": "5505600000", "name": "USPS COLLECTION BOX - BLUE BOX", "address": {"city": "NORTH BRANCH", "state": "MN", "street": "6444 ELM ST", "postcode": "55056"}}},
{"geometry": {"type": "Point", "coordinates": [-92.9978064542, 45.5102344796]}, "type": "Feature", "properties": {"collection_times": [{"days": "Mon-Sat", "time": "9:15am"}, {"days": "Sun", "time": "Closed"}], "id": "5505600001", "name": "USPS COLLECTION BOX - BLUE BOX", "address": {"city": "NORTH BRANCH", "state": "MN", "street": "5481 SAINT CROIX TRL", "postcode": "55056"}}},
{"geometry": {"type": "Point", "coordinates": [-92.9647132655, 45.5091085723]}, "type": "Feature", "properties": {"collection_times": [{"days": "Mon-Fri", "time": "4:30pm"}, {"days": "Sat", "time": "12:00pm"}, {"days": "Sun", "time": "Closed"}], "id": "5505600002", "name": "USPS COLLECTION BOX - PO LOBBY", "address": {"city": "NORTH BRANCH", "state": "MN", "street": "6444 ELM ST", "postcode": "55056"}}},
{"geometry": {"type": "Point", "coordinates": [-92.9647132655, 45.5091085723]}, "type": "Feature", "properties": {"collection_times": [{"days": "Mon-Fri", "time": "4:30pm"}, {"days": "Sat", "time": "12:00pm"}, {"days": "Sun", "time": "Closed"}], "id": "5505600003", "name": "USPS COLLECTION BOX - BLUE BOX", "address": {"city": "NORTH BRANCH", "state": "MN", "street": "6444 ELM ST", "postcode": "55056"}}},
{"geometry": {"type": "Point", "coordinates": [-93.1585049624, 44.4516935039]}, "type": "Feature", "properties": {"collection_times": [{"days": "Mon-Sat", "time": "2:15pm"}, {"days": "Sun", "time": "Closed"}], "id": "5505700005", "name": "USPS COLLECTION BOX - BLUE BOX", "address": {"city": "NORTHFIELD", "state": "MN", "street": "801 WASHINGTON ST", "postcode": "55057"}}},
{"geometry": {"type": "Point", "coordinates": [-93.1590256077, 44.4583724164]}, "type": "Feature", "properties": {"collection_times": [{"days": "Mon-Sat", "time": "2:15pm"}, {"days": "Sun", "time": "Closed"}], "id": "5505700006", "name": "USPS COLLECTION BOX - BLUE BOX", "address": {"city": "NORTHFIELD", "state": "MN", "street": "212 DIVISION ST S", "postcode": "55057"}}},
{"geometry": {"type": "Point", "coordinates": [-93.1602286152, 44.4528296785]}, "type": "Feature", "properties": {"collection_times": [{"days": "Mon-Sat", "time": "2:15pm"}, {"days": "Sun", "time": "Closed"}], "id": "5505700011", "name": "USPS COLLECTION BOX - BLUE BOX", "address": {"city": "NORTHFIELD", "state": "MN", "street": "700 DIVISION ST S", "postcode": "55057"}}},
{"geometry": {"type": "Point", "coordinates": [-93.1794286631, 44.4604661839]}, "type": "Feature", "properties": {"collection_times": [{"days": "Mon-Sat", "time": "2:15pm"}, {"days": "Sun", "time": "Closed"}], "id": "5505700014", "name": "USPS COLLECTION BOX - BLUE BOX", "address": {"city": "NORTHFIELD", "state": "MN", "street": "1500 SAINT OLAF AVE", "postcode": "55057"}}},
{"geometry": {"type": "Point", "coordinates": [-93.1602908892, 44.456064509]}, "type": "Feature", "properties": {"collection_times": [{"days": "Mon-Fri", "time": "5:00pm"}, {"days": "Sat", "time": "3:00pm"}, {"days": "Sun", "time": "Closed"}], "id": "5505700015", "name": "USPS COLLECTION BOX - PO LOBBY", "address": {"city": "NORTHFIELD", "state": "MN", "street": "14 BRIDGE SQ", "postcode": "55057"}}},
{"geometry": {"type": "Point", "coordinates": [-93.1602908892, 44.456064509]}, "type": "Feature", "properties": {"collection_times": [{"days": "Mon-Fri", "time": "5:15pm"}, {"days": "Sat", "time": "3:15pm"}, {"days": "Sun", "time": "Closed"}], "id": "5505700017", "name": "USPS COLLECTION BOX - BLUE BOX", "address": {"city": "NORTHFIELD", "state": "MN", "street": "14 BRIDGE SQ", "postcode": "55057"}}},
{"geometry": {"type": "Point", "coordinates": [-93.1555399972, 44.4579690605]}, "type": "Feature", "properties": {"collection_times": [{"days": "Mon-Sat", "time": "2:15pm"}, {"days": "Sun", "time": "Closed"}], "id": "5505700019", "name": "USPS COLLECTION BOX - BLUE BOX", "address": {"city": "NORTHFIELD", "state": "MN", "street": "300 N COLLEGE ST", "postcode": "55057"}}},
{"geometry": {"type": "Point", "coordinates": [-93.1910823696, 44.4352539352]}, "type": "Feature", "properties": {"collection_times": [{"days": "Mon-Fri", "time": "5:30pm"}, {"days": "Sat", "time": "3:15pm"}, {"days": "Sun", "time": "Closed"}], "id": "5505700020", "name": "USPS COLLECTION BOX - BLUE BOX", "address": {"city": "NORTHFIELD", "state": "MN", "street": "2101 CANNON RD", "postcode": "55057"}}},
{"geometry": {"type": "Point", "coordinates": [-93.2259390736, 44.0868204078]}, "type": "Feature", "properties": {"collection_times": [{"days": "Mon-Fri", "time": "4:45pm"}, {"days": "Sat", "time": "3:45pm"}, {"days": "Sun", "time": "Closed"}], "id": "5506000002", "name": "USPS COLLECTION BOX - BLUE BOX", "address": {"city": "OWATONNA", "state": "MN", "street": "301 N CEDAR AVE", "postcode": "55060"}}},
{"geometry": {"type": "Point", "coordinates": [-93.240310265, 44.0843429958]}, "type": "Feature", "properties": {"collection_times": [{"days": "Mon-Sat", "time": "3:15pm"}, {"days": "Sun", "time": "Closed"}], "id": "5506000008", "name": "USPS COLLECTION BOX - BLUE BOX", "address": {"city": "OWATONNA", "state": "MN", "street": "641 W BRIDGE ST", "postcode": "55060"}}},
{"geometry": {"type": "Point", "coordinates": [-93.2259302732, 44.0370488495]}, "type": "Feature", "properties": {"collection_times": [{"days": "Mon-Sat", "time": "10:00am"}, {"days": "Sun", "time": "Closed"}], "id": "5506000012", "name": "USPS COLLECTION BOX - BLUE BOX", "address": {"city": "OWATONNA", "state": "MN", "street": "1025 STRAND DR", "postcode": "55060"}}},
{"geometry": {"type": "Point", "coordinates": [-93.2232065312, 44.0817225428]}, "type": "Feature", "properties": {"collection_times": [{"days": "Mon-Sat", "time": "2:00pm"}, {"days": "Sun", "time": "Closed"}], "id": "5506000013", "name": "USPS COLLECTION BOX - BLUE BOX", "address": {"city": "OWATONNA", "state": "MN", "street": "140 26TH ST NW", "postcode": "55060"}}},
{"geometry": {"type": "Point", "coordinates": [-93.2260852915, 44.0850811746]}, "type": "Feature", "properties": {"collection_times": [{"days": "Mon-Fri", "time": "4:45pm"}, {"days": "Sat", "time": "3:45pm"}, {"days": "Sun", "time": "Closed"}], "id": "5506000018", "name": "USPS COLLECTION BOX - BLUE BOX", "address": {"city": "OWATONNA", "state": "MN", "street": "124 N CEDAR AVE", "postcode": "55060"}}},
{"geometry": {"type": "Point", "coordinates": [-93.2260867918, 44.0675361216]}, "type": "Feature", "properties": {"collection_times": [{"days": "Mon-Sat", "time": "3:15pm"}, {"days": "Sun", "time": "Closed"}], "id": "5506000019", "name": "USPS COLLECTION BOX - BLUE BOX", "address": {"city": "OWATONNA", "state": "MN", "street": "1620 S CEDAR AVE", "postcode": "55060"}}},
{"geometry": {"type": "Point", "coordinates": [-93.2231976828, 44.0847550817]}, "type": "Feature", "properties": {"collection_times": [{"days": "Mon-Fri", "time": "5:00pm"}, {"days": "Sat", "time": "4:15pm"}, {"days": "Sun", "time": "Closed"}], "id": "5506000023", "name": "USPS COLLECTION BOX - PO LOBBY", "address": {"city": "OWATONNA", "state": "MN", "street": "209 E BROADWAY ST", "postcode": "55060"}}},
{"geometry": {"type": "Point", "coordinates": [-93.225358805, 44.0837188836]}, "type": "Feature", "properties": {"collection_times": [{"days": "Mon-Fri", "time": "4:45pm"}, {"days": "Sat", "time": "3:45pm"}, {"days": "Sun", "time": "Closed"}], "id": "5506000024", "name": "USPS COLLECTION BOX - BLUE BOX", "address": {"city": "OWATONNA", "state": "MN", "street": "111 E MAIN ST", "postcode": "55060"}}},
{"geometry": {"type": "Point", "coordinates": [-93.225358805, 44.0837188836]}, "type": "Feature", "properties": {"collection_times": [{"days": "Mon-Fri", "time": "4:45pm"}, {"days": "Sat", "time": "3:45pm"}, {"days": "Sun", "time": "Closed"}], "id": "5506000026", "name": "USPS COLLECTION BOX - BLUE BOX", "address": {"city": "OWATONNA", "state": "MN", "street": "111 E MAIN ST", "postcode": "55060"}}},
{"geometry": {"type": "Point", "coordinates": [-93.2296845589, 44.088101765]}, "type": "Feature", "properties": {"collection_times": [{"days": "Mon-Fri", "time": "3:15pm"}, {"days": "Sat", "time": "3:30pm"}, {"days": "Sun", "time": "Closed"}], "id": "5506000027", "name": "USPS COLLECTION BOX - BLUE BOX", "address": {"city": "OWATONNA", "state": "MN", "street": "410 HOFFMAN DR", "postcode": "55060"}}},
{"geometry": {"type": "Point", "coordinates": [-93.2231976828, 44.0847550817]}, "type": "Feature", "properties": {"collection_times": [{"days": "Mon-Fri", "time": "5:00pm"}, {"days": "Sat", "time": "4:15pm"}, {"days": "Sun", "time": "Closed"}], "id": "5506000035", "name": "USPS COLLECTION BOX - BLUE BOX", "address": {"city": "OWATONNA", "state": "MN", "street": "209 E BROADWAY ST", "postcode": "55060"}}},
{"geometry": {"type": "Point", "coordinates": [-93.2231976828, 44.0847550817]}, "type": "Feature", "properties": {"collection_times": [{"days": "Mon-Fri", "time": "5:00pm"}, {"days": "Sat", "time": "4:15pm"}, {"days": "Sun", "time": "Closed"}], "id": "5506000036", "name": "USPS COLLECTION BOX - BLUE BOX", "address": {"city": "OWATONNA", "state": "MN", "street": "209 E BROADWAY ST", "postcode": "55060"}}},
{"geometry": {"type": "Point", "coordinates": [-93.2483659657, 44.0954881904]}, "type": "Feature", "properties": {"collection_times": [{"days": "Mon-Sat", "time": "10:30am"}, {"days": "Sun", "time": "Closed"}], "id": "5506000038", "name": "USPS COLLECTION BOX - BLUE BOX", "address": {"city": "OWATONNA", "state": "MN", "street": "1130 W FRONTAGE RD", "postcode": "55060"}}},
{"geometry": {"type": "Point", "coordinates": [-93.2259390736, 44.0868204078]}, "type": "Feature", "properties": {"collection_times": [{"days": "Mon-Fri", "time": "4:45pm"}, {"days": "Sat", "time": "3:45pm"}, {"days": "Sun", "time": "Closed"}], "id": "5506000039", "name": "USPS COLLECTION BOX - BLUE BOX", "address": {"city": "OWATONNA", "state": "MN", "street": "301 N CEDAR AVE", "postcode": "55060"}}},
{"geometry": {"type": "Point", "coordinates": [-93.2231976828, 44.0847550817]}, "type": "Feature", "properties": {"collection_times": [{"days": "Mon-Fri", "time": "5:00pm"}, {"days": "Sat", "time": "4:15pm"}, {"days": "Sun", "time": "Closed"}], "id": "5506000041", "name": "USPS COLLECTION BOX - PO LOBBY", "address": {"city": "OWATONNA", "state": "MN", "street": "209 E BROADWAY ST", "postcode": "55060"}}},
{"geometry": {"type": "Point", "coordinates": [-93.2254975583, 44.0661492263]}, "type": "Feature", "properties": {"collection_times": [{"days": "Mon-Sat", "time": "10:00am"}, {"days": "Sun", "time": "Closed"}], "id": "5506000042", "name": "USPS COLLECTION BOX - BLUE BOX", "address": {"city": "OWATONNA", "state": "MN", "street": "125 18TH ST SE", "postcode": "55060"}}},
{"geometry": {"type": "Point", "coordinates": [-92.9684752048, 45.8274444316]}, "type": "Feature", "properties": {"collection_times": [{"days": "Mon-Fri", "time": "12:00pm"}, {"days": "Sat", "time": "12:30pm"}, {"days": "Sun", "time": "Closed"}], "id": "5506300002", "name": "USPS COLLECTION BOX - BLUE BOX", "address": {"city": "PINE CITY", "state": "MN", "street": "250 RAILROAD ST SE", "postcode": "55063"}}},
{"geometry": {"type": "Point", "coordinates": [-92.9703227168, 45.8266046892]}, "type": "Feature", "properties": {"collection_times": [{"days": "Mon-Sat", "time": "12:00pm"}, {"days": "Sun", "time": "Closed"}], "id": "5506300004", "name": "USPS COLLECTION BOX - BLUE BOX", "address": {"city": "PINE CITY", "state": "MN", "street": "300 MAIN ST S", "postcode": "55063"}}},
{"geometry": {"type": "Point", "coordinates": [-92.970421901, 45.8190828819]}, "type": "Feature", "properties": {"collection_times": [{"days": "Mon-Sat", "time": "12:00pm"}, {"days": "Sun", "time": "Closed"}], "id": "5506300006", "name": "USPS COLLECTION BOX - BLUE BOX", "address": {"city": "PINE CITY", "state": "MN", "street": "600 HILLSIDE AVE SW", "postcode": "55063"}}},
{"geometry": {"type": "Point", "coordinates": [-92.9806979803, 45.8221144699]}, "type": "Feature", "properties": {"collection_times": [{"days": "Mon-Sat", "time": "12:00pm"}, {"days": "Sun", "time": "Closed"}], "id": "5506300007", "name": "USPS COLLECTION BOX - BLUE BOX", "address": {"city": "PINE CITY", "state": "MN", "street": "715 13TH ST", "postcode": "55063"}}},
{"geometry": {"type": "Point", "coordinates": [-92.9113500012, 45.839492236]}, "type": "Feature", "properties": {"collection_times": [{"days": "Mon-Sat", "time": "12:00pm"}, {"days": "Sun", "time": "Closed"}], "id": "5506300008", "name": "USPS COLLECTION BOX - BLUE BOX", "address": {"city": "PINE CITY", "state": "MN", "street": "120 EVERGREEN SQ SW", "postcode": "55063"}}},
{"geometry": {"type": "Point", "coordinates": [-92.9684752048, 45.8274444316]}, "type": "Feature", "properties": {"collection_times": [{"days": "Mon-Fri", "time": "12:00pm"}, {"days": "Sat", "time": "12:30pm"}, {"days": "Sun", "time": "Closed"}], "id": "5506300015", "name": "USPS COLLECTION BOX - BLUE BOX", "address": {"city": "PINE CITY", "state": "MN", "street": "250 RAILROAD ST SE", "postcode": "55063"}}},
{"geometry": {"type": "Point", "coordinates": [-92.9113500012, 45.839492236]}, "type": "Feature", "properties": {"collection_times": [{"days": "Mon-Sat", "time": "12:00pm"}, {"days": "Sun", "time": "Closed"}], "id": "5506300016", "name": "USPS COLLECTION BOX - BLUE BOX", "address": {"city": "PINE CITY", "state": "MN", "street": "950 EVERGREEN SQ SW", "postcode": "55063"}}},
{"geometry": {"type": "Point", "coordinates": [-92.9704936966, 45.8166956629]}, "type": "Feature", "properties": {"collection_times": [{"days": "Mon-Sat", "time": "12:00pm"}, {"days": "Sun", "time": "Closed"}], "id": "5506300017", "name": "USPS COLLECTION BOX - BLUE BOX", "address": {"city": "PINE CITY", "state": "MN", "street": "1035 MAIN ST S", "postcode": "55063"}}},
{"geometry": {"type": "Point", "coordinates": [-92.9113500012, 45.839492236]}, "type": "Feature", "properties": {"collection_times": [{"days": "Mon-Sat", "time": "3:45pm"}, {"days": "Sun", "time": "Closed"}], "id": "5506300018", "name": "USPS COLLECTION BOX - PO LOBBY", "address": {"city": "PINE CITY", "state": "MN", "street": "170 EVERGREEN SQ SW", "postcode": "55063"}}},
{"geometry": {"type": "Point", "coordinates": [-92.9113500012, 45.839492236]}, "type": "Feature", "properties": {"collection_times": [{"days": "Mon-Sat", "time": "3:45pm"}, {"days": "Sun", "time": "Closed"}], "id": "5506300019", "name": "USPS COLLECTION BOX - PO LOBBY", "address": {"city": "PINE CITY", "state": "MN", "street": "170 EVERGREEN SQ SW", "postcode": "55063"}}},
{"geometry": {"type": "Point", "coordinates": [-92.9113500012, 45.839492236]}, "type": "Feature", "properties": {"collection_times": [{"days": "Mon-Sat", "time": "3:45pm"}, {"days": "Sun", "time": "Closed"}], "id": "5506300020", "name": "USPS COLLECTION BOX - BLUE BOX", "address": {"city": "PINE CITY", "state": "MN", "street": "170 EVERGREEN SQ SW", "postcode": "55063"}}},
{"geometry": {"type": "Point", "coordinates": [-92.9113500012, 45.839492236]}, "type": "Feature", "properties": {"collection_times": [{"days": "Mon-Sat", "time": "3:45pm"}, {"days": "Sun", "time": "Closed"}], "id": "5506300021", "name": "USPS COLLECTION BOX - BLUE BOX", "address": {"city": "PINE CITY", "state": "MN", "street": "170 EVERGREEN SQ SW", "postcode": "55063"}}},
{"geometry": {"type": "Point", "coordinates": [-93.0185945921, 44.5259451921]}, "type": "Feature", "properties": {"collection_times": [{"days": "Mon-Fri", "time": "4:00pm"}, {"days": "Sat", "time": "11:15am"}, {"days": "Sun", "time": "Closed"}], "id": "5506500001", "name": "USPS COLLECTION BOX - BLUE BOX", "address": {"city": "RANDOLPH", "state": "MN", "street": "4346 292ND ST E", "postcode": "55065"}}},
{"geometry": {"type": "Point", "coordinates": [-93.0185945921, 44.5259451921]}, "type": "Feature", "properties": {"collection_times": [{"days": "Mon-Fri", "time": "11:30am"}, {"days": "Sat", "time": "11:15am"}, {"days": "Sun", "time": "Closed"}], "id": "5506500002", "name": "USPS COLLECTION BOX - PO LOBBY", "address": {"city": "RANDOLPH", "state": "MN", "street": "4346 292ND ST E", "postcode": "55065"}}},
{"geometry": {"type": "Point", "coordinates": [-92.5367555121, 44.5647798513]}, "type": "Feature", "properties": {"collection_times": [{"days": "Mon-Fri", "time": "5:30pm"}, {"days": "Sat", "time": "4:30pm"}, {"days": "Sun", "time": "Closed"}], "id": "5506600002", "name": "USPS COLLECTION BOX - BLUE BOX", "address": {"city": "RED WING", "state": "MN", "street": "222 WEST AVE", "postcode": "55066"}}},
{"geometry": {"type": "Point", "coordinates": [-92.5340512956, 44.5650822414]}, "type": "Feature", "properties": {"collection_times": [{"days": "Mon-Fri", "time": "3:00pm"}, {"days": "Sat", "time": "2:30pm"}, {"days": "Sun", "time": "Closed"}], "id": "5506600003", "name": "USPS COLLECTION BOX - BLUE BOX", "address": {"city": "RED WING", "state": "MN", "street": "401 W 3RD ST", "postcode": "55066"}}},
{"geometry": {"type": "Point", "coordinates": [-92.5833543138, 44.5670200358]}, "type": "Feature", "properties": {"collection_times": [{"days": "Mon-Sat", "time": "12:00pm"}, {"days": "Sun", "time": "Closed"}], "id": "5506600012", "name": "USPS COLLECTION BOX - BLUE BOX", "address": {"city": "RED WING", "state": "MN", "street": "3209 S SERVICE DR", "postcode": "55066"}}},
{"geometry": {"type": "Point", "coordinates": [-92.5367555121, 44.5647798513]}, "type": "Feature", "properties": {"collection_times": [{"days": "Mon-Fri", "time": "5:30pm"}, {"days": "Sat", "time": "4:30pm"}, {"days": "Sun", "time": "Closed"}], "id": "5506600017", "name": "USPS COLLECTION BOX - BLUE BOX", "address": {"city": "RED WING", "state": "MN", "street": "222 WEST AVE", "postcode": "55066"}}},
{"geometry": {"type": "Point", "coordinates": [-92.5367555121, 44.5647798513]}, "type": "Feature", "properties": {"collection_times": [{"days": "Mon-Fri", "time": "5:30pm"}, {"days": "Sat", "time": "4:30pm"}, {"days": "Sun", "time": "Closed"}], "id": "5506600020", "name": "USPS COLLECTION BOX - PO LOBBY", "address": {"city": "RED WING", "state": "MN", "street": "222 WEST AVE", "postcode": "55066"}}},
{"geometry": {"type": "Point", "coordinates": [-92.5367555121, 44.5647798513]}, "type": "Feature", "properties": {"collection_times": [{"days": "Mon-Fri", "time": "5:30pm"}, {"days": "Sat", "time": "4:30pm"}, {"days": "Sun", "time": "Closed"}], "id": "5506600021", "name": "USPS COLLECTION BOX - BLUE BOX", "address": {"city": "RED WING", "state": "MN", "street": "222 WEST AVE", "postcode": "55066"}}},
{"geometry": {"type": "Point", "coordinates": [-92.5367555121, 44.5647798513]}, "type": "Feature", "properties": {"collection_times": [{"days": "Mon-Fri", "time": "5:30pm"}, {"days": "Sat", "time": "4:30pm"}, {"days": "Sun", "time": "Closed"}], "id": "5506600022", "name": "USPS COLLECTION BOX - BLUE BOX", "address": {"city": "RED WING", "state": "MN", "street": "222 WEST AVE", "postcode": "55066"}}},
{"geometry": {"type": "Point", "coordinates": [-92.5367555121, 44.5647798513]}, "type": "Feature", "properties": {"collection_times": [{"days": "Mon-Fri", "time": "5:30pm"}, {"days": "Sat", "time": "4:30pm"}, {"days": "Sun", "time": "Closed"}], "id": "5506600023", "name": "USPS COLLECTION BOX - BLUE BOX", "address": {"city": "RED WING", "state": "MN", "street": "222 WEST AVE", "postcode": "55066"}}},
{"geometry": {"type": "Point", "coordinates": [-93.1276113585, 44.7391830092]}, "type": "Feature", "properties": {"collection_times": [{"days": "Mon-Fri", "time": "5:00pm"}, {"days": "Sat", "time": "1:00pm"}, {"days": "Sun", "time": "Closed"}], "id": "5506800001", "name": "USPS COLLECTION BOX - BLUE BOX", "address": {"city": "ROSEMOUNT", "state": "MN", "street": "3050 145TH ST W", "postcode": "55068"}}},
{"geometry": {"type": "Point", "coordinates": [-93.1364149391, 44.7308833691]}, "type": "Feature", "properties": {"collection_times": [{"days": "Mon-Sat", "time": "12:30pm"}, {"days": "Sun", "time": "Closed"}], "id": "5506800003", "name": "USPS COLLECTION BOX - BLUE BOX", "address": {"city": "ROSEMOUNT", "state": "MN", "street": "15055 CHIPPENDALE AVE W", "postcode": "55068"}}},
{"geometry": {"type": "Point", "coordinates": [-93.1276113585, 44.7391830092]}, "type": "Feature", "properties": {"collection_times": [{"days": "Mon-Fri", "time": "5:15pm"}, {"days": "Sat", "time": "1:00pm"}, {"days": "Sun", "time": "Closed"}], "id": "5506800005", "name": "USPS COLLECTION BOX - PO LOBBY", "address": {"city": "ROSEMOUNT", "state": "MN", "street": "3050 145TH ST W", "postcode": "55068"}}},
{"geometry": {"type": "Point", "coordinates": [-93.1276113585, 44.7391830092]}, "type": "Feature", "properties": {"collection_times": [{"days": "Mon-Fri", "time": "5:00pm"}, {"days": "Sat", "time": "1:00pm"}, {"days": "Sun", "time": "Closed"}], "id": "5506800006", "name": "USPS COLLECTION BOX - BLUE BOX", "address": {"city": "ROSEMOUNT", "state": "MN", "street": "3050 145TH ST W", "postcode": "55068"}}},
{"geometry": {"type": "Point", "coordinates": [-93.1276113585, 44.7391830092]}, "type": "Feature", "properties": {"collection_times": [{"days": "Mon-Fri", "time": "5:00pm"}, {"days": "Sat", "time": "1:00pm"}, {"days": "Sun", "time": "Closed"}], "id": "5506800007", "name": "USPS COLLECTION BOX - BLUE BOX", "address": {"city": "ROSEMOUNT", "state": "MN", "street": "3050 145TH ST W", "postcode": "55068"}}},
{"geometry": {"type": "Point", "coordinates": [-93.1364149391, 44.7308833691]}, "type": "Feature", "properties": {"collection_times": [{"days": "Mon-Sat", "time": "12:30pm"}, {"days": "Sun", "time": "Closed"}], "id": "5506800008", "name": "USPS COLLECTION BOX - BLUE BOX", "address": {"city": "ROSEMOUNT", "state": "MN", "street": "15055 CHIPPENDALE AVE W", "postcode": "55068"}}},
{"geometry": {"type": "Point", "coordinates": [-93.1421717403, 44.7315157324]}, "type": "Feature", "properties": {"collection_times": [{"days": "Mon-Sat", "time": "12:30pm"}, {"days": "Sun", "time": "Closed"}], "id": "5506800009", "name": "USPS COLLECTION BOX - BLUE BOX", "address": {"city": "ROSEMOUNT", "state": "MN", "street": "3784 150TH ST W", "postcode": "55068"}}},
{"geometry": {"type": "Point", "coordinates": [-92.9779201534, 45.6844012242]}, "type": "Feature", "properties": {"collection_times": [{"days": "Mon-Sat", "time": "9:00am"}, {"days": "Sun", "time": "Closed"}], "id": "5506900001", "name": "USPS COLLECTION BOX - BLUE BOX", "address": {"city": "RUSH CITY", "state": "MN", "street": "1205 W 4TH ST", "postcode": "55069"}}},
{"geometry": {"type": "Point", "coordinates": [-92.9655345527, 45.6838003827]}, "type": "Feature", "properties": {"collection_times": [{"days": "Mon-Fri", "time": "4:30pm"}, {"days": "Sat", "time": "11:30am"}, {"days": "Sun", "time": "Closed"}], "id": "5506900002", "name": "USPS COLLECTION BOX - BLUE BOX", "address": {"city": "RUSH CITY", "state": "MN", "street": "265 W 5TH ST", "postcode": "55069"}}},
{"geometry": {"type": "Point", "coordinates": [-92.9655345527, 45.6838003827]}, "type": "Feature", "properties": {"collection_times": [{"days": "Mon-Fri", "time": "4:30pm"}, {"days": "Sat", "time": "11:30am"}, {"days": "Sun", "time": "Closed"}], "id": "5506900003", "name": "USPS COLLECTION BOX - PO LOBBY", "address": {"city": "RUSH CITY", "state": "MN", "street": "265 W 5TH ST", "postcode": "55069"}}},
{"geometry": {"type": "Point", "coordinates": [-93.3603668156, 45.3870044613]}, "type": "Feature", "properties": {"collection_times": [{"days": "Mon-Fri", "time": "4:45pm"}, {"days": "Sat", "time": "12:00pm"}, {"days": "Sun", "time": "Closed"}], "id": "5507000001", "name": "USPS COLLECTION BOX - BLUE BOX", "address": {"city": "SAINT FRANCIS", "state": "MN", "street": "3726 BRIDGE ST NW", "postcode": "55070"}}},
{"geometry": {"type": "Point", "coordinates": [-93.3603668156, 45.3870044613]}, "type": "Feature", "properties": {"collection_times": [{"days": "Mon-Fri", "time": "4:45pm"}, {"days": "Sat", "time": "12:00pm"}, {"days": "Sun", "time": "Closed"}], "id": "5507000002", "name": "USPS COLLECTION BOX - PO LOBBY", "address": {"city": "SAINT FRANCIS", "state": "MN", "street": "3726 BRIDGE ST NW", "postcode": "55070"}}},
{"geometry": {"type": "Point", "coordinates": [-93.3678382179, 45.3917257176]}, "type": "Feature", "properties": {"collection_times": [{"days": "Mon-Fri", "time": "1:00pm"}, {"days": "Sat", "time": "11:00am"}, {"days": "Sun", "time": "Closed"}], "id": "5507000003", "name": "USPS COLLECTION BOX - BLUE BOX", "address": {"city": "SAINT FRANCIS", "state": "MN", "street": "23122 SAINT FRANCIS BLVD NW", "postcode": "55070"}}},
{"geometry": {"type": "Point", "coordinates": [-92.9980503851, 44.8463233865]}, "type": "Feature", "properties": {"collection_times": [{"days": "Mon-Fri", "time": "5:00pm"}, {"days": "Sat", "time": "11:45am"}, {"days": "Sun", "time": "Closed"}], "id": "5507100001", "name": "USPS COLLECTION BOX - BLUE BOX", "address": {"city": "ST PAUL PARK", "state": "MN", "street": "619 3RD ST", "postcode": "55071"}}},
{"geometry": {"type": "Point", "coordinates": [-92.9980503851, 44.8463233865]}, "type": "Feature", "properties": {"collection_times": [{"days": "Mon-Fri", "time": "4:45pm"}, {"days": "Sat", "time": "11:45am"}, {"days": "Sun", "time": "Closed"}], "id": "5507100005", "name": "USPS COLLECTION BOX - PO LOBBY", "address": {"city": "ST PAUL PARK", "state": "MN", "street": "619 3RD ST", "postcode": "55071"}}},
{"geometry": {"type": "Point", "coordinates": [-92.9899823636, 44.8472439447]}, "type": "Feature", "properties": {"collection_times": [{"days": "Mon-Sat", "time": "1:00pm"}, {"days": "Sun", "time": "Closed"}], "id": "5507100006", "name": "USPS COLLECTION BOX - BLUE BOX", "address": {"city": "ST PAUL PARK", "state": "MN", "street": "600 PORTLAND AVE", "postcode": "55071"}}},
{"geometry": {"type": "Point", "coordinates": [-92.8661165184, 46.1331095327]}, "type": "Feature", "properties": {"collection_times": [{"days": "Mon-Fri", "time": "3:00pm"}, {"days": "Sat", "time": "11:00am"}, {"days": "Sun", "time": "Closed"}], "id": "5507200001", "name": "USPS COLLECTION BOX - BLUE BOX", "address": {"city": "SANDSTONE", "state": "MN", "street": "514 N MAIN", "postcode": "55072"}}},
{"geometry": {"type": "Point", "coordinates": [-92.5145943657, 46.1392608242]}, "type": "Feature", "properties": {"collection_times": [{"days": "Mon-Sat", "time": "11:00am"}, {"days": "Sun", "time": "Closed"}], "id": "5507200002", "name": "USPS COLLECTION BOX - BLUE BOX", "address": {"city": "SANDSTONE", "state": "MN", "street": "50058 1ST AVE", "postcode": "55072"}}},
{"geometry": {"type": "Point", "coordinates": [-92.8655890629, 46.1257114182]}, "type": "Feature", "properties": {"collection_times": [{"days": "Mon-Sat", "time": "2:00pm"}, {"days": "Sun", "time": "Closed"}], "id": "5507200003", "name": "USPS COLLECTION BOX - BLUE BOX", "address": {"city": "SANDSTONE", "state": "MN", "street": "320 MINNESOTA ST STE 200", "postcode": "55072"}}},
{"geometry": {"type": "Point", "coordinates": [-92.8661165184, 46.1331095327]}, "type": "Feature", "properties": {"collection_times": [{"days": "Mon-Fri", "time": "3:00pm"}, {"days": "Sat", "time": "11:00am"}, {"days": "Sun", "time": "Closed"}], "id": "5507200004", "name": "USPS COLLECTION BOX - PO LOBBY", "address": {"city": "SANDSTONE", "state": "MN", "street": "514 N MAIN", "postcode": "55072"}}},
{"geometry": {"type": "Point", "coordinates": [-92.7991261301, 45.2556806377]}, "type": "Feature", "properties": {"collection_times": [{"days": "Mon-Fri", "time": "3:45pm"}, {"days": "Sat", "time": "11:15am"}, {"days": "Sun", "time": "Closed"}], "id": "5507300001", "name": "USPS COLLECTION BOX - BLUE BOX", "address": {"city": "SCANDIA", "state": "MN", "street": "21190 OZARK AVE N", "postcode": "55073"}}},
{"geometry": {"type": "Point", "coordinates": [-92.8052400347, 45.2530822189]}, "type": "Feature", "properties": {"collection_times": [{"days": "Mon-Sat", "time": "12:00pm"}, {"days": "Sun", "time": "Closed"}], "id": "5507300002", "name": "USPS COLLECTION BOX - BLUE BOX", "address": {"city": "SCANDIA", "state": "MN", "street": "14758 OAKHILL RD N", "postcode": "55073"}}},
{"geometry": {"type": "Point", "coordinates": [-92.7991261301, 45.2556806377]}, "type": "Feature", "properties": {"collection_times": [{"days": "Mon-Fri", "time": "3:45pm"}, {"days": "Sat", "time": "11:00am"}, {"days": "Sun", "time": "Closed"}], "id": "5507300003", "name": "USPS COLLECTION BOX - PO LOBBY", "address": {"city": "SCANDIA", "state": "MN", "street": "21190 OZARK AVE N", "postcode": "55073"}}},
{"geometry": {"type": "Point", "coordinates": [-92.7491212717, 45.3852631457]}, "type": "Feature", "properties": {"collection_times": [{"days": "Mon-Fri", "time": "3:15pm"}, {"days": "Sat", "time": "10:30am"}, {"days": "Sun", "time": "Closed"}], "id": "5507400001", "name": "USPS COLLECTION BOX - BLUE BOX", "address": {"city": "SHAFER", "state": "MN", "street": "30180 REDFIELD BLVD", "postcode": "55074"}}},
{"geometry": {"type": "Point", "coordinates": [-92.7491212717, 45.3852631457]}, "type": "Feature", "properties": {"collection_times": [{"days": "Mon-Fri", "time": "3:15pm"}, {"days": "Sat", "time": "10:30am"}, {"days": "Sun", "time": "Closed"}], "id": "5507400002", "name": "USPS COLLECTION BOX - PO LOBBY", "address": {"city": "SHAFER", "state": "MN", "street": "30180 REDFIELD BLVD", "postcode": "55074"}}},
{"geometry": {"type": "Point", "coordinates": [-93.0495668237, 44.9015322976]}, "type": "Feature", "properties": {"collection_times": [{"days": "Mon-Sat", "time": "1:00pm"}, {"days": "Sun", "time": "Closed"}], "id": "5507500008", "name": "USPS COLLECTION BOX - BLUE BOX", "address": {"city": "SOUTH ST PAUL", "state": "MN", "street": "1257 THOMPSON AVE", "postcode": "55075"}}},
{"geometry": {"type": "Point", "coordinates": [-93.0396512617, 44.8888438797]}, "type": "Feature", "properties": {"collection_times": [{"days": "Mon-Fri", "time": "2:30pm"}, {"days": "Sat", "time": "12:00pm"}, {"days": "Sun", "time": "Closed"}], "id": "5507500014", "name": "USPS COLLECTION BOX - BLUE BOX", "address": {"city": "SOUTH ST PAUL", "state": "MN", "street": "450 SOUTHVIEW BLVD", "postcode": "55075"}}},
{"geometry": {"type": "Point", "coordinates": [-93.0373433087, 44.8897937957]}, "type": "Feature", "properties": {"collection_times": [{"days": "Mon-Sat", "time": "1:00pm"}, {"days": "Sun", "time": "Closed"}], "id": "5507500037", "name": "USPS COLLECTION BOX - BLUE BOX", "address": {"city": "SOUTH ST PAUL", "state": "MN", "street": "125 3RD AVE S", "postcode": "55075"}}},
{"geometry": {"type": "Point", "coordinates": [-93.0446563611, 44.8888367819]}, "type": "Feature", "properties": {"collection_times": [{"days": "Mon-Sat", "time": "1:00pm"}, {"days": "Sun", "time": "Closed"}], "id": "5507500038", "name": "USPS COLLECTION BOX - BLUE BOX", "address": {"city": "SOUTH ST PAUL", "state": "MN", "street": "835 SOUTHVIEW BLVD", "postcode": "55075"}}},
{"geometry": {"type": "Point", "coordinates": [-93.0519608316, 44.9006190295]}, "type": "Feature", "properties": {"collection_times": [{"days": "Mon-Fri", "time": "1:00pm"}, {"days": "Sat", "time": "10:00am"}, {"days": "Sun", "time": "Closed"}], "id": "5507500048", "name": "USPS COLLECTION BOX - BLUE BOX", "address": {"city": "SOUTH ST PAUL", "state": "MN", "street": "7850 CAHILL AVE", "postcode": "55075"}}},
{"geometry": {"type": "Point", "coordinates": [-93.0519608316, 44.9006190295]}, "type": "Feature", "properties": {"collection_times": [{"days": "Mon-Sat", "time": "1:00pm"}, {"days": "Sun", "time": "Closed"}], "id": "5507500055", "name": "USPS COLLECTION BOX - BLUE BOX", "address": {"city": "SOUTH ST PAUL", "state": "MN", "street": "5300 S ROBERT TRL", "postcode": "55075"}}},
{"geometry": {"type": "Point", "coordinates": [-93.0615005138, 44.9016588742]}, "type": "Feature", "properties": {"collection_times": [{"days": "Mon-Sat", "time": "1:00pm"}, {"days": "Sun", "time": "Closed"}], "id": "5507500062", "name": "USPS COLLECTION BOX - BLUE BOX", "address": {"city": "SOUTH ST PAUL", "state": "MN", "street": "702 22ND AVE N", "postcode": "55075"}}},
{"geometry": {"type": "Point", "coordinates": [-93.0351781883, 44.8932440013]}, "type": "Feature", "properties": {"collection_times": [{"days": "Mon-Fri", "time": "5:00pm"}, {"days": "Sat", "time": "4:00pm"}, {"days": "Sun", "time": "Closed"}], "id": "5507500064", "name": "USPS COLLECTION BOX - PO LOBBY", "address": {"city": "SOUTH ST PAUL", "state": "MN", "street": "236 CONCORD EXCHANGE N", "postcode": "55075"}}},
{"geometry": {"type": "Point", "coordinates": [-93.0351781883, 44.8932440013]}, "type": "Feature", "properties": {"collection_times": [{"days": "Mon-Fri", "time": "5:00pm"}, {"days": "Sat", "time": "4:00pm"}, {"days": "Sun", "time": "Closed"}], "id": "5507500065", "name": "USPS COLLECTION BOX - BLUE BOX", "address": {"city": "SOUTH ST PAUL", "state": "MN", "street": "236 CONCORD EXCHANGE N", "postcode": "55075"}}},
{"geometry": {"type": "Point", "coordinates": [-93.0519608316, 44.9006190295]}, "type": "Feature", "properties": {"collection_times": [{"days": "Mon-Fri", "time": "5:00pm"}, {"days": "Sat", "time": "10:00am"}, {"days": "Sun", "time": "Closed"}], "id": "5507500070", "name": "USPS COLLECTION BOX - BLUE BOX", "address": {"city": "SOUTH ST PAUL", "state": "MN", "street": "6566 CAHILL AVE", "postcode": "55075"}}},
{"geometry": {"type": "Point", "coordinates": [-93.0519608316, 44.9006190295]}, "type": "Feature", "properties": {"collection_times": [{"days": "Mon-Fri", "time": "5:00pm"}, {"days": "Sat", "time": "10:00am"}, {"days": "Sun", "time": "Closed"}], "id": "5507500071", "name": "USPS COLLECTION BOX - BLUE BOX", "address": {"city": "SOUTH ST PAUL", "state": "MN", "street": "6566 CAHILL AVE", "postcode": "55075"}}},
{"geometry": {"type": "Point", "coordinates": [-93.0450178558, 44.8897484206]}, "type": "Feature", "properties": {"collection_times": [{"days": "Mon-Sat", "time": "9:00am"}, {"days": "Sun", "time": "Closed"}], "id": "5507500073", "name": "USPS COLLECTION BOX - BLUE BOX", "address": {"city": "SOUTH ST PAUL", "state": "MN", "street": "9061 BRODERICK BLVD", "postcode": "55075"}}},
{"geometry": {"type": "Point", "coordinates": [-93.0519608316, 44.9006190295]}, "type": "Feature", "properties": {"collection_times": [{"days": "Mon-Sat", "time": "10:00am"}, {"days": "Sun", "time": "Closed"}], "id": "5507500074", "name": "USPS COLLECTION BOX - BLUE BOX", "address": {"city": "SOUTH ST PAUL", "state": "MN", "street": "5838 BLACKSHIRE PATH", "postcode": "55075"}}},
{"geometry": {"type": "Point", "coordinates": [-93.0519608316, 44.9006190295]}, "type": "Feature", "properties": {"collection_times": [{"days": "Mon-Fri", "time": "5:00pm"}, {"days": "Sat", "time": "12:00pm"}, {"days": "Sun", "time": "Closed"}], "id": "5507500075", "name": "USPS COLLECTION BOX - PO LOBBY", "address": {"city": "SOUTH ST PAUL", "state": "MN", "street": "6566 CAHILL AVE", "postcode": "55075"}}},
{"geometry": {"type": "Point", "coordinates": [-92.9830805448, 45.3990356086]}, "type": "Feature", "properties": {"collection_times": [{"days": "Mon-Fri", "time": "4:30pm"}, {"days": "Sat", "time": "11:00am"}, {"days": "Sun", "time": "Closed"}], "id": "5507900001", "name": "USPS COLLECTION BOX - BLUE BOX", "address": {"city": "STACY", "state": "MN", "street": "31140 FOREST BLVD", "postcode": "55079"}}},
{"geometry": {"type": "Point", "coordinates": [-92.9974598399, 45.3968920799]}, "type": "Feature", "properties": {"collection_times": [{"days": "Mon-Sat", "time": "12:00pm"}, {"days": "Sun", "time": "Closed"}], "id": "5507900002", "name": "USPS COLLECTION BOX - BLUE BOX", "address": {"city": "STACY", "state": "MN", "street": "5335 STACY TRL", "postcode": "55079"}}},
{"geometry": {"type": "Point", "coordinates": [-92.9830805448, 45.3990356086]}, "type": "Feature", "properties": {"collection_times": [{"days": "Mon-Fri", "time": "4:00pm"}, {"days": "Sat", "time": "11:00am"}, {"days": "Sun", "time": "Closed"}], "id": "5507900003", "name": "USPS COLLECTION BOX - PO LOBBY", "address": {"city": "STACY", "state": "MN", "street": "31140 FOREST BLVD", "postcode": "55079"}}},
{"geometry": {"type": "Point", "coordinates": [-93.1840058515, 45.6740530809]}, "type": "Feature", "properties": {"collection_times": [{"days": "Mon-Fri", "time": "3:45pm"}, {"days": "Sat", "time": "9:45am"}, {"days": "Sun", "time": "Closed"}], "id": "5508000001", "name": "USPS COLLECTION BOX - BLUE BOX", "address": {"city": "STANCHFIELD", "state": "MN", "street": "38930 STANCHFIELD RD NE", "postcode": "55080"}}},
{"geometry": {"type": "Point", "coordinates": [-93.1840058515, 45.6740530809]}, "type": "Feature", "properties": {"collection_times": [{"days": "Mon-Fri", "time": "3:45pm"}, {"days": "Sat", "time": "9:45am"}, {"days": "Sun", "time": "Closed"}], "id": "5508000002", "name": "USPS COLLECTION BOX - PO LOBBY", "address": {"city": "STANCHFIELD", "state": "MN", "street": "38930 STANCHFIELD RD NE", "postcode": "55080"}}},
{"geometry": {"type": "Point", "coordinates": [-92.8131217176, 45.0481423169]}, "type": "Feature", "properties": {"collection_times": [{"days": "Mon-Sat", "time": "12:00pm"}, {"days": "Sun", "time": "Closed"}], "id": "5508200003", "name": "USPS COLLECTION BOX - BLUE BOX", "address": {"city": "STILLWATER", "state": "MN", "street": "603 CHURCHILL ST W", "postcode": "55082"}}},
{"geometry": {"type": "Point", "coordinates": [-92.8197391901, 45.0647238527]}, "type": "Feature", "properties": {"collection_times": [{"days": "Mon-Sat", "time": "1:00pm"}, {"days": "Sun", "time": "Closed"}], "id": "5508200005", "name": "USPS COLLECTION BOX - BLUE BOX", "address": {"city": "STILLWATER", "state": "MN", "street": "703 WILKINS ST W", "postcode": "55082"}}},
{"geometry": {"type": "Point", "coordinates": [-92.805174928, 45.0545802441]}, "type": "Feature", "properties": {"collection_times": [{"days": "Mon-Sat", "time": "12:00pm"}, {"days": "Sun", "time": "Closed"}], "id": "5508200014", "name": "USPS COLLECTION BOX - BLUE BOX", "address": {"city": "STILLWATER", "state": "MN", "street": "321 MAIN ST S", "postcode": "55082"}}},
{"geometry": {"type": "Point", "coordinates": [-92.8074825523, 45.0367823619]}, "type": "Feature", "properties": {"collection_times": [{"days": "Mon-Fri", "time": "3:00pm"}, {"days": "Sat", "time": "1:00pm"}, {"days": "Sun", "time": "Closed"}], "id": "5508200015", "name": "USPS COLLECTION BOX - BLUE BOX", "address": {"city": "STILLWATER", "state": "MN", "street": "6061 OSGOOD AVE N", "postcode": "55082"}}},
{"geometry": {"type": "Point", "coordinates": [-92.8024462601, 45.0368492412]}, "type": "Feature", "properties": {"collection_times": [{"days": "Mon-Fri", "time": "3:00pm"}, {"days": "Sat-Sun", "time": "Closed"}], "id": "5508200017", "name": "USPS COLLECTION BOX - BLUE BOX", "address": {"city": "STILLWATER", "state": "MN", "street": "14900 61ST ST N", "postcode": "55082"}}},
{"geometry": {"type": "Point", "coordinates": [-92.8089115667, 45.0562727938]}, "type": "Feature", "properties": {"collection_times": [{"days": "Mon-Fri", "time": "5:00pm"}, {"days": "Sat", "time": "12:00pm"}, {"days": "Sun", "time": "Closed"}], "id": "5508200026", "name": "USPS COLLECTION BOX - BLUE BOX", "address": {"city": "STILLWATER", "state": "MN", "street": "216 MYRTLE ST W", "postcode": "55082"}}},
{"geometry": {"type": "Point", "coordinates": [-92.8282509542, 45.0397935999]}, "type": "Feature", "properties": {"collection_times": [{"days": "Mon-Sat", "time": "1:00pm"}, {"days": "Sun", "time": "Closed"}], "id": "5508200028", "name": "USPS COLLECTION BOX - BLUE BOX", "address": {"city": "STILLWATER", "state": "MN", "street": "1800 NORTHWESTERN AVE S", "postcode": "55082"}}},
{"geometry": {"type": "Point", "coordinates": [-92.8058264097, 45.055921455]}, "type": "Feature", "properties": {"collection_times": [{"days": "Mon-Sat", "time": "12:00pm"}, {"days": "Sun", "time": "Closed"}], "id": "5508200029", "name": "USPS COLLECTION BOX - BLUE BOX", "address": {"city": "STILLWATER", "state": "MN", "street": "132 MAIN ST S", "postcode": "55082"}}},
{"geometry": {"type": "Point", "coordinates": [-92.8331965313, 45.0341218872]}, "type": "Feature", "properties": {"collection_times": [{"days": "Mon-Fri", "time": "3:00pm"}, {"days": "Sat", "time": "1:00pm"}, {"days": "Sun", "time": "Closed"}], "id": "5508200034", "name": "USPS COLLECTION BOX - BLUE BOX", "address": {"city": "STILLWATER", "state": "MN", "street": "5815 NORELL AVE N", "postcode": "55082"}}},
{"geometry": {"type": "Point", "coordinates": [-92.8408669408, 45.0395804412]}, "type": "Feature", "properties": {"collection_times": [{"days": "Mon-Fri", "time": "3:00pm"}, {"days": "Sat", "time": "1:00pm"}, {"days": "Sun", "time": "Closed"}], "id": "5508200035", "name": "USPS COLLECTION BOX - BLUE BOX", "address": {"city": "STILLWATER", "state": "MN", "street": "1801 MARKET DR", "postcode": "55082"}}},
{"geometry": {"type": "Point", "coordinates": [-92.8463456013, 45.0335957225]}, "type": "Feature", "properties": {"collection_times": [{"days": "Mon-Fri", "time": "3:00pm"}, {"days": "Sat", "time": "1:00pm"}, {"days": "Sun", "time": "Closed"}], "id": "5508200051", "name": "USPS COLLECTION BOX - BLUE BOX", "address": {"city": "STILLWATER", "state": "MN", "street": "5891 NEAL AVE N", "postcode": "55082"}}},
{"geometry": {"type": "Point", "coordinates": [-92.8089115667, 45.0562727938]}, "type": "Feature", "properties": {"collection_times": [{"days": "Mon-Fri", "time": "5:00pm"}, {"days": "Sat", "time": "12:00pm"}, {"days": "Sun", "time": "Closed"}], "id": "5508200052", "name": "USPS COLLECTION BOX - PO LOBBY", "address": {"city": "STILLWATER", "state": "MN", "street": "216 MYRTLE ST W", "postcode": "55082"}}},
{"geometry": {"type": "Point", "coordinates": [-92.856695359, 45.029254007]}, "type": "Feature", "properties": {"collection_times": [{"days": "Mon-Fri", "time": "5:00pm"}, {"days": "Sat", "time": "3:45pm"}, {"days": "Sun", "time": "Closed"}], "id": "5508200053", "name": "USPS COLLECTION BOX - BLUE BOX", "address": {"city": "STILLWATER", "state": "MN", "street": "5520 MEMORIAL AVE N", "postcode": "55082"}}},
{"geometry": {"type": "Point", "coordinates": [-92.8261578738, 45.0363409241]}, "type": "Feature", "properties": {"collection_times": [{"days": "Mon-Sat", "time": "1:00pm"}, {"days": "Sun", "time": "Closed"}], "id": "5508200054", "name": "USPS COLLECTION BOX - BLUE BOX", "address": {"city": "STILLWATER", "state": "MN", "street": "1400 FRONTAGE RD W", "postcode": "55082"}}},
{"geometry": {"type": "Point", "coordinates": [-92.8089115667, 45.0562727938]}, "type": "Feature", "properties": {"collection_times": [{"days": "Mon-Fri", "time": "5:00pm"}, {"days": "Sat", "time": "12:00pm"}, {"days": "Sun", "time": "Closed"}], "id": "5508200055", "name": "USPS COLLECTION BOX - BLUE BOX", "address": {"city": "STILLWATER", "state": "MN", "street": "216 MYRTLE ST W", "postcode": "55082"}}},
{"geometry": {"type": "Point", "coordinates": [-92.8089115667, 45.0562727938]}, "type": "Feature", "properties": {"collection_times": [{"days": "Mon-Fri", "time": "5:00pm"}, {"days": "Sat", "time": "12:00pm"}, {"days": "Sun", "time": "Closed"}], "id": "5508200056", "name": "USPS COLLECTION BOX - BLUE BOX", "address": {"city": "STILLWATER", "state": "MN", "street": "216 MYRTLE ST W", "postcode": "55082"}}},
{"geometry": {"type": "Point", "coordinates": [-92.652742056, 45.4055295987]}, "type": "Feature", "properties": {"collection_times": [{"days": "Mon-Fri", "time": "3:00pm"}, {"days": "Sat", "time": "10:00am"}, {"days": "Sun", "time": "Closed"}], "id": "5508400001", "name": "USPS COLLECTION BOX - BLUE BOX", "address": {"city": "TAYLORS FALLS", "state": "MN", "street": "554 BENCH ST", "postcode": "55084"}}},
{"geometry": {"type": "Point", "coordinates": [-92.652742056, 45.4055295987]}, "type": "Feature", "properties": {"collection_times": [{"days": "Mon-Fri", "time": "3:00pm"}, {"days": "Sat", "time": "10:00am"}, {"days": "Sun", "time": "Closed"}], "id": "5508400002", "name": "USPS COLLECTION BOX - PO LOBBY", "address": {"city": "TAYLORS FALLS", "state": "MN", "street": "554 BENCH ST", "postcode": "55084"}}},
{"geometry": {"type": "Point", "coordinates": [-92.9657704448, 44.6737429706]}, "type": "Feature", "properties": {"collection_times": [{"days": "Mon-Fri", "time": "4:00pm"}, {"days": "Sat", "time": "9:30am"}, {"days": "Sun", "time": "Closed"}], "id": "5508500001", "name": "USPS COLLECTION BOX - BLUE BOX", "address": {"city": "VERMILLION", "state": "MN", "street": "108 PARK AVE N", "postcode": "55085"}}},
{"geometry": {"type": "Point", "coordinates": [-92.9657704448, 44.6737429706]}, "type": "Feature", "properties": {"collection_times": [{"days": "Mon-Fri", "time": "11:45am"}, {"days": "Sat", "time": "10:00am"}, {"days": "Sun", "time": "Closed"}], "id": "5508500002", "name": "USPS COLLECTION BOX - PO LOBBY", "address": {"city": "VERMILLION", "state": "MN", "street": "108 PARK AVE N", "postcode": "55085"}}},
{"geometry": {"type": "Point", "coordinates": [-93.3989634175, 44.2372232499]}, "type": "Feature", "properties": {"collection_times": [{"days": "Mon-Fri", "time": "4:30pm"}, {"days": "Sat", "time": "9:30am"}, {"days": "Sun", "time": "Closed"}], "id": "5508700001", "name": "USPS COLLECTION BOX - BLUE BOX", "address": {"city": "WARSAW", "state": "MN", "street": "6493 234TH ST W", "postcode": "55087"}}},
{"geometry": {"type": "Point", "coordinates": [-93.3989634175, 44.2372232499]}, "type": "Feature", "properties": {"collection_times": [{"days": "Mon-Fri", "time": "4:30pm"}, {"days": "Sat", "time": "9:30am"}, {"days": "Sun", "time": "Closed"}], "id": "5508700002", "name": "USPS COLLECTION BOX - PO LOBBY", "address": {"city": "WARSAW", "state": "MN", "street": "6493 234TH ST W", "postcode": "55087"}}},
{"geometry": {"type": "Point", "coordinates": [-93.351958102, 44.5296217258]}, "type": "Feature", "properties": {"collection_times": [{"days": "Mon-Fri", "time": "3:45pm"}, {"days": "Sat", "time": "9:45am"}, {"days": "Sun", "time": "Closed"}], "id": "5508800001", "name": "USPS COLLECTION BOX - BLUE BOX", "address": {"city": "WEBSTER", "state": "MN", "street": "4472 40TH ST W", "postcode": "55088"}}},
{"geometry": {"type": "Point", "coordinates": [-93.351958102, 44.5296217258]}, "type": "Feature", "properties": {"collection_times": [{"days": "Mon-Fri", "time": "12:30pm"}, {"days": "Sat", "time": "9:45am"}, {"days": "Sun", "time": "Closed"}], "id": "5508800002", "name": "USPS COLLECTION BOX - PO LOBBY", "address": {"city": "WEBSTER", "state": "MN", "street": "4472 40TH ST W", "postcode": "55088"}}},
{"geometry": {"type": "Point", "coordinates": [-92.7387171164, 44.5684004568]}, "type": "Feature", "properties": {"collection_times": [{"days": "Mon-Fri", "time": "2:45pm"}, {"days": "Sat", "time": "9:45am"}, {"days": "Sun", "time": "Closed"}], "id": "5508900001", "name": "USPS COLLECTION BOX - BLUE BOX", "address": {"city": "WELCH", "state": "MN", "street": "14691 WELCH TRL", "postcode": "55089"}}},
{"geometry": {"type": "Point", "coordinates": [-92.7387171164, 44.5684004568]}, "type": "Feature", "properties": {"collection_times": [{"days": "Mon-Fri", "time": "11:30am"}, {"days": "Sat", "time": "9:45am"}, {"days": "Sun", "time": "Closed"}], "id": "5508900005", "name": "USPS COLLECTION BOX - PO LOBBY", "address": {"city": "WELCH", "state": "MN", "street": "14691 WELCH TRL", "postcode": "55089"}}},
{"geometry": {"type": "Point", "coordinates": [-92.9584802817, 45.0567107333]}, "type": "Feature", "properties": {"collection_times": [{"days": "Mon-Fri", "time": "5:00pm"}, {"days": "Sat", "time": "1:00pm"}, {"days": "Sun", "time": "Closed"}], "id": "5509000002", "name": "USPS COLLECTION BOX - BLUE BOX", "address": {"city": "WILLERNIE", "state": "MN", "street": "105 WILDWOOD RD", "postcode": "55090"}}},
{"geometry": {"type": "Point", "coordinates": [-92.9973072455, 45.3379542508]}, "type": "Feature", "properties": {"collection_times": [{"days": "Mon-Fri", "time": "4:30pm"}, {"days": "Sat", "time": "12:00pm"}, {"days": "Sun", "time": "Closed"}], "id": "5509200001", "name": "USPS COLLECTION BOX - BLUE BOX", "address": {"city": "WYOMING", "state": "MN", "street": "26824 FELTON AVE", "postcode": "55092"}}},
{"geometry": {"type": "Point", "coordinates": [-92.9973072455, 45.3379542508]}, "type": "Feature", "properties": {"collection_times": [{"days": "Mon-Fri", "time": "4:30pm"}, {"days": "Sat", "time": "12:00pm"}, {"days": "Sun", "time": "Closed"}], "id": "5509200003", "name": "USPS COLLECTION BOX - PO LOBBY", "address": {"city": "WYOMING", "state": "MN", "street": "26824 FELTON AVE", "postcode": "55092"}}},
{"geometry": {"type": "Point", "coordinates": [-93.2000309234, 45.3195343967]}, "type": "Feature", "properties": {"collection_times": [{"days": "Mon-Sat", "time": "9:30am"}, {"days": "Sun", "time": "Closed"}], "id": "5509200005", "name": "USPS COLLECTION BOX - BLUE BOX", "address": {"city": "WYOMING", "state": "MN", "street": "2751 VIKING BLVD NE", "postcode": "55092"}}}
]}
