{"type": "FeatureCollection", "features": [
{"geometry": {"type": "Point", "coordinates": [-93.6538340029, 45.236987345]}, "type": "Feature", "properties": {"collection_times": [{"days": "Mon-Fri", "time": "4:30pm"}, {"days": "Sat", "time": "11:15am"}, {"days": "Sun", "time": "Closed"}], "id": "5530100001", "name": "USPS COLLECTION BOX - BLUE BOX", "address": {"city": "ALBERTVILLE", "state": "MN", "street": "5900 MAIN AVE NE", "postcode": "55301"}}},
{"geometry": {"type": "Point", "coordinates": [-93.6538340029, 45.236987345]}, "type": "Feature", "properties": {"collection_times": [{"days": "Mon-Fri", "time": "4:30pm"}, {"days": "Sat", "time": "11:15am"}, {"days": "Sun", "time": "Closed"}], "id": "5530100002", "name": "USPS COLLECTION BOX - PO LOBBY", "address": {"city": "ALBERTVILLE", "state": "MN", "street": "5900 MAIN AVE NE", "postcode": "55301"}}},
{"geometry": {"type": "Point", "coordinates": [-93.6538340029, 45.236987345]}, "type": "Feature", "properties": {"collection_times": [{"days": "Mon-Fri", "time": "4:30pm"}, {"days": "Sat", "time": "11:15am"}, {"days": "Sun", "time": "Closed"}], "id": "5530100003", "name": "USPS COLLECTION BOX - BLUE BOX", "address": {"city": "ALBERTVILLE", "state": "MN", "street": "5900 MAIN AVE NE", "postcode": "55301"}}},
{"geometry": {"type": "Point", "coordinates": [-94.1244293644, 45.2634917157]}, "type": "Feature", "properties": {"collection_times": [{"days": "Mon-Fri", "time": "5:00pm"}, {"days": "Sat", "time": "11:30am"}, {"days": "Sun", "time": "Closed"}], "id": "5530200009", "name": "USPS COLLECTION BOX - BLUE BOX", "address": {"city": "ANNANDALE", "state": "MN", "street": "83 OAK AVE N", "postcode": "55302"}}},
{"geometry": {"type": "Point", "coordinates": [-94.1244293644, 45.2634917157]}, "type": "Feature", "properties": {"collection_times": [{"days": "Mon-Fri", "time": "5:00pm"}, {"days": "Sat", "time": "11:30am"}, {"days": "Sun", "time": "Closed"}], "id": "5530200011", "name": "USPS COLLECTION BOX - PO LOBBY", "address": {"city": "ANNANDALE", "state": "MN", "street": "83 OAK AVE N", "postcode": "55302"}}},
{"geometry": {"type": "Point", "coordinates": [-94.1853623978, 45.2004447347]}, "type": "Feature", "properties": {"collection_times": [{"days": "Mon-Sat", "time": "10:00am"}, {"days": "Sun", "time": "Closed"}], "id": "5530200013", "name": "USPS COLLECTION BOX - BLUE BOX", "address": {"city": "ANNANDALE", "state": "MN", "street": "3259 COUNTY ROAD 3 NW", "postcode": "55302"}}},
{"geometry": {"type": "Point", "coordinates": [-94.1118229402, 45.2568458]}, "type": "Feature", "properties": {"collection_times": [{"days": "Mon-Fri", "time": "1:00pm"}, {"days": "Sat-Sun", "time": "Closed"}], "id": "5530200014", "name": "USPS COLLECTION BOX - BLUE BOX", "address": {"city": "ANNANDALE", "state": "MN", "street": "660 ELM ST E", "postcode": "55302"}}},
{"geometry": {"type": "Point", "coordinates": [-94.1244293644, 45.2634917157]}, "type": "Feature", "properties": {"collection_times": [{"days": "Mon-Fri", "time": "5:00pm"}, {"days": "Sat", "time": "11:30am"}, {"days": "Sun", "time": "Closed"}], "id": "5530200015", "name": "USPS COLLECTION BOX - BLUE BOX", "address": {"city": "ANNANDALE", "state": "MN", "street": "83 OAK AVE N", "postcode": "55302"}}},
{"geometry": {"type": "Point", "coordinates": [-93.3784211353, 45.2001974963]}, "type": "Feature", "properties": {"collection_times": [{"days": "Mon-Fri", "time": "6:00pm"}, {"days": "Sat", "time": "5:00pm"}, {"days": "Sun", "time": "Closed"}], "id": "5530300002", "name": "USPS COLLECTION BOX - BLUE BOX", "address": {"city": "ANOKA", "state": "MN", "street": "2168 7TH AVE", "postcode": "55303"}}},
{"geometry": {"type": "Point", "coordinates": [-93.3766174433, 45.201986582]}, "type": "Feature", "properties": {"collection_times": [{"days": "Mon-Fri", "time": "5:00pm"}, {"days": "Sat-Sun", "time": "Closed"}], "id": "5530300004", "name": "USPS COLLECTION BOX - BLUE BOX", "address": {"city": "ANOKA", "state": "MN", "street": "900 BOB EHLEN DR", "postcode": "55303"}}},
{"geometry": {"type": "Point", "coordinates": [-93.3913600331, 45.1973391233]}, "type": "Feature", "properties": {"collection_times": [{"days": "Mon-Fri", "time": "5:00pm"}, {"days": "Sat", "time": "2:00pm"}, {"days": "Sun", "time": "Closed"}], "id": "5530300005", "name": "USPS COLLECTION BOX - BLUE BOX", "address": {"city": "ANOKA", "state": "MN", "street": "12 BRIDGE SQ", "postcode": "55303"}}},
{"geometry": {"type": "Point", "coordinates": [-93.3887644172, 45.1978717394]}, "type": "Feature", "properties": {"collection_times": [{"days": "Mon-Fri", "time": "5:00pm"}, {"days": "Sat", "time": "2:00pm"}, {"days": "Sun", "time": "Closed"}], "id": "5530300007", "name": "USPS COLLECTION BOX - BLUE BOX", "address": {"city": "ANOKA", "state": "MN", "street": "228 E MAIN ST", "postcode": "55303"}}},
{"geometry": {"type": "Point", "coordinates": [-93.3850075158, 45.1978109188]}, "type": "Feature", "properties": {"collection_times": [{"days": "Mon-Fri", "time": "5:00pm"}, {"days": "Sat", "time": "2:00pm"}, {"days": "Sun", "time": "Closed"}], "id": "5530300008", "name": "USPS COLLECTION BOX - BLUE BOX", "address": {"city": "ANOKA", "state": "MN", "street": "420 E MAIN ST", "postcode": "55303"}}},
{"geometry": {"type": "Point", "coordinates": [-93.3847791737, 45.1987024083]}, "type": "Feature", "properties": {"collection_times": [{"days": "Mon-Fri", "time": "5:00pm"}, {"days": "Sat", "time": "2:00pm"}, {"days": "Sun", "time": "Closed"}], "id": "5530300009", "name": "USPS COLLECTION BOX - BLUE BOX", "address": {"city": "ANOKA", "state": "MN", "street": "433 JACKSON ST", "postcode": "55303"}}},
{"geometry": {"type": "Point", "coordinates": [-93.388896668, 45.1986924362]}, "type": "Feature", "properties": {"collection_times": [{"days": "Mon-Fri", "time": "5:00pm"}, {"days": "Sat", "time": "2:00pm"}, {"days": "Sun", "time": "Closed"}], "id": "5530300010", "name": "USPS COLLECTION BOX - BLUE BOX", "address": {"city": "ANOKA", "state": "MN", "street": "241 JACKSON ST", "postcode": "55303"}}},
{"geometry": {"type": "Point", "coordinates": [-93.3893113445, 45.1987061445]}, "type": "Feature", "properties": {"collection_times": [{"days": "Mon-Fri", "time": "5:00pm"}, {"days": "Sat", "time": "2:00pm"}, {"days": "Sun", "time": "Closed"}], "id": "5530300011", "name": "USPS COLLECTION BOX - BLUE BOX", "address": {"city": "ANOKA", "state": "MN", "street": "201 JACKSON ST", "postcode": "55303"}}},
{"geometry": {"type": "Point", "coordinates": [-93.3871868612, 45.199888744]}, "type": "Feature", "properties": {"collection_times": [{"days": "Mon-Fri", "time": "5:00pm"}, {"days": "Sat", "time": "2:00pm"}, {"days": "Sun", "time": "Closed"}], "id": "5530300013", "name": "USPS COLLECTION BOX - BLUE BOX", "address": {"city": "ANOKA", "state": "MN", "street": "2150 3RD AVE", "postcode": "55303"}}},
{"geometry": {"type": "Point", "coordinates": [-93.4200197556, 45.2737841111]}, "type": "Feature", "properties": {"collection_times": [{"days": "Mon-Sat", "time": "1:00pm"}, {"days": "Sun", "time": "Closed"}], "id": "5530300023", "name": "USPS COLLECTION BOX - BLUE BOX", "address": {"city": "ANOKA", "state": "MN", "street": "15299 SAINT FRANCIS BLVD", "postcode": "55303"}}},
{"geometry": {"type": "Point", "coordinates": [-93.4711094597, 45.2785876248]}, "type": "Feature", "properties": {"collection_times": [{"days": "Mon-Sat", "time": "10:00am"}, {"days": "Sun", "time": "Closed"}], "id": "5530300027", "name": "USPS COLLECTION BOX - BLUE BOX", "address": {"city": "ANOKA", "state": "MN", "street": "14075 RAMSEY BLVD NW", "postcode": "55303"}}},
{"geometry": {"type": "Point", "coordinates": [-93.3994605481, 45.2038917518]}, "type": "Feature", "properties": {"collection_times": [{"days": "Mon-Fri", "time": "5:00pm"}, {"days": "Sat", "time": "2:00pm"}, {"days": "Sun", "time": "Closed"}], "id": "5530300032", "name": "USPS COLLECTION BOX - BLUE BOX", "address": {"city": "ANOKA", "state": "MN", "street": "530 W MAIN ST", "postcode": "55303"}}},
{"geometry": {"type": "Point", "coordinates": [-93.3782756313, 45.1876616802]}, "type": "Feature", "properties": {"collection_times": [{"days": "Mon-Fri", "time": "5:00pm"}, {"days": "Sat", "time": "2:00pm"}, {"days": "Sun", "time": "Closed"}], "id": "5530300035", "name": "USPS COLLECTION BOX - BLUE BOX", "address": {"city": "ANOKA", "state": "MN", "street": "703 E RIVER RD", "postcode": "55303"}}},
{"geometry": {"type": "Point", "coordinates": [-93.4132985038, 45.2110998839]}, "type": "Feature", "properties": {"collection_times": [{"days": "Mon-Fri", "time": "5:00pm"}, {"days": "Sat", "time": "2:00pm"}, {"days": "Sun", "time": "Closed"}], "id": "5530300037", "name": "USPS COLLECTION BOX - BLUE BOX", "address": {"city": "ANOKA", "state": "MN", "street": "2900 CUTTERS GROVE AVE", "postcode": "55303"}}},
{"geometry": {"type": "Point", "coordinates": [-93.3899447377, 45.197815109]}, "type": "Feature", "properties": {"collection_times": [{"days": "Mon-Fri", "time": "5:00pm"}, {"days": "Sat", "time": "2:00pm"}, {"days": "Sun", "time": "Closed"}], "id": "5530300039", "name": "USPS COLLECTION BOX - BLUE BOX", "address": {"city": "ANOKA", "state": "MN", "street": "118 E MAIN ST", "postcode": "55303"}}},
{"geometry": {"type": "Point", "coordinates": [-93.3982522594, 45.2272777929]}, "type": "Feature", "properties": {"collection_times": [{"days": "Mon-Fri", "time": "1:00pm"}, {"days": "Sat", "time": "12:00pm"}, {"days": "Sun", "time": "Closed"}], "id": "5530300040", "name": "USPS COLLECTION BOX - BLUE BOX", "address": {"city": "ANOKA", "state": "MN", "street": "14125 SAINT FRANCIS BLVD", "postcode": "55303"}}},
{"geometry": {"type": "Point", "coordinates": [-93.3784211353, 45.2001974963]}, "type": "Feature", "properties": {"collection_times": [{"days": "Mon-Fri", "time": "6:00pm"}, {"days": "Sat", "time": "5:00pm"}, {"days": "Sun", "time": "Closed"}], "id": "5530300042", "name": "USPS COLLECTION BOX - PO LOBBY", "address": {"city": "ANOKA", "state": "MN", "street": "2168 7TH AVE", "postcode": "55303"}}},
{"geometry": {"type": "Point", "coordinates": [-93.3871868612, 45.199888744]}, "type": "Feature", "properties": {"collection_times": [{"days": "Mon-Fri", "time": "5:00pm"}, {"days": "Sat", "time": "2:00pm"}, {"days": "Sun", "time": "Closed"}], "id": "5530300045", "name": "USPS COLLECTION BOX - BLUE BOX", "address": {"city": "ANOKA", "state": "MN", "street": "2150 3RD AVE", "postcode": "55303"}}},
{"geometry": {"type": "Point", "coordinates": [-93.3784211353, 45.2001974963]}, "type": "Feature", "properties": {"collection_times": [{"days": "Mon-Fri", "time": "6:00pm"}, {"days": "Sat", "time": "5:00pm"}, {"days": "Sun", "time": "Closed"}], "id": "5530300048", "name": "USPS COLLECTION BOX - BLUE BOX", "address": {"city": "ANOKA", "state": "MN", "street": "2168 7TH AVE", "postcode": "55303"}}},
{"geometry": {"type": "Point", "coordinates": [-93.4110518754, 45.2215771137]}, "type": "Feature", "properties": {"collection_times": [{"days": "Mon-Fri", "time": "5:00pm"}, {"days": "Sat-Sun", "time": "Closed"}], "id": "5530300049", "name": "USPS COLLECTION BOX - BLUE BOX", "address": {"city": "ANOKA", "state": "MN", "street": "1001 LUND BLVD", "postcode": "55303"}}},
{"geometry": {"type": "Point", "coordinates": [-93.4711094597, 45.2785876248]}, "type": "Feature", "properties": {"collection_times": [{"days": "Mon-Fri", "time": "4:00pm"}, {"days": "Sat", "time": "1:00pm"}, {"days": "Sun", "time": "Closed"}], "id": "5530300050", "name": "USPS COLLECTION BOX - BLUE BOX", "address": {"city": "ANOKA", "state": "MN", "street": "7876 SUNWOOD DR NW", "postcode": "55303"}}},
{"geometry": {"type": "Point", "coordinates": [-93.3784211353, 45.2001974963]}, "type": "Feature", "properties": {"collection_times": [{"days": "Mon-Fri", "time": "6:00pm"}, {"days": "Sat", "time": "5:00pm"}, {"days": "Sun", "time": "Closed"}], "id": "5530300051", "name": "USPS COLLECTION BOX - APC", "address": {"city": "ANOKA", "state": "MN", "street": "2168 7TH AVE", "postcode": "55303"}}},
{"geometry": {"type": "Point", "coordinates": [-93.4711094597, 45.2785876248]}, "type": "Feature", "properties": {"collection_times": [{"days": "Mon-Fri", "time": "4:00pm"}, {"days": "Sat", "time": "1:00pm"}, {"days": "Sun", "time": "Closed"}], "id": "5530300052", "name": "USPS COLLECTION BOX - BLUE BOX", "address": {"city": "ANOKA", "state": "MN", "street": "7876 SUNWOOD DR NW", "postcode": "55303"}}},
{"geometry": {"type": "Point", "coordinates": [-93.3573005859, 45.2208235688]}, "type": "Feature", "properties": {"collection_times": [{"days": "Mon-Sat", "time": "10:30am"}, {"days": "Sun", "time": "Closed"}], "id": "5530400000", "name": "USPS COLLECTION BOX - BLUE BOX", "address": {"city": "ANDOVER", "state": "MN", "street": "13735 ROUND LAKE BLVD NW", "postcode": "55304"}}},
{"geometry": {"type": "Point", "coordinates": [-93.2340143643, 45.2892216376]}, "type": "Feature", "properties": {"collection_times": [{"days": "Mon-Sat", "time": "11:30am"}, {"days": "Sun", "time": "Closed"}], "id": "5530400001", "name": "USPS COLLECTION BOX - BLUE BOX", "address": {"city": "ANDOVER", "state": "MN", "street": "17565 HIGHWAY 65 NE", "postcode": "55304"}}},
{"geometry": {"type": "Point", "coordinates": [-93.3572408862, 45.2262734927]}, "type": "Feature", "properties": {"collection_times": [{"days": "Mon-Sat", "time": "11:00am"}, {"days": "Sun", "time": "Closed"}], "id": "5530400003", "name": "USPS COLLECTION BOX - BLUE BOX", "address": {"city": "ANDOVER", "state": "MN", "street": "14041 ROUND LAKE BLVD NW", "postcode": "55304"}}},
{"geometry": {"type": "Point", "coordinates": [-93.3059814601, 45.2203787763]}, "type": "Feature", "properties": {"collection_times": [{"days": "Mon-Sat", "time": "3:30pm"}, {"days": "Sun", "time": "Closed"}], "id": "5530400005", "name": "USPS COLLECTION BOX - BLUE BOX", "address": {"city": "ANDOVER", "state": "MN", "street": "13727 HANSON BLVD NW", "postcode": "55304"}}},
{"geometry": {"type": "Point", "coordinates": [-93.3036084444, 45.2469314732]}, "type": "Feature", "properties": {"collection_times": [{"days": "Mon-Fri", "time": "5:00pm"}, {"days": "Sat", "time": "3:30pm"}, {"days": "Sun", "time": "Closed"}], "id": "5530400006", "name": "USPS COLLECTION BOX - BLUE BOX", "address": {"city": "ANDOVER", "state": "MN", "street": "15219 BLUEBIRD ST NW", "postcode": "55304"}}},
{"geometry": {"type": "Point", "coordinates": [-93.3036084444, 45.2469314732]}, "type": "Feature", "properties": {"collection_times": [{"days": "Mon-Fri", "time": "4:30pm"}, {"days": "Sat", "time": "3:30pm"}, {"days": "Sun", "time": "Closed"}], "id": "5530400007", "name": "USPS COLLECTION BOX - BLUE BOX", "address": {"city": "ANDOVER", "state": "MN", "street": "15219 BLUEBIRD ST NW", "postcode": "55304"}}},
{"geometry": {"type": "Point", "coordinates": [-93.3220441138, 45.2194960312]}, "type": "Feature", "properties": {"collection_times": [{"days": "Mon-Sat", "time": "10:00am"}, {"days": "Sun", "time": "Closed"}], "id": "5530400008", "name": "USPS COLLECTION BOX - BLUE BOX", "address": {"city": "ANDOVER", "state": "MN", "street": "2218 BUNKER LAKE BLVD NW", "postcode": "55304"}}},
{"geometry": {"type": "Point", "coordinates": [-93.4281468154, 44.9712866559]}, "type": "Feature", "properties": {"collection_times": [{"days": "Mon-Fri", "time": "4:30pm"}, {"days": "Sat-Sun", "time": "Closed"}], "id": "5530500005", "name": "USPS COLLECTION BOX - BLUE BOX", "address": {"city": "MINNETONKA", "state": "MN", "street": "11800 WAYZATA BLVD", "postcode": "55305"}}},
{"geometry": {"type": "Point", "coordinates": [-93.4555311325, 44.9706111863]}, "type": "Feature", "properties": {"collection_times": [{"days": "Mon-Fri", "time": "4:30pm"}, {"days": "Sat-Sun", "time": "Closed"}], "id": "5530500007", "name": "USPS COLLECTION BOX - BLUE BOX", "address": {"city": "MINNETONKA", "state": "MN", "street": "13911 RIDGEDALE DR", "postcode": "55305"}}},
{"geometry": {"type": "Point", "coordinates": [-93.4449471986, 44.9692839064]}, "type": "Feature", "properties": {"collection_times": [{"days": "Mon-Fri", "time": "5:00pm"}, {"days": "Sat", "time": "2:30pm"}, {"days": "Sun", "time": "Closed"}], "id": "5530500008", "name": "USPS COLLECTION BOX - BLUE BOX", "address": {"city": "MINNETONKA", "state": "MN", "street": "13081 RIDGEDALE DR", "postcode": "55305"}}},
{"geometry": {"type": "Point", "coordinates": [-93.4339954561, 44.9703755925]}, "type": "Feature", "properties": {"collection_times": [{"days": "Mon-Fri", "time": "4:00pm"}, {"days": "Sat-Sun", "time": "Closed"}], "id": "5530500010", "name": "USPS COLLECTION BOX - BLUE BOX", "address": {"city": "MINNETONKA", "state": "MN", "street": "12305 WAYZATA BLVD", "postcode": "55305"}}},
{"geometry": {"type": "Point", "coordinates": [-93.4438233876, 44.9415600801]}, "type": "Feature", "properties": {"collection_times": [{"days": "Mon-Fri", "time": "3:30pm"}, {"days": "Sat-Sun", "time": "Closed"}], "id": "5530500012", "name": "USPS COLLECTION BOX - BLUE BOX", "address": {"city": "MINNETONKA", "state": "MN", "street": "12934 MINNETONKA BLVD", "postcode": "55305"}}},
{"geometry": {"type": "Point", "coordinates": [-93.4367459006, 44.9713046404]}, "type": "Feature", "properties": {"collection_times": [{"days": "Mon-Fri", "time": "4:30pm"}, {"days": "Sat-Sun", "time": "Closed"}], "id": "5530500013", "name": "USPS COLLECTION BOX - BLUE BOX", "address": {"city": "MINNETONKA", "state": "MN", "street": "12450 WAYZATA BLVD", "postcode": "55305"}}},
{"geometry": {"type": "Point", "coordinates": [-93.424005276, 44.9325636771]}, "type": "Feature", "properties": {"collection_times": [{"days": "Mon-Fri", "time": "4:00pm"}, {"days": "Sat-Sun", "time": "Closed"}], "id": "5530500017", "name": "USPS COLLECTION BOX - BLUE BOX", "address": {"city": "MINNETONKA", "state": "MN", "street": "11500 HIGHWAY 7", "postcode": "55305"}}},
{"geometry": {"type": "Point", "coordinates": [-93.4060550567, 44.9726482417]}, "type": "Feature", "properties": {"collection_times": [{"days": "Mon-Fri", "time": "4:15pm"}, {"days": "Sat-Sun", "time": "Closed"}], "id": "5530500026", "name": "USPS COLLECTION BOX - BLUE BOX", "address": {"city": "MINNETONKA", "state": "MN", "street": "9999 WAYZATA BLVD", "postcode": "55305"}}},
{"geometry": {"type": "Point", "coordinates": [-93.4424996565, 44.9665784792]}, "type": "Feature", "properties": {"collection_times": [{"days": "Mon-Fri", "time": "4:00pm"}, {"days": "Sat-Sun", "time": "Closed"}], "id": "5530500028", "name": "USPS COLLECTION BOX - BLUE BOX", "address": {"city": "MINNETONKA", "state": "MN", "street": "1809 PLYMOUTH RD", "postcode": "55305"}}},
{"geometry": {"type": "Point", "coordinates": [-93.4128629856, 44.9723702463]}, "type": "Feature", "properties": {"collection_times": [{"days": "Mon-Fri", "time": "4:15pm"}, {"days": "Sat-Sun", "time": "Closed"}], "id": "5530500031", "name": "USPS COLLECTION BOX - BLUE BOX", "address": {"city": "MINNETONKA", "state": "MN", "street": "10505 WAYZATA BLVD", "postcode": "55305"}}},
{"geometry": {"type": "Point", "coordinates": [-93.4197004172, 44.95102791]}, "type": "Feature", "properties": {"collection_times": [{"days": "Mon-Fri", "time": "3:30pm"}, {"days": "Sat-Sun", "time": "Closed"}], "id": "5530500032", "name": "USPS COLLECTION BOX - BLUE BOX", "address": {"city": "MINNETONKA", "state": "MN", "street": "11012 GREENBRIER RD", "postcode": "55305"}}},
{"geometry": {"type": "Point", "coordinates": [-93.4146551684, 44.9726849134]}, "type": "Feature", "properties": {"collection_times": [{"days": "Mon-Fri", "time": "4:30pm"}, {"days": "Sat-Sun", "time": "Closed"}], "id": "5530500034", "name": "USPS COLLECTION BOX - BLUE BOX", "address": {"city": "MINNETONKA", "state": "MN", "street": "10600 WAYZATA BLVD", "postcode": "55305"}}},
{"geometry": {"type": "Point", "coordinates": [-93.4555311325, 44.9706111863]}, "type": "Feature", "properties": {"collection_times": [{"days": "Mon-Fri", "time": "4:30pm"}, {"days": "Sat-Sun", "time": "Closed"}], "id": "5530500036", "name": "USPS COLLECTION BOX - BLUE BOX", "address": {"city": "MINNETONKA", "state": "MN", "street": "13911 RIDGEDALE DR", "postcode": "55305"}}},
{"geometry": {"type": "Point", "coordinates": [-93.4372820324, 44.9704237646]}, "type": "Feature", "properties": {"collection_times": [{"days": "Mon-Fri", "time": "4:00pm"}, {"days": "Sat-Sun", "time": "Closed"}], "id": "5530500038", "name": "USPS COLLECTION BOX - BLUE BOX", "address": {"city": "MINNETONKA", "state": "MN", "street": "12653 WAYZATA BLVD", "postcode": "55305"}}},
{"geometry": {"type": "Point", "coordinates": [-93.4401999843, 44.9655942573]}, "type": "Feature", "properties": {"collection_times": [{"days": "Mon-Fri", "time": "4:00pm"}, {"days": "Sat-Sun", "time": "Closed"}], "id": "5530500039", "name": "USPS COLLECTION BOX - BLUE BOX", "address": {"city": "MINNETONKA", "state": "MN", "street": "12601 RIDGEDALE DR", "postcode": "55305"}}},
{"geometry": {"type": "Point", "coordinates": [-93.4128629856, 44.9723702463]}, "type": "Feature", "properties": {"collection_times": [{"days": "Mon-Fri", "time": "4:15pm"}, {"days": "Sat-Sun", "time": "Closed"}], "id": "5530500041", "name": "USPS COLLECTION BOX - BLUE BOX", "address": {"city": "MINNETONKA", "state": "MN", "street": "10505 WAYZATA BLVD", "postcode": "55305"}}},
{"geometry": {"type": "Point", "coordinates": [-93.4463516081, 44.9728066418]}, "type": "Feature", "properties": {"collection_times": [{"days": "Mon-Fri", "time": "4:30pm"}, {"days": "Sat-Sun", "time": "Closed"}], "id": "5530500045", "name": "USPS COLLECTION BOX - BLUE BOX", "address": {"city": "MINNETONKA", "state": "MN", "street": "13100 WAYZATA BLVD", "postcode": "55305"}}},
{"geometry": {"type": "Point", "coordinates": [-93.4197158668, 44.9730906683]}, "type": "Feature", "properties": {"collection_times": [{"days": "Mon-Fri", "time": "4:30pm"}, {"days": "Sat-Sun", "time": "Closed"}], "id": "5530500046", "name": "USPS COLLECTION BOX - BLUE BOX", "address": {"city": "MINNETONKA", "state": "MN", "street": "11100 WAYZATA BLVD", "postcode": "55305"}}},
{"geometry": {"type": "Point", "coordinates": [-93.4166378076, 44.9714203302]}, "type": "Feature", "properties": {"collection_times": [{"days": "Mon-Fri", "time": "4:15pm"}, {"days": "Sat-Sun", "time": "Closed"}], "id": "5530500048", "name": "USPS COLLECTION BOX - BLUE BOX", "address": {"city": "MINNETONKA", "state": "MN", "street": "10801 WAYZATA BLVD", "postcode": "55305"}}},
{"geometry": {"type": "Point", "coordinates": [-93.4281468154, 44.9712866559]}, "type": "Feature", "properties": {"collection_times": [{"days": "Mon-Fri", "time": "4:30pm"}, {"days": "Sat-Sun", "time": "Closed"}], "id": "5530500050", "name": "USPS COLLECTION BOX - BLUE BOX", "address": {"city": "MINNETONKA", "state": "MN", "street": "11800 WAYZATA BLVD", "postcode": "55305"}}},
{"geometry": {"type": "Point", "coordinates": [-93.4195515155, 44.9331592558]}, "type": "Feature", "properties": {"collection_times": [{"days": "Mon-Fri", "time": "4:00pm"}, {"days": "Sat-Sun", "time": "Closed"}], "id": "5530500051", "name": "USPS COLLECTION BOX - BLUE BOX", "address": {"city": "MINNETONKA", "state": "MN", "street": "1589 HIGHWAY 7", "postcode": "55305"}}},
{"geometry": {"type": "Point", "coordinates": [-93.2811653469, 44.7441431561]}, "type": "Feature", "properties": {"collection_times": [{"days": "Mon-Fri", "time": "4:30pm"}, {"days": "Sat", "time": "10:00am"}, {"days": "Sun", "time": "Closed"}], "id": "5530600000", "name": "USPS COLLECTION BOX - BLUE BOX", "address": {"city": "BURNSVILLE", "state": "MN", "street": "14300 NICOLLET CT", "postcode": "55306"}}},
{"geometry": {"type": "Point", "coordinates": [-93.2872504879, 44.7392102173]}, "type": "Feature", "properties": {"collection_times": [{"days": "Mon-Fri", "time": "4:30pm"}, {"days": "Sat", "time": "10:00am"}, {"days": "Sun", "time": "Closed"}], "id": "5530600001", "name": "USPS COLLECTION BOX - BLUE BOX", "address": {"city": "BURNSVILLE", "state": "MN", "street": "14500 BURNHAVEN DR", "postcode": "55306"}}},
{"geometry": {"type": "Point", "coordinates": [-93.268855476, 44.7394964933]}, "type": "Feature", "properties": {"collection_times": [{"days": "Mon-Fri", "time": "4:15pm"}, {"days": "Sat", "time": "3:00pm"}, {"days": "Sun", "time": "Closed"}], "id": "5530600004", "name": "USPS COLLECTION BOX - BLUE BOX", "address": {"city": "BURNSVILLE", "state": "MN", "street": "401 CO RD 42 E", "postcode": "55306"}}},
{"geometry": {"type": "Point", "coordinates": [-93.3234797891, 44.7439834567]}, "type": "Feature", "properties": {"collection_times": [{"days": "Mon-Fri", "time": "4:30pm"}, {"days": "Sat", "time": "11:00am"}, {"days": "Sun", "time": "Closed"}], "id": "5530600005", "name": "USPS COLLECTION BOX - BLUE BOX", "address": {"city": "BURNSVILLE", "state": "MN", "street": "14255 W BURNSVILLE PKWY", "postcode": "55306"}}},
{"geometry": {"type": "Point", "coordinates": [-93.3234894917, 44.7361331256]}, "type": "Feature", "properties": {"collection_times": [{"days": "Mon-Fri", "time": "12:00pm"}, {"days": "Sat", "time": "11:00am"}, {"days": "Sun", "time": "Closed"}], "id": "5530600009", "name": "USPS COLLECTION BOX - BLUE BOX", "address": {"city": "BURNSVILLE", "state": "MN", "street": "14750 W BURNSVILLE PKWY", "postcode": "55306"}}},
{"geometry": {"type": "Point", "coordinates": [-94.0791810947, 44.6071443702]}, "type": "Feature", "properties": {"collection_times": [{"days": "Mon-Fri", "time": "3:30pm"}, {"days": "Sat", "time": "10:00am"}, {"days": "Sun", "time": "Closed"}], "id": "5530700001", "name": "USPS COLLECTION BOX - BLUE BOX", "address": {"city": "ARLINGTON", "state": "MN", "street": "220 W MAIN ST", "postcode": "55307"}}},
{"geometry": {"type": "Point", "coordinates": [-94.0791810947, 44.6071443702]}, "type": "Feature", "properties": {"collection_times": [{"days": "Mon-Fri", "time": "4:30pm"}, {"days": "Sat", "time": "10:00am"}, {"days": "Sun", "time": "Closed"}], "id": "5530700003", "name": "USPS COLLECTION BOX - PO LOBBY", "address": {"city": "ARLINGTON", "state": "MN", "street": "220 W MAIN ST", "postcode": "55307"}}},
{"geometry": {"type": "Point", "coordinates": [-93.8710443844, 45.3894884514]}, "type": "Feature", "properties": {"collection_times": [{"days": "Mon-Fri", "time": "4:30pm"}, {"days": "Sat", "time": "10:30am"}, {"days": "Sun", "time": "Closed"}], "id": "5530800001", "name": "USPS COLLECTION BOX - BLUE BOX", "address": {"city": "BECKER", "state": "MN", "street": "13974 1ST ST", "postcode": "55308"}}},
{"geometry": {"type": "Point", "coordinates": [-93.8831936077, 45.3972711331]}, "type": "Feature", "properties": {"collection_times": [{"days": "Mon-Fri", "time": "12:00pm"}, {"days": "Sat-Sun", "time": "Closed"}], "id": "5530800002", "name": "USPS COLLECTION BOX - BLUE BOX", "address": {"city": "BECKER", "state": "MN", "street": "13400 1ST ST", "postcode": "55308"}}},
{"geometry": {"type": "Point", "coordinates": [-93.8710443844, 45.3894884514]}, "type": "Feature", "properties": {"collection_times": [{"days": "Mon-Fri", "time": "4:30pm"}, {"days": "Sat", "time": "10:30am"}, {"days": "Sun", "time": "Closed"}], "id": "5530800004", "name": "USPS COLLECTION BOX - PO LOBBY", "address": {"city": "BECKER", "state": "MN", "street": "13974 1ST ST", "postcode": "55308"}}},
{"geometry": {"type": "Point", "coordinates": [-93.7393126281, 45.3328616534]}, "type": "Feature", "properties": {"collection_times": [{"days": "Mon-Fri", "time": "4:45pm"}, {"days": "Sat", "time": "11:00am"}, {"days": "Sun", "time": "Closed"}], "id": "5530900005", "name": "USPS COLLECTION BOX - BLUE BOX", "address": {"city": "BIG LAKE", "state": "MN", "street": "625 ROSE DR", "postcode": "55309"}}},
{"geometry": {"type": "Point", "coordinates": [-93.7393126281, 45.3328616534]}, "type": "Feature", "properties": {"collection_times": [{"days": "Mon-Fri", "time": "4:45pm"}, {"days": "Sat", "time": "11:00am"}, {"days": "Sun", "time": "Closed"}], "id": "5530900006", "name": "USPS COLLECTION BOX - PO LOBBY", "address": {"city": "BIG LAKE", "state": "MN", "street": "625 ROSE DR", "postcode": "55309"}}},
{"geometry": {"type": "Point", "coordinates": [-93.7393126281, 45.3328616534]}, "type": "Feature", "properties": {"collection_times": [{"days": "Mon-Fri", "time": "4:45pm"}, {"days": "Sat", "time": "11:00am"}, {"days": "Sun", "time": "Closed"}], "id": "5530900007", "name": "USPS COLLECTION BOX - BLUE BOX", "address": {"city": "BIG LAKE", "state": "MN", "street": "625 ROSE DR", "postcode": "55309"}}},
{"geometry": {"type": "Point", "coordinates": [-94.8949941078, 44.7660267335]}, "type": "Feature", "properties": {"collection_times": [{"days": "Mon-Fri", "time": "2:00pm"}, {"days": "Sat", "time": "11:45am"}, {"days": "Sun", "time": "Closed"}], "id": "5531000001", "name": "USPS COLLECTION BOX - BLUE BOX", "address": {"city": "BIRD ISLAND", "state": "MN", "street": "240 MAIN ST", "postcode": "55310"}}},
{"geometry": {"type": "Point", "coordinates": [-94.8949941078, 44.7660267335]}, "type": "Feature", "properties": {"collection_times": [{"days": "Mon-Fri", "time": "2:00pm"}, {"days": "Sat", "time": "11:45am"}, {"days": "Sun", "time": "Closed"}], "id": "5531000002", "name": "USPS COLLECTION BOX - PO LOBBY", "address": {"city": "BIRD ISLAND", "state": "MN", "street": "240 MAIN ST", "postcode": "55310"}}},
{"geometry": {"type": "Point", "coordinates": [-93.4529570138, 45.1035343704]}, "type": "Feature", "properties": {"collection_times": [{"days": "Mon-Fri", "time": "5:00pm"}, {"days": "Sat", "time": "3:00pm"}, {"days": "Sun", "time": "Closed"}], "id": "5531100001", "name": "USPS COLLECTION BOX - BLUE BOX", "address": {"city": "MAPLE GROVE", "state": "MN", "street": "13500 GROVE DR", "postcode": "55311"}}},
{"geometry": {"type": "Point", "coordinates": [-93.4529570138, 45.1035343704]}, "type": "Feature", "properties": {"collection_times": [{"days": "Mon-Fri", "time": "5:00pm"}, {"days": "Sat", "time": "3:30pm"}, {"days": "Sun", "time": "Closed"}], "id": "5531100005", "name": "USPS COLLECTION BOX - PO LOBBY", "address": {"city": "MAPLE GROVE", "state": "MN", "street": "13500 GROVE DR", "postcode": "55311"}}},
{"geometry": {"type": "Point", "coordinates": [-93.4878460225, 45.1254960036]}, "type": "Feature", "properties": {"collection_times": [{"days": "Mon-Sat", "time": "10:00am"}, {"days": "Sun", "time": "Closed"}], "id": "5531100006", "name": "USPS COLLECTION BOX - BLUE BOX", "address": {"city": "MAPLE GROVE", "state": "MN", "street": "16401 COUNTY ROAD 30", "postcode": "55311"}}},
{"geometry": {"type": "Point", "coordinates": [-93.4529570138, 45.1035343704]}, "type": "Feature", "properties": {"collection_times": [{"days": "Mon-Fri", "time": "5:00pm"}, {"days": "Sat", "time": "3:00pm"}, {"days": "Sun", "time": "Closed"}], "id": "5531100007", "name": "USPS COLLECTION BOX - BLUE BOX", "address": {"city": "MAPLE GROVE", "state": "MN", "street": "13500 GROVE DR", "postcode": "55311"}}},
{"geometry": {"type": "Point", "coordinates": [-93.4529570138, 45.1035343704]}, "type": "Feature", "properties": {"collection_times": [{"days": "Mon-Fri", "time": "5:00pm"}, {"days": "Sat", "time": "3:00pm"}, {"days": "Sun", "time": "Closed"}], "id": "5531100008", "name": "USPS COLLECTION BOX - BLUE BOX", "address": {"city": "MAPLE GROVE", "state": "MN", "street": "13500 GROVE DR", "postcode": "55311"}}},
{"geometry": {"type": "Point", "coordinates": [-93.4529570138, 45.1035343704]}, "type": "Feature", "properties": {"collection_times": [{"days": "Mon-Fri", "time": "5:00pm"}, {"days": "Sat", "time": "3:30pm"}, {"days": "Sun", "time": "Closed"}], "id": "5531100009", "name": "USPS COLLECTION BOX - APC", "address": {"city": "MAPLE GROVE", "state": "MN", "street": "13500 GROVE DR", "postcode": "55311"}}},
{"geometry": {"type": "Point", "coordinates": [-94.3519919811, 44.7319275982]}, "type": "Feature", "properties": {"collection_times": [{"days": "Mon-Fri", "time": "3:15pm"}, {"days": "Sat", "time": "9:30am"}, {"days": "Sun", "time": "Closed"}], "id": "5531200001", "name": "USPS COLLECTION BOX - BLUE BOX", "address": {"city": "BROWNTON", "state": "MN", "street": "113 4TH AVE S", "postcode": "55312"}}},
{"geometry": {"type": "Point", "coordinates": [-94.3519919811, 44.7319275982]}, "type": "Feature", "properties": {"collection_times": [{"days": "Mon-Fri", "time": "3:15pm"}, {"days": "Sat", "time": "9:30am"}, {"days": "Sun", "time": "Closed"}], "id": "5531200002", "name": "USPS COLLECTION BOX - PO LOBBY", "address": {"city": "BROWNTON", "state": "MN", "street": "113 4TH AVE S", "postcode": "55312"}}},
{"geometry": {"type": "Point", "coordinates": [-93.8763277725, 45.1742456256]}, "type": "Feature", "properties": {"collection_times": [{"days": "Mon-Fri", "time": "5:00pm"}, {"days": "Sat", "time": "3:00pm"}, {"days": "Sun", "time": "Closed"}], "id": "5531300001", "name": "USPS COLLECTION BOX - BLUE BOX", "address": {"city": "BUFFALO", "state": "MN", "street": "209 CENTRAL AVE", "postcode": "55313"}}},
{"geometry": {"type": "Point", "coordinates": [-93.8513246493, 45.1569648697]}, "type": "Feature", "properties": {"collection_times": [{"days": "Mon-Sat", "time": "9:00am"}, {"days": "Sun", "time": "Closed"}], "id": "5531300004", "name": "USPS COLLECTION BOX - BLUE BOX", "address": {"city": "BUFFALO", "state": "MN", "street": "1008 HIGHWAY 55 E", "postcode": "55313"}}},
{"geometry": {"type": "Point", "coordinates": [-93.8565079467, 45.1757682377]}, "type": "Feature", "properties": {"collection_times": [{"days": "Mon-Sat", "time": "9:00am"}, {"days": "Sun", "time": "Closed"}], "id": "5531300006", "name": "USPS COLLECTION BOX - BLUE BOX", "address": {"city": "BUFFALO", "state": "MN", "street": "114 ASPEN AVE NE", "postcode": "55313"}}},
{"geometry": {"type": "Point", "coordinates": [-93.8749470094, 45.1719134488]}, "type": "Feature", "properties": {"collection_times": [{"days": "Mon-Fri", "time": "2:00pm"}, {"days": "Sat", "time": "12:00pm"}, {"days": "Sun", "time": "Closed"}], "id": "5531300008", "name": "USPS COLLECTION BOX - BLUE BOX", "address": {"city": "BUFFALO", "state": "MN", "street": "11 1ST AVE S", "postcode": "55313"}}},
{"geometry": {"type": "Point", "coordinates": [-93.8696129056, 45.1515956272]}, "type": "Feature", "properties": {"collection_times": [{"days": "Mon-Sat", "time": "12:00pm"}, {"days": "Sun", "time": "Closed"}], "id": "5531300013", "name": "USPS COLLECTION BOX - BLUE BOX", "address": {"city": "BUFFALO", "state": "MN", "street": "500 17TH ST S", "postcode": "55313"}}},
{"geometry": {"type": "Point", "coordinates": [-93.8487512549, 45.1547981228]}, "type": "Feature", "properties": {"collection_times": [{"days": "Mon-Sat", "time": "9:00am"}, {"days": "Sun", "time": "Closed"}], "id": "5531300014", "name": "USPS COLLECTION BOX - BLUE BOX", "address": {"city": "BUFFALO", "state": "MN", "street": "1300 HWY 55 E", "postcode": "55313"}}},
{"geometry": {"type": "Point", "coordinates": [-93.8760381901, 45.1885598005]}, "type": "Feature", "properties": {"collection_times": [{"days": "Mon-Sat", "time": "9:00am"}, {"days": "Sun", "time": "Closed"}], "id": "5531300015", "name": "USPS COLLECTION BOX - BLUE BOX", "address": {"city": "BUFFALO", "state": "MN", "street": "1315 HIGHWAY 25 N", "postcode": "55313"}}},
{"geometry": {"type": "Point", "coordinates": [-93.8763277725, 45.1742456256]}, "type": "Feature", "properties": {"collection_times": [{"days": "Mon-Fri", "time": "5:00pm"}, {"days": "Sat", "time": "3:00pm"}, {"days": "Sun", "time": "Closed"}], "id": "5531300017", "name": "USPS COLLECTION BOX - PO LOBBY", "address": {"city": "BUFFALO", "state": "MN", "street": "209 CENTRAL AVE", "postcode": "55313"}}},
{"geometry": {"type": "Point", "coordinates": [-93.8486307625, 45.1713273828]}, "type": "Feature", "properties": {"collection_times": [{"days": "Mon-Fri", "time": "5:00pm"}, {"days": "Sat", "time": "12:00pm"}, {"days": "Sun", "time": "Closed"}], "id": "5531300018", "name": "USPS COLLECTION BOX - BLUE BOX", "address": {"city": "BUFFALO", "state": "MN", "street": "201 ATLAS AVE NE", "postcode": "55313"}}},
{"geometry": {"type": "Point", "coordinates": [-93.8763277725, 45.1742456256]}, "type": "Feature", "properties": {"collection_times": [{"days": "Mon-Fri", "time": "5:00pm"}, {"days": "Sat", "time": "3:00pm"}, {"days": "Sun", "time": "Closed"}], "id": "5531300019", "name": "USPS COLLECTION BOX - BLUE BOX", "address": {"city": "BUFFALO", "state": "MN", "street": "209 CENTRAL AVE", "postcode": "55313"}}},
{"geometry": {"type": "Point", "coordinates": [-93.8486307625, 45.1713273828]}, "type": "Feature", "properties": {"collection_times": [{"days": "Mon-Fri", "time": "5:00pm"}, {"days": "Sat", "time": "12:00pm"}, {"days": "Sun", "time": "Closed"}], "id": "5531300020", "name": "USPS COLLECTION BOX - BLUE BOX", "address": {"city": "BUFFALO", "state": "MN", "street": "201 ATLAS AVE NE", "postcode": "55313"}}},
{"geometry": {"type": "Point", "coordinates": [-93.8763277725, 45.1742456256]}, "type": "Feature", "properties": {"collection_times": [{"days": "Mon-Fri", "time": "5:00pm"}, {"days": "Sat", "time": "3:00pm"}, {"days": "Sun", "time": "Closed"}], "id": "5531300021", "name": "USPS COLLECTION BOX - PO LOBBY", "address": {"city": "BUFFALO", "state": "MN", "street": "209 CENTRAL AVE", "postcode": "55313"}}},
{"geometry": {"type": "Point", "coordinates": [-94.6170697441, 44.7365193189]}, "type": "Feature", "properties": {"collection_times": [{"days": "Mon-Fri", "time": "2:30pm"}, {"days": "Sat", "time": "10:15am"}, {"days": "Sun", "time": "Closed"}], "id": "5531400001", "name": "USPS COLLECTION BOX - BLUE BOX", "address": {"city": "BUFFALO LAKE", "state": "MN", "street": "146 N MAIN ST", "postcode": "55314"}}},
{"geometry": {"type": "Point", "coordinates": [-94.6170697441, 44.7365193189]}, "type": "Feature", "properties": {"collection_times": [{"days": "Mon-Fri", "time": "2:30pm"}, {"days": "Sat", "time": "10:15am"}, {"days": "Sun", "time": "Closed"}], "id": "5531400002", "name": "USPS COLLECTION BOX - PO LOBBY", "address": {"city": "BUFFALO LAKE", "state": "MN", "street": "146 N MAIN ST", "postcode": "55314"}}},
{"geometry": {"type": "Point", "coordinates": [-93.6253862955, 44.7633555927]}, "type": "Feature", "properties": {"collection_times": [{"days": "Mon-Fri", "time": "4:00pm"}, {"days": "Sat", "time": "9:30am"}, {"days": "Sun", "time": "Closed"}], "id": "5531500001", "name": "USPS COLLECTION BOX - BLUE BOX", "address": {"city": "CARVER", "state": "MN", "street": "317 BROADWAY", "postcode": "55315"}}},
{"geometry": {"type": "Point", "coordinates": [-93.6253862955, 44.7633555927]}, "type": "Feature", "properties": {"collection_times": [{"days": "Mon-Fri", "time": "4:00pm"}, {"days": "Sat", "time": "9:30am"}, {"days": "Sun", "time": "Closed"}], "id": "5531500002", "name": "USPS COLLECTION BOX - PO LOBBY", "address": {"city": "CARVER", "state": "MN", "street": "317 BROADWAY", "postcode": "55315"}}},
{"geometry": {"type": "Point", "coordinates": [-93.3924415649, 45.1843316507]}, "type": "Feature", "properties": {"collection_times": [{"days": "Mon-Sat", "time": "11:00am"}, {"days": "Sun", "time": "Closed"}], "id": "5531600001", "name": "USPS COLLECTION BOX - BLUE BOX", "address": {"city": "CHAMPLIN", "state": "MN", "street": "500 JEFFERSON HWY N", "postcode": "55316"}}},
{"geometry": {"type": "Point", "coordinates": [-93.3887258908, 45.159703628]}, "type": "Feature", "properties": {"collection_times": [{"days": "Mon-Sat", "time": "11:00am"}, {"days": "Sun", "time": "Closed"}], "id": "5531600003", "name": "USPS COLLECTION BOX - BLUE BOX", "address": {"city": "CHAMPLIN", "state": "MN", "street": "8600 114TH AVE N", "postcode": "55316"}}},
{"geometry": {"type": "Point", "coordinates": [-93.3384548667, 45.1524213326]}, "type": "Feature", "properties": {"collection_times": [{"days": "Mon-Sat", "time": "9:00am"}, {"days": "Sun", "time": "Closed"}], "id": "5531600006", "name": "USPS COLLECTION BOX - BLUE BOX", "address": {"city": "CHAMPLIN", "state": "MN", "street": "10917 W RIVER RD", "postcode": "55316"}}},
{"geometry": {"type": "Point", "coordinates": [-93.3807265053, 45.1654754321]}, "type": "Feature", "properties": {"collection_times": [{"days": "Mon-Sat", "time": "10:00am"}, {"days": "Sun", "time": "Closed"}], "id": "5531600007", "name": "USPS COLLECTION BOX - BLUE BOX", "address": {"city": "CHAMPLIN", "state": "MN", "street": "11660 WINNETKA AVE N", "postcode": "55316"}}},
{"geometry": {"type": "Point", "coordinates": [-93.3598616921, 45.1518558782]}, "type": "Feature", "properties": {"collection_times": [{"days": "Mon-Sat", "time": "11:00am"}, {"days": "Sun", "time": "Closed"}], "id": "5531600009", "name": "USPS COLLECTION BOX - BLUE BOX", "address": {"city": "CHAMPLIN", "state": "MN", "street": "6210 109TH AVE N", "postcode": "55316"}}},
{"geometry": {"type": "Point", "coordinates": [-93.3926497657, 45.1762958104]}, "type": "Feature", "properties": {"collection_times": [{"days": "Mon-Fri", "time": "4:30pm"}, {"days": "Sat", "time": "3:00pm"}, {"days": "Sun", "time": "Closed"}], "id": "5531600010", "name": "USPS COLLECTION BOX - PO LOBBY", "address": {"city": "CHAMPLIN", "state": "MN", "street": "12299 CHAMPLIN DR", "postcode": "55316"}}},
{"geometry": {"type": "Point", "coordinates": [-93.3926497657, 45.1762958104]}, "type": "Feature", "properties": {"collection_times": [{"days": "Mon-Fri", "time": "5:00pm"}, {"days": "Sat", "time": "3:00pm"}, {"days": "Sun", "time": "Closed"}], "id": "5531600011", "name": "USPS COLLECTION BOX - BLUE BOX", "address": {"city": "CHAMPLIN", "state": "MN", "street": "12299 CHAMPLIN DR", "postcode": "55316"}}},
{"geometry": {"type": "Point", "coordinates": [-93.3906347758, 45.170389163]}, "type": "Feature", "properties": {"collection_times": [{"days": "Mon-Sat", "time": "12:00pm"}, {"days": "Sun", "time": "Closed"}], "id": "5531600012", "name": "USPS COLLECTION BOX - BLUE BOX", "address": {"city": "CHAMPLIN", "state": "MN", "street": "11301 DAYTON RD", "postcode": "55316"}}},
{"geometry": {"type": "Point", "coordinates": [-93.3926497657, 45.1762958104]}, "type": "Feature", "properties": {"collection_times": [{"days": "Mon-Fri", "time": "4:30pm"}, {"days": "Sat", "time": "3:00pm"}, {"days": "Sun", "time": "Closed"}], "id": "5531600013", "name": "USPS COLLECTION BOX - PO LOBBY", "address": {"city": "CHAMPLIN", "state": "MN", "street": "12299 CHAMPLIN DR", "postcode": "55316"}}},
{"geometry": {"type": "Point", "coordinates": [-93.3906347758, 45.170389163]}, "type": "Feature", "properties": {"collection_times": [{"days": "Mon-Sat", "time": "9:30am"}, {"days": "Sun", "time": "Closed"}], "id": "5531600015", "name": "USPS COLLECTION BOX - BLUE BOX", "address": {"city": "CHAMPLIN", "state": "MN", "street": "11101 ZEALAND AVE N", "postcode": "55316"}}},
{"geometry": {"type": "Point", "coordinates": [-93.5375057297, 44.8596935767]}, "type": "Feature", "properties": {"collection_times": [{"days": "Mon-Fri", "time": "3:30pm"}, {"days": "Sat", "time": "9:30am"}, {"days": "Sun", "time": "Closed"}], "id": "5531700003", "name": "USPS COLLECTION BOX - BLUE BOX", "address": {"city": "CHANHASSEN", "state": "MN", "street": "7900 MARKET BLVD", "postcode": "55317"}}},
{"geometry": {"type": "Point", "coordinates": [-93.5420196283, 44.8623455989]}, "type": "Feature", "properties": {"collection_times": [{"days": "Mon-Fri", "time": "3:30pm"}, {"days": "Sat", "time": "9:30am"}, {"days": "Sun", "time": "Closed"}], "id": "5531700004", "name": "USPS COLLECTION BOX - BLUE BOX", "address": {"city": "CHANHASSEN", "state": "MN", "street": "800 W 78TH ST", "postcode": "55317"}}},
{"geometry": {"type": "Point", "coordinates": [-93.5363260468, 44.8632623921]}, "type": "Feature", "properties": {"collection_times": [{"days": "Mon-Fri", "time": "4:45pm"}, {"days": "Sat", "time": "10:30am"}, {"days": "Sun", "time": "Closed"}], "id": "5531700009", "name": "USPS COLLECTION BOX - PO LOBBY", "address": {"city": "CHANHASSEN", "state": "MN", "street": "7730 LAREDO DR", "postcode": "55317"}}},
{"geometry": {"type": "Point", "coordinates": [-93.5363260468, 44.8632623921]}, "type": "Feature", "properties": {"collection_times": [{"days": "Mon-Fri", "time": "4:45pm"}, {"days": "Sat", "time": "12:00pm"}, {"days": "Sun", "time": "Closed"}], "id": "5531700010", "name": "USPS COLLECTION BOX - BLUE BOX", "address": {"city": "CHANHASSEN", "state": "MN", "street": "7730 LAREDO DR", "postcode": "55317"}}},
{"geometry": {"type": "Point", "coordinates": [-93.5363260468, 44.8632623921]}, "type": "Feature", "properties": {"collection_times": [{"days": "Mon-Fri", "time": "4:45pm"}, {"days": "Sat", "time": "12:00pm"}, {"days": "Sun", "time": "Closed"}], "id": "5531700011", "name": "USPS COLLECTION BOX - BLUE BOX", "address": {"city": "CHANHASSEN", "state": "MN", "street": "7730 LAREDO DR", "postcode": "55317"}}},
{"geometry": {"type": "Point", "coordinates": [-93.5150941822, 44.8603069925]}, "type": "Feature", "properties": {"collection_times": [{"days": "Mon-Fri", "time": "4:00pm"}, {"days": "Sat-Sun", "time": "Closed"}], "id": "5531700012", "name": "USPS COLLECTION BOX - BLUE BOX", "address": {"city": "CHANHASSEN", "state": "MN", "street": "18750 LAKE DR E", "postcode": "55317"}}},
{"geometry": {"type": "Point", "coordinates": [-93.5623428633, 44.8520041716]}, "type": "Feature", "properties": {"collection_times": [{"days": "Mon-Fri", "time": "4:00pm"}, {"days": "Sat-Sun", "time": "Closed"}], "id": "5531700013", "name": "USPS COLLECTION BOX - BLUE BOX", "address": {"city": "CHANHASSEN", "state": "MN", "street": "1600 LAKE DR W", "postcode": "55317"}}},
{"geometry": {"type": "Point", "coordinates": [-93.5513340854, 44.857474051]}, "type": "Feature", "properties": {"collection_times": [{"days": "Mon-Fri", "time": "3:00pm"}, {"days": "Sat", "time": "10:30am"}, {"days": "Sun", "time": "Closed"}], "id": "5531700014", "name": "USPS COLLECTION BOX - BLUE BOX", "address": {"city": "CHANHASSEN", "state": "MN", "street": "7755 CENTURY BLVD", "postcode": "55317"}}},
{"geometry": {"type": "Point", "coordinates": [-93.5719648914, 44.8613242272]}, "type": "Feature", "properties": {"collection_times": [{"days": "Mon-Fri", "time": "3:00pm"}, {"days": "Sat", "time": "10:00am"}, {"days": "Sun", "time": "Closed"}], "id": "5531700016", "name": "USPS COLLECTION BOX - BLUE BOX", "address": {"city": "CHANHASSEN", "state": "MN", "street": "7915 STONE CREEK DR", "postcode": "55317"}}},
{"geometry": {"type": "Point", "coordinates": [-93.5363260468, 44.8632623921]}, "type": "Feature", "properties": {"collection_times": [{"days": "Mon-Fri", "time": "4:45pm"}, {"days": "Sat", "time": "10:30am"}, {"days": "Sun", "time": "Closed"}], "id": "5531700017", "name": "USPS COLLECTION BOX - PO LOBBY", "address": {"city": "CHANHASSEN", "state": "MN", "street": "7730 LAREDO DR", "postcode": "55317"}}},
{"geometry": {"type": "Point", "coordinates": [-93.5115682395, 44.8624647256]}, "type": "Feature", "properties": {"collection_times": [{"days": "Mon-Fri", "time": "3:30pm"}, {"days": "Sat-Sun", "time": "Closed"}], "id": "5531700018", "name": "USPS COLLECTION BOX - BLUE BOX", "address": {"city": "CHANHASSEN", "state": "MN", "street": "7770 DELL RD", "postcode": "55317"}}},
{"geometry": {"type": "Point", "coordinates": [-93.5990230535, 44.7919242912]}, "type": "Feature", "properties": {"collection_times": [{"days": "Mon-Fri", "time": "11:00am"}, {"days": "Sat", "time": "10:30am"}, {"days": "Sun", "time": "Closed"}], "id": "5531800001", "name": "USPS COLLECTION BOX - BLUE BOX", "address": {"city": "CHASKA", "state": "MN", "street": "810 YELLOW BRICK RD", "postcode": "55318"}}},
{"geometry": {"type": "Point", "coordinates": [-93.5892859367, 44.8512198698]}, "type": "Feature", "properties": {"collection_times": [{"days": "Mon-Fri", "time": "4:00pm"}, {"days": "Sat-Sun", "time": "Closed"}], "id": "5531800005", "name": "USPS COLLECTION BOX - BLUE BOX", "address": {"city": "CHASKA", "state": "MN", "street": "4060 NOREX DR", "postcode": "55318"}}},
{"geometry": {"type": "Point", "coordinates": [-93.5799239995, 44.8411304128]}, "type": "Feature", "properties": {"collection_times": [{"days": "Mon-Fri", "time": "4:00pm"}, {"days": "Sat-Sun", "time": "Closed"}], "id": "5531800011", "name": "USPS COLLECTION BOX - BLUE BOX", "address": {"city": "CHASKA", "state": "MN", "street": "305 LAKE HAZELTINE DR", "postcode": "55318"}}},
{"geometry": {"type": "Point", "coordinates": [-93.5995197147, 44.8353516583]}, "type": "Feature", "properties": {"collection_times": [{"days": "Mon-Fri", "time": "4:00pm"}, {"days": "Sat-Sun", "time": "Closed"}], "id": "5531800015", "name": "USPS COLLECTION BOX - BLUE BOX", "address": {"city": "CHASKA", "state": "MN", "street": "1107 HAZELTINE BLVD", "postcode": "55318"}}},
{"geometry": {"type": "Point", "coordinates": [-93.6022890217, 44.7863854378]}, "type": "Feature", "properties": {"collection_times": [{"days": "Mon-Fri", "time": "5:00pm"}, {"days": "Sat", "time": "1:00pm"}, {"days": "Sun", "time": "Closed"}], "id": "5531800020", "name": "USPS COLLECTION BOX - BLUE BOX", "address": {"city": "CHASKA", "state": "MN", "street": "300 N PINE ST", "postcode": "55318"}}},
{"geometry": {"type": "Point", "coordinates": [-93.5954619645, 44.8357537028]}, "type": "Feature", "properties": {"collection_times": [{"days": "Mon-Fri", "time": "1:00pm"}, {"days": "Sat", "time": "11:00am"}, {"days": "Sun", "time": "Closed"}], "id": "5531800021", "name": "USPS COLLECTION BOX - BLUE BOX", "address": {"city": "CHASKA", "state": "MN", "street": "3317 LAKE SHORE CT", "postcode": "55318"}}},
{"geometry": {"type": "Point", "coordinates": [-93.5748905091, 44.838068915]}, "type": "Feature", "properties": {"collection_times": [{"days": "Mon-Fri", "time": "10:00am"}, {"days": "Sat", "time": "9:00am"}, {"days": "Sun", "time": "Closed"}], "id": "5531800023", "name": "USPS COLLECTION BOX - BLUE BOX", "address": {"city": "CHASKA", "state": "MN", "street": "1225 LAKEVIEW DR", "postcode": "55318"}}},
{"geometry": {"type": "Point", "coordinates": [-93.5845612073, 44.807827023]}, "type": "Feature", "properties": {"collection_times": [{"days": "Mon-Sat", "time": "12:00pm"}, {"days": "Sun", "time": "Closed"}], "id": "5531800024", "name": "USPS COLLECTION BOX - BLUE BOX", "address": {"city": "CHASKA", "state": "MN", "street": "1 KELLY RD", "postcode": "55318"}}},
{"geometry": {"type": "Point", "coordinates": [-93.5922037499, 44.8474582268]}, "type": "Feature", "properties": {"collection_times": [{"days": "Mon-Fri", "time": "4:00pm"}, {"days": "Sat-Sun", "time": "Closed"}], "id": "5531800026", "name": "USPS COLLECTION BOX - BLUE BOX", "address": {"city": "CHASKA", "state": "MN", "street": "119 N JONATHAN BLVD", "postcode": "55318"}}},
{"geometry": {"type": "Point", "coordinates": [-93.6022890217, 44.7863854378]}, "type": "Feature", "properties": {"collection_times": [{"days": "Mon-Fri", "time": "5:00pm"}, {"days": "Sat", "time": "1:00pm"}, {"days": "Sun", "time": "Closed"}], "id": "5531800028", "name": "USPS COLLECTION BOX - PO LOBBY", "address": {"city": "CHASKA", "state": "MN", "street": "300 N PINE ST", "postcode": "55318"}}},
{"geometry": {"type": "Point", "coordinates": [-93.5995761403, 44.828515473]}, "type": "Feature", "properties": {"collection_times": [{"days": "Mon-Fri", "time": "4:00pm"}, {"days": "Sat", "time": "10:00am"}, {"days": "Sun", "time": "Closed"}], "id": "5531800029", "name": "USPS COLLECTION BOX - BLUE BOX", "address": {"city": "CHASKA", "state": "MN", "street": "200 PIONEER TRL", "postcode": "55318"}}},
{"geometry": {"type": "Point", "coordinates": [-93.6387066805, 44.8109064015]}, "type": "Feature", "properties": {"collection_times": [{"days": "Mon-Fri", "time": "1:00pm"}, {"days": "Sat", "time": "11:00am"}, {"days": "Sun", "time": "Closed"}], "id": "5531800030", "name": "USPS COLLECTION BOX - BLUE BOX", "address": {"city": "CHASKA", "state": "MN", "street": "1 CITY HALL PLZ", "postcode": "55318"}}},
{"geometry": {"type": "Point", "coordinates": [-93.5932512152, 44.7886247791]}, "type": "Feature", "properties": {"collection_times": [{"days": "Mon-Sat", "time": "9:00am"}, {"days": "Sun", "time": "Closed"}], "id": "5531800031", "name": "USPS COLLECTION BOX - BLUE BOX", "address": {"city": "CHASKA", "state": "MN", "street": "600 E 4TH ST", "postcode": "55318"}}},
{"geometry": {"type": "Point", "coordinates": [-93.6042846734, 44.8042315568]}, "type": "Feature", "properties": {"collection_times": [{"days": "Mon-Fri", "time": "1:00pm"}, {"days": "Sat", "time": "10:00am"}, {"days": "Sun", "time": "Closed"}], "id": "5531800032", "name": "USPS COLLECTION BOX - BLUE BOX", "address": {"city": "CHASKA", "state": "MN", "street": "1465 WHITE OAK DR", "postcode": "55318"}}},
{"geometry": {"type": "Point", "coordinates": [-93.6016011412, 44.7888420782]}, "type": "Feature", "properties": {"collection_times": [{"days": "Mon-Fri", "time": "2:00pm"}, {"days": "Sat", "time": "10:00am"}, {"days": "Sun", "time": "Closed"}], "id": "5531800033", "name": "USPS COLLECTION BOX - BLUE BOX", "address": {"city": "CHASKA", "state": "MN", "street": "510 N CHESTNUT ST", "postcode": "55318"}}},
{"geometry": {"type": "Point", "coordinates": [-94.0019155476, 45.4430415805]}, "type": "Feature", "properties": {"collection_times": [{"days": "Mon-Fri", "time": "4:15pm"}, {"days": "Sat", "time": "11:15am"}, {"days": "Sun", "time": "Closed"}], "id": "5531900001", "name": "USPS COLLECTION BOX - BLUE BOX", "address": {"city": "CLEAR LAKE", "state": "MN", "street": "8698 MAIN AVE", "postcode": "55319"}}},
{"geometry": {"type": "Point", "coordinates": [-94.0019155476, 45.4430415805]}, "type": "Feature", "properties": {"collection_times": [{"days": "Mon-Fri", "time": "4:30pm"}, {"days": "Sat", "time": "11:15am"}, {"days": "Sun", "time": "Closed"}], "id": "5531900002", "name": "USPS COLLECTION BOX - PO LOBBY", "address": {"city": "CLEAR LAKE", "state": "MN", "street": "8698 MAIN AVE", "postcode": "55319"}}},
{"geometry": {"type": "Point", "coordinates": [-94.1349641528, 45.4091250894]}, "type": "Feature", "properties": {"collection_times": [{"days": "Mon-Fri", "time": "4:00pm"}, {"days": "Sat", "time": "9:45am"}, {"days": "Sun", "time": "Closed"}], "id": "5532000003", "name": "USPS COLLECTION BOX - BLUE BOX", "address": {"city": "CLEARWATER", "state": "MN", "street": "625 SMITH ST", "postcode": "55320"}}},
{"geometry": {"type": "Point", "coordinates": [-94.1349641528, 45.4091250894]}, "type": "Feature", "properties": {"collection_times": [{"days": "Mon-Fri", "time": "4:00pm"}, {"days": "Sat", "time": "9:45am"}, {"days": "Sun", "time": "Closed"}], "id": "5532000004", "name": "USPS COLLECTION BOX - PO LOBBY", "address": {"city": "CLEARWATER", "state": "MN", "street": "625 SMITH ST", "postcode": "55320"}}},
{"geometry": {"type": "Point", "coordinates": [-94.1349641528, 45.4091250894]}, "type": "Feature", "properties": {"collection_times": [{"days": "Mon-Fri", "time": "4:00pm"}, {"days": "Sat", "time": "9:45am"}, {"days": "Sun", "time": "Closed"}], "id": "5532000005", "name": "USPS COLLECTION BOX - PO LOBBY", "address": {"city": "CLEARWATER", "state": "MN", "street": "625 SMITH ST", "postcode": "55320"}}},
{"geometry": {"type": "Point", "coordinates": [-94.193689621, 45.0799505517]}, "type": "Feature", "properties": {"collection_times": [{"days": "Mon-Sat", "time": "11:00am"}, {"days": "Sun", "time": "Closed"}], "id": "5532100001", "name": "USPS COLLECTION BOX - BLUE BOX", "address": {"city": "COKATO", "state": "MN", "street": "310 COKATO ST W", "postcode": "55321"}}},
{"geometry": {"type": "Point", "coordinates": [-94.1942151502, 45.0828659646]}, "type": "Feature", "properties": {"collection_times": [{"days": "Mon-Sat", "time": "11:00am"}, {"days": "Sun", "time": "Closed"}], "id": "5532100002", "name": "USPS COLLECTION BOX - BLUE BOX", "address": {"city": "COKATO", "state": "MN", "street": "620 US HIGHWAY 12 SW", "postcode": "55321"}}},
{"geometry": {"type": "Point", "coordinates": [-94.1885204091, 45.0762194659]}, "type": "Feature", "properties": {"collection_times": [{"days": "Mon-Fri", "time": "4:45pm"}, {"days": "Sat", "time": "12:00pm"}, {"days": "Sun", "time": "Closed"}], "id": "5532100003", "name": "USPS COLLECTION BOX - BLUE BOX", "address": {"city": "COKATO", "state": "MN", "street": "190 3RD ST SE", "postcode": "55321"}}},
{"geometry": {"type": "Point", "coordinates": [-94.1885204091, 45.0762194659]}, "type": "Feature", "properties": {"collection_times": [{"days": "Mon-Fri", "time": "4:45pm"}, {"days": "Sat", "time": "12:00pm"}, {"days": "Sun", "time": "Closed"}], "id": "5532100004", "name": "USPS COLLECTION BOX - PO LOBBY", "address": {"city": "COKATO", "state": "MN", "street": "190 3RD ST SE", "postcode": "55321"}}},
{"geometry": {"type": "Point", "coordinates": [-94.1885204091, 45.0762194659]}, "type": "Feature", "properties": {"collection_times": [{"days": "Mon-Fri", "time": "4:45pm"}, {"days": "Sat", "time": "12:00pm"}, {"days": "Sun", "time": "Closed"}], "id": "5532100005", "name": "USPS COLLECTION BOX - BLUE BOX", "address": {"city": "COKATO", "state": "MN", "street": "190 3RD ST SE", "postcode": "55321"}}},
{"geometry": {"type": "Point", "coordinates": [-93.7813827838, 44.766537455]}, "type": "Feature", "properties": {"collection_times": [{"days": "Mon-Fri", "time": "3:45pm"}, {"days": "Sat", "time": "9:15am"}, {"days": "Sun", "time": "Closed"}], "id": "5532200001", "name": "USPS COLLECTION BOX - BLUE BOX", "address": {"city": "COLOGNE", "state": "MN", "street": "509 PAUL AVE S", "postcode": "55322"}}},
{"geometry": {"type": "Point", "coordinates": [-93.7813827838, 44.766537455]}, "type": "Feature", "properties": {"collection_times": [{"days": "Mon-Fri", "time": "3:45pm"}, {"days": "Sat", "time": "9:15am"}, {"days": "Sun", "time": "Closed"}], "id": "5532200002", "name": "USPS COLLECTION BOX - PO LOBBY", "address": {"city": "COLOGNE", "state": "MN", "street": "509 PAUL AVE S", "postcode": "55322"}}},
{"geometry": {"type": "Point", "coordinates": [-93.575299887, 44.9866589283]}, "type": "Feature", "properties": {"collection_times": [{"days": "Mon-Fri", "time": "4:30pm"}, {"days": "Sat", "time": "10:30am"}, {"days": "Sun", "time": "Closed"}], "id": "5532300001", "name": "USPS COLLECTION BOX - BLUE BOX", "address": {"city": "CRYSTAL BAY", "state": "MN", "street": "1355 BROWN RD S", "postcode": "55323"}}},
{"geometry": {"type": "Point", "coordinates": [-93.575299887, 44.9866589283]}, "type": "Feature", "properties": {"collection_times": [{"days": "Mon-Fri", "time": "4:30pm"}, {"days": "Sat", "time": "10:30am"}, {"days": "Sun", "time": "Closed"}], "id": "5532300002", "name": "USPS COLLECTION BOX - PO LOBBY", "address": {"city": "CRYSTAL BAY", "state": "MN", "street": "1355 BROWN RD S", "postcode": "55323"}}},
{"geometry": {"type": "Point", "coordinates": [-94.4103841413, 45.0962201328]}, "type": "Feature", "properties": {"collection_times": [{"days": "Mon-Fri", "time": "3:30pm"}, {"days": "Sat", "time": "8:45am"}, {"days": "Sun", "time": "Closed"}], "id": "5532400001", "name": "USPS COLLECTION BOX - BLUE BOX", "address": {"city": "DARWIN", "state": "MN", "street": "321 N 1ST ST", "postcode": "55324"}}},
{"geometry": {"type": "Point", "coordinates": [-94.4103841413, 45.0962201328]}, "type": "Feature", "properties": {"collection_times": [{"days": "Mon-Fri", "time": "3:30pm"}, {"days": "Sat", "time": "8:45am"}, {"days": "Sun", "time": "Closed"}], "id": "5532400002", "name": "USPS COLLECTION BOX - PO LOBBY", "address": {"city": "DARWIN", "state": "MN", "street": "321 N 1ST ST", "postcode": "55324"}}},
{"geometry": {"type": "Point", "coordinates": [-94.3083089008, 45.0813159037]}, "type": "Feature", "properties": {"collection_times": [{"days": "Mon-Fri", "time": "4:30pm"}, {"days": "Sat", "time": "10:00am"}, {"days": "Sun", "time": "Closed"}], "id": "5532500001", "name": "USPS COLLECTION BOX - BLUE BOX", "address": {"city": "DASSEL", "state": "MN", "street": "501 2ND ST N", "postcode": "55325"}}},
{"geometry": {"type": "Point", "coordinates": [-94.3083089008, 45.0813159037]}, "type": "Feature", "properties": {"collection_times": [{"days": "Mon-Fri", "time": "4:45pm"}, {"days": "Sat", "time": "10:00am"}, {"days": "Sun", "time": "Closed"}], "id": "5532500002", "name": "USPS COLLECTION BOX - PO LOBBY", "address": {"city": "DASSEL", "state": "MN", "street": "501 2ND ST N", "postcode": "55325"}}},
{"geometry": {"type": "Point", "coordinates": [-93.5171664329, 45.2440848962]}, "type": "Feature", "properties": {"collection_times": [{"days": "Mon-Fri", "time": "4:15pm"}, {"days": "Sat", "time": "10:00am"}, {"days": "Sun", "time": "Closed"}], "id": "5532700002", "name": "USPS COLLECTION BOX - BLUE BOX", "address": {"city": "DAYTON", "state": "MN", "street": "18511 ROBINSON ST", "postcode": "55327"}}},
{"geometry": {"type": "Point", "coordinates": [-93.5171664329, 45.2440848962]}, "type": "Feature", "properties": {"collection_times": [{"days": "Mon-Fri", "time": "4:15pm"}, {"days": "Sat", "time": "10:00am"}, {"days": "Sun", "time": "Closed"}], "id": "5532700003", "name": "USPS COLLECTION BOX - PO LOBBY", "address": {"city": "DAYTON", "state": "MN", "street": "18511 ROBINSON ST", "postcode": "55327"}}},
{"geometry": {"type": "Point", "coordinates": [-93.789280972, 45.0407176877]}, "type": "Feature", "properties": {"collection_times": [{"days": "Mon-Fri", "time": "4:45pm"}, {"days": "Sat", "time": "12:30pm"}, {"days": "Sun", "time": "Closed"}], "id": "5532800001", "name": "USPS COLLECTION BOX - BLUE BOX", "address": {"city": "DELANO", "state": "MN", "street": "100 RIVER ST N", "postcode": "55328"}}},
{"geometry": {"type": "Point", "coordinates": [-93.7908739739, 45.0351841844]}, "type": "Feature", "properties": {"collection_times": [{"days": "Mon-Sat", "time": "9:15am"}, {"days": "Sun", "time": "Closed"}], "id": "5532800002", "name": "USPS COLLECTION BOX - BLUE BOX", "address": {"city": "DELANO", "state": "MN", "street": "403 RIVER RD W", "postcode": "55328"}}},
{"geometry": {"type": "Point", "coordinates": [-93.7669390182, 45.0334757197]}, "type": "Feature", "properties": {"collection_times": [{"days": "Mon-Sat", "time": "9:00am"}, {"days": "Sun", "time": "Closed"}], "id": "5532800003", "name": "USPS COLLECTION BOX - BLUE BOX", "address": {"city": "DELANO", "state": "MN", "street": "8045 COUNTY LINE RD SE", "postcode": "55328"}}},
{"geometry": {"type": "Point", "coordinates": [-93.789280972, 45.0407176877]}, "type": "Feature", "properties": {"collection_times": [{"days": "Mon-Fri", "time": "4:45pm"}, {"days": "Sat", "time": "10:00am"}, {"days": "Sun", "time": "Closed"}], "id": "5532800004", "name": "USPS COLLECTION BOX - PO LOBBY", "address": {"city": "DELANO", "state": "MN", "street": "100 RIVER ST N", "postcode": "55328"}}},
{"geometry": {"type": "Point", "coordinates": [-93.789280972, 45.0407176877]}, "type": "Feature", "properties": {"collection_times": [{"days": "Mon-Fri", "time": "4:45pm"}, {"days": "Sat", "time": "12:30pm"}, {"days": "Sun", "time": "Closed"}], "id": "5532800005", "name": "USPS COLLECTION BOX - BLUE BOX", "address": {"city": "DELANO", "state": "MN", "street": "100 RIVER ST N", "postcode": "55328"}}},
{"geometry": {"type": "Point", "coordinates": [-93.7710027639, 45.0356104364]}, "type": "Feature", "properties": {"collection_times": [{"days": "Mon-Sat", "time": "9:00am"}, {"days": "Sun", "time": "Closed"}], "id": "5532800006", "name": "USPS COLLECTION BOX - BLUE BOX", "address": {"city": "DELANO", "state": "MN", "street": "1314 BABCOCK BLVD E", "postcode": "55328"}}},
{"geometry": {"type": "Point", "coordinates": [-94.5479002328, 45.325485659]}, "type": "Feature", "properties": {"collection_times": [{"days": "Mon-Fri", "time": "3:00pm"}, {"days": "Sat", "time": "11:00am"}, {"days": "Sun", "time": "Closed"}], "id": "5532900002", "name": "USPS COLLECTION BOX - BLUE BOX", "address": {"city": "EDEN VALLEY", "state": "MN", "street": "378 CHURCH ST N", "postcode": "55329"}}},
{"geometry": {"type": "Point", "coordinates": [-94.5479002328, 45.325485659]}, "type": "Feature", "properties": {"collection_times": [{"days": "Mon-Fri", "time": "3:00pm"}, {"days": "Sat", "time": "11:00am"}, {"days": "Sun", "time": "Closed"}], "id": "5532900003", "name": "USPS COLLECTION BOX - PO LOBBY", "address": {"city": "EDEN VALLEY", "state": "MN", "street": "378 CHURCH ST N", "postcode": "55329"}}},
{"geometry": {"type": "Point", "coordinates": [-93.5621157375, 45.3168798956]}, "type": "Feature", "properties": {"collection_times": [{"days": "Mon-Fri", "time": "5:00pm"}, {"days": "Sat", "time": "12:00pm"}, {"days": "Sun", "time": "Closed"}], "id": "5533000001", "name": "USPS COLLECTION BOX - BLUE BOX", "address": {"city": "OTSEGO", "state": "MN", "street": "19120 FREEPORT ST NW", "postcode": "55330"}}},
{"geometry": {"type": "Point", "coordinates": [-93.5567744703, 45.314979801]}, "type": "Feature", "properties": {"collection_times": [{"days": "Mon-Fri", "time": "1:00pm"}, {"days": "Sat", "time": "11:00am"}, {"days": "Sun", "time": "Closed"}], "id": "5533000003", "name": "USPS COLLECTION BOX - BLUE BOX", "address": {"city": "OTSEGO", "state": "MN", "street": "710 DODGE AVE NW", "postcode": "55330"}}},
{"geometry": {"type": "Point", "coordinates": [-93.5773070994, 45.3136576072]}, "type": "Feature", "properties": {"collection_times": [{"days": "Mon-Sat", "time": "2:00pm"}, {"days": "Sun", "time": "Closed"}], "id": "5533000005", "name": "USPS COLLECTION BOX - BLUE BOX", "address": {"city": "OTSEGO", "state": "MN", "street": "19140 FREEPORT ST NW", "postcode": "55330"}}},
{"geometry": {"type": "Point", "coordinates": [-93.5640602017, 45.2816272538]}, "type": "Feature", "properties": {"collection_times": [{"days": "Mon-Sat", "time": "10:00am"}, {"days": "Sun", "time": "Closed"}], "id": "5533000008", "name": "USPS COLLECTION BOX - BLUE BOX", "address": {"city": "OTSEGO", "state": "MN", "street": "9025 QUADAY AVE NE", "postcode": "55330"}}},
{"geometry": {"type": "Point", "coordinates": [-93.5672837728, 45.3032391728]}, "type": "Feature", "properties": {"collection_times": [{"days": "Mon-Fri", "time": "2:30pm"}, {"days": "Sat", "time": "11:00am"}, {"days": "Sun", "time": "Closed"}], "id": "5533000011", "name": "USPS COLLECTION BOX - BLUE BOX", "address": {"city": "OTSEGO", "state": "MN", "street": "305 JACKSON AVE NW", "postcode": "55330"}}},
{"geometry": {"type": "Point", "coordinates": [-93.5531756747, 45.30738463]}, "type": "Feature", "properties": {"collection_times": [{"days": "Mon-Sat", "time": "1:00pm"}, {"days": "Sun", "time": "Closed"}], "id": "5533000012", "name": "USPS COLLECTION BOX - BLUE BOX", "address": {"city": "OTSEGO", "state": "MN", "street": "548 AUBURN PL NW", "postcode": "55330"}}},
{"geometry": {"type": "Point", "coordinates": [-93.5609839882, 45.3243946304]}, "type": "Feature", "properties": {"collection_times": [{"days": "Mon-Sat", "time": "1:00pm"}, {"days": "Sun", "time": "Closed"}], "id": "5533000016", "name": "USPS COLLECTION BOX - BLUE BOX", "address": {"city": "OTSEGO", "state": "MN", "street": "19424 EVANS ST NW", "postcode": "55330"}}},
{"geometry": {"type": "Point", "coordinates": [-93.5623739992, 45.3190018112]}, "type": "Feature", "properties": {"collection_times": [{"days": "Mon-Sat", "time": "2:00pm"}, {"days": "Sun", "time": "Closed"}], "id": "5533000017", "name": "USPS COLLECTION BOX - BLUE BOX", "address": {"city": "OTSEGO", "state": "MN", "street": "19216 FREEPORT ST NW", "postcode": "55330"}}},
{"geometry": {"type": "Point", "coordinates": [-93.5621157375, 45.3168798956]}, "type": "Feature", "properties": {"collection_times": [{"days": "Mon-Fri", "time": "5:00pm"}, {"days": "Sat", "time": "12:00pm"}, {"days": "Sun", "time": "Closed"}], "id": "5533000018", "name": "USPS COLLECTION BOX - PO LOBBY", "address": {"city": "OTSEGO", "state": "MN", "street": "19120 FREEPORT ST NW", "postcode": "55330"}}},
{"geometry": {"type": "Point", "coordinates": [-93.6083698906, 45.3067995705]}, "type": "Feature", "properties": {"collection_times": [{"days": "Mon-Sat", "time": "10:30am"}, {"days": "Sun", "time": "Closed"}], "id": "5533000019", "name": "USPS COLLECTION BOX - BLUE BOX", "address": {"city": "OTSEGO", "state": "MN", "street": "13374 HIGHWAY 10", "postcode": "55330"}}},
{"geometry": {"type": "Point", "coordinates": [-93.5621157375, 45.3168798956]}, "type": "Feature", "properties": {"collection_times": [{"days": "Mon-Fri", "time": "5:00pm"}, {"days": "Sat", "time": "12:00pm"}, {"days": "Sun", "time": "Closed"}], "id": "5533000023", "name": "USPS COLLECTION BOX - BLUE BOX", "address": {"city": "OTSEGO", "state": "MN", "street": "19120 FREEPORT ST NW", "postcode": "55330"}}},
{"geometry": {"type": "Point", "coordinates": [-93.577483413, 45.3079663513]}, "type": "Feature", "properties": {"collection_times": [{"days": "Mon-Sat", "time": "9:30am"}, {"days": "Sun", "time": "Closed"}], "id": "5533000024", "name": "USPS COLLECTION BOX - BLUE BOX", "address": {"city": "OTSEGO", "state": "MN", "street": "610 PROCTOR AVE NW", "postcode": "55330"}}},
{"geometry": {"type": "Point", "coordinates": [-93.59962, 45.30347]}, "type": "Feature", "properties": {"collection_times": [{"days": "Mon-Sat", "time": "1:00pm"}, {"days": "Sun", "time": "Closed"}], "id": "5533000027", "name": "USPS COLLECTION BOX - BLUE BOX", "address": {"city": "OTSEGO", "state": "MN", "street": "13065 ORONO PKWY NW", "postcode": "55330"}}},
{"geometry": {"type": "Point", "coordinates": [-93.5719553591, 45.3325618267]}, "type": "Feature", "properties": {"collection_times": [{"days": "Mon-Sat", "time": "1:00pm"}, {"days": "Sun", "time": "Closed"}], "id": "5533000028", "name": "USPS COLLECTION BOX - BLUE BOX", "address": {"city": "OTSEGO", "state": "MN", "street": "15800 87TH ST NE", "postcode": "55330"}}},
{"geometry": {"type": "Point", "coordinates": [-93.5519243158, 45.3007221369]}, "type": "Feature", "properties": {"collection_times": [{"days": "Mon-Sat", "time": "1:00pm"}, {"days": "Sun", "time": "Closed"}], "id": "5533000029", "name": "USPS COLLECTION BOX - BLUE BOX", "address": {"city": "OTSEGO", "state": "MN", "street": "18185 ZANE ST NW", "postcode": "55330"}}},
{"geometry": {"type": "Point", "coordinates": [-93.5648258209, 45.3041724852]}, "type": "Feature", "properties": {"collection_times": [{"days": "Mon-Fri", "time": "5:00pm"}, {"days": "Sat", "time": "3:45pm"}, {"days": "Sun", "time": "Closed"}], "id": "5533000030", "name": "USPS COLLECTION BOX - BLUE BOX", "address": {"city": "OTSEGO", "state": "MN", "street": "560 3RD ST NW", "postcode": "55330"}}},
{"geometry": {"type": "Point", "coordinates": [-93.5621157375, 45.3168798956]}, "type": "Feature", "properties": {"collection_times": [{"days": "Mon-Fri", "time": "5:00pm"}, {"days": "Sat", "time": "12:00pm"}, {"days": "Sun", "time": "Closed"}], "id": "5533000031", "name": "USPS COLLECTION BOX - APC", "address": {"city": "OTSEGO", "state": "MN", "street": "19120 FREEPORT ST NW", "postcode": "55330"}}},
{"geometry": {"type": "Point", "coordinates": [-93.476388128, 45.3280867971]}, "type": "Feature", "properties": {"collection_times": [{"days": "Mon-Sat", "time": "10:00am"}, {"days": "Sun", "time": "Closed"}], "id": "5533000033", "name": "USPS COLLECTION BOX - BLUE BOX", "address": {"city": "OTSEGO", "state": "MN", "street": "8141 VIKING BLVD NW", "postcode": "55330"}}},
{"geometry": {"type": "Point", "coordinates": [-93.5636086294, 44.902297672]}, "type": "Feature", "properties": {"collection_times": [{"days": "Mon-Fri", "time": "5:00pm"}, {"days": "Sat", "time": "12:00pm"}, {"days": "Sun", "time": "Closed"}], "id": "5533100001", "name": "USPS COLLECTION BOX - BLUE BOX", "address": {"city": "EXCELSIOR", "state": "MN", "street": "545 2ND ST", "postcode": "55331"}}},
{"geometry": {"type": "Point", "coordinates": [-93.5385322653, 44.9234619908]}, "type": "Feature", "properties": {"collection_times": [{"days": "Mon-Sat", "time": "11:00am"}, {"days": "Sun", "time": "Closed"}], "id": "5533100002", "name": "USPS COLLECTION BOX - BLUE BOX", "address": {"city": "EXCELSIOR", "state": "MN", "street": "20225 COTTAGEWOOD LN", "postcode": "55331"}}},
{"geometry": {"type": "Point", "coordinates": [-93.5314889276, 44.908179344]}, "type": "Feature", "properties": {"collection_times": [{"days": "Mon-Sat", "time": "10:30am"}, {"days": "Sun", "time": "Closed"}], "id": "5533100003", "name": "USPS COLLECTION BOX - BLUE BOX", "address": {"city": "EXCELSIOR", "state": "MN", "street": "19905 HIGHWAY 7", "postcode": "55331"}}},
{"geometry": {"type": "Point", "coordinates": [-93.5675916523, 44.902068178]}, "type": "Feature", "properties": {"collection_times": [{"days": "Mon-Fri", "time": "1:00pm"}, {"days": "Sat", "time": "12:00pm"}, {"days": "Sun", "time": "Closed"}], "id": "5533100009", "name": "USPS COLLECTION BOX - BLUE BOX", "address": {"city": "EXCELSIOR", "state": "MN", "street": "300 WATER ST", "postcode": "55331"}}},
{"geometry": {"type": "Point", "coordinates": [-93.6068157401, 44.8979976812]}, "type": "Feature", "properties": {"collection_times": [{"days": "Mon-Sat", "time": "9:30am"}, {"days": "Sun", "time": "Closed"}], "id": "5533100010", "name": "USPS COLLECTION BOX - BLUE BOX", "address": {"city": "EXCELSIOR", "state": "MN", "street": "26730 HIGHWAY 7", "postcode": "55331"}}},
{"geometry": {"type": "Point", "coordinates": [-93.5636086294, 44.902297672]}, "type": "Feature", "properties": {"collection_times": [{"days": "Mon-Fri", "time": "5:00pm"}, {"days": "Sat", "time": "12:00pm"}, {"days": "Sun", "time": "Closed"}], "id": "5533100013", "name": "USPS COLLECTION BOX - PO LOBBY", "address": {"city": "EXCELSIOR", "state": "MN", "street": "545 2ND ST", "postcode": "55331"}}},
{"geometry": {"type": "Point", "coordinates": [-94.7208340066, 44.52739832]}, "type": "Feature", "properties": {"collection_times": [{"days": "Mon-Fri", "time": "2:30pm"}, {"days": "Sat", "time": "11:30am"}, {"days": "Sun", "time": "Closed"}], "id": "5533200001", "name": "USPS COLLECTION BOX - BLUE BOX", "address": {"city": "FAIRFAX", "state": "MN", "street": "137 PARK ST S", "postcode": "55332"}}},
{"geometry": {"type": "Point", "coordinates": [-94.7208340066, 44.52739832]}, "type": "Feature", "properties": {"collection_times": [{"days": "Mon-Fri", "time": "2:30pm"}, {"days": "Sat", "time": "11:30am"}, {"days": "Sun", "time": "Closed"}], "id": "5533200002", "name": "USPS COLLECTION BOX - PO LOBBY", "address": {"city": "FAIRFAX", "state": "MN", "street": "137 PARK ST S", "postcode": "55332"}}},
{"geometry": {"type": "Point", "coordinates": [-94.722131477, 44.5289513269]}, "type": "Feature", "properties": {"collection_times": [{"days": "Mon-Fri", "time": "1:00pm"}, {"days": "Sat-Sun", "time": "Closed"}], "id": "5533200003", "name": "USPS COLLECTION BOX - BLUE BOX", "address": {"city": "FAIRFAX", "state": "MN", "street": "111 LINCOLN AVE W", "postcode": "55332"}}},
{"geometry": {"type": "Point", "coordinates": [-94.8829434732, 44.5298641536]}, "type": "Feature", "properties": {"collection_times": [{"days": "Mon-Fri", "time": "2:00pm"}, {"days": "Sat", "time": "9:30am"}, {"days": "Sun", "time": "Closed"}], "id": "5533300001", "name": "USPS COLLECTION BOX - BLUE BOX", "address": {"city": "FRANKLIN", "state": "MN", "street": "265 2ND AVE E", "postcode": "55333"}}},
{"geometry": {"type": "Point", "coordinates": [-94.8829434732, 44.5298641536]}, "type": "Feature", "properties": {"collection_times": [{"days": "Mon-Fri", "time": "2:00pm"}, {"days": "Sat-Sun", "time": "Closed"}], "id": "5533300002", "name": "USPS COLLECTION BOX - PO LOBBY", "address": {"city": "FRANKLIN", "state": "MN", "street": "265 2ND AVE E", "postcode": "55333"}}},
{"geometry": {"type": "Point", "coordinates": [-94.2194099768, 44.5528394648]}, "type": "Feature", "properties": {"collection_times": [{"days": "Mon-Fri", "time": "3:30pm"}, {"days": "Sat", "time": "9:15am"}, {"days": "Sun", "time": "Closed"}], "id": "5533400001", "name": "USPS COLLECTION BOX - BLUE BOX", "address": {"city": "GAYLORD", "state": "MN", "street": "311 MAIN AVE", "postcode": "55334"}}},
{"geometry": {"type": "Point", "coordinates": [-94.2194099768, 44.5528394648]}, "type": "Feature", "properties": {"collection_times": [{"days": "Mon-Fri", "time": "3:30pm"}, {"days": "Sat", "time": "9:15am"}, {"days": "Sun", "time": "Closed"}], "id": "5533400002", "name": "USPS COLLECTION BOX - PO LOBBY", "address": {"city": "GAYLORD", "state": "MN", "street": "311 MAIN AVE", "postcode": "55334"}}},
{"geometry": {"type": "Point", "coordinates": [-94.2194099768, 44.5528394648]}, "type": "Feature", "properties": {"collection_times": [{"days": "Mon-Fri", "time": "3:30pm"}, {"days": "Sat", "time": "9:15am"}, {"days": "Sun", "time": "Closed"}], "id": "5533400003", "name": "USPS COLLECTION BOX - BLUE BOX", "address": {"city": "GAYLORD", "state": "MN", "street": "311 MAIN AVE", "postcode": "55334"}}},
{"geometry": {"type": "Point", "coordinates": [-94.5266435375, 44.5334186232]}, "type": "Feature", "properties": {"collection_times": [{"days": "Mon-Fri", "time": "2:45pm"}, {"days": "Sat", "time": "10:00am"}, {"days": "Sun", "time": "Closed"}], "id": "5533500001", "name": "USPS COLLECTION BOX - BLUE BOX", "address": {"city": "GIBBON", "state": "MN", "street": "1070 1ST AVE", "postcode": "55335"}}},
{"geometry": {"type": "Point", "coordinates": [-94.5266435375, 44.5334186232]}, "type": "Feature", "properties": {"collection_times": [{"days": "Mon-Fri", "time": "2:45pm"}, {"days": "Sat", "time": "10:00am"}, {"days": "Sun", "time": "Closed"}], "id": "5533500003", "name": "USPS COLLECTION BOX - PO LOBBY", "address": {"city": "GIBBON", "state": "MN", "street": "1070 1ST AVE", "postcode": "55335"}}},
{"geometry": {"type": "Point", "coordinates": [-94.1502952711, 44.7701307007]}, "type": "Feature", "properties": {"collection_times": [{"days": "Mon-Fri", "time": "5:00pm"}, {"days": "Sat", "time": "10:00am"}, {"days": "Sun", "time": "Closed"}], "id": "5533600001", "name": "USPS COLLECTION BOX - BLUE BOX", "address": {"city": "GLENCOE", "state": "MN", "street": "905 11TH ST E", "postcode": "55336"}}},
{"geometry": {"type": "Point", "coordinates": [-94.1539962189, 44.768979436]}, "type": "Feature", "properties": {"collection_times": [{"days": "Mon-Fri", "time": "3:30pm"}, {"days": "Sat", "time": "10:00am"}, {"days": "Sun", "time": "Closed"}], "id": "5533600002", "name": "USPS COLLECTION BOX - BLUE BOX", "address": {"city": "GLENCOE", "state": "MN", "street": "630 10TH ST E", "postcode": "55336"}}},
{"geometry": {"type": "Point", "coordinates": [-94.1327516855, 44.7703114284]}, "type": "Feature", "properties": {"collection_times": [{"days": "Mon-Fri", "time": "3:30pm"}, {"days": "Sat", "time": "10:00am"}, {"days": "Sun", "time": "Closed"}], "id": "5533600004", "name": "USPS COLLECTION BOX - BLUE BOX", "address": {"city": "GLENCOE", "state": "MN", "street": "2211 11TH ST E", "postcode": "55336"}}},
{"geometry": {"type": "Point", "coordinates": [-94.1502952711, 44.7701307007]}, "type": "Feature", "properties": {"collection_times": [{"days": "Mon-Fri", "time": "4:45pm"}, {"days": "Sat", "time": "10:00am"}, {"days": "Sun", "time": "Closed"}], "id": "5533600012", "name": "USPS COLLECTION BOX - PO LOBBY", "address": {"city": "GLENCOE", "state": "MN", "street": "905 11TH ST E", "postcode": "55336"}}},
{"geometry": {"type": "Point", "coordinates": [-94.1502952711, 44.7701307007]}, "type": "Feature", "properties": {"collection_times": [{"days": "Mon-Fri", "time": "5:00pm"}, {"days": "Sat", "time": "10:00am"}, {"days": "Sun", "time": "Closed"}], "id": "5533600013", "name": "USPS COLLECTION BOX - BLUE BOX", "address": {"city": "GLENCOE", "state": "MN", "street": "905 11TH ST E", "postcode": "55336"}}},
{"geometry": {"type": "Point", "coordinates": [-93.3124971981, 44.7464026078]}, "type": "Feature", "properties": {"collection_times": [{"days": "Mon-Fri", "time": "3:00pm"}, {"days": "Sat", "time": "9:00am"}, {"days": "Sun", "time": "Closed"}], "id": "5533700022", "name": "USPS COLLECTION BOX - BLUE BOX", "address": {"city": "BURNSVILLE", "state": "MN", "street": "2500 COUNTY ROAD 42 W", "postcode": "55337"}}},
{"geometry": {"type": "Point", "coordinates": [-93.2787764358, 44.7800497605]}, "type": "Feature", "properties": {"collection_times": [{"days": "Mon-Fri", "time": "4:15pm"}, {"days": "Sat", "time": "10:00am"}, {"days": "Sun", "time": "Closed"}], "id": "5533700029", "name": "USPS COLLECTION BOX - BLUE BOX", "address": {"city": "BURNSVILLE", "state": "MN", "street": "12281 NICOLLET AVE", "postcode": "55337"}}},
{"geometry": {"type": "Point", "coordinates": [-93.2829167404, 44.7740496476]}, "type": "Feature", "properties": {"collection_times": [{"days": "Mon-Fri", "time": "3:00pm"}, {"days": "Sat", "time": "9:00am"}, {"days": "Sun", "time": "Closed"}], "id": "5533700033", "name": "USPS COLLECTION BOX - BLUE BOX", "address": {"city": "BURNSVILLE", "state": "MN", "street": "12600 PLEASANT AVE", "postcode": "55337"}}},
{"geometry": {"type": "Point", "coordinates": [-93.2458997374, 44.7885586085]}, "type": "Feature", "properties": {"collection_times": [{"days": "Mon-Sat", "time": "10:30am"}, {"days": "Sun", "time": "Closed"}], "id": "5533700039", "name": "USPS COLLECTION BOX - BLUE BOX", "address": {"city": "BURNSVILLE", "state": "MN", "street": "1900 HIGHWAY 13 E", "postcode": "55337"}}},
{"geometry": {"type": "Point", "coordinates": [-93.2681575302, 44.7795432032]}, "type": "Feature", "properties": {"collection_times": [{"days": "Mon-Fri", "time": "3:00pm"}, {"days": "Sat", "time": "1:00pm"}, {"days": "Sun", "time": "Closed"}], "id": "5533700048", "name": "USPS COLLECTION BOX - BLUE BOX", "address": {"city": "BURNSVILLE", "state": "MN", "street": "500 E TRAVELERS TRL", "postcode": "55337"}}},
{"geometry": {"type": "Point", "coordinates": [-93.26020568, 44.7388671592]}, "type": "Feature", "properties": {"collection_times": [{"days": "Mon-Fri", "time": "4:15pm"}, {"days": "Sat", "time": "11:00am"}, {"days": "Sun", "time": "Closed"}], "id": "5533700049", "name": "USPS COLLECTION BOX - BLUE BOX", "address": {"city": "BURNSVILLE", "state": "MN", "street": "1020 E 146TH ST", "postcode": "55337"}}},
{"geometry": {"type": "Point", "coordinates": [-93.283960679, 44.7698973558]}, "type": "Feature", "properties": {"collection_times": [{"days": "Mon-Fri", "time": "3:00pm"}, {"days": "Sat", "time": "10:00am"}, {"days": "Sun", "time": "Closed"}], "id": "5533700052", "name": "USPS COLLECTION BOX - BLUE BOX", "address": {"city": "BURNSVILLE", "state": "MN", "street": "301 W BURNSVILLE PKWY", "postcode": "55337"}}},
{"geometry": {"type": "Point", "coordinates": [-93.2581575762, 44.7386482379]}, "type": "Feature", "properties": {"collection_times": [{"days": "Mon-Fri", "time": "4:00pm"}, {"days": "Sat", "time": "1:00pm"}, {"days": "Sun", "time": "Closed"}], "id": "5533700053", "name": "USPS COLLECTION BOX - BLUE BOX", "address": {"city": "BURNSVILLE", "state": "MN", "street": "14601 COUNTY ROAD 11", "postcode": "55337"}}},
{"geometry": {"type": "Point", "coordinates": [-93.3050214443, 44.7727573429]}, "type": "Feature", "properties": {"collection_times": [{"days": "Mon-Sat", "time": "1:00pm"}, {"days": "Sun", "time": "Closed"}], "id": "5533700054", "name": "USPS COLLECTION BOX - BLUE BOX", "address": {"city": "BURNSVILLE", "state": "MN", "street": "12700 COUNTY ROAD 5", "postcode": "55337"}}},
{"geometry": {"type": "Point", "coordinates": [-93.2753401269, 44.7662663129]}, "type": "Feature", "properties": {"collection_times": [{"days": "Mon-Fri", "time": "4:30pm"}, {"days": "Sat-Sun", "time": "Closed"}], "id": "5533700074", "name": "USPS COLLECTION BOX - BLUE BOX", "address": {"city": "BURNSVILLE", "state": "MN", "street": "100 CIVIC CENTER PKWY", "postcode": "55337"}}},
{"geometry": {"type": "Point", "coordinates": [-93.2836576493, 44.7527240907]}, "type": "Feature", "properties": {"collection_times": [{"days": "Mon-Fri", "time": "5:45pm"}, {"days": "Sat", "time": "5:00pm"}, {"days": "Sun", "time": "Closed"}], "id": "5533700077", "name": "USPS COLLECTION BOX - BLUE BOX", "address": {"city": "BURNSVILLE", "state": "MN", "street": "13800 NICOLLET BLVD", "postcode": "55337"}}},
{"geometry": {"type": "Point", "coordinates": [-93.2836576493, 44.7527240907]}, "type": "Feature", "properties": {"collection_times": [{"days": "Mon-Fri", "time": "5:45pm"}, {"days": "Sat", "time": "5:00pm"}, {"days": "Sun", "time": "Closed"}], "id": "5533700085", "name": "USPS COLLECTION BOX - PO LOBBY", "address": {"city": "BURNSVILLE", "state": "MN", "street": "13800 NICOLLET BLVD", "postcode": "55337"}}},
{"geometry": {"type": "Point", "coordinates": [-93.2502995816, 44.7847872603]}, "type": "Feature", "properties": {"collection_times": [{"days": "Mon-Fri", "time": "3:00pm"}, {"days": "Sat", "time": "1:00pm"}, {"days": "Sun", "time": "Closed"}], "id": "5533700093", "name": "USPS COLLECTION BOX - BLUE BOX", "address": {"city": "BURNSVILLE", "state": "MN", "street": "1801 E 121ST ST", "postcode": "55337"}}},
{"geometry": {"type": "Point", "coordinates": [-93.2843522384, 44.769948223]}, "type": "Feature", "properties": {"collection_times": [{"days": "Mon-Fri", "time": "3:00pm"}, {"days": "Sat", "time": "10:00am"}, {"days": "Sun", "time": "Closed"}], "id": "5533700096", "name": "USPS COLLECTION BOX - BLUE BOX", "address": {"city": "BURNSVILLE", "state": "MN", "street": "350 W BURNSVILLE PKWY", "postcode": "55337"}}},
{"geometry": {"type": "Point", "coordinates": [-93.2559304663, 44.7841981467]}, "type": "Feature", "properties": {"collection_times": [{"days": "Mon-Fri", "time": "4:00pm"}, {"days": "Sat", "time": "10:00am"}, {"days": "Sun", "time": "Closed"}], "id": "5533700097", "name": "USPS COLLECTION BOX - BLUE BOX", "address": {"city": "BURNSVILLE", "state": "MN", "street": "1300 LARC INDUSTRIAL BLVD", "postcode": "55337"}}},
{"geometry": {"type": "Point", "coordinates": [-93.2836576493, 44.7527240907]}, "type": "Feature", "properties": {"collection_times": [{"days": "Mon-Fri", "time": "5:45pm"}, {"days": "Sat", "time": "5:00pm"}, {"days": "Sun", "time": "Closed"}], "id": "5533700098", "name": "USPS COLLECTION BOX - APC", "address": {"city": "BURNSVILLE", "state": "MN", "street": "13800 NICOLLET BLVD", "postcode": "55337"}}},
{"geometry": {"type": "Point", "coordinates": [-93.2780435182, 44.7813744236]}, "type": "Feature", "properties": {"collection_times": [{"days": "Mon-Fri", "time": "4:15pm"}, {"days": "Sat", "time": "10:00am"}, {"days": "Sun", "time": "Closed"}], "id": "5533700099", "name": "USPS COLLECTION BOX - BLUE BOX", "address": {"city": "BURNSVILLE", "state": "MN", "street": "12200 NICOLLET AVE", "postcode": "55337"}}},
{"geometry": {"type": "Point", "coordinates": [-93.9875065595, 44.6741515817]}, "type": "Feature", "properties": {"collection_times": [{"days": "Mon-Fri", "time": "3:30pm"}, {"days": "Sat", "time": "9:00am"}, {"days": "Sun", "time": "Closed"}], "id": "5533800001", "name": "USPS COLLECTION BOX - BLUE BOX", "address": {"city": "GREEN ISLE", "state": "MN", "street": "500 MCGRANN ST", "postcode": "55338"}}},
{"geometry": {"type": "Point", "coordinates": [-93.9875065595, 44.6741515817]}, "type": "Feature", "properties": {"collection_times": [{"days": "Mon-Fri", "time": "3:30pm"}, {"days": "Sat", "time": "9:00am"}, {"days": "Sun", "time": "Closed"}], "id": "5533800002", "name": "USPS COLLECTION BOX - PO LOBBY", "address": {"city": "GREEN ISLE", "state": "MN", "street": "500 MCGRANN ST", "postcode": "55338"}}},
{"geometry": {"type": "Point", "coordinates": [-93.9691328774, 44.7326270506]}, "type": "Feature", "properties": {"collection_times": [{"days": "Mon-Fri", "time": "4:00pm"}, {"days": "Sat", "time": "9:45am"}, {"days": "Sun", "time": "Closed"}], "id": "5533900001", "name": "USPS COLLECTION BOX - BLUE BOX", "address": {"city": "HAMBURG", "state": "MN", "street": "361 HENRIETTA AVE", "postcode": "55339"}}},
{"geometry": {"type": "Point", "coordinates": [-93.9691328774, 44.7326270506]}, "type": "Feature", "properties": {"collection_times": [{"days": "Mon-Fri", "time": "4:00pm"}, {"days": "Sat", "time": "9:45am"}, {"days": "Sun", "time": "Closed"}], "id": "5533900002", "name": "USPS COLLECTION BOX - PO LOBBY", "address": {"city": "HAMBURG", "state": "MN", "street": "361 HENRIETTA AVE", "postcode": "55339"}}},
{"geometry": {"type": "Point", "coordinates": [-93.543009765, 45.0931728328]}, "type": "Feature", "properties": {"collection_times": [{"days": "Mon-Fri", "time": "10:00am"}, {"days": "Sat-Sun", "time": "Closed"}], "id": "5534000001", "name": "USPS COLLECTION BOX - BLUE BOX", "address": {"city": "HAMEL", "state": "MN", "street": "7625 CO RD 116", "postcode": "55340"}}},
{"geometry": {"type": "Point", "coordinates": [-93.5420480193, 45.0460177226]}, "type": "Feature", "properties": {"collection_times": [{"days": "Mon-Fri", "time": "9:00am"}, {"days": "Sat-Sun", "time": "Closed"}], "id": "5534000004", "name": "USPS COLLECTION BOX - BLUE BOX", "address": {"city": "HAMEL", "state": "MN", "street": "762 HIGHWAY 55", "postcode": "55340"}}},
{"geometry": {"type": "Point", "coordinates": [-93.5246762669, 45.0406813947]}, "type": "Feature", "properties": {"collection_times": [{"days": "Mon-Fri", "time": "4:00pm"}, {"days": "Sat", "time": "10:00am"}, {"days": "Sun", "time": "Closed"}], "id": "5534000005", "name": "USPS COLLECTION BOX - PO LOBBY", "address": {"city": "HAMEL", "state": "MN", "street": "105 HAMEL RD", "postcode": "55340"}}},
{"geometry": {"type": "Point", "coordinates": [-93.5246762669, 45.0406813947]}, "type": "Feature", "properties": {"collection_times": [{"days": "Mon-Fri", "time": "4:00pm"}, {"days": "Sat", "time": "10:00am"}, {"days": "Sun", "time": "Closed"}], "id": "5534000006", "name": "USPS COLLECTION BOX - BLUE BOX", "address": {"city": "HAMEL", "state": "MN", "street": "105 HAMEL RD", "postcode": "55340"}}},
{"geometry": {"type": "Point", "coordinates": [-93.6669885963, 45.1585975614]}, "type": "Feature", "properties": {"collection_times": [{"days": "Mon-Fri", "time": "4:30pm"}, {"days": "Sat", "time": "9:30am"}, {"days": "Sun", "time": "Closed"}], "id": "5534100001", "name": "USPS COLLECTION BOX - BLUE BOX", "address": {"city": "HANOVER", "state": "MN", "street": "10961 4TH ST NE", "postcode": "55341"}}},
{"geometry": {"type": "Point", "coordinates": [-93.6669885963, 45.1585975614]}, "type": "Feature", "properties": {"collection_times": [{"days": "Mon-Fri", "time": "4:30pm"}, {"days": "Sat", "time": "9:30am"}, {"days": "Sun", "time": "Closed"}], "id": "5534100002", "name": "USPS COLLECTION BOX - PO LOBBY", "address": {"city": "HANOVER", "state": "MN", "street": "10961 4TH ST NE", "postcode": "55341"}}},
{"geometry": {"type": "Point", "coordinates": [-94.7151163532, 44.7436134707]}, "type": "Feature", "properties": {"collection_times": [{"days": "Mon-Fri", "time": "2:15pm"}, {"days": "Sat", "time": "10:00am"}, {"days": "Sun", "time": "Closed"}], "id": "5534200002", "name": "USPS COLLECTION BOX - PO LOBBY", "address": {"city": "HECTOR", "state": "MN", "street": "237 MAIN ST S", "postcode": "55342"}}},
{"geometry": {"type": "Point", "coordinates": [-93.4123046289, 44.9223724856]}, "type": "Feature", "properties": {"collection_times": [{"days": "Mon-Fri", "time": "6:00pm"}, {"days": "Sat", "time": "5:00pm"}, {"days": "Sun", "time": "Closed"}], "id": "5534300001", "name": "USPS COLLECTION BOX - BLUE BOX", "address": {"city": "HOPKINS", "state": "MN", "street": "910 1ST ST S", "postcode": "55343"}}},
{"geometry": {"type": "Point", "coordinates": [-93.4202837753, 44.9043996768]}, "type": "Feature", "properties": {"collection_times": [{"days": "Mon-Fri", "time": "5:00pm"}, {"days": "Sat-Sun", "time": "Closed"}], "id": "5534300011", "name": "USPS COLLECTION BOX - BLUE BOX", "address": {"city": "HOPKINS", "state": "MN", "street": "5500 FELTL RD", "postcode": "55343"}}},
{"geometry": {"type": "Point", "coordinates": [-93.4184607474, 44.9014707837]}, "type": "Feature", "properties": {"collection_times": [{"days": "Mon-Fri", "time": "5:00pm"}, {"days": "Sat-Sun", "time": "Closed"}], "id": "5534300012", "name": "USPS COLLECTION BOX - BLUE BOX", "address": {"city": "HOPKINS", "state": "MN", "street": "11100 BREN RD W", "postcode": "55343"}}},
{"geometry": {"type": "Point", "coordinates": [-93.4114682769, 44.8990835725]}, "type": "Feature", "properties": {"collection_times": [{"days": "Mon-Fri", "time": "4:00pm"}, {"days": "Sat-Sun", "time": "Closed"}], "id": "5534300013", "name": "USPS COLLECTION BOX - BLUE BOX", "address": {"city": "HOPKINS", "state": "MN", "street": "10301 BREN RD W", "postcode": "55343"}}},
{"geometry": {"type": "Point", "coordinates": [-93.4040440265, 44.9002476041]}, "type": "Feature", "properties": {"collection_times": [{"days": "Mon-Fri", "time": "5:00pm"}, {"days": "Sat-Sun", "time": "Closed"}], "id": "5534300016", "name": "USPS COLLECTION BOX - BLUE BOX", "address": {"city": "HOPKINS", "state": "MN", "street": "5700 SMETANA DR", "postcode": "55343"}}},
{"geometry": {"type": "Point", "coordinates": [-93.4231084444, 44.9163906185]}, "type": "Feature", "properties": {"collection_times": [{"days": "Mon-Fri", "time": "5:00pm"}, {"days": "Sat-Sun", "time": "Closed"}], "id": "5534300017", "name": "USPS COLLECTION BOX - BLUE BOX", "address": {"city": "HOPKINS", "state": "MN", "street": "11348 K TEL DR", "postcode": "55343"}}},
{"geometry": {"type": "Point", "coordinates": [-93.41560081, 44.9143537582]}, "type": "Feature", "properties": {"collection_times": [{"days": "Mon-Fri", "time": "5:00pm"}, {"days": "Sat-Sun", "time": "Closed"}], "id": "5534300021", "name": "USPS COLLECTION BOX - BLUE BOX", "address": {"city": "HOPKINS", "state": "MN", "street": "10301 WHITEWATER DR", "postcode": "55343"}}},
{"geometry": {"type": "Point", "coordinates": [-93.4113294575, 44.9166164736]}, "type": "Feature", "properties": {"collection_times": [{"days": "Mon-Fri", "time": "5:00pm"}, {"days": "Sat-Sun", "time": "Closed"}], "id": "5534300041", "name": "USPS COLLECTION BOX - BLUE BOX", "address": {"city": "HOPKINS", "state": "MN", "street": "856 5TH ST S", "postcode": "55343"}}},
{"geometry": {"type": "Point", "coordinates": [-93.4113381515, 44.9251027549]}, "type": "Feature", "properties": {"collection_times": [{"days": "Mon-Fri", "time": "5:00pm"}, {"days": "Sat-Sun", "time": "Closed"}], "id": "5534300042", "name": "USPS COLLECTION BOX - BLUE BOX", "address": {"city": "HOPKINS", "state": "MN", "street": "16 9TH AVE N", "postcode": "55343"}}},
{"geometry": {"type": "Point", "coordinates": [-93.4123046289, 44.9223724856]}, "type": "Feature", "properties": {"collection_times": [{"days": "Mon-Fri", "time": "6:00pm"}, {"days": "Sat", "time": "5:00pm"}, {"days": "Sun", "time": "Closed"}], "id": "5534300053", "name": "USPS COLLECTION BOX - PO LOBBY", "address": {"city": "HOPKINS", "state": "MN", "street": "910 1ST ST S", "postcode": "55343"}}},
{"geometry": {"type": "Point", "coordinates": [-93.4082458967, 44.8934302116]}, "type": "Feature", "properties": {"collection_times": [{"days": "Mon-Fri", "time": "5:00pm"}, {"days": "Sat-Sun", "time": "Closed"}], "id": "5534300062", "name": "USPS COLLECTION BOX - BLUE BOX", "address": {"city": "HOPKINS", "state": "MN", "street": "6110 BLUE CIRCLE DR", "postcode": "55343"}}},
{"geometry": {"type": "Point", "coordinates": [-93.4076626979, 44.8978757714]}, "type": "Feature", "properties": {"collection_times": [{"days": "Mon-Fri", "time": "4:00pm"}, {"days": "Sat-Sun", "time": "Closed"}], "id": "5534300063", "name": "USPS COLLECTION BOX - BLUE BOX", "address": {"city": "HOPKINS", "state": "MN", "street": "5850 OPUS PKWY", "postcode": "55343"}}},
{"geometry": {"type": "Point", "coordinates": [-93.4123046289, 44.9223724856]}, "type": "Feature", "properties": {"collection_times": [{"days": "Mon-Fri", "time": "6:00pm"}, {"days": "Sat", "time": "5:00pm"}, {"days": "Sun", "time": "Closed"}], "id": "5534300065", "name": "USPS COLLECTION BOX - APC", "address": {"city": "HOPKINS", "state": "MN", "street": "910 1ST ST S", "postcode": "55343"}}},
{"geometry": {"type": "Point", "coordinates": [-93.4123046289, 44.9223724856]}, "type": "Feature", "properties": {"collection_times": [{"days": "Mon-Fri", "time": "6:00pm"}, {"days": "Sat", "time": "5:00pm"}, {"days": "Sun", "time": "Closed"}], "id": "5534300066", "name": "USPS COLLECTION BOX - BLUE BOX", "address": {"city": "HOPKINS", "state": "MN", "street": "910 1ST ST S", "postcode": "55343"}}},
{"geometry": {"type": "Point", "coordinates": [-93.4477374519, 44.8634879602]}, "type": "Feature", "properties": {"collection_times": [{"days": "Mon-Fri", "time": "4:30pm"}, {"days": "Sat-Sun", "time": "Closed"}], "id": "5534400005", "name": "USPS COLLECTION BOX - BLUE BOX", "address": {"city": "EDEN PRAIRIE", "state": "MN", "street": "7697 ANAGRAM DR", "postcode": "55344"}}},
{"geometry": {"type": "Point", "coordinates": [-93.4643030352, 44.8634033301]}, "type": "Feature", "properties": {"collection_times": [{"days": "Mon-Fri", "time": "4:30pm"}, {"days": "Sat-Sun", "time": "Closed"}], "id": "5534400007", "name": "USPS COLLECTION BOX - BLUE BOX", "address": {"city": "EDEN PRAIRIE", "state": "MN", "street": "14760 MARTIN DR", "postcode": "55344"}}},
{"geometry": {"type": "Point", "coordinates": [-93.4702636071, 44.8575700167]}, "type": "Feature", "properties": {"collection_times": [{"days": "Mon-Fri", "time": "4:30pm"}, {"days": "Sat-Sun", "time": "Closed"}], "id": "5534400008", "name": "USPS COLLECTION BOX - BLUE BOX", "address": {"city": "EDEN PRAIRIE", "state": "MN", "street": "15000 TECHNOLOGY DR", "postcode": "55344"}}},
{"geometry": {"type": "Point", "coordinates": [-93.4854576284, 44.8685265595]}, "type": "Feature", "properties": {"collection_times": [{"days": "Mon-Fri", "time": "4:30pm"}, {"days": "Sat-Sun", "time": "Closed"}], "id": "5534400009", "name": "USPS COLLECTION BOX - BLUE BOX", "address": {"city": "EDEN PRAIRIE", "state": "MN", "street": "7447 EDEN PRAIRIE RD", "postcode": "55344"}}},
{"geometry": {"type": "Point", "coordinates": [-93.4560327071, 44.868712284]}, "type": "Feature", "properties": {"collection_times": [{"days": "Mon-Fri", "time": "4:30pm"}, {"days": "Sat-Sun", "time": "Closed"}], "id": "5534400013", "name": "USPS COLLECTION BOX - BLUE BOX", "address": {"city": "EDEN PRAIRIE", "state": "MN", "street": "7400 MITCHELL RD", "postcode": "55344"}}},
{"geometry": {"type": "Point", "coordinates": [-93.4206752466, 44.8572281184]}, "type": "Feature", "properties": {"collection_times": [{"days": "Mon-Fri", "time": "4:30pm"}, {"days": "Sat-Sun", "time": "Closed"}], "id": "5534400014", "name": "USPS COLLECTION BOX - BLUE BOX", "address": {"city": "EDEN PRAIRIE", "state": "MN", "street": "300 PRAIRIE CENTER DR", "postcode": "55344"}}},
{"geometry": {"type": "Point", "coordinates": [-93.4274701629, 44.8569489401]}, "type": "Feature", "properties": {"collection_times": [{"days": "Mon-Fri", "time": "4:30pm"}, {"days": "Sat-Sun", "time": "Closed"}], "id": "5534400017", "name": "USPS COLLECTION BOX - BLUE BOX", "address": {"city": "EDEN PRAIRIE", "state": "MN", "street": "11800 SINGLETREE LN", "postcode": "55344"}}},
{"geometry": {"type": "Point", "coordinates": [-93.4262777402, 44.8572352161]}, "type": "Feature", "properties": {"collection_times": [{"days": "Mon-Fri", "time": "4:30pm"}, {"days": "Sat-Sun", "time": "Closed"}], "id": "5534400018", "name": "USPS COLLECTION BOX - BLUE BOX", "address": {"city": "EDEN PRAIRIE", "state": "MN", "street": "8201 FLYING CLOUD DR", "postcode": "55344"}}},
{"geometry": {"type": "Point", "coordinates": [-93.4148420759, 44.8829290849]}, "type": "Feature", "properties": {"collection_times": [{"days": "Mon-Fri", "time": "4:30pm"}, {"days": "Sat-Sun", "time": "Closed"}], "id": "5534400019", "name": "USPS COLLECTION BOX - BLUE BOX", "address": {"city": "EDEN PRAIRIE", "state": "MN", "street": "6600 CITY WEST PKWY", "postcode": "55344"}}},
{"geometry": {"type": "Point", "coordinates": [-93.4192687084, 44.8582797689]}, "type": "Feature", "properties": {"collection_times": [{"days": "Mon-Fri", "time": "4:00pm"}, {"days": "Sat-Sun", "time": "Closed"}], "id": "5534400021", "name": "USPS COLLECTION BOX - BLUE BOX", "address": {"city": "EDEN PRAIRIE", "state": "MN", "street": "11200 W 78TH ST", "postcode": "55344"}}},
{"geometry": {"type": "Point", "coordinates": [-93.4029237643, 44.8861703924]}, "type": "Feature", "properties": {"collection_times": [{"days": "Mon-Fri", "time": "4:30pm"}, {"days": "Sat-Sun", "time": "Closed"}], "id": "5534400027", "name": "USPS COLLECTION BOX - BLUE BOX", "address": {"city": "EDEN PRAIRIE", "state": "MN", "street": "6440 FLYING CLOUD DR", "postcode": "55344"}}},
{"geometry": {"type": "Point", "coordinates": [-93.4009226164, 44.8367817825]}, "type": "Feature", "properties": {"collection_times": [{"days": "Mon-Fri", "time": "5:00pm"}, {"days": "Sat", "time": "1:00pm"}, {"days": "Sun", "time": "Closed"}], "id": "5534400029", "name": "USPS COLLECTION BOX - BLUE BOX", "address": {"city": "EDEN PRAIRIE", "state": "MN", "street": "9625 ANDERSON LAKES PKWY", "postcode": "55344"}}},
{"geometry": {"type": "Point", "coordinates": [-93.4417827834, 44.8460562539]}, "type": "Feature", "properties": {"collection_times": [{"days": "Mon-Fri", "time": "5:30pm"}, {"days": "Sat", "time": "5:00pm"}, {"days": "Sun", "time": "Closed"}], "id": "5534400032", "name": "USPS COLLECTION BOX - BLUE BOX", "address": {"city": "EDEN PRAIRIE", "state": "MN", "street": "8725 COLUMBINE RD", "postcode": "55344"}}},
{"geometry": {"type": "Point", "coordinates": [-93.4212522452, 44.8648558893]}, "type": "Feature", "properties": {"collection_times": [{"days": "Mon-Fri", "time": "4:00pm"}, {"days": "Sat-Sun", "time": "Closed"}], "id": "5534400033", "name": "USPS COLLECTION BOX - BLUE BOX", "address": {"city": "EDEN PRAIRIE", "state": "MN", "street": "7739 FLYING CLOUD DR", "postcode": "55344"}}},
{"geometry": {"type": "Point", "coordinates": [-93.4017964044, 44.8727035876]}, "type": "Feature", "properties": {"collection_times": [{"days": "Mon-Fri", "time": "4:00pm"}, {"days": "Sat-Sun", "time": "Closed"}], "id": "5534400036", "name": "USPS COLLECTION BOX - BLUE BOX", "address": {"city": "EDEN PRAIRIE", "state": "MN", "street": "9701 VALLEY VIEW RD", "postcode": "55344"}}},
{"geometry": {"type": "Point", "coordinates": [-93.4602381262, 44.8564651099]}, "type": "Feature", "properties": {"collection_times": [{"days": "Mon-Fri", "time": "4:00pm"}, {"days": "Sat-Sun", "time": "Closed"}], "id": "5534400041", "name": "USPS COLLECTION BOX - BLUE BOX", "address": {"city": "EDEN PRAIRIE", "state": "MN", "street": "8080 MITCHELL RD", "postcode": "55344"}}},
{"geometry": {"type": "Point", "coordinates": [-93.4134627458, 44.8684638626]}, "type": "Feature", "properties": {"collection_times": [{"days": "Mon-Fri", "time": "4:00pm"}, {"days": "Sat-Sun", "time": "Closed"}], "id": "5534400044", "name": "USPS COLLECTION BOX - BLUE BOX", "address": {"city": "EDEN PRAIRIE", "state": "MN", "street": "7500 FLYING CLOUD DR", "postcode": "55344"}}},
{"geometry": {"type": "Point", "coordinates": [-93.4142364009, 44.8822027481]}, "type": "Feature", "properties": {"collection_times": [{"days": "Mon-Fri", "time": "4:30pm"}, {"days": "Sat-Sun", "time": "Closed"}], "id": "5534400054", "name": "USPS COLLECTION BOX - BLUE BOX", "address": {"city": "EDEN PRAIRIE", "state": "MN", "street": "6640 SHADY OAK RD", "postcode": "55344"}}},
{"geometry": {"type": "Point", "coordinates": [-93.4315191298, 44.8621376707]}, "type": "Feature", "properties": {"collection_times": [{"days": "Mon-Fri", "time": "5:30pm"}, {"days": "Sat", "time": "5:00pm"}, {"days": "Sun", "time": "Closed"}], "id": "5534400062", "name": "USPS COLLECTION BOX - EXPRESS", "address": {"city": "EDEN PRAIRIE", "state": "MN", "street": "8725 COLUMBINE RD", "postcode": "55344"}}},
{"geometry": {"type": "Point", "coordinates": [-93.4417827834, 44.8460562539]}, "type": "Feature", "properties": {"collection_times": [{"days": "Mon-Fri", "time": "5:30pm"}, {"days": "Sat", "time": "5:00pm"}, {"days": "Sun", "time": "Closed"}], "id": "5534400073", "name": "USPS COLLECTION BOX - PO LOBBY", "address": {"city": "EDEN PRAIRIE", "state": "MN", "street": "8725 COLUMBINE RD", "postcode": "55344"}}},
{"geometry": {"type": "Point", "coordinates": [-93.4375359607, 44.8584359195]}, "type": "Feature", "properties": {"collection_times": [{"days": "Mon-Fri", "time": "4:30pm"}, {"days": "Sat-Sun", "time": "Closed"}], "id": "5534400076", "name": "USPS COLLECTION BOX - BLUE BOX", "address": {"city": "EDEN PRAIRIE", "state": "MN", "street": "775 PRAIRIE CENTER DR", "postcode": "55344"}}},
{"geometry": {"type": "Point", "coordinates": [-93.4249670217, 44.868567963]}, "type": "Feature", "properties": {"collection_times": [{"days": "Mon-Fri", "time": "4:30pm"}, {"days": "Sat-Sun", "time": "Closed"}], "id": "5534400078", "name": "USPS COLLECTION BOX - BLUE BOX", "address": {"city": "EDEN PRAIRIE", "state": "MN", "street": "7455 MARKET PLACE DR", "postcode": "55344"}}},
{"geometry": {"type": "Point", "coordinates": [-93.4477374519, 44.8634879602]}, "type": "Feature", "properties": {"collection_times": [{"days": "Mon-Fri", "time": "4:30pm"}, {"days": "Sat-Sun", "time": "Closed"}], "id": "5534400080", "name": "USPS COLLECTION BOX - BLUE BOX", "address": {"city": "EDEN PRAIRIE", "state": "MN", "street": "7697 ANAGRAM DR", "postcode": "55344"}}},
{"geometry": {"type": "Point", "coordinates": [-93.4005791397, 44.8588558699]}, "type": "Feature", "properties": {"collection_times": [{"days": "Mon-Fri", "time": "4:00pm"}, {"days": "Sat-Sun", "time": "Closed"}], "id": "5534400087", "name": "USPS COLLECTION BOX - BLUE BOX", "address": {"city": "EDEN PRAIRIE", "state": "MN", "street": "9531 W 78TH ST", "postcode": "55344"}}},
{"geometry": {"type": "Point", "coordinates": [-93.3985346419, 44.8689894065]}, "type": "Feature", "properties": {"collection_times": [{"days": "Mon-Fri", "time": "4:30pm"}, {"days": "Sat-Sun", "time": "Closed"}], "id": "5534400088", "name": "USPS COLLECTION BOX - BLUE BOX", "address": {"city": "EDEN PRAIRIE", "state": "MN", "street": "7402 WASHINGTON AVE S", "postcode": "55344"}}},
{"geometry": {"type": "Point", "coordinates": [-93.4035187927, 44.8716779622]}, "type": "Feature", "properties": {"collection_times": [{"days": "Mon-Fri", "time": "4:30pm"}, {"days": "Sat-Sun", "time": "Closed"}], "id": "5534400092", "name": "USPS COLLECTION BOX - BLUE BOX", "address": {"city": "EDEN PRAIRIE", "state": "MN", "street": "10000 VALLEY VIEW RD", "postcode": "55344"}}},
{"geometry": {"type": "Point", "coordinates": [-93.4315191298, 44.8621376707]}, "type": "Feature", "properties": {"collection_times": [{"days": "Mon-Fri", "time": "5:30pm"}, {"days": "Sat", "time": "5:00pm"}, {"days": "Sun", "time": "Closed"}], "id": "5534400097", "name": "USPS COLLECTION BOX - EXPRESS", "address": {"city": "EDEN PRAIRIE", "state": "MN", "street": "8725 COLUMBINE RD", "postcode": "55344"}}},
{"geometry": {"type": "Point", "coordinates": [-93.4417827834, 44.8460562539]}, "type": "Feature", "properties": {"collection_times": [{"days": "Mon-Fri", "time": "5:30pm"}, {"days": "Sat", "time": "5:00pm"}, {"days": "Sun", "time": "Closed"}], "id": "5534400098", "name": "USPS COLLECTION BOX - PO LOBBY", "address": {"city": "EDEN PRAIRIE", "state": "MN", "street": "8725 COLUMBINE RD", "postcode": "55344"}}},
{"geometry": {"type": "Point", "coordinates": [-93.4435903447, 44.8651326502]}, "type": "Feature", "properties": {"collection_times": [{"days": "Mon-Fri", "time": "4:30pm"}, {"days": "Sat-Sun", "time": "Closed"}], "id": "5534400099", "name": "USPS COLLECTION BOX - BLUE BOX", "address": {"city": "EDEN PRAIRIE", "state": "MN", "street": "965 PRAIRIE CENTER DR", "postcode": "55344"}}},
{"geometry": {"type": "Point", "coordinates": [-93.4464614736, 44.8642961724]}, "type": "Feature", "properties": {"collection_times": [{"days": "Mon-Fri", "time": "4:30pm"}, {"days": "Sat-Sun", "time": "Closed"}], "id": "5534400101", "name": "USPS COLLECTION BOX - BLUE BOX", "address": {"city": "EDEN PRAIRIE", "state": "MN", "street": "7627 ANAGRAM DR", "postcode": "55344"}}},
{"geometry": {"type": "Point", "coordinates": [-93.4417827834, 44.8460562539]}, "type": "Feature", "properties": {"collection_times": [{"days": "Mon-Fri", "time": "5:15pm"}, {"days": "Sat", "time": "5:00pm"}, {"days": "Sun", "time": "Closed"}], "id": "5534400103", "name": "USPS COLLECTION BOX - APC", "address": {"city": "EDEN PRAIRIE", "state": "MN", "street": "8725 COLUMBINE RD", "postcode": "55344"}}},
{"geometry": {"type": "Point", "coordinates": [-93.4801461543, 44.8621428779]}, "type": "Feature", "properties": {"collection_times": [{"days": "Mon-Fri", "time": "4:30pm"}, {"days": "Sat-Sun", "time": "Closed"}], "id": "5534400104", "name": "USPS COLLECTION BOX - BLUE BOX", "address": {"city": "EDEN PRAIRIE", "state": "MN", "street": "15842 VENTURE LN", "postcode": "55344"}}},
{"geometry": {"type": "Point", "coordinates": [-93.4169205348, 44.861621628]}, "type": "Feature", "properties": {"collection_times": [{"days": "Mon-Fri", "time": "4:00pm"}, {"days": "Sat-Sun", "time": "Closed"}], "id": "5534400105", "name": "USPS COLLECTION BOX - BLUE BOX", "address": {"city": "EDEN PRAIRIE", "state": "MN", "street": "11095 VIKING DR", "postcode": "55344"}}},
{"geometry": {"type": "Point", "coordinates": [-93.4445118697, 44.8591906473]}, "type": "Feature", "properties": {"collection_times": [{"days": "Mon-Fri", "time": "4:30pm"}, {"days": "Sat-Sun", "time": "Closed"}], "id": "5534400106", "name": "USPS COLLECTION BOX - BLUE BOX", "address": {"city": "EDEN PRAIRIE", "state": "MN", "street": "13500 TECHNOLOGY DR", "postcode": "55344"}}},
{"geometry": {"type": "Point", "coordinates": [-93.5049598899, 44.9113638695]}, "type": "Feature", "properties": {"collection_times": [{"days": "Mon-Fri", "time": "4:00pm"}, {"days": "Sat-Sun", "time": "Closed"}], "id": "5534500002", "name": "USPS COLLECTION BOX - BLUE BOX", "address": {"city": "MINNETONKA", "state": "MN", "street": "5100 THIMSEN AVE", "postcode": "55345"}}},
{"geometry": {"type": "Point", "coordinates": [-93.5030340327, 44.9177636775]}, "type": "Feature", "properties": {"collection_times": [{"days": "Mon-Fri", "time": "4:00pm"}, {"days": "Sat-Sun", "time": "Closed"}], "id": "5534500003", "name": "USPS COLLECTION BOX - BLUE BOX", "address": {"city": "MINNETONKA", "state": "MN", "street": "4795 COUNTY ROAD 101", "postcode": "55345"}}},
{"geometry": {"type": "Point", "coordinates": [-93.4469871605, 44.8937826364]}, "type": "Feature", "properties": {"collection_times": [{"days": "Mon-Fri", "time": "5:00pm"}, {"days": "Sat-Sun", "time": "Closed"}], "id": "5534500008", "name": "USPS COLLECTION BOX - BLUE BOX", "address": {"city": "MINNETONKA", "state": "MN", "street": "6101 BAKER RD", "postcode": "55345"}}},
{"geometry": {"type": "Point", "coordinates": [-93.4472273196, 44.8974511888]}, "type": "Feature", "properties": {"collection_times": [{"days": "Mon-Fri", "time": "5:00pm"}, {"days": "Sat-Sun", "time": "Closed"}], "id": "5534500009", "name": "USPS COLLECTION BOX - BLUE BOX", "address": {"city": "MINNETONKA", "state": "MN", "street": "5909 BAKER RD", "postcode": "55345"}}},
{"geometry": {"type": "Point", "coordinates": [-93.484649857, 44.9150468488]}, "type": "Feature", "properties": {"collection_times": [{"days": "Mon-Fri", "time": "5:00pm"}, {"days": "Sat-Sun", "time": "Closed"}], "id": "5534500010", "name": "USPS COLLECTION BOX - BLUE BOX", "address": {"city": "MINNETONKA", "state": "MN", "street": "14910 MINNETONKA INDUSTRIAL RD", "postcode": "55345"}}},
{"geometry": {"type": "Point", "coordinates": [-93.4660074171, 44.9041856745]}, "type": "Feature", "properties": {"collection_times": [{"days": "Mon-Fri", "time": "5:30pm"}, {"days": "Sat", "time": "3:00pm"}, {"days": "Sun", "time": "Closed"}], "id": "5534500016", "name": "USPS COLLECTION BOX - BLUE BOX", "address": {"city": "MINNETONKA", "state": "MN", "street": "14702 EXCELSIOR BLVD", "postcode": "55345"}}},
{"geometry": {"type": "Point", "coordinates": [-93.4660074171, 44.9041856745]}, "type": "Feature", "properties": {"collection_times": [{"days": "Mon-Fri", "time": "5:30pm"}, {"days": "Sat", "time": "12:30pm"}, {"days": "Sun", "time": "Closed"}], "id": "5534500017", "name": "USPS COLLECTION BOX - PO LOBBY", "address": {"city": "MINNETONKA", "state": "MN", "street": "14702 EXCELSIOR BLVD", "postcode": "55345"}}},
{"geometry": {"type": "Point", "coordinates": [-93.5049598899, 44.9113638695]}, "type": "Feature", "properties": {"collection_times": [{"days": "Mon-Fri", "time": "4:00pm"}, {"days": "Sat-Sun", "time": "Closed"}], "id": "5534500020", "name": "USPS COLLECTION BOX - BLUE BOX", "address": {"city": "MINNETONKA", "state": "MN", "street": "5100 THIMSEN AVE", "postcode": "55345"}}},
{"geometry": {"type": "Point", "coordinates": [-93.4469871605, 44.8937826364]}, "type": "Feature", "properties": {"collection_times": [{"days": "Mon-Fri", "time": "5:00pm"}, {"days": "Sat-Sun", "time": "Closed"}], "id": "5534500021", "name": "USPS COLLECTION BOX - BLUE BOX", "address": {"city": "MINNETONKA", "state": "MN", "street": "6101 BAKER RD", "postcode": "55345"}}},
{"geometry": {"type": "Point", "coordinates": [-93.4839405691, 44.9152971595]}, "type": "Feature", "properties": {"collection_times": [{"days": "Mon-Fri", "time": "5:00pm"}, {"days": "Sat-Sun", "time": "Closed"}], "id": "5534500022", "name": "USPS COLLECTION BOX - BLUE BOX", "address": {"city": "MINNETONKA", "state": "MN", "street": "14910 MINNETONKA INDUSTRIAL RD", "postcode": "55345"}}},
{"geometry": {"type": "Point", "coordinates": [-93.5030340327, 44.9177636775]}, "type": "Feature", "properties": {"collection_times": [{"days": "Mon-Fri", "time": "4:00pm"}, {"days": "Sat-Sun", "time": "Closed"}], "id": "5534500023", "name": "USPS COLLECTION BOX - BLUE BOX", "address": {"city": "MINNETONKA", "state": "MN", "street": "4795 COUNTY ROAD 101", "postcode": "55345"}}},
{"geometry": {"type": "Point", "coordinates": [-93.4856098847, 44.8635439594]}, "type": "Feature", "properties": {"collection_times": [{"days": "Mon-Fri", "time": "4:30pm"}, {"days": "Sat", "time": "9:30am"}, {"days": "Sun", "time": "Closed"}], "id": "5534600003", "name": "USPS COLLECTION BOX - BLUE BOX", "address": {"city": "EDEN PRAIRIE", "state": "MN", "street": "16500 W 78TH ST", "postcode": "55346"}}},
{"geometry": {"type": "Point", "coordinates": [-93.4522839101, 44.8896246326]}, "type": "Feature", "properties": {"collection_times": [{"days": "Mon-Fri", "time": "4:30pm"}, {"days": "Sat-Sun", "time": "Closed"}], "id": "5534600007", "name": "USPS COLLECTION BOX - BLUE BOX", "address": {"city": "EDEN PRAIRIE", "state": "MN", "street": "6321 BURY DR", "postcode": "55346"}}},
{"geometry": {"type": "Point", "coordinates": [-93.443352566, 44.8659918835]}, "type": "Feature", "properties": {"collection_times": [{"days": "Mon-Fri", "time": "4:00pm"}, {"days": "Sat", "time": "12:00pm"}, {"days": "Sun", "time": "Closed"}], "id": "5534600010", "name": "USPS COLLECTION BOX - BLUE BOX", "address": {"city": "EDEN PRAIRIE", "state": "MN", "street": "970 PRAIRIE CENTER DR", "postcode": "55346"}}},
{"geometry": {"type": "Point", "coordinates": [-94.0743577266, 45.0631724636]}, "type": "Feature", "properties": {"collection_times": [{"days": "Mon-Fri", "time": "4:30pm"}, {"days": "Sat", "time": "10:30am"}, {"days": "Sun", "time": "Closed"}], "id": "5534900001", "name": "USPS COLLECTION BOX - BLUE BOX", "address": {"city": "HOWARD LAKE", "state": "MN", "street": "609 8TH AVE", "postcode": "55349"}}},
{"geometry": {"type": "Point", "coordinates": [-94.0743577266, 45.0631724636]}, "type": "Feature", "properties": {"collection_times": [{"days": "Mon-Fri", "time": "4:30pm"}, {"days": "Sat", "time": "10:30am"}, {"days": "Sun", "time": "Closed"}], "id": "5534900003", "name": "USPS COLLECTION BOX - PO LOBBY", "address": {"city": "HOWARD LAKE", "state": "MN", "street": "609 8TH AVE", "postcode": "55349"}}},
{"geometry": {"type": "Point", "coordinates": [-94.3650020543, 44.88451243]}, "type": "Feature", "properties": {"collection_times": [{"days": "Mon-Sat", "time": "11:00am"}, {"days": "Sun", "time": "Closed"}], "id": "5535000003", "name": "USPS COLLECTION BOX - BLUE BOX", "address": {"city": "HUTCHINSON", "state": "MN", "street": "600 ADAMS ST SE", "postcode": "55350"}}},
{"geometry": {"type": "Point", "coordinates": [-94.3691313767, 44.8895049305]}, "type": "Feature", "properties": {"collection_times": [{"days": "Mon-Fri", "time": "5:00pm"}, {"days": "Sat", "time": "4:15pm"}, {"days": "Sun", "time": "Closed"}], "id": "5535000004", "name": "USPS COLLECTION BOX - BLUE BOX", "address": {"city": "HUTCHINSON", "state": "MN", "street": "245 MAIN ST S", "postcode": "55350"}}},
{"geometry": {"type": "Point", "coordinates": [-94.3757370445, 44.8760550335]}, "type": "Feature", "properties": {"collection_times": [{"days": "Mon-Sat", "time": "3:30pm"}, {"days": "Sun", "time": "Closed"}], "id": "5535000014", "name": "USPS COLLECTION BOX - BLUE BOX", "address": {"city": "HUTCHINSON", "state": "MN", "street": "1060 HIGHWAY 15 S", "postcode": "55350"}}},
{"geometry": {"type": "Point", "coordinates": [-94.3938077032, 44.8939262736]}, "type": "Feature", "properties": {"collection_times": [{"days": "Mon-Sat", "time": "10:30am"}, {"days": "Sun", "time": "Closed"}], "id": "5535000017", "name": "USPS COLLECTION BOX - BLUE BOX", "address": {"city": "HUTCHINSON", "state": "MN", "street": "1210 HIGHWAY 7 W", "postcode": "55350"}}},
{"geometry": {"type": "Point", "coordinates": [-94.3691313767, 44.8895049305]}, "type": "Feature", "properties": {"collection_times": [{"days": "Mon-Fri", "time": "5:00pm"}, {"days": "Sat", "time": "4:15pm"}, {"days": "Sun", "time": "Closed"}], "id": "5535000020", "name": "USPS COLLECTION BOX - PO LOBBY", "address": {"city": "HUTCHINSON", "state": "MN", "street": "245 MAIN ST S", "postcode": "55350"}}},
{"geometry": {"type": "Point", "coordinates": [-94.3691313767, 44.8895049305]}, "type": "Feature", "properties": {"collection_times": [{"days": "Mon-Fri", "time": "5:00pm"}, {"days": "Sat", "time": "4:15pm"}, {"days": "Sun", "time": "Closed"}], "id": "5535000022", "name": "USPS COLLECTION BOX - BLUE BOX", "address": {"city": "HUTCHINSON", "state": "MN", "street": "245 MAIN ST S", "postcode": "55350"}}},
{"geometry": {"type": "Point", "coordinates": [-93.6360281943, 44.6690879587]}, "type": "Feature", "properties": {"collection_times": [{"days": "Mon-Fri", "time": "1:00pm"}, {"days": "Sat-Sun", "time": "Closed"}], "id": "5535200001", "name": "USPS COLLECTION BOX - BLUE BOX", "address": {"city": "JORDAN", "state": "MN", "street": "500 2ND ST W", "postcode": "55352"}}},
{"geometry": {"type": "Point", "coordinates": [-93.6272032679, 44.6672751172]}, "type": "Feature", "properties": {"collection_times": [{"days": "Mon-Fri", "time": "4:30pm"}, {"days": "Sat", "time": "11:00am"}, {"days": "Sun", "time": "Closed"}], "id": "5535200003", "name": "USPS COLLECTION BOX - BLUE BOX", "address": {"city": "JORDAN", "state": "MN", "street": "214 2ND ST E", "postcode": "55352"}}},
{"geometry": {"type": "Point", "coordinates": [-93.6272032679, 44.6672751172]}, "type": "Feature", "properties": {"collection_times": [{"days": "Mon-Fri", "time": "4:30pm"}, {"days": "Sat", "time": "11:00am"}, {"days": "Sun", "time": "Closed"}], "id": "5535200005", "name": "USPS COLLECTION BOX - PO LOBBY", "address": {"city": "JORDAN", "state": "MN", "street": "214 2ND ST E", "postcode": "55352"}}},
{"geometry": {"type": "Point", "coordinates": [-94.3003898935, 45.3100904895]}, "type": "Feature", "properties": {"collection_times": [{"days": "Mon-Fri", "time": "3:30pm"}, {"days": "Sat", "time": "9:30am"}, {"days": "Sun", "time": "Closed"}], "id": "5535300001", "name": "USPS COLLECTION BOX - BLUE BOX", "address": {"city": "KIMBALL", "state": "MN", "street": "40 S MAIN ST", "postcode": "55353"}}},
{"geometry": {"type": "Point", "coordinates": [-94.3003898935, 45.3100904895]}, "type": "Feature", "properties": {"collection_times": [{"days": "Mon-Fri", "time": "3:30pm"}, {"days": "Sat", "time": "9:30am"}, {"days": "Sun", "time": "Closed"}], "id": "5535300002", "name": "USPS COLLECTION BOX - PO LOBBY", "address": {"city": "KIMBALL", "state": "MN", "street": "40 S MAIN ST", "postcode": "55353"}}},
{"geometry": {"type": "Point", "coordinates": [-94.298755008, 45.3164595513]}, "type": "Feature", "properties": {"collection_times": [{"days": "Mon-Fri", "time": "10:00am"}, {"days": "Sat-Sun", "time": "Closed"}], "id": "5535300003", "name": "USPS COLLECTION BOX - BLUE BOX", "address": {"city": "KIMBALL", "state": "MN", "street": "130 MAUS DR", "postcode": "55353"}}},
{"geometry": {"type": "Point", "coordinates": [-94.0419207308, 44.8851009345]}, "type": "Feature", "properties": {"collection_times": [{"days": "Mon-Fri", "time": "4:00pm"}, {"days": "Sat", "time": "10:00am"}, {"days": "Sun", "time": "Closed"}], "id": "5535400001", "name": "USPS COLLECTION BOX - BLUE BOX", "address": {"city": "LESTER PRAIRIE", "state": "MN", "street": "38 JUNIPER ST N", "postcode": "55354"}}},
{"geometry": {"type": "Point", "coordinates": [-94.0419207308, 44.8851009345]}, "type": "Feature", "properties": {"collection_times": [{"days": "Mon-Fri", "time": "4:00pm"}, {"days": "Sat", "time": "10:00am"}, {"days": "Sun", "time": "Closed"}], "id": "5535400002", "name": "USPS COLLECTION BOX - BLUE BOX", "address": {"city": "LESTER PRAIRIE", "state": "MN", "street": "38 JUNIPER ST N", "postcode": "55354"}}},
{"geometry": {"type": "Point", "coordinates": [-94.0419207308, 44.8851009345]}, "type": "Feature", "properties": {"collection_times": [{"days": "Mon-Fri", "time": "4:00pm"}, {"days": "Sat", "time": "10:00am"}, {"days": "Sun", "time": "Closed"}], "id": "5535400003", "name": "USPS COLLECTION BOX - PO LOBBY", "address": {"city": "LESTER PRAIRIE", "state": "MN", "street": "38 JUNIPER ST N", "postcode": "55354"}}},
{"geometry": {"type": "Point", "coordinates": [-94.5275647237, 45.1274945302]}, "type": "Feature", "properties": {"collection_times": [{"days": "Mon-Fri", "time": "5:00pm"}, {"days": "Sat", "time": "3:45pm"}, {"days": "Sun", "time": "Closed"}], "id": "5535500023", "name": "USPS COLLECTION BOX - BLUE BOX", "address": {"city": "LITCHFIELD", "state": "MN", "street": "35 E 2ND ST", "postcode": "55355"}}},
{"geometry": {"type": "Point", "coordinates": [-94.5099724195, 45.1223122408]}, "type": "Feature", "properties": {"collection_times": [{"days": "Mon-Sat", "time": "9:30am"}, {"days": "Sun", "time": "Closed"}], "id": "5535500026", "name": "USPS COLLECTION BOX - BLUE BOX", "address": {"city": "LITCHFIELD", "state": "MN", "street": "951 E HIGHWAY 12", "postcode": "55355"}}},
{"geometry": {"type": "Point", "coordinates": [-94.5232318812, 45.1254626671]}, "type": "Feature", "properties": {"collection_times": [{"days": "Mon-Sat", "time": "2:30pm"}, {"days": "Sun", "time": "Closed"}], "id": "5535500027", "name": "USPS COLLECTION BOX - BLUE BOX", "address": {"city": "LITCHFIELD", "state": "MN", "street": "329 E HIGHWAY 12", "postcode": "55355"}}},
{"geometry": {"type": "Point", "coordinates": [-94.525112716, 45.12646872]}, "type": "Feature", "properties": {"collection_times": [{"days": "Mon-Fri", "time": "3:15pm"}, {"days": "Sat", "time": "2:15pm"}, {"days": "Sun", "time": "Closed"}], "id": "5535500036", "name": "USPS COLLECTION BOX - BLUE BOX", "address": {"city": "LITCHFIELD", "state": "MN", "street": "114 N HOLCOMBE AVE", "postcode": "55355"}}},
{"geometry": {"type": "Point", "coordinates": [-94.5281559817, 45.1289873521]}, "type": "Feature", "properties": {"collection_times": [{"days": "Mon-Fri", "time": "3:15pm"}, {"days": "Sat", "time": "2:15pm"}, {"days": "Sun", "time": "Closed"}], "id": "5535500038", "name": "USPS COLLECTION BOX - BLUE BOX", "address": {"city": "LITCHFIELD", "state": "MN", "street": "325 N SIBLEY AVE", "postcode": "55355"}}},
{"geometry": {"type": "Point", "coordinates": [-94.5275647237, 45.1274945302]}, "type": "Feature", "properties": {"collection_times": [{"days": "Mon-Fri", "time": "5:00pm"}, {"days": "Sat", "time": "3:45pm"}, {"days": "Sun", "time": "Closed"}], "id": "5535500039", "name": "USPS COLLECTION BOX - BLUE BOX", "address": {"city": "LITCHFIELD", "state": "MN", "street": "35 E 2ND ST", "postcode": "55355"}}},
{"geometry": {"type": "Point", "coordinates": [-94.5275647237, 45.1274945302]}, "type": "Feature", "properties": {"collection_times": [{"days": "Mon-Fri", "time": "4:45pm"}, {"days": "Sat", "time": "3:30pm"}, {"days": "Sun", "time": "Closed"}], "id": "5535500042", "name": "USPS COLLECTION BOX - PO LOBBY", "address": {"city": "LITCHFIELD", "state": "MN", "street": "35 E 2ND ST", "postcode": "55355"}}},
{"geometry": {"type": "Point", "coordinates": [-93.5758096682, 44.9866734031]}, "type": "Feature", "properties": {"collection_times": [{"days": "Mon-Fri", "time": "4:30pm"}, {"days": "Sat", "time": "11:00am"}, {"days": "Sun", "time": "Closed"}], "id": "5535600002", "name": "USPS COLLECTION BOX - BLUE BOX", "address": {"city": "LONG LAKE", "state": "MN", "street": "2095 DANIELS ST", "postcode": "55356"}}},
{"geometry": {"type": "Point", "coordinates": [-93.5758096682, 44.9866734031]}, "type": "Feature", "properties": {"collection_times": [{"days": "Mon-Fri", "time": "4:30pm"}, {"days": "Sat", "time": "11:00am"}, {"days": "Sun", "time": "Closed"}], "id": "5535600003", "name": "USPS COLLECTION BOX - PO LOBBY", "address": {"city": "LONG LAKE", "state": "MN", "street": "2095 DANIELS ST", "postcode": "55356"}}},
{"geometry": {"type": "Point", "coordinates": [-93.5758096682, 44.9866734031]}, "type": "Feature", "properties": {"collection_times": [{"days": "Mon-Fri", "time": "4:30pm"}, {"days": "Sat", "time": "11:00am"}, {"days": "Sun", "time": "Closed"}], "id": "5535600004", "name": "USPS COLLECTION BOX - BLUE BOX", "address": {"city": "LONG LAKE", "state": "MN", "street": "2095 DANIELS ST", "postcode": "55356"}}},
{"geometry": {"type": "Point", "coordinates": [-93.5758096682, 44.9866734031]}, "type": "Feature", "properties": {"collection_times": [{"days": "Mon-Fri", "time": "4:30pm"}, {"days": "Sat", "time": "11:00am"}, {"days": "Sun", "time": "Closed"}], "id": "5535600006", "name": "USPS COLLECTION BOX - PO LOBBY", "address": {"city": "LONG LAKE", "state": "MN", "street": "2095 DANIELS ST", "postcode": "55356"}}},
{"geometry": {"type": "Point", "coordinates": [-93.6352971257, 45.0536016725]}, "type": "Feature", "properties": {"collection_times": [{"days": "Mon-Fri", "time": "4:30pm"}, {"days": "Sat", "time": "11:00am"}, {"days": "Sun", "time": "Closed"}], "id": "5535700001", "name": "USPS COLLECTION BOX - BLUE BOX", "address": {"city": "LORETTO", "state": "MN", "street": "99 N MEDINA ST", "postcode": "55357"}}},
{"geometry": {"type": "Point", "coordinates": [-93.6346334857, 45.0654052371]}, "type": "Feature", "properties": {"collection_times": [{"days": "Mon-Fri", "time": "11:30am"}, {"days": "Sat", "time": "9:00am"}, {"days": "Sun", "time": "Closed"}], "id": "5535700002", "name": "USPS COLLECTION BOX - BLUE BOX", "address": {"city": "LORETTO", "state": "MN", "street": "4355 HWY 55", "postcode": "55357"}}},
{"geometry": {"type": "Point", "coordinates": [-93.6358021438, 45.1247752809]}, "type": "Feature", "properties": {"collection_times": [{"days": "Mon-Sat", "time": "9:00am"}, {"days": "Sun", "time": "Closed"}], "id": "5535700003", "name": "USPS COLLECTION BOX - BLUE BOX", "address": {"city": "LORETTO", "state": "MN", "street": "9350 COUNTY ROAD 19", "postcode": "55357"}}},
{"geometry": {"type": "Point", "coordinates": [-93.6352971257, 45.0536016725]}, "type": "Feature", "properties": {"collection_times": [{"days": "Mon-Fri", "time": "4:30pm"}, {"days": "Sat", "time": "11:00am"}, {"days": "Sun", "time": "Closed"}], "id": "5535700004", "name": "USPS COLLECTION BOX - PO LOBBY", "address": {"city": "LORETTO", "state": "MN", "street": "99 N MEDINA ST", "postcode": "55357"}}},
{"geometry": {"type": "Point", "coordinates": [-94.0033213051, 45.228057257]}, "type": "Feature", "properties": {"collection_times": [{"days": "Mon-Fri", "time": "5:00pm"}, {"days": "Sat", "time": "10:00am"}, {"days": "Sun", "time": "Closed"}], "id": "5535800001", "name": "USPS COLLECTION BOX - BLUE BOX", "address": {"city": "MAPLE LAKE", "state": "MN", "street": "101 BIRCH AVE S", "postcode": "55358"}}},
{"geometry": {"type": "Point", "coordinates": [-94.0089130152, 45.2316005698]}, "type": "Feature", "properties": {"collection_times": [{"days": "Mon-Fri", "time": "1:30pm"}, {"days": "Sat-Sun", "time": "Closed"}], "id": "5535800002", "name": "USPS COLLECTION BOX - BLUE BOX", "address": {"city": "MAPLE LAKE", "state": "MN", "street": "300 HIGHWAY 55 W", "postcode": "55358"}}},
{"geometry": {"type": "Point", "coordinates": [-94.0033213051, 45.228057257]}, "type": "Feature", "properties": {"collection_times": [{"days": "Mon-Fri", "time": "5:00pm"}, {"days": "Sat", "time": "10:00am"}, {"days": "Sun", "time": "Closed"}], "id": "5535800003", "name": "USPS COLLECTION BOX - PO LOBBY", "address": {"city": "MAPLE LAKE", "state": "MN", "street": "101 BIRCH AVE S", "postcode": "55358"}}},
{"geometry": {"type": "Point", "coordinates": [-93.6552595582, 45.0075668244]}, "type": "Feature", "properties": {"collection_times": [{"days": "Mon-Fri", "time": "4:30pm"}, {"days": "Sat", "time": "11:30am"}, {"days": "Sun", "time": "Closed"}], "id": "5535900001", "name": "USPS COLLECTION BOX - PO LOBBY", "address": {"city": "MAPLE PLAIN", "state": "MN", "street": "5179 MAIN ST E", "postcode": "55359"}}},
{"geometry": {"type": "Point", "coordinates": [-93.6552595582, 45.0075668244]}, "type": "Feature", "properties": {"collection_times": [{"days": "Mon-Fri", "time": "4:30pm"}, {"days": "Sat", "time": "11:30am"}, {"days": "Sun", "time": "Closed"}], "id": "5535900002", "name": "USPS COLLECTION BOX - BLUE BOX", "address": {"city": "MAPLE PLAIN", "state": "MN", "street": "5179 MAIN ST E", "postcode": "55359"}}},
{"geometry": {"type": "Point", "coordinates": [-93.6495837211, 45.0054718041]}, "type": "Feature", "properties": {"collection_times": [{"days": "Mon-Fri", "time": "9:30am"}, {"days": "Sat-Sun", "time": "Closed"}], "id": "5535900003", "name": "USPS COLLECTION BOX - BLUE BOX", "address": {"city": "MAPLE PLAIN", "state": "MN", "street": "1500 HOWARD AVE", "postcode": "55359"}}},
{"geometry": {"type": "Point", "coordinates": [-93.6552595582, 45.0075668244]}, "type": "Feature", "properties": {"collection_times": [{"days": "Mon-Fri", "time": "4:30pm"}, {"days": "Sat", "time": "11:30am"}, {"days": "Sun", "time": "Closed"}], "id": "5535900004", "name": "USPS COLLECTION BOX - BLUE BOX", "address": {"city": "MAPLE PLAIN", "state": "MN", "street": "5179 MAIN ST E", "postcode": "55359"}}},
{"geometry": {"type": "Point", "coordinates": [-93.8880256619, 44.8856983918]}, "type": "Feature", "properties": {"collection_times": [{"days": "Mon-Fri", "time": "4:00pm"}, {"days": "Sat", "time": "9:30am"}, {"days": "Sun", "time": "Closed"}], "id": "5536000001", "name": "USPS COLLECTION BOX - BLUE BOX", "address": {"city": "MAYER", "state": "MN", "street": "117 ASH AVE N", "postcode": "55360"}}},
{"geometry": {"type": "Point", "coordinates": [-93.8880256619, 44.8856983918]}, "type": "Feature", "properties": {"collection_times": [{"days": "Mon-Fri", "time": "4:00pm"}, {"days": "Sat", "time": "9:30am"}, {"days": "Sun", "time": "Closed"}], "id": "5536000003", "name": "USPS COLLECTION BOX - PO LOBBY", "address": {"city": "MAYER", "state": "MN", "street": "117 ASH AVE N", "postcode": "55360"}}},
{"geometry": {"type": "Point", "coordinates": [-93.8880256619, 44.8856983918]}, "type": "Feature", "properties": {"collection_times": [{"days": "Mon-Fri", "time": "4:00pm"}, {"days": "Sat", "time": "9:30am"}, {"days": "Sun", "time": "Closed"}], "id": "5536000005", "name": "USPS COLLECTION BOX - PO LOBBY", "address": {"city": "MAYER", "state": "MN", "street": "117 ASH AVE N", "postcode": "55360"}}},
{"geometry": {"type": "Point", "coordinates": [-93.8004735891, 45.3015385483]}, "type": "Feature", "properties": {"collection_times": [{"days": "Mon-Sat", "time": "10:00am"}, {"days": "Sun", "time": "Closed"}], "id": "5536200002", "name": "USPS COLLECTION BOX - BLUE BOX", "address": {"city": "MONTICELLO", "state": "MN", "street": "300 W 7TH ST", "postcode": "55362"}}},
{"geometry": {"type": "Point", "coordinates": [-93.7633812517, 45.2905151467]}, "type": "Feature", "properties": {"collection_times": [{"days": "Mon-Sat", "time": "12:00pm"}, {"days": "Sun", "time": "Closed"}], "id": "5536200004", "name": "USPS COLLECTION BOX - BLUE BOX", "address": {"city": "MONTICELLO", "state": "MN", "street": "1547 E BROADWAY ST", "postcode": "55362"}}},
{"geometry": {"type": "Point", "coordinates": [-93.7977706247, 45.3069465304]}, "type": "Feature", "properties": {"collection_times": [{"days": "Mon-Fri", "time": "5:00pm"}, {"days": "Sat", "time": "12:00pm"}, {"days": "Sun", "time": "Closed"}], "id": "5536200005", "name": "USPS COLLECTION BOX - BLUE BOX", "address": {"city": "MONTICELLO", "state": "MN", "street": "331 W BROADWAY ST", "postcode": "55362"}}},
{"geometry": {"type": "Point", "coordinates": [-93.7564687954, 45.2848867116]}, "type": "Feature", "properties": {"collection_times": [{"days": "Mon-Sat", "time": "10:30am"}, {"days": "Sun", "time": "Closed"}], "id": "5536200012", "name": "USPS COLLECTION BOX - BLUE BOX", "address": {"city": "MONTICELLO", "state": "MN", "street": "2860 RED OAK CIR", "postcode": "55362"}}},
{"geometry": {"type": "Point", "coordinates": [-93.7977706247, 45.3069465304]}, "type": "Feature", "properties": {"collection_times": [{"days": "Mon-Fri", "time": "5:00pm"}, {"days": "Sat", "time": "12:00pm"}, {"days": "Sun", "time": "Closed"}], "id": "5536200013", "name": "USPS COLLECTION BOX - PO LOBBY", "address": {"city": "MONTICELLO", "state": "MN", "street": "331 W BROADWAY ST", "postcode": "55362"}}},
{"geometry": {"type": "Point", "coordinates": [-93.7994504264, 45.301192618]}, "type": "Feature", "properties": {"collection_times": [{"days": "Mon-Fri", "time": "3:30pm"}, {"days": "Sat", "time": "10:00am"}, {"days": "Sun", "time": "Closed"}], "id": "5536200014", "name": "USPS COLLECTION BOX - BLUE BOX", "address": {"city": "MONTICELLO", "state": "MN", "street": "206 E 7TH ST", "postcode": "55362"}}},
{"geometry": {"type": "Point", "coordinates": [-93.7977706247, 45.3069465304]}, "type": "Feature", "properties": {"collection_times": [{"days": "Mon-Fri", "time": "5:00pm"}, {"days": "Sat", "time": "12:00pm"}, {"days": "Sun", "time": "Closed"}], "id": "5536200015", "name": "USPS COLLECTION BOX - BLUE BOX", "address": {"city": "MONTICELLO", "state": "MN", "street": "331 W BROADWAY ST", "postcode": "55362"}}},
{"geometry": {"type": "Point", "coordinates": [-93.7977706247, 45.3069465304]}, "type": "Feature", "properties": {"collection_times": [{"days": "Mon-Fri", "time": "5:00pm"}, {"days": "Sat", "time": "12:00pm"}, {"days": "Sun", "time": "Closed"}], "id": "5536200016", "name": "USPS COLLECTION BOX - BLUE BOX", "address": {"city": "MONTICELLO", "state": "MN", "street": "331 W BROADWAY ST", "postcode": "55362"}}},
{"geometry": {"type": "Point", "coordinates": [-93.7994504264, 45.301192618]}, "type": "Feature", "properties": {"collection_times": [{"days": "Mon-Fri", "time": "3:30pm"}, {"days": "Sat", "time": "10:00am"}, {"days": "Sun", "time": "Closed"}], "id": "5536200017", "name": "USPS COLLECTION BOX - BLUE BOX", "address": {"city": "MONTICELLO", "state": "MN", "street": "206 E 7TH ST", "postcode": "55362"}}},
{"geometry": {"type": "Point", "coordinates": [-93.7994504264, 45.301192618]}, "type": "Feature", "properties": {"collection_times": [{"days": "Mon-Fri", "time": "3:30pm"}, {"days": "Sat", "time": "10:00am"}, {"days": "Sun", "time": "Closed"}], "id": "5536200018", "name": "USPS COLLECTION BOX - BLUE BOX", "address": {"city": "MONTICELLO", "state": "MN", "street": "206 E 7TH ST", "postcode": "55362"}}},
{"geometry": {"type": "Point", "coordinates": [-93.9136970544, 45.0654277133]}, "type": "Feature", "properties": {"collection_times": [{"days": "Mon-Fri", "time": "4:30pm"}, {"days": "Sat", "time": "10:00am"}, {"days": "Sun", "time": "Closed"}], "id": "5536300009", "name": "USPS COLLECTION BOX - BLUE BOX", "address": {"city": "MONTROSE", "state": "MN", "street": "360 CENTER AVE S", "postcode": "55363"}}},
{"geometry": {"type": "Point", "coordinates": [-93.9136970544, 45.0654277133]}, "type": "Feature", "properties": {"collection_times": [{"days": "Mon-Fri", "time": "4:30pm"}, {"days": "Sat", "time": "10:00am"}, {"days": "Sun", "time": "Closed"}], "id": "5536300012", "name": "USPS COLLECTION BOX - PO LOBBY", "address": {"city": "MONTROSE", "state": "MN", "street": "360 CENTER AVE S", "postcode": "55363"}}},
{"geometry": {"type": "Point", "coordinates": [-93.6650248845, 44.94715311]}, "type": "Feature", "properties": {"collection_times": [{"days": "Mon-Sat", "time": "1:00pm"}, {"days": "Sun", "time": "Closed"}], "id": "5536400003", "name": "USPS COLLECTION BOX - BLUE BOX", "address": {"city": "MOUND", "state": "MN", "street": "5550 THREE POINTS BLVD", "postcode": "55364"}}},
{"geometry": {"type": "Point", "coordinates": [-93.6360837934, 44.9280258465]}, "type": "Feature", "properties": {"collection_times": [{"days": "Mon-Sat", "time": "9:30am"}, {"days": "Sun", "time": "Closed"}], "id": "5536400005", "name": "USPS COLLECTION BOX - BLUE BOX", "address": {"city": "MOUND", "state": "MN", "street": "4400 TUXEDO BLVD", "postcode": "55364"}}},
{"geometry": {"type": "Point", "coordinates": [-93.6628689477, 44.9379667067]}, "type": "Feature", "properties": {"collection_times": [{"days": "Mon-Fri", "time": "4:00pm"}, {"days": "Sat", "time": "1:30pm"}, {"days": "Sun", "time": "Closed"}], "id": "5536400006", "name": "USPS COLLECTION BOX - BLUE BOX", "address": {"city": "MOUND", "state": "MN", "street": "5510 SHORELINE DR", "postcode": "55364"}}},
{"geometry": {"type": "Point", "coordinates": [-93.6628689477, 44.9379667067]}, "type": "Feature", "properties": {"collection_times": [{"days": "Mon-Fri", "time": "4:30pm"}, {"days": "Sat", "time": "3:00pm"}, {"days": "Sun", "time": "Closed"}], "id": "5536400009", "name": "USPS COLLECTION BOX - PO LOBBY", "address": {"city": "MOUND", "state": "MN", "street": "5510 SHORELINE DR", "postcode": "55364"}}},
{"geometry": {"type": "Point", "coordinates": [-93.6689736637, 44.9353955843]}, "type": "Feature", "properties": {"collection_times": [{"days": "Mon-Sat", "time": "9:00am"}, {"days": "Sun", "time": "Closed"}], "id": "5536400010", "name": "USPS COLLECTION BOX - BLUE BOX", "address": {"city": "MOUND", "state": "MN", "street": "4675 SHORELINE DR", "postcode": "55364"}}},
{"geometry": {"type": "Point", "coordinates": [-93.6661818183, 44.9395490498]}, "type": "Feature", "properties": {"collection_times": [{"days": "Mon-Fri", "time": "2:30pm"}, {"days": "Sat", "time": "1:30pm"}, {"days": "Sun", "time": "Closed"}], "id": "5536400011", "name": "USPS COLLECTION BOX - BLUE BOX", "address": {"city": "MOUND", "state": "MN", "street": "2121 COMMERCE BLVD", "postcode": "55364"}}},
{"geometry": {"type": "Point", "coordinates": [-93.6575308394, 44.9365254067]}, "type": "Feature", "properties": {"collection_times": [{"days": "Mon-Sat", "time": "8:30am"}, {"days": "Sun", "time": "Closed"}], "id": "5536400012", "name": "USPS COLLECTION BOX - BLUE BOX", "address": {"city": "MOUND", "state": "MN", "street": "5293 SHORELINE DR", "postcode": "55364"}}},
{"geometry": {"type": "Point", "coordinates": [-94.2156192764, 44.6522430768]}, "type": "Feature", "properties": {"collection_times": [{"days": "Mon-Fri", "time": "3:30pm"}, {"days": "Sat", "time": "9:00am"}, {"days": "Sun", "time": "Closed"}], "id": "5536600001", "name": "USPS COLLECTION BOX - BLUE BOX", "address": {"city": "NEW AUBURN", "state": "MN", "street": "8301 8TH AVE", "postcode": "55366"}}},
{"geometry": {"type": "Point", "coordinates": [-94.2156192764, 44.6522430768]}, "type": "Feature", "properties": {"collection_times": [{"days": "Mon-Fri", "time": "3:30pm"}, {"days": "Sat", "time": "9:00am"}, {"days": "Sun", "time": "Closed"}], "id": "5536600002", "name": "USPS COLLECTION BOX - PO LOBBY", "address": {"city": "NEW AUBURN", "state": "MN", "street": "8301 8TH AVE", "postcode": "55366"}}},
{"geometry": {"type": "Point", "coordinates": [-93.9681987861, 44.8844605699]}, "type": "Feature", "properties": {"collection_times": [{"days": "Mon-Fri", "time": "4:00pm"}, {"days": "Sat", "time": "9:30am"}, {"days": "Sun", "time": "Closed"}], "id": "5536700001", "name": "USPS COLLECTION BOX - BLUE BOX", "address": {"city": "NEW GERMANY", "state": "MN", "street": "240A BROADWAY ST E", "postcode": "55367"}}},
{"geometry": {"type": "Point", "coordinates": [-93.9681987861, 44.8844605699]}, "type": "Feature", "properties": {"collection_times": [{"days": "Mon-Fri", "time": "4:00pm"}, {"days": "Sat", "time": "9:30am"}, {"days": "Sun", "time": "Closed"}], "id": "5536700002", "name": "USPS COLLECTION BOX - PO LOBBY", "address": {"city": "NEW GERMANY", "state": "MN", "street": "240A BROADWAY ST E", "postcode": "55367"}}},
{"geometry": {"type": "Point", "coordinates": [-93.9217009548, 44.7711252672]}, "type": "Feature", "properties": {"collection_times": [{"days": "Mon-Fri", "time": "4:00pm"}, {"days": "Sat", "time": "11:00am"}, {"days": "Sun", "time": "Closed"}], "id": "5536800001", "name": "USPS COLLECTION BOX - BLUE BOX", "address": {"city": "NORWOOD", "state": "MN", "street": "400 MERGER ST", "postcode": "55368"}}},
{"geometry": {"type": "Point", "coordinates": [-93.9217009548, 44.7711252672]}, "type": "Feature", "properties": {"collection_times": [{"days": "Mon-Fri", "time": "4:00pm"}, {"days": "Sat", "time": "11:00am"}, {"days": "Sun", "time": "Closed"}], "id": "5536800002", "name": "USPS COLLECTION BOX - PO LOBBY", "address": {"city": "NORWOOD", "state": "MN", "street": "400 MERGER ST", "postcode": "55368"}}},
{"geometry": {"type": "Point", "coordinates": [-93.4032187255, 45.0692979334]}, "type": "Feature", "properties": {"collection_times": [{"days": "Mon-Sat", "time": "12:00pm"}, {"days": "Sun", "time": "Closed"}], "id": "5536900005", "name": "USPS COLLECTION BOX - BLUE BOX", "address": {"city": "MAPLE GROVE", "state": "MN", "street": "9707 63RD AVE N", "postcode": "55369"}}},
{"geometry": {"type": "Point", "coordinates": [-93.4310618486, 45.0792505319]}, "type": "Feature", "properties": {"collection_times": [{"days": "Mon-Sat", "time": "1:00pm"}, {"days": "Sun", "time": "Closed"}], "id": "5536900013", "name": "USPS COLLECTION BOX - BLUE BOX", "address": {"city": "MAPLE GROVE", "state": "MN", "street": "6850 HEMLOCK LN N", "postcode": "55369"}}},
{"geometry": {"type": "Point", "coordinates": [-93.4030552203, 45.1397249246]}, "type": "Feature", "properties": {"collection_times": [{"days": "Mon-Sat", "time": "1:00pm"}, {"days": "Sun", "time": "Closed"}], "id": "5536900016", "name": "USPS COLLECTION BOX - BLUE BOX", "address": {"city": "MAPLE GROVE", "state": "MN", "street": "10190 LANCASTER LN N", "postcode": "55369"}}},
{"geometry": {"type": "Point", "coordinates": [-93.4416122252, 45.0649035919]}, "type": "Feature", "properties": {"collection_times": [{"days": "Mon-Sat", "time": "11:00am"}, {"days": "Sun", "time": "Closed"}], "id": "5536900017", "name": "USPS COLLECTION BOX - BLUE BOX", "address": {"city": "MAPLE GROVE", "state": "MN", "street": "12720 BASS LAKE RD", "postcode": "55369"}}},
{"geometry": {"type": "Point", "coordinates": [-93.4036938706, 45.1176340583]}, "type": "Feature", "properties": {"collection_times": [{"days": "Mon-Fri", "time": "5:00pm"}, {"days": "Sat", "time": "3:00pm"}, {"days": "Sun", "time": "Closed"}], "id": "5536900018", "name": "USPS COLLECTION BOX - BLUE BOX", "address": {"city": "MAPLE GROVE", "state": "MN", "street": "125 1ST AVE NW", "postcode": "55369"}}},
{"geometry": {"type": "Point", "coordinates": [-93.4222278182, 45.1200523989]}, "type": "Feature", "properties": {"collection_times": [{"days": "Mon-Sat", "time": "10:00am"}, {"days": "Sun", "time": "Closed"}], "id": "5536900022", "name": "USPS COLLECTION BOX - BLUE BOX", "address": {"city": "MAPLE GROVE", "state": "MN", "street": "11100 91ST AVE N", "postcode": "55369"}}},
{"geometry": {"type": "Point", "coordinates": [-93.4036938706, 45.1176340583]}, "type": "Feature", "properties": {"collection_times": [{"days": "Mon-Fri", "time": "5:00pm"}, {"days": "Sat", "time": "3:00pm"}, {"days": "Sun", "time": "Closed"}], "id": "5536900023", "name": "USPS COLLECTION BOX - PO LOBBY", "address": {"city": "MAPLE GROVE", "state": "MN", "street": "125 1ST AVE NW", "postcode": "55369"}}},
{"geometry": {"type": "Point", "coordinates": [-93.4036938706, 45.1176340583]}, "type": "Feature", "properties": {"collection_times": [{"days": "Mon-Fri", "time": "5:00pm"}, {"days": "Sat", "time": "3:00pm"}, {"days": "Sun", "time": "Closed"}], "id": "5536900024", "name": "USPS COLLECTION BOX - BLUE BOX", "address": {"city": "MAPLE GROVE", "state": "MN", "street": "125 1ST AVE NW", "postcode": "55369"}}},
{"geometry": {"type": "Point", "coordinates": [-93.4487081422, 45.0768084337]}, "type": "Feature", "properties": {"collection_times": [{"days": "Mon-Fri", "time": "2:00pm"}, {"days": "Sat", "time": "12:00pm"}, {"days": "Sun", "time": "Closed"}], "id": "5536900026", "name": "USPS COLLECTION BOX - BLUE BOX", "address": {"city": "MAPLE GROVE", "state": "MN", "street": "13300 67TH AVE N", "postcode": "55369"}}},
{"geometry": {"type": "Point", "coordinates": [-93.4453198307, 45.0958084654]}, "type": "Feature", "properties": {"collection_times": [{"days": "Mon-Fri", "time": "2:00pm"}, {"days": "Sat", "time": "1:00pm"}, {"days": "Sun", "time": "Closed"}], "id": "5536900027", "name": "USPS COLLECTION BOX - BLUE BOX", "address": {"city": "MAPLE GROVE", "state": "MN", "street": "12880 ELM CREEK BLVD N", "postcode": "55369"}}},
{"geometry": {"type": "Point", "coordinates": [-93.449951115, 45.1026909207]}, "type": "Feature", "properties": {"collection_times": [{"days": "Mon-Sat", "time": "10:00am"}, {"days": "Sun", "time": "Closed"}], "id": "5536900028", "name": "USPS COLLECTION BOX - BLUE BOX", "address": {"city": "MAPLE GROVE", "state": "MN", "street": "8150 WEDGEWOOD LN N", "postcode": "55369"}}},
{"geometry": {"type": "Point", "coordinates": [-93.4414915575, 45.0984087618]}, "type": "Feature", "properties": {"collection_times": [{"days": "Mon-Sat", "time": "11:00am"}, {"days": "Sun", "time": "Closed"}], "id": "5536900029", "name": "USPS COLLECTION BOX - BLUE BOX", "address": {"city": "MAPLE GROVE", "state": "MN", "street": "7900 MAIN ST", "postcode": "55369"}}},
{"geometry": {"type": "Point", "coordinates": [-93.4231618655, 45.1114625608]}, "type": "Feature", "properties": {"collection_times": [{"days": "Mon-Sat", "time": "10:30am"}, {"days": "Sun", "time": "Closed"}], "id": "5536900030", "name": "USPS COLLECTION BOX - BLUE BOX", "address": {"city": "MAPLE GROVE", "state": "MN", "street": "11199 86TH AVE N", "postcode": "55369"}}},
{"geometry": {"type": "Point", "coordinates": [-94.0378607309, 44.7727361453]}, "type": "Feature", "properties": {"collection_times": [{"days": "Mon-Fri", "time": "3:45pm"}, {"days": "Sat", "time": "11:45am"}, {"days": "Sun", "time": "Closed"}], "id": "5537000001", "name": "USPS COLLECTION BOX - BLUE BOX", "address": {"city": "PLATO", "state": "MN", "street": "16 2ND AVE NE", "postcode": "55370"}}},
{"geometry": {"type": "Point", "coordinates": [-94.0378607309, 44.7727361453]}, "type": "Feature", "properties": {"collection_times": [{"days": "Mon-Fri", "time": "3:45pm"}, {"days": "Sat", "time": "11:45am"}, {"days": "Sun", "time": "Closed"}], "id": "5537000002", "name": "USPS COLLECTION BOX - PO LOBBY", "address": {"city": "PLATO", "state": "MN", "street": "16 2ND AVE NE", "postcode": "55370"}}},
{"geometry": {"type": "Point", "coordinates": [-93.5800798131, 45.5668644777]}, "type": "Feature", "properties": {"collection_times": [{"days": "Mon-Sat", "time": "11:00am"}, {"days": "Sun", "time": "Closed"}], "id": "5537100002", "name": "USPS COLLECTION BOX - BLUE BOX", "address": {"city": "PRINCETON", "state": "MN", "street": "308 S RUM RIVER DR", "postcode": "55371"}}},
{"geometry": {"type": "Point", "coordinates": [-93.5801902804, 45.5697808356]}, "type": "Feature", "properties": {"collection_times": [{"days": "Mon-Sat", "time": "9:30am"}, {"days": "Sun", "time": "Closed"}], "id": "5537100005", "name": "USPS COLLECTION BOX - BLUE BOX", "address": {"city": "PRINCETON", "state": "MN", "street": "101 RUM RIVER DR N", "postcode": "55371"}}},
{"geometry": {"type": "Point", "coordinates": [-93.5801868697, 45.5711882641]}, "type": "Feature", "properties": {"collection_times": [{"days": "Mon-Fri", "time": "5:00pm"}, {"days": "Sat", "time": "3:45pm"}, {"days": "Sun", "time": "Closed"}], "id": "5537100008", "name": "USPS COLLECTION BOX - BLUE BOX", "address": {"city": "PRINCETON", "state": "MN", "street": "205 RUM RIVER DR N", "postcode": "55371"}}},
{"geometry": {"type": "Point", "coordinates": [-93.5832255864, 45.5577520208]}, "type": "Feature", "properties": {"collection_times": [{"days": "Mon-Sat", "time": "10:00am"}, {"days": "Sun", "time": "Closed"}], "id": "5537100009", "name": "USPS COLLECTION BOX - BLUE BOX", "address": {"city": "PRINCETON", "state": "MN", "street": "705 NORTHLAND DR", "postcode": "55371"}}},
{"geometry": {"type": "Point", "coordinates": [-93.586123789, 45.5698734809]}, "type": "Feature", "properties": {"collection_times": [{"days": "Mon-Sat", "time": "10:00am"}, {"days": "Sun", "time": "Closed"}], "id": "5537100010", "name": "USPS COLLECTION BOX - BLUE BOX", "address": {"city": "PRINCETON", "state": "MN", "street": "106 9TH AVENUE CIR S", "postcode": "55371"}}},
{"geometry": {"type": "Point", "coordinates": [-93.5949473145, 45.5531693899]}, "type": "Feature", "properties": {"collection_times": [{"days": "Mon-Sat", "time": "10:00am"}, {"days": "Sun", "time": "Closed"}], "id": "5537100011", "name": "USPS COLLECTION BOX - BLUE BOX", "address": {"city": "PRINCETON", "state": "MN", "street": "1500 14TH ST S", "postcode": "55371"}}},
{"geometry": {"type": "Point", "coordinates": [-93.5801868697, 45.5711882641]}, "type": "Feature", "properties": {"collection_times": [{"days": "Mon-Fri", "time": "5:00pm"}, {"days": "Sat", "time": "3:45pm"}, {"days": "Sun", "time": "Closed"}], "id": "5537100012", "name": "USPS COLLECTION BOX - BLUE BOX", "address": {"city": "PRINCETON", "state": "MN", "street": "205 RUM RIVER DR N", "postcode": "55371"}}},
{"geometry": {"type": "Point", "coordinates": [-93.5801868697, 45.5711882641]}, "type": "Feature", "properties": {"collection_times": [{"days": "Mon-Fri", "time": "4:45pm"}, {"days": "Sat", "time": "3:45pm"}, {"days": "Sun", "time": "Closed"}], "id": "5537100013", "name": "USPS COLLECTION BOX - PO LOBBY", "address": {"city": "PRINCETON", "state": "MN", "street": "205 RUM RIVER DR N", "postcode": "55371"}}},
{"geometry": {"type": "Point", "coordinates": [-93.6041703811, 45.5755587918]}, "type": "Feature", "properties": {"collection_times": [{"days": "Mon-Sat", "time": "12:00pm"}, {"days": "Sun", "time": "Closed"}], "id": "5537100015", "name": "USPS COLLECTION BOX - BLUE BOX", "address": {"city": "PRINCETON", "state": "MN", "street": "400 19TH AVE N", "postcode": "55371"}}},
{"geometry": {"type": "Point", "coordinates": [-93.4240466796, 44.7145490717]}, "type": "Feature", "properties": {"collection_times": [{"days": "Mon-Sat", "time": "12:00pm"}, {"days": "Sun", "time": "Closed"}], "id": "5537200001", "name": "USPS COLLECTION BOX - BLUE BOX", "address": {"city": "PRIOR LAKE", "state": "MN", "street": "16186 MAIN AVE SE", "postcode": "55372"}}},
{"geometry": {"type": "Point", "coordinates": [-93.430335961, 44.7048343434]}, "type": "Feature", "properties": {"collection_times": [{"days": "Mon-Fri", "time": "5:15pm"}, {"days": "Sat", "time": "4:45pm"}, {"days": "Sun", "time": "Closed"}], "id": "5537200003", "name": "USPS COLLECTION BOX - BLUE BOX", "address": {"city": "PRIOR LAKE", "state": "MN", "street": "4455 VILLAGE LAKE DR SE", "postcode": "55372"}}},
{"geometry": {"type": "Point", "coordinates": [-93.4695943363, 44.7317507489]}, "type": "Feature", "properties": {"collection_times": [{"days": "Mon-Sat", "time": "12:00pm"}, {"days": "Sun", "time": "Closed"}], "id": "5537200004", "name": "USPS COLLECTION BOX - BLUE BOX", "address": {"city": "PRIOR LAKE", "state": "MN", "street": "15035 MYSTIC LAKE DR NW", "postcode": "55372"}}},
{"geometry": {"type": "Point", "coordinates": [-93.430335961, 44.7048343434]}, "type": "Feature", "properties": {"collection_times": [{"days": "Mon-Fri", "time": "5:15pm"}, {"days": "Sat", "time": "4:45pm"}, {"days": "Sun", "time": "Closed"}], "id": "5537200005", "name": "USPS COLLECTION BOX - PO LOBBY", "address": {"city": "PRIOR LAKE", "state": "MN", "street": "4455 VILLAGE LAKE DR SE", "postcode": "55372"}}},
{"geometry": {"type": "Point", "coordinates": [-93.430335961, 44.7048343434]}, "type": "Feature", "properties": {"collection_times": [{"days": "Mon-Fri", "time": "5:15pm"}, {"days": "Sat", "time": "4:45pm"}, {"days": "Sun", "time": "Closed"}], "id": "5537200006", "name": "USPS COLLECTION BOX - BLUE BOX", "address": {"city": "PRIOR LAKE", "state": "MN", "street": "4455 VILLAGE LAKE DR SE", "postcode": "55372"}}},
{"geometry": {"type": "Point", "coordinates": [-93.430335961, 44.7048343434]}, "type": "Feature", "properties": {"collection_times": [{"days": "Mon-Fri", "time": "5:15pm"}, {"days": "Sat", "time": "4:45pm"}, {"days": "Sun", "time": "Closed"}], "id": "5537200008", "name": "USPS COLLECTION BOX - PO LOBBY", "address": {"city": "PRIOR LAKE", "state": "MN", "street": "4455 VILLAGE LAKE DR SE", "postcode": "55372"}}},
{"geometry": {"type": "Point", "coordinates": [-93.4636978276, 44.7457178441]}, "type": "Feature", "properties": {"collection_times": [{"days": "Mon-Sat", "time": "11:00am"}, {"days": "Sun", "time": "Closed"}], "id": "5537200011", "name": "USPS COLLECTION BOX - BLUE BOX", "address": {"city": "PRIOR LAKE", "state": "MN", "street": "14169 WILDS PATH NW", "postcode": "55372"}}},
{"geometry": {"type": "Point", "coordinates": [-93.7352156073, 45.0877824737]}, "type": "Feature", "properties": {"collection_times": [{"days": "Mon-Sat", "time": "10:00am"}, {"days": "Sun", "time": "Closed"}], "id": "5537300003", "name": "USPS COLLECTION BOX - BLUE BOX", "address": {"city": "ROCKFORD", "state": "MN", "street": "5999 MAIN ST", "postcode": "55373"}}},
{"geometry": {"type": "Point", "coordinates": [-93.7453324567, 45.0927287057]}, "type": "Feature", "properties": {"collection_times": [{"days": "Mon-Fri", "time": "4:30pm"}, {"days": "Sat", "time": "10:30am"}, {"days": "Sun", "time": "Closed"}], "id": "5537300004", "name": "USPS COLLECTION BOX - BLUE BOX", "address": {"city": "ROCKFORD", "state": "MN", "street": "8950 WALNUT ST", "postcode": "55373"}}},
{"geometry": {"type": "Point", "coordinates": [-93.7262543974, 45.0800871009]}, "type": "Feature", "properties": {"collection_times": [{"days": "Mon-Sat", "time": "10:30am"}, {"days": "Sun", "time": "Closed"}], "id": "5537300005", "name": "USPS COLLECTION BOX - BLUE BOX", "address": {"city": "ROCKFORD", "state": "MN", "street": "7955 HIGHWAY 55", "postcode": "55373"}}},
{"geometry": {"type": "Point", "coordinates": [-93.7453324567, 45.0927287057]}, "type": "Feature", "properties": {"collection_times": [{"days": "Mon-Fri", "time": "4:30pm"}, {"days": "Sat", "time": "10:30am"}, {"days": "Sun", "time": "Closed"}], "id": "5537300009", "name": "USPS COLLECTION BOX - PO LOBBY", "address": {"city": "ROCKFORD", "state": "MN", "street": "8950 WALNUT ST", "postcode": "55373"}}},
{"geometry": {"type": "Point", "coordinates": [-93.7453324567, 45.0927287057]}, "type": "Feature", "properties": {"collection_times": [{"days": "Mon-Fri", "time": "4:30pm"}, {"days": "Sat", "time": "10:30am"}, {"days": "Sun", "time": "Closed"}], "id": "5537300010", "name": "USPS COLLECTION BOX - PO LOBBY", "address": {"city": "ROCKFORD", "state": "MN", "street": "8950 WALNUT ST", "postcode": "55373"}}},
{"geometry": {"type": "Point", "coordinates": [-93.5510302268, 45.196343416]}, "type": "Feature", "properties": {"collection_times": [{"days": "Mon-Fri", "time": "10:00am"}, {"days": "Sat-Sun", "time": "Closed"}], "id": "5537400001", "name": "USPS COLLECTION BOX - BLUE BOX", "address": {"city": "ROGERS", "state": "MN", "street": "13400 ROGERS DR", "postcode": "55374"}}},
{"geometry": {"type": "Point", "coordinates": [-93.5474624225, 45.1898182144]}, "type": "Feature", "properties": {"collection_times": [{"days": "Mon-Fri", "time": "4:30pm"}, {"days": "Sat", "time": "12:00pm"}, {"days": "Sun", "time": "Closed"}], "id": "5537400002", "name": "USPS COLLECTION BOX - BLUE BOX", "address": {"city": "ROGERS", "state": "MN", "street": "21125 JOHN MILLESS DR", "postcode": "55374"}}},
{"geometry": {"type": "Point", "coordinates": [-93.5474624225, 45.1898182144]}, "type": "Feature", "properties": {"collection_times": [{"days": "Mon-Fri", "time": "4:30pm"}, {"days": "Sat", "time": "12:00pm"}, {"days": "Sun", "time": "Closed"}], "id": "5537400004", "name": "USPS COLLECTION BOX - PO LOBBY", "address": {"city": "ROGERS", "state": "MN", "street": "21125 JOHN MILLESS DR", "postcode": "55374"}}},
{"geometry": {"type": "Point", "coordinates": [-93.5474624225, 45.1898182144]}, "type": "Feature", "properties": {"collection_times": [{"days": "Mon-Fri", "time": "4:30pm"}, {"days": "Sat", "time": "12:00pm"}, {"days": "Sun", "time": "Closed"}], "id": "5537400005", "name": "USPS COLLECTION BOX - PO LOBBY", "address": {"city": "ROGERS", "state": "MN", "street": "21125 JOHN MILLESS DR", "postcode": "55374"}}},
{"geometry": {"type": "Point", "coordinates": [-93.7492704901, 44.9025449104]}, "type": "Feature", "properties": {"collection_times": [{"days": "Mon-Fri", "time": "4:15pm"}, {"days": "Sat", "time": "10:00am"}, {"days": "Sun", "time": "Closed"}], "id": "5537500001", "name": "USPS COLLECTION BOX - BLUE BOX", "address": {"city": "ST BONIFACIUS", "state": "MN", "street": "4085 TOWER ST", "postcode": "55375"}}},
{"geometry": {"type": "Point", "coordinates": [-93.7492704901, 44.9025449104]}, "type": "Feature", "properties": {"collection_times": [{"days": "Mon-Fri", "time": "4:15pm"}, {"days": "Sat", "time": "10:00am"}, {"days": "Sun", "time": "Closed"}], "id": "5537500002", "name": "USPS COLLECTION BOX - PO LOBBY", "address": {"city": "ST BONIFACIUS", "state": "MN", "street": "4085 TOWER ST", "postcode": "55375"}}},
{"geometry": {"type": "Point", "coordinates": [-93.7492704901, 44.9025449104]}, "type": "Feature", "properties": {"collection_times": [{"days": "Mon-Fri", "time": "4:15pm"}, {"days": "Sat", "time": "10:00am"}, {"days": "Sun", "time": "Closed"}], "id": "5537500003", "name": "USPS COLLECTION BOX - BLUE BOX", "address": {"city": "ST BONIFACIUS", "state": "MN", "street": "4085 TOWER ST", "postcode": "55375"}}},
{"geometry": {"type": "Point", "coordinates": [-93.6568039115, 45.2099847347]}, "type": "Feature", "properties": {"collection_times": [{"days": "Mon-Fri", "time": "4:30pm"}, {"days": "Sat", "time": "11:30am"}, {"days": "Sun", "time": "Closed"}], "id": "5537600002", "name": "USPS COLLECTION BOX - BLUE BOX", "address": {"city": "SAINT MICHAEL", "state": "MN", "street": "405 CENTRAL AVE E", "postcode": "55376"}}},
{"geometry": {"type": "Point", "coordinates": [-93.6568039115, 45.2099847347]}, "type": "Feature", "properties": {"collection_times": [{"days": "Mon-Fri", "time": "4:30pm"}, {"days": "Sat", "time": "11:30am"}, {"days": "Sun", "time": "Closed"}], "id": "5537600004", "name": "USPS COLLECTION BOX - PO LOBBY", "address": {"city": "SAINT MICHAEL", "state": "MN", "street": "405 CENTRAL AVE E", "postcode": "55376"}}},
{"geometry": {"type": "Point", "coordinates": [-93.6568039115, 45.2099847347]}, "type": "Feature", "properties": {"collection_times": [{"days": "Mon-Fri", "time": "4:30pm"}, {"days": "Sat", "time": "11:30am"}, {"days": "Sun", "time": "Closed"}], "id": "5537600005", "name": "USPS COLLECTION BOX - BLUE BOX", "address": {"city": "SAINT MICHAEL", "state": "MN", "street": "405 CENTRAL AVE E", "postcode": "55376"}}},
{"geometry": {"type": "Point", "coordinates": [-93.3400402264, 44.7772697148]}, "type": "Feature", "properties": {"collection_times": [{"days": "Mon-Fri", "time": "4:00pm"}, {"days": "Sat", "time": "2:00pm"}, {"days": "Sun", "time": "Closed"}], "id": "5537800001", "name": "USPS COLLECTION BOX - BLUE BOX", "address": {"city": "SAVAGE", "state": "MN", "street": "4801 W 124TH ST", "postcode": "55378"}}},
{"geometry": {"type": "Point", "coordinates": [-93.3351780703, 44.7790037739]}, "type": "Feature", "properties": {"collection_times": [{"days": "Mon-Sat", "time": "1:00pm"}, {"days": "Sun", "time": "Closed"}], "id": "5537800002", "name": "USPS COLLECTION BOX - BLUE BOX", "address": {"city": "SAVAGE", "state": "MN", "street": "4301 HIGHWAY 13 W", "postcode": "55378"}}},
{"geometry": {"type": "Point", "coordinates": [-93.3334639628, 44.7476044941]}, "type": "Feature", "properties": {"collection_times": [{"days": "Mon-Fri", "time": "4:30pm"}, {"days": "Sat", "time": "11:00am"}, {"days": "Sun", "time": "Closed"}], "id": "5537800005", "name": "USPS COLLECTION BOX - BLUE BOX", "address": {"city": "SAVAGE", "state": "MN", "street": "14141 GLENDALE RD", "postcode": "55378"}}},
{"geometry": {"type": "Point", "coordinates": [-93.3531909865, 44.7788476233]}, "type": "Feature", "properties": {"collection_times": [{"days": "Mon-Fri", "time": "3:45pm"}, {"days": "Sat", "time": "1:00pm"}, {"days": "Sun", "time": "Closed"}], "id": "5537800006", "name": "USPS COLLECTION BOX - BLUE BOX", "address": {"city": "SAVAGE", "state": "MN", "street": "5821 HIGHWAY 13 W", "postcode": "55378"}}},
{"geometry": {"type": "Point", "coordinates": [-93.3567226015, 44.7648638796]}, "type": "Feature", "properties": {"collection_times": [{"days": "Mon-Fri", "time": "5:15pm"}, {"days": "Sat", "time": "4:30pm"}, {"days": "Sun", "time": "Closed"}], "id": "5537800007", "name": "USPS COLLECTION BOX - BLUE BOX", "address": {"city": "SAVAGE", "state": "MN", "street": "6100 MCCOLL DR", "postcode": "55378"}}},
{"geometry": {"type": "Point", "coordinates": [-93.3512789536, 44.7463835126]}, "type": "Feature", "properties": {"collection_times": [{"days": "Mon-Sat", "time": "11:00am"}, {"days": "Sun", "time": "Closed"}], "id": "5537800009", "name": "USPS COLLECTION BOX - BLUE BOX", "address": {"city": "SAVAGE", "state": "MN", "street": "14211 OCONNELL AVE", "postcode": "55378"}}},
{"geometry": {"type": "Point", "coordinates": [-93.3567226015, 44.7648638796]}, "type": "Feature", "properties": {"collection_times": [{"days": "Mon-Fri", "time": "5:00pm"}, {"days": "Sat", "time": "4:30pm"}, {"days": "Sun", "time": "Closed"}], "id": "5537800011", "name": "USPS COLLECTION BOX - PO LOBBY", "address": {"city": "SAVAGE", "state": "MN", "street": "6100 MCCOLL DR", "postcode": "55378"}}},
{"geometry": {"type": "Point", "coordinates": [-93.3799046428, 44.7468817251]}, "type": "Feature", "properties": {"collection_times": [{"days": "Mon-Sat", "time": "11:00am"}, {"days": "Sun", "time": "Closed"}], "id": "5537800015", "name": "USPS COLLECTION BOX - BLUE BOX", "address": {"city": "SAVAGE", "state": "MN", "street": "14170 HIGHWAY 13 S", "postcode": "55378"}}},
{"geometry": {"type": "Point", "coordinates": [-93.3567226015, 44.7648638796]}, "type": "Feature", "properties": {"collection_times": [{"days": "Mon-Fri", "time": "5:15pm"}, {"days": "Sat", "time": "4:30pm"}, {"days": "Sun", "time": "Closed"}], "id": "5537800017", "name": "USPS COLLECTION BOX - APC", "address": {"city": "SAVAGE", "state": "MN", "street": "6100 MCCOLL DR", "postcode": "55378"}}},
{"geometry": {"type": "Point", "coordinates": [-93.379640766, 44.7488501499]}, "type": "Feature", "properties": {"collection_times": [{"days": "Mon-Sat", "time": "10:00am"}, {"days": "Sun", "time": "Closed"}], "id": "5537800018", "name": "USPS COLLECTION BOX - BLUE BOX", "address": {"city": "SAVAGE", "state": "MN", "street": "14075 HIGHWAY 13 S", "postcode": "55378"}}},
{"geometry": {"type": "Point", "coordinates": [-93.3851929112, 44.7720149883]}, "type": "Feature", "properties": {"collection_times": [{"days": "Mon-Sat", "time": "11:00am"}, {"days": "Sun", "time": "Closed"}], "id": "5537800019", "name": "USPS COLLECTION BOX - BLUE BOX", "address": {"city": "SAVAGE", "state": "MN", "street": "8600 EAGLE CREEK PKWY", "postcode": "55378"}}},
{"geometry": {"type": "Point", "coordinates": [-93.5026305594, 44.770109329]}, "type": "Feature", "properties": {"collection_times": [{"days": "Mon-Sat", "time": "11:00am"}, {"days": "Sun", "time": "Closed"}], "id": "5537900004", "name": "USPS COLLECTION BOX - BLUE BOX", "address": {"city": "SHAKOPEE", "state": "MN", "street": "1601 SAINT FRANCIS AVE", "postcode": "55379"}}},
{"geometry": {"type": "Point", "coordinates": [-93.5274327862, 44.7952537184]}, "type": "Feature", "properties": {"collection_times": [{"days": "Mon-Fri", "time": "2:00pm"}, {"days": "Sat-Sun", "time": "Closed"}], "id": "5537900025", "name": "USPS COLLECTION BOX - BLUE BOX", "address": {"city": "SHAKOPEE", "state": "MN", "street": "200 4TH AVE W", "postcode": "55379"}}},
{"geometry": {"type": "Point", "coordinates": [-93.5555933158, 44.7831355912]}, "type": "Feature", "properties": {"collection_times": [{"days": "Mon-Sat", "time": "10:30am"}, {"days": "Sun", "time": "Closed"}], "id": "5537900028", "name": "USPS COLLECTION BOX - BLUE BOX", "address": {"city": "SHAKOPEE", "state": "MN", "street": "1131 SHAKOPEE TOWN SQ", "postcode": "55379"}}},
{"geometry": {"type": "Point", "coordinates": [-93.4511742946, 44.7863700593]}, "type": "Feature", "properties": {"collection_times": [{"days": "Mon-Sat", "time": "10:00am"}, {"days": "Sun", "time": "Closed"}], "id": "5537900032", "name": "USPS COLLECTION BOX - BLUE BOX", "address": {"city": "SHAKOPEE", "state": "MN", "street": "1157 VALLEY PARK DR", "postcode": "55379"}}},
{"geometry": {"type": "Point", "coordinates": [-93.5628474191, 44.7798637654]}, "type": "Feature", "properties": {"collection_times": [{"days": "Mon-Sat", "time": "9:30am"}, {"days": "Sun", "time": "Closed"}], "id": "5537900035", "name": "USPS COLLECTION BOX - BLUE BOX", "address": {"city": "SHAKOPEE", "state": "MN", "street": "11750 BONNEVISTA DR", "postcode": "55379"}}},
{"geometry": {"type": "Point", "coordinates": [-93.4696331863, 44.7860175376]}, "type": "Feature", "properties": {"collection_times": [{"days": "Mon-Fri", "time": "11:30am"}, {"days": "Sat", "time": "9:30am"}, {"days": "Sun", "time": "Closed"}], "id": "5537900037", "name": "USPS COLLECTION BOX - BLUE BOX", "address": {"city": "SHAKOPEE", "state": "MN", "street": "1147 CANTERBURY RD S", "postcode": "55379"}}},
{"geometry": {"type": "Point", "coordinates": [-93.5237038747, 44.7982457844]}, "type": "Feature", "properties": {"collection_times": [{"days": "Mon-Fri", "time": "5:00pm"}, {"days": "Sat", "time": "3:00pm"}, {"days": "Sun", "time": "Closed"}], "id": "5537900038", "name": "USPS COLLECTION BOX - BLUE BOX", "address": {"city": "SHAKOPEE", "state": "MN", "street": "135 SOMMERVILLE ST S", "postcode": "55379"}}},
{"geometry": {"type": "Point", "coordinates": [-93.5236450842, 44.7982400165]}, "type": "Feature", "properties": {"collection_times": [{"days": "Mon-Fri", "time": "5:00pm"}, {"days": "Sat", "time": "3:00pm"}, {"days": "Sun", "time": "Closed"}], "id": "5537900039", "name": "USPS COLLECTION BOX - BLUE BOX", "address": {"city": "SHAKOPEE", "state": "MN", "street": "135 SOMMERVILLE ST S", "postcode": "55379"}}},
{"geometry": {"type": "Point", "coordinates": [-93.5078711519, 44.7815128298]}, "type": "Feature", "properties": {"collection_times": [{"days": "Mon-Sat", "time": "12:00pm"}, {"days": "Sun", "time": "Closed"}], "id": "5537900040", "name": "USPS COLLECTION BOX - BLUE BOX", "address": {"city": "SHAKOPEE", "state": "MN", "street": "1198 VIERLING DR E", "postcode": "55379"}}},
{"geometry": {"type": "Point", "coordinates": [-93.5264929057, 44.7986505643]}, "type": "Feature", "properties": {"collection_times": [{"days": "Mon-Sat", "time": "10:00am"}, {"days": "Sun", "time": "Closed"}], "id": "5537900041", "name": "USPS COLLECTION BOX - BLUE BOX", "address": {"city": "SHAKOPEE", "state": "MN", "street": "8170 OLD CARRIAGE CT", "postcode": "55379"}}},
{"geometry": {"type": "Point", "coordinates": [-93.414902788, 44.7781225979]}, "type": "Feature", "properties": {"collection_times": [{"days": "Mon-Sat", "time": "10:00am"}, {"days": "Sun", "time": "Closed"}], "id": "5537900045", "name": "USPS COLLECTION BOX - BLUE BOX", "address": {"city": "SHAKOPEE", "state": "MN", "street": "8101 OLD CARRIAGE CT", "postcode": "55379"}}},
{"geometry": {"type": "Point", "coordinates": [-93.5237038747, 44.7982457844]}, "type": "Feature", "properties": {"collection_times": [{"days": "Mon-Fri", "time": "5:00pm"}, {"days": "Sat", "time": "3:00pm"}, {"days": "Sun", "time": "Closed"}], "id": "5537900046", "name": "USPS COLLECTION BOX - BLUE BOX", "address": {"city": "SHAKOPEE", "state": "MN", "street": "135 SOMMERVILLE ST S", "postcode": "55379"}}},
{"geometry": {"type": "Point", "coordinates": [-94.1939843288, 44.9031221555]}, "type": "Feature", "properties": {"collection_times": [{"days": "Mon-Fri", "time": "4:15pm"}, {"days": "Sat", "time": "10:00am"}, {"days": "Sun", "time": "Closed"}], "id": "5538100001", "name": "USPS COLLECTION BOX - BLUE BOX", "address": {"city": "SILVER LAKE", "state": "MN", "street": "113 MAIN ST W", "postcode": "55381"}}},
{"geometry": {"type": "Point", "coordinates": [-94.1939843288, 44.9031221555]}, "type": "Feature", "properties": {"collection_times": [{"days": "Mon-Fri", "time": "4:30pm"}, {"days": "Sat", "time": "10:00am"}, {"days": "Sun", "time": "Closed"}], "id": "5538100002", "name": "USPS COLLECTION BOX - PO LOBBY", "address": {"city": "SILVER LAKE", "state": "MN", "street": "113 MAIN ST W", "postcode": "55381"}}},
{"geometry": {"type": "Point", "coordinates": [-94.2349655292, 44.8925669624]}, "type": "Feature", "properties": {"collection_times": [{"days": "Mon-Sat", "time": "10:15am"}, {"days": "Sun", "time": "Closed"}], "id": "5538100003", "name": "USPS COLLECTION BOX - BLUE BOX", "address": {"city": "SILVER LAKE", "state": "MN", "street": "916 HIGHWAY 7", "postcode": "55381"}}},
{"geometry": {"type": "Point", "coordinates": [-94.2148806341, 45.2929765253]}, "type": "Feature", "properties": {"collection_times": [{"days": "Mon-Fri", "time": "3:45pm"}, {"days": "Sat", "time": "10:00am"}, {"days": "Sun", "time": "Closed"}], "id": "5538200001", "name": "USPS COLLECTION BOX - BLUE BOX", "address": {"city": "SOUTH HAVEN", "state": "MN", "street": "524 OAK AVE N", "postcode": "55382"}}},
{"geometry": {"type": "Point", "coordinates": [-94.2148806341, 45.2929765253]}, "type": "Feature", "properties": {"collection_times": [{"days": "Mon-Fri", "time": "3:45pm"}, {"days": "Sat", "time": "10:00am"}, {"days": "Sun", "time": "Closed"}], "id": "5538200003", "name": "USPS COLLECTION BOX - PO LOBBY", "address": {"city": "SOUTH HAVEN", "state": "MN", "street": "524 OAK AVE N", "postcode": "55382"}}},
{"geometry": {"type": "Point", "coordinates": [-93.6245428457, 44.937180766]}, "type": "Feature", "properties": {"collection_times": [{"days": "Mon-Fri", "time": "4:30pm"}, {"days": "Sat", "time": "10:00am"}, {"days": "Sun", "time": "Closed"}], "id": "5538400002", "name": "USPS COLLECTION BOX - BLUE BOX", "address": {"city": "SPRING PARK", "state": "MN", "street": "4044 SUNSET DR", "postcode": "55384"}}},
{"geometry": {"type": "Point", "coordinates": [-93.6245428457, 44.937180766]}, "type": "Feature", "properties": {"collection_times": [{"days": "Mon-Fri", "time": "4:30pm"}, {"days": "Sat", "time": "10:00am"}, {"days": "Sun", "time": "Closed"}], "id": "5538400004", "name": "USPS COLLECTION BOX - PO LOBBY", "address": {"city": "SPRING PARK", "state": "MN", "street": "4044 SUNSET DR", "postcode": "55384"}}},
{"geometry": {"type": "Point", "coordinates": [-94.4859209728, 44.7236023155]}, "type": "Feature", "properties": {"collection_times": [{"days": "Mon-Fri", "time": "3:00pm"}, {"days": "Sat", "time": "9:45am"}, {"days": "Sun", "time": "Closed"}], "id": "5538500002", "name": "USPS COLLECTION BOX - BLUE BOX", "address": {"city": "STEWART", "state": "MN", "street": "707 HALL ST", "postcode": "55385"}}},
{"geometry": {"type": "Point", "coordinates": [-94.4859209728, 44.7236023155]}, "type": "Feature", "properties": {"collection_times": [{"days": "Mon-Fri", "time": "3:00pm"}, {"days": "Sat", "time": "9:45am"}, {"days": "Sun", "time": "Closed"}], "id": "5538500003", "name": "USPS COLLECTION BOX - PO LOBBY", "address": {"city": "STEWART", "state": "MN", "street": "707 HALL ST", "postcode": "55385"}}},
{"geometry": {"type": "Point", "coordinates": [-93.6619030557, 44.859258076]}, "type": "Feature", "properties": {"collection_times": [{"days": "Mon-Fri", "time": "4:45pm"}, {"days": "Sat", "time": "10:00am"}, {"days": "Sun", "time": "Closed"}], "id": "5538600001", "name": "USPS COLLECTION BOX - BLUE BOX", "address": {"city": "VICTORIA", "state": "MN", "street": "7972 VICTORIA DR", "postcode": "55386"}}},
{"geometry": {"type": "Point", "coordinates": [-93.6619030557, 44.859258076]}, "type": "Feature", "properties": {"collection_times": [{"days": "Mon-Fri", "time": "4:45pm"}, {"days": "Sat", "time": "10:00am"}, {"days": "Sun", "time": "Closed"}], "id": "5538600002", "name": "USPS COLLECTION BOX - PO LOBBY", "address": {"city": "VICTORIA", "state": "MN", "street": "7972 VICTORIA DR", "postcode": "55386"}}},
{"geometry": {"type": "Point", "coordinates": [-93.7860995516, 44.8479489883]}, "type": "Feature", "properties": {"collection_times": [{"days": "Mon-Fri", "time": "4:45pm"}, {"days": "Sat", "time": "11:45am"}, {"days": "Sun", "time": "Closed"}], "id": "5538700005", "name": "USPS COLLECTION BOX - BLUE BOX", "address": {"city": "WACONIA", "state": "MN", "street": "208 S ELM ST", "postcode": "55387"}}},
{"geometry": {"type": "Point", "coordinates": [-93.7860995516, 44.8479489883]}, "type": "Feature", "properties": {"collection_times": [{"days": "Mon-Fri", "time": "4:45pm"}, {"days": "Sat", "time": "12:00pm"}, {"days": "Sun", "time": "Closed"}], "id": "5538700007", "name": "USPS COLLECTION BOX - PO LOBBY", "address": {"city": "WACONIA", "state": "MN", "street": "208 S ELM ST", "postcode": "55387"}}},
{"geometry": {"type": "Point", "coordinates": [-93.800830549, 44.8367168534]}, "type": "Feature", "properties": {"collection_times": [{"days": "Mon-Fri", "time": "12:00pm"}, {"days": "Sat", "time": "10:00am"}, {"days": "Sun", "time": "Closed"}], "id": "5538700008", "name": "USPS COLLECTION BOX - BLUE BOX", "address": {"city": "WACONIA", "state": "MN", "street": "851 MARKETPLACE DR", "postcode": "55387"}}},
{"geometry": {"type": "Point", "coordinates": [-93.8498220021, 44.960674331]}, "type": "Feature", "properties": {"collection_times": [{"days": "Mon-Fri", "time": "4:15pm"}, {"days": "Sat", "time": "10:30am"}, {"days": "Sun", "time": "Closed"}], "id": "5538800001", "name": "USPS COLLECTION BOX - BLUE BOX", "address": {"city": "WATERTOWN", "state": "MN", "street": "402 LEWIS AVE S", "postcode": "55388"}}},
{"geometry": {"type": "Point", "coordinates": [-93.8498220021, 44.960674331]}, "type": "Feature", "properties": {"collection_times": [{"days": "Mon-Fri", "time": "4:30pm"}, {"days": "Sat", "time": "10:30am"}, {"days": "Sun", "time": "Closed"}], "id": "5538800004", "name": "USPS COLLECTION BOX - PO LOBBY", "address": {"city": "WATERTOWN", "state": "MN", "street": "402 LEWIS AVE S", "postcode": "55388"}}},
{"geometry": {"type": "Point", "coordinates": [-94.4074878725, 45.3173485169]}, "type": "Feature", "properties": {"collection_times": [{"days": "Mon-Fri", "time": "3:15pm"}, {"days": "Sat", "time": "10:00am"}, {"days": "Sun", "time": "Closed"}], "id": "5538900001", "name": "USPS COLLECTION BOX - BLUE BOX", "address": {"city": "WATKINS", "state": "MN", "street": "161 CEDAR AVE N", "postcode": "55389"}}},
{"geometry": {"type": "Point", "coordinates": [-94.4074878725, 45.3173485169]}, "type": "Feature", "properties": {"collection_times": [{"days": "Mon-Fri", "time": "3:15pm"}, {"days": "Sat", "time": "10:00am"}, {"days": "Sun", "time": "Closed"}], "id": "5538900002", "name": "USPS COLLECTION BOX - PO LOBBY", "address": {"city": "WATKINS", "state": "MN", "street": "161 CEDAR AVE N", "postcode": "55389"}}},
{"geometry": {"type": "Point", "coordinates": [-93.9683617757, 45.0692225577]}, "type": "Feature", "properties": {"collection_times": [{"days": "Mon-Fri", "time": "4:00pm"}, {"days": "Sat", "time": "10:00am"}, {"days": "Sun", "time": "Closed"}], "id": "5539000001", "name": "USPS COLLECTION BOX - BLUE BOX", "address": {"city": "WAVERLY", "state": "MN", "street": "304 5TH ST N", "postcode": "55390"}}},
{"geometry": {"type": "Point", "coordinates": [-93.9683617757, 45.0692225577]}, "type": "Feature", "properties": {"collection_times": [{"days": "Mon-Fri", "time": "4:00pm"}, {"days": "Sat", "time": "10:00am"}, {"days": "Sun", "time": "Closed"}], "id": "5539000002", "name": "USPS COLLECTION BOX - PO LOBBY", "address": {"city": "WAVERLY", "state": "MN", "street": "304 5TH ST N", "postcode": "55390"}}},
{"geometry": {"type": "Point", "coordinates": [-93.5111976325, 44.9691230239]}, "type": "Feature", "properties": {"collection_times": [{"days": "Mon-Fri", "time": "4:30pm"}, {"days": "Sat-Sun", "time": "Closed"}], "id": "5539100001", "name": "USPS COLLECTION BOX - BLUE BOX", "address": {"city": "WAYZATA", "state": "MN", "street": "700 LAKE ST E", "postcode": "55391"}}},
{"geometry": {"type": "Point", "coordinates": [-94.200790483, 46.3488550183]}, "type": "Feature", "properties": {"collection_times": [{"days": "Mon-Fri", "time": "4:30pm"}, {"days": "Sat-Sun", "time": "Closed"}], "id": "5539100002", "name": "USPS COLLECTION BOX - BLUE BOX", "address": {"city": "WAYZATA", "state": "MN", "street": "1905 WAYZATA BLVD", "postcode": "55391"}}},
{"geometry": {"type": "Point", "coordinates": [-93.502045079, 44.9740003637]}, "type": "Feature", "properties": {"collection_times": [{"days": "Mon-Fri", "time": "4:30pm"}, {"days": "Sat-Sun", "time": "Closed"}], "id": "5539100005", "name": "USPS COLLECTION BOX - BLUE BOX", "address": {"city": "WAYZATA", "state": "MN", "street": "250 CENTRAL AVE N", "postcode": "55391"}}},
{"geometry": {"type": "Point", "coordinates": [-93.5043979844, 44.9711458838]}, "type": "Feature", "properties": {"collection_times": [{"days": "Mon-Fri", "time": "4:30pm"}, {"days": "Sat-Sun", "time": "Closed"}], "id": "5539100008", "name": "USPS COLLECTION BOX - BLUE BOX", "address": {"city": "WAYZATA", "state": "MN", "street": "900 WAYZATA BLVD E", "postcode": "55391"}}},
{"geometry": {"type": "Point", "coordinates": [-93.4757516942, 44.9714152801]}, "type": "Feature", "properties": {"collection_times": [{"days": "Mon-Fri", "time": "4:30pm"}, {"days": "Sat-Sun", "time": "Closed"}], "id": "5539100012", "name": "USPS COLLECTION BOX - BLUE BOX", "address": {"city": "WAYZATA", "state": "MN", "street": "15500 WAYZATA BLVD, 900 BUILDING", "postcode": "55391"}}},
{"geometry": {"type": "Point", "coordinates": [-93.5154834928, 44.9700421831]}, "type": "Feature", "properties": {"collection_times": [{"days": "Mon-Fri", "time": "5:00pm"}, {"days": "Sat-Sun", "time": "Closed"}], "id": "5539100018", "name": "USPS COLLECTION BOX - BLUE BOX", "address": {"city": "WAYZATA", "state": "MN", "street": "445 LAKE ST E", "postcode": "55391"}}},
{"geometry": {"type": "Point", "coordinates": [-93.5079225446, 44.968336692]}, "type": "Feature", "properties": {"collection_times": [{"days": "Mon-Fri", "time": "4:30pm"}, {"days": "Sat-Sun", "time": "Closed"}], "id": "5539100020", "name": "USPS COLLECTION BOX - BLUE BOX", "address": {"city": "WAYZATA", "state": "MN", "street": "840 LAKE ST E", "postcode": "55391"}}},
{"geometry": {"type": "Point", "coordinates": [-93.5000628718, 44.9711839133]}, "type": "Feature", "properties": {"collection_times": [{"days": "Mon-Fri", "time": "4:30pm"}, {"days": "Sat-Sun", "time": "Closed"}], "id": "5539100023", "name": "USPS COLLECTION BOX - BLUE BOX", "address": {"city": "WAYZATA", "state": "MN", "street": "1139 WAYZATA BLVD E", "postcode": "55391"}}},
{"geometry": {"type": "Point", "coordinates": [-93.5181889546, 44.9551598934]}, "type": "Feature", "properties": {"collection_times": [{"days": "Mon-Fri", "time": "5:00pm"}, {"days": "Sat", "time": "3:00pm"}, {"days": "Sun", "time": "Closed"}], "id": "5539100028", "name": "USPS COLLECTION BOX - BLUE BOX", "address": {"city": "WAYZATA", "state": "MN", "street": "229 MINNETONKA AVE S", "postcode": "55391"}}},
{"geometry": {"type": "Point", "coordinates": [-93.6102089319, 44.9346326724]}, "type": "Feature", "properties": {"collection_times": [{"days": "Mon-Fri", "time": "11:00am"}, {"days": "Sat-Sun", "time": "Closed"}], "id": "5539100034", "name": "USPS COLLECTION BOX - BLUE BOX", "address": {"city": "WAYZATA", "state": "MN", "street": "3423 SHORELINE DR", "postcode": "55391"}}},
{"geometry": {"type": "Point", "coordinates": [-93.5145572359, 44.9712085806]}, "type": "Feature", "properties": {"collection_times": [{"days": "Mon-Fri", "time": "5:00pm"}, {"days": "Sat", "time": "12:00pm"}, {"days": "Sun", "time": "Closed"}], "id": "5539100035", "name": "USPS COLLECTION BOX - PO LOBBY", "address": {"city": "WAYZATA", "state": "MN", "street": "229 MINNETONKA AVE S", "postcode": "55391"}}},
{"geometry": {"type": "Point", "coordinates": [-93.5983083647, 44.9408514876]}, "type": "Feature", "properties": {"collection_times": [{"days": "Mon-Fri", "time": "12:00pm"}, {"days": "Sat-Sun", "time": "Closed"}], "id": "5539100036", "name": "USPS COLLECTION BOX - BLUE BOX", "address": {"city": "WAYZATA", "state": "MN", "street": "2945 WESTWOOD RD S", "postcode": "55391"}}},
{"geometry": {"type": "Point", "coordinates": [-93.5176281974, 44.969985401]}, "type": "Feature", "properties": {"collection_times": [{"days": "Mon-Fri", "time": "4:00pm"}, {"days": "Sat-Sun", "time": "Closed"}], "id": "5539100038", "name": "USPS COLLECTION BOX - BLUE BOX", "address": {"city": "WAYZATA", "state": "MN", "street": "294 GROVE LN", "postcode": "55391"}}},
{"geometry": {"type": "Point", "coordinates": [-93.4757516942, 44.9714152801]}, "type": "Feature", "properties": {"collection_times": [{"days": "Mon-Fri", "time": "4:30pm"}, {"days": "Sat-Sun", "time": "Closed"}], "id": "5539100042", "name": "USPS COLLECTION BOX - BLUE BOX", "address": {"city": "WAYZATA", "state": "MN", "street": "15500 WAYZATA BLVD, 700 BUILDING", "postcode": "55391"}}},
{"geometry": {"type": "Point", "coordinates": [-93.512537925, 44.9419031382]}, "type": "Feature", "properties": {"collection_times": [{"days": "Mon-Fri", "time": "4:00pm"}, {"days": "Sat", "time": "12:30pm"}, {"days": "Sun", "time": "Closed"}], "id": "5539100043", "name": "USPS COLLECTION BOX - BLUE BOX", "address": {"city": "WAYZATA", "state": "MN", "street": "18300 MINNETONKA BLVD", "postcode": "55391"}}},
{"geometry": {"type": "Point", "coordinates": [-93.4757516942, 44.9714152801]}, "type": "Feature", "properties": {"collection_times": [{"days": "Mon-Fri", "time": "4:30pm"}, {"days": "Sat-Sun", "time": "Closed"}], "id": "5539100044", "name": "USPS COLLECTION BOX - BLUE BOX", "address": {"city": "WAYZATA", "state": "MN", "street": "15500 WAYZATA BLVD, 900 BUILDING", "postcode": "55391"}}},
{"geometry": {"type": "Point", "coordinates": [-93.5025359235, 44.9419800598]}, "type": "Feature", "properties": {"collection_times": [{"days": "Mon-Fri", "time": "4:00pm"}, {"days": "Sat-Sun", "time": "Closed"}], "id": "5539100046", "name": "USPS COLLECTION BOX - BLUE BOX", "address": {"city": "WAYZATA", "state": "MN", "street": "17623 MINNETONKA BLVD", "postcode": "55391"}}},
{"geometry": {"type": "Point", "coordinates": [-93.502045079, 44.9740003637]}, "type": "Feature", "properties": {"collection_times": [{"days": "Mon-Fri", "time": "4:30pm"}, {"days": "Sat-Sun", "time": "Closed"}], "id": "5539100047", "name": "USPS COLLECTION BOX - BLUE BOX", "address": {"city": "WAYZATA", "state": "MN", "street": "250 CENTRAL AVE N", "postcode": "55391"}}},
{"geometry": {"type": "Point", "coordinates": [-93.5117074878, 44.9715055033]}, "type": "Feature", "properties": {"collection_times": [{"days": "Mon-Fri", "time": "4:00pm"}, {"days": "Sat-Sun", "time": "Closed"}], "id": "5539100048", "name": "USPS COLLECTION BOX - BLUE BOX", "address": {"city": "WAYZATA", "state": "MN", "street": "600 RICE ST E", "postcode": "55391"}}},
{"geometry": {"type": "Point", "coordinates": [-93.5120089575, 44.9693450758]}, "type": "Feature", "properties": {"collection_times": [{"days": "Mon-Fri", "time": "4:00pm"}, {"days": "Sat-Sun", "time": "Closed"}], "id": "5539100049", "name": "USPS COLLECTION BOX - BLUE BOX", "address": {"city": "WAYZATA", "state": "MN", "street": "681 E LAKE ST", "postcode": "55391"}}},
{"geometry": {"type": "Point", "coordinates": [-93.5120089575, 44.9693450758]}, "type": "Feature", "properties": {"collection_times": [{"days": "Mon-Fri", "time": "4:00pm"}, {"days": "Sat-Sun", "time": "Closed"}], "id": "5539100050", "name": "USPS COLLECTION BOX - BLUE BOX", "address": {"city": "WAYZATA", "state": "MN", "street": "641 LAKE ST E", "postcode": "55391"}}},
{"geometry": {"type": "Point", "coordinates": [-94.0475187584, 44.9640564079]}, "type": "Feature", "properties": {"collection_times": [{"days": "Mon-Fri", "time": "4:30pm"}, {"days": "Sat", "time": "10:00am"}, {"days": "Sun", "time": "Closed"}], "id": "5539500001", "name": "USPS COLLECTION BOX - BLUE BOX", "address": {"city": "WINSTED", "state": "MN", "street": "155 MAIN AVE W", "postcode": "55395"}}},
{"geometry": {"type": "Point", "coordinates": [-94.0475187584, 44.9640564079]}, "type": "Feature", "properties": {"collection_times": [{"days": "Mon-Fri", "time": "4:30pm"}, {"days": "Sat", "time": "10:00am"}, {"days": "Sun", "time": "Closed"}], "id": "5539500002", "name": "USPS COLLECTION BOX - PO LOBBY", "address": {"city": "WINSTED", "state": "MN", "street": "155 MAIN AVE W", "postcode": "55395"}}},
{"geometry": {"type": "Point", "coordinates": [-94.0475187584, 44.9640564079]}, "type": "Feature", "properties": {"collection_times": [{"days": "Mon-Fri", "time": "4:30pm"}, {"days": "Sat", "time": "10:00am"}, {"days": "Sun", "time": "Closed"}], "id": "5539500004", "name": "USPS COLLECTION BOX - BLUE BOX", "address": {"city": "WINSTED", "state": "MN", "street": "155 MAIN AVE W", "postcode": "55395"}}},
{"geometry": {"type": "Point", "coordinates": [-94.0475187584, 44.9640564079]}, "type": "Feature", "properties": {"collection_times": [{"days": "Mon-Fri", "time": "4:30pm"}, {"days": "Sat", "time": "10:00am"}, {"days": "Sun", "time": "Closed"}], "id": "5539500005", "name": "USPS COLLECTION BOX - PO LOBBY", "address": {"city": "WINSTED", "state": "MN", "street": "155 MAIN AVE W", "postcode": "55395"}}},
{"geometry": {"type": "Point", "coordinates": [-94.3650273786, 44.5411857827]}, "type": "Feature", "properties": {"collection_times": [{"days": "Mon-Fri", "time": "3:15pm"}, {"days": "Sat", "time": "9:45am"}, {"days": "Sun", "time": "Closed"}], "id": "5539600002", "name": "USPS COLLECTION BOX - PO LOBBY", "address": {"city": "WINTHROP", "state": "MN", "street": "215 E 2ND ST", "postcode": "55396"}}},
{"geometry": {"type": "Point", "coordinates": [-94.3650273786, 44.5411857827]}, "type": "Feature", "properties": {"collection_times": [{"days": "Mon-Fri", "time": "3:15pm"}, {"days": "Sat", "time": "10:00am"}, {"days": "Sun", "time": "Closed"}], "id": "5539600003", "name": "USPS COLLECTION BOX - BLUE BOX", "address": {"city": "WINTHROP", "state": "MN", "street": "215 E 2ND ST", "postcode": "55396"}}},
{"geometry": {"type": "Point", "coordinates": [-93.5876409335, 45.4419644633]}, "type": "Feature", "properties": {"collection_times": [{"days": "Mon-Sat", "time": "3:00pm"}, {"days": "Sun", "time": "Closed"}], "id": "5539800001", "name": "USPS COLLECTION BOX - BLUE BOX", "address": {"city": "ZIMMERMAN", "state": "MN", "street": "26022 MAIN ST", "postcode": "55398"}}},
{"geometry": {"type": "Point", "coordinates": [-93.5871525445, 45.4467364801]}, "type": "Feature", "properties": {"collection_times": [{"days": "Mon-Fri", "time": "5:00pm"}, {"days": "Sat", "time": "4:00pm"}, {"days": "Sun", "time": "Closed"}], "id": "5539800002", "name": "USPS COLLECTION BOX - PO LOBBY", "address": {"city": "ZIMMERMAN", "state": "MN", "street": "26278 2ND ST E", "postcode": "55398"}}},
{"geometry": {"type": "Point", "coordinates": [-93.5871525445, 45.4467364801]}, "type": "Feature", "properties": {"collection_times": [{"days": "Mon-Fri", "time": "4:45pm"}, {"days": "Sat", "time": "3:00pm"}, {"days": "Sun", "time": "Closed"}], "id": "5539800003", "name": "USPS COLLECTION BOX - BLUE BOX", "address": {"city": "ZIMMERMAN", "state": "MN", "street": "26278 2ND ST E", "postcode": "55398"}}},
{"geometry": {"type": "Point", "coordinates": [-93.5871525445, 45.4467364801]}, "type": "Feature", "properties": {"collection_times": [{"days": "Mon-Fri", "time": "4:45pm"}, {"days": "Sat", "time": "3:00pm"}, {"days": "Sun", "time": "Closed"}], "id": "5539800005", "name": "USPS COLLECTION BOX - BLUE BOX", "address": {"city": "ZIMMERMAN", "state": "MN", "street": "26278 2ND ST E", "postcode": "55398"}}}
]}
