{"type": "FeatureCollection", "features": [
{"geometry": {"type": "Point", "coordinates": [-93.6538340029, 45.236987345]}, "type": "Feature", "properties": {"collection_times": [{"days": "Mon-Fri", "time": "4:30pm"}, {"days": "Sat", "time": "11:15am"}, {"days": "Sun", "time": "Closed"}], "id": "5530100001", "name": "USPS COLLECTION BOX - BLUE BOX", "address": {"city": "ALBERTVILLE", "state": "MN", "street": "5900 MAIN AVE NE", "postcode": "55301"}}},
{"geometry": {"type": "Point", "coordinates": [-93.6538340029, 45.236987345]}, "type": "Feature", "properties": {"collection_times": [{"days": "Mon-Fri", "time": "4:30pm"}, {"days": "Sat", "time": "11:15am"}, {"days": "Sun", "time": "Closed"}], "id": "5530100002", "name": "USPS COLLECTION BOX - PO LOBBY", "address": {"city": "ALBERTVILLE", "state": "MN", "street": "5900 MAIN AVE NE", "postcode": "55301"}}},
{"geometry": {"type": "Point", "coordinates": [-93.6538340029, 45.236987345]}, "type": "Feature", "properties": {"collection_times": [{"days": "Mon-Fri", "time": "4:30pm"}, {"days": "Sat", "time": "11:15am"}, {"days": "Sun", "time": "Closed"}], "id": "5530100003", "name": "USPS COLLECTION BOX - BLUE BOX", "address": {"city": "ALBERTVILLE", "state": "MN", "street": "5900 MAIN AVE NE", "postcode": "55301"}}},
{"geometry": {"type": "Point", "coordinates": [-94.1244293644, 45.2634917157]}, "type": "Feature", "properties": {"collection_times": [{"days": "Mon-Fri", "time": "5:00pm"}, {"days": "Sat", "time": "11:30am"}, {"days": "Sun", "time": "Closed"}], "id": "5530200009", "name": "USPS COLLECTION BOX - BLUE BOX", "address": {"city": "ANNANDALE", "state": "MN", "street": "83 OAK AVE N", "postcode": "55302"}}},
{"geometry": {"type": "Point", "coordinates": [-94.1244293644, 45.2634917157]}, "type": "Feature", "properties": {"collection_times": [{"days": "Mon-Fri", "time": "5:00pm"}, {"days": "Sat", "time": "11:30am"}, {"days": "Sun", "time": "Closed"}], "id": "5530200011", "name": "USPS COLLECTION BOX - PO LOBBY", "address": {"city": "ANNANDALE", "state": "MN", "street": "83 OAK AVE N", "postcode": "55302"}}},
{"geometry": {"type": "Point", "coordinates": [-94.1853623978, 45.2004447347]}, "type": "Feature", "properties": {"collection_times": [{"days": "Mon-Sat", "time": "10:00am"}, {"days": "Sun", "time": "Closed"}], "id": "5530200013", "name": "USPS COLLECTION BOX - BLUE BOX", "address": {"city": "ANNANDALE", "state": "MN", "street": "3259 COUNTY ROAD 3 NW", "postcode": "55302"}}},
{"geometry": {"type": "Point", "coordinates": [-94.1118229402, 45.2568458]}, "type": "Feature", "properties": {"collection_times": [{"days": "Mon-Fri", "time": "1:00pm"}, {"days": "Sat-Sun", "time": "Closed"}], "id": "5530200014", "name": "USPS COLLECTION BOX - BLUE BOX", "address": {"city": "ANNANDALE", "state": "MN", "street": "660 ELM ST E", "postcode": "55302"}}},
{"geometry": {"type": "Point", "coordinates": [-94.1244293644, 45.2634917157]}, "type": "Feature", "properties": {"collection_times": [{"days": "Mon-Fri", "time": "5:00pm"}, {"days": "Sat", "time": "11:30am"}, {"days": "Sun", "time": "Closed"}], "id": "5530200015", "name": "USPS COLLECTION BOX - BLUE BOX", "address": {"city": "ANNANDALE", "state": "MN", "street": "83 OAK AVE N", "postcode": "55302"}}},
{"geometry": {"type": "Point", "coordinates": [-93.3784211353, 45.2001974963]}, "type": "Feature", "properties": {"collection_times": [{"days": "Mon-Fri", "time": "6:00pm"}, {"days": "Sat", "time": "5:00pm"}, {"days": "Sun", "time": "Closed"}], "id": "5530300002", "name": "USPS COLLECTION BOX - BLUE BOX", "address": {"city": "ANOKA", "state": "MN", "street": "2168 7TH AVE", "postcode": "55303"}}},
{"geometry": {"type": "Point", "coordinates": [-93.3766174433, 45.201986582]}, "type": "Feature", "properties": {"collection_times": [{"days": "Mon-Fri", "time": "5:00pm"}, {"days": "Sat-Sun", "time": "Closed"}], "id": "5530300004", "name": "USPS COLLECTION BOX - BLUE BOX", "address": {"city": "ANOKA", "state": "MN", "street": "900 BOB EHLEN DR", "postcode": "55303"}}},
{"geometry": {"type": "Point", "coordinates": [-93.3913600331, 45.1973391233]}, "type": "Feature", "properties": {"collection_times": [{"days": "Mon-Fri", "time": "5:00pm"}, {"days": "Sat", "time": "2:00pm"}, {"days": "Sun", "time": "Closed"}], "id": "5530300005", "name": "USPS COLLECTION BOX - BLUE BOX", "address": {"city": "ANOKA", "state": "MN", "street": "12 BRIDGE SQ", "postcode": "55303"}}},
{"geometry": {"type": "Point", "coordinates": [-93.3887644172, 45.1978717394]}, "type": "Feature", "properties": {"collection_times": [{"days": "Mon-Fri", "time": "5:00pm"}, {"days": "Sat", "time": "2:00pm"}, {"days": "Sun", "time": "Closed"}], "id": "5530300007", "name": "USPS COLLECTION BOX - BLUE BOX", "address": {"city": "ANOKA", "state": "MN", "street": "228 E MAIN ST", "postcode": "55303"}}},
{"geometry": {"type": "Point", "coordinates": [-93.3850075158, 45.1978109188]}, "type": "Feature", "properties": {"collection_times": [{"days": "Mon-Fri", "time": "5:00pm"}, {"days": "Sat", "time": "2:00pm"}, {"days": "Sun", "time": "Closed"}], "id": "5530300008", "name": "USPS COLLECTION BOX - BLUE BOX", "address": {"city": "ANOKA", "state": "MN", "street": "420 E MAIN ST", "postcode": "55303"}}},
{"geometry": {"type": "Point", "coordinates": [-93.3847791737, 45.1987024083]}, "type": "Feature", "properties": {"collection_times": [{"days": "Mon-Fri", "time": "5:00pm"}, {"days": "Sat", "time": "2:00pm"}, {"days": "Sun", "time": "Closed"}], "id": "5530300009", "name": "USPS COLLECTION BOX - BLUE BOX", "address": {"city": "ANOKA", "state": "MN", "street": "433 JACKSON ST", "postcode": "55303"}}},
{"geometry": {"type": "Point", "coordinates": [-93.388896668, 45.1986924362]}, "type": "Feature", "properties": {"collection_times": [{"days": "Mon-Fri", "time": "5:00pm"}, {"days": "Sat", "time": "2:00pm"}, {"days": "Sun", "time": "Closed"}], "id": "5530300010", "name": "USPS COLLECTION BOX - BLUE BOX", "address": {"city": "ANOKA", "state": "MN", "street": "241 JACKSON ST", "postcode": "55303"}}},
{"geometry": {"type": "Point", "coordinates": [-93.3893113445, 45.1987061445]}, "type": "Feature", "properties": {"collection_times": [{"days": "Mon-Fri", "time": "5:00pm"}, {"days": "Sat", "time": "2:00pm"}, {"days": "Sun", "time": "Closed"}], "id": "5530300011", "name": "USPS COLLECTION BOX - BLUE BOX", "address": {"city": "ANOKA", "state": "MN", "street": "201 JACKSON ST", "postcode": "55303"}}},
{"geometry": {"type": "Point", "coordinates": [-93.3871868612, 45.199888744]}, "type": "Feature", "properties": {"collection_times": [{"days": "Mon-Fri", "time": "5:00pm"}, {"days": "Sat", "time": "2:00pm"}, {"days": "Sun", "time": "Closed"}], "id": "5530300013", "name": "USPS COLLECTION BOX - BLUE BOX", "address": {"city": "ANOKA", "state": "MN", "street": "2150 3RD AVE", "postcode": "55303"}}},
{"geometry": {"type": "Point", "coordinates": [-93.4200197556, 45.2737841111]}, "type": "Feature", "properties": {"collection_times": [{"days": "Mon-Sat", "time": "1:00pm"}, {"days": "Sun", "time": "Closed"}], "id": "5530300023", "name": "USPS COLLECTION BOX - BLUE BOX", "address": {"city": "ANOKA", "state": "MN", "street": "15299 SAINT FRANCIS BLVD", "postcode": "55303"}}},
{"geometry": {"type": "Point", "coordinates": [-93.4711094597, 45.2785876248]}, "type": "Feature", "properties": {"collection_times": [{"days": "Mon-Sat", "time": "10:00am"}, {"days": "Sun", "time": "Closed"}], "id": "5530300027", "name": "USPS COLLECTION BOX - BLUE BOX", "address": {"city": "ANOKA", "state": "MN", "street": "14075 RAMSEY BLVD NW", "postcode": "55303"}}},
{"geometry": {"type": "Point", "coordinates": [-93.3994605481, 45.2038917518]}, "type": "Feature", "properties": {"collection_times": [{"days": "Mon-Fri", "time": "5:00pm"}, {"days": "Sat", "time": "2:00pm"}, {"days": "Sun", "time": "Closed"}], "id": "5530300032", "name": "USPS COLLECTION BOX - BLUE BOX", "address": {"city": "ANOKA", "state": "MN", "street": "530 W MAIN ST", "postcode": "55303"}}},
{"geometry": {"type": "Point", "coordinates": [-93.3782756313, 45.1876616802]}, "type": "Feature", "properties": {"collection_times": [{"days": "Mon-Fri", "time": "5:00pm"}, {"days": "Sat", "time": "2:00pm"}, {"days": "Sun", "time": "Closed"}], "id": "5530300035", "name": "USPS COLLECTION BOX - BLUE BOX", "address": {"city": "ANOKA", "state": "MN", "street": "703 E RIVER RD", "postcode": "55303"}}},
{"geometry": {"type": "Point", "coordinates": [-93.4132985038, 45.2110998839]}, "type": "Feature", "properties": {"collection_times": [{"days": "Mon-Fri", "time": "5:00pm"}, {"days": "Sat", "time": "2:00pm"}, {"days": "Sun", "time": "Closed"}], "id": "5530300037", "name": "USPS COLLECTION BOX - BLUE BOX", "address": {"city": "ANOKA", "state": "MN", "street": "2900 CUTTERS GROVE AVE", "postcode": "55303"}}},
{"geometry": {"type": "Point", "coordinates": [-93.3899447377, 45.197815109]}, "type": "Feature", "properties": {"collection_times": [{"days": "Mon-Fri", "time": "5:00pm"}, {"days": "Sat", "time": "2:00pm"}, {"days": "Sun", "time": "Closed"}], "id": "5530300039", "name": "USPS COLLECTION BOX - BLUE BOX", "address": {"city": "ANOKA", "state": "MN", "street": "118 E MAIN ST", "postcode": "55303"}}},
{"geometry": {"type": "Point", "coordinates": [-93.3982522594, 45.2272777929]}, "type": "Feature", "properties": {"collection_times": [{"days": "Mon-Fri", "time": "1:00pm"}, {"days": "Sat", "time": "12:00pm"}, {"days": "Sun", "time": "Closed"}], "id": "5530300040", "name": "USPS COLLECTION BOX - BLUE BOX", "address": {"city": "ANOKA", "state": "MN", "street": "14125 SAINT FRANCIS BLVD", "postcode": "55303"}}},
{"geometry": {"type": "Point", "coordinates": [-93.3784211353, 45.2001974963]}, "type": "Feature", "properties": {"collection_times": [{"days": "Mon-Fri", "time": "6:00pm"}, {"days": "Sat", "time": "5:00pm"}, {"days": "Sun", "time": "Closed"}], "id": "5530300042", "name": "USPS COLLECTION BOX - PO LOBBY", "address": {"city": "ANOKA", "state": "MN", "street": "2168 7TH AVE", "postcode": "55303"}}},
{"geometry": {"type": "Point", "coordinates": [-93.3871868612, 45.199888744]}, "type": "Feature", "properties": {"collection_times": [{"days": "Mon-Fri", "time": "5:00pm"}, {"days": "Sat", "time": "2:00pm"}, {"days": "Sun", "time": "Closed"}], "id": "5530300045", "name": "USPS COLLECTION BOX - BLUE BOX", "address": {"city": "ANOKA", "state": "MN", "street": "2150 3RD AVE", "postcode": "55303"}}},
{"geometry": {"type": "Point", "coordinates": [-93.3784211353, 45.2001974963]}, "type": "Feature", "properties": {"collection_times": [{"days": "Mon-Fri", "time": "6:00pm"}, {"days": "Sat", "time": "5:00pm"}, {"days": "Sun", "time": "Closed"}], "id": "5530300048", "name": "USPS COLLECTION BOX - BLUE BOX", "address": {"city": "ANOKA", "state": "MN", "street": "2168 7TH AVE", "postcode": "55303"}}},
{"geometry": {"type": "Point", "coordinates": [-93.4110518754, 45.2215771137]}, "type": "Feature", "properties": {"collection_times": [{"days": "Mon-Fri", "time": "5:00pm"}, {"days": "Sat-Sun", "time": "Closed"}], "id": "5530300049", "name": "USPS COLLECTION BOX - BLUE BOX", "address": {"city": "ANOKA", "state": "MN", "street": "1001 LUND BLVD", "postcode": "55303"}}},
{"geometry": {"type": "Point", "coordinates": [-93.4711094597, 45.2785876248]}, "type": "Feature", "properties": {"collection_times": [{"days": "Mon-Fri", "time": "4:00pm"}, {"days": "Sat", "time": "1:00pm"}, {"days": "Sun", "time": "Closed"}], "id": "5530300050", "name": "USPS COLLECTION BOX - BLUE BOX", "address": {"city": "ANOKA", "state": "MN", "street": "7876 SUNWOOD DR NW", "postcode": "55303"}}},
{"geometry": {"type": "Point", "coordinates": [-93.3784211353, 45.2001974963]}, "type": "Feature", "properties": {"collection_times": [{"days": "Mon-Fri", "time": "6:00pm"}, {"days": "Sat", "time": "5:00pm"}, {"days": "Sun", "time": "Closed"}], "id": "5530300051", "name": "USPS COLLECTION BOX - APC", "address": {"city": "ANOKA", "state": "MN", "street": "2168 7TH AVE", "postcode": "55303"}}},
{"geometry": {"type": "Point", "coordinates": [-93.4711094597, 45.2785876248]}, "type": "Feature", "properties": {"collection_times": [{"days": "Mon-Fri", "time": "4:00pm"}, {"days": "Sat", "time": "1:00pm"}, {"days": "Sun", "time": "Closed"}], "id": "5530300052", "name": "USPS COLLECTION BOX - BLUE BOX", "address": {"city": "ANOKA", "state": "MN", "street": "7876 SUNWOOD DR NW", "postcode": "55303"}}},
{"geometry": {"type": "Point", "coordinates": [-93.3573005859, 45.2208235688]}, "type": "Feature", "properties": {"collection_times": [{"days": "Mon-Sat", "time": "10:30am"}, {"days": "Sun", "time": "Closed"}], "id": "5530400000", "name": "USPS COLLECTION BOX - BLUE BOX", "address": {"city": "ANDOVER", "state": "MN", "street": "13735 ROUND LAKE BLVD NW", "postcode": "55304"}}},
{"geometry": {"type": "Point", "coordinates": [-93.2340143643, 45.2892216376]}, "type": "Feature", "properties": {"collection_times": [{"days": "Mon-Sat", "time": "11:30am"}, {"days": "Sun", "time": "Closed"}], "id": "5530400001", "name": "USPS COLLECTION BOX - BLUE BOX", "address": {"city": "ANDOVER", "state": "MN", "street": "17565 HIGHWAY 65 NE", "postcode": "55304"}}},
{"geometry": {"type": "Point", "coordinates": [-93.3572408862, 45.2262734927]}, "type": "Feature", "properties": {"collection_times": [{"days": "Mon-Sat", "time": "11:00am"}, {"days": "Sun", "time": "Closed"}], "id": "5530400003", "name": "USPS COLLECTION BOX - BLUE BOX", "address": {"city": "ANDOVER", "state": "MN", "street": "14041 ROUND LAKE BLVD NW", "postcode": "55304"}}},
{"geometry": {"type": "Point", "coordinates": [-93.3059814601, 45.2203787763]}, "type": "Feature", "properties": {"collection_times": [{"days": "Mon-Sat", "time": "3:30pm"}, {"days": "Sun", "time": "Closed"}], "id": "5530400005", "name": "USPS COLLECTION BOX - BLUE BOX", "address": {"city": "ANDOVER", "state": "MN", "street": "13727 HANSON BLVD NW", "postcode": "55304"}}},
{"geometry": {"type": "Point", "coordinates": [-93.3036084444, 45.2469314732]}, "type": "Feature", "properties": {"collection_times": [{"days": "Mon-Fri", "time": "5:00pm"}, {"days": "Sat", "time": "3:30pm"}, {"days": "Sun", "time": "Closed"}], "id": "5530400006", "name": "USPS COLLECTION BOX - BLUE BOX", "address": {"city": "ANDOVER", "state": "MN", "street": "15219 BLUEBIRD ST NW", "postcode": "55304"}}},
{"geometry": {"type": "Point", "coordinates": [-93.3036084444, 45.2469314732]}, "type": "Feature", "properties": {"collection_times": [{"days": "Mon-Fri", "time": "4:30pm"}, {"days": "Sat", "time": "3:30pm"}, {"days": "Sun", "time": "Closed"}], "id": "5530400007", "name": "USPS COLLECTION BOX - BLUE BOX", "address": {"city": "ANDOVER", "state": "MN", "street": "15219 BLUEBIRD ST NW", "postcode": "55304"}}},
{"geometry": {"type": "Point", "coordinates": [-93.3220441138, 45.2194960312]}, "type": "Feature", "properties": {"collection_times": [{"days": "Mon-Sat", "time": "10:00am"}, {"days": "Sun", "time": "Closed"}], "id": "5530400008", "name": "USPS COLLECTION BOX - BLUE BOX", "address": {"city": "ANDOVER", "state": "MN", "street": "2218 BUNKER LAKE BLVD NW", "postcode": "55304"}}},
{"geometry": {"type": "Point", "coordinates": [-93.4281468154, 44.9712866559]}, "type": "Feature", "properties": {"collection_times": [{"days": "Mon-Fri", "time": "4:30pm"}, {"days": "Sat-Sun", "time": "Closed"}], "id": "5530500005", "name": "USPS COLLECTION BOX - BLUE BOX", "address": {"city": "MINNETONKA", "state": "MN", "street": "11800 WAYZATA BLVD", "postcode": "55305"}}},
{"geometry": {"type": "Point", "coordinates": [-93.4555311325, 44.9706111863]}, "type": "Feature", "properties": {"collection_times": [{"days": "Mon-Fri", "time": "4:30pm"}, {"days": "Sat-Sun", "time": "Closed"}], "id": "5530500007", "name": "USPS COLLECTION BOX - BLUE BOX", "address": {"city": "MINNETONKA", "state": "MN", "street": "13911 RIDGEDALE DR", "postcode": "55305"}}},
{"geometry": {"type": "Point", "coordinates": [-93.4449471986, 44.9692839064]}, "type": "Feature", "properties": {"collection_times": [{"days": "Mon-Fri", "time": "5:00pm"}, {"days": "Sat", "time": "2:30pm"}, {"days": "Sun", "time": "Closed"}], "id": "5530500008", "name": "USPS COLLECTION BOX - BLUE BOX", "address": {"city": "MINNETONKA", "state": "MN", "street": "13081 RIDGEDALE DR", "postcode": "55305"}}},
{"geometry": {"type": "Point", "coordinates": [-93.4339954561, 44.9703755925]}, "type": "Feature", "properties": {"collection_times": [{"days": "Mon-Fri", "time": "4:00pm"}, {"days": "Sat-Sun", "time": "Closed"}], "id": "5530500010", "name": "USPS COLLECTION BOX - BLUE BOX", "address": {"city": "MINNETONKA", "state": "MN", "street": "12305 WAYZATA BLVD", "postcode": "55305"}}},
{"geometry": {"type": "Point", "coordinates": [-93.4438233876, 44.9415600801]}, "type": "Feature", "properties": {"collection_times": [{"days": "Mon-Fri", "time": "3:30pm"}, {"days": "Sat-Sun", "time": "Closed"}], "id": "5530500012", "name": "USPS COLLECTION BOX - BLUE BOX", "address": {"city": "MINNETONKA", "state": "MN", "street": "12934 MINNETONKA BLVD", "postcode": "55305"}}},
{"geometry": {"type": "Point", "coordinates": [-93.4367459006, 44.9713046404]}, "type": "Feature", "properties": {"collection_times": [{"days": "Mon-Fri", "time": "4:30pm"}, {"days": "Sat-Sun", "time": "Closed"}], "id": "5530500013", "name": "USPS COLLECTION BOX - BLUE BOX", "address": {"city": "MINNETONKA", "state": "MN", "street": "12450 WAYZATA BLVD", "postcode": "55305"}}},
{"geometry": {"type": "Point", "coordinates": [-93.424005276, 44.9325636771]}, "type": "Feature", "properties": {"collection_times": [{"days": "Mon-Fri", "time": "4:00pm"}, {"days": "Sat-Sun", "time": "Closed"}], "id": "5530500017", "name": "USPS COLLECTION BOX - BLUE BOX", "address": {"city": "MINNETONKA", "state": "MN", "street": "11500 HIGHWAY 7", "postcode": "55305"}}},
{"geometry": {"type": "Point", "coordinates": [-93.4060550567, 44.9726482417]}, "type": "Feature", "properties": {"collection_times": [{"days": "Mon-Fri", "time": "4:15pm"}, {"days": "Sat-Sun", "time": "Closed"}], "id": "5530500026", "name": "USPS COLLECTION BOX - BLUE BOX", "address": {"city": "MINNETONKA", "state": "MN", "street": "9999 WAYZATA BLVD", "postcode": "55305"}}},
{"geometry": {"type": "Point", "coordinates": [-93.4424996565, 44.9665784792]}, "type": "Feature", "properties": {"collection_times": [{"days": "Mon-Fri", "time": "4:00pm"}, {"days": "Sat-Sun", "time": "Closed"}], "id": "5530500028", "name": "USPS COLLECTION BOX - BLUE BOX", "address": {"city": "MINNETONKA", "state": "MN", "street": "1809 PLYMOUTH RD", "postcode": "55305"}}},
{"geometry": {"type": "Point", "coordinates": [-93.4128629856, 44.9723702463]}, "type": "Feature", "properties": {"collection_times": [{"days": "Mon-Fri", "time": "4:15pm"}, {"days": "Sat-Sun", "time": "Closed"}], "id": "5530500031", "name": "USPS COLLECTION BOX - BLUE BOX", "address": {"city": "MINNETONKA", "state": "MN", "street": "10505 WAYZATA BLVD", "postcode": "55305"}}},
{"geometry": {"type": "Point", "coordinates": [-93.4197004172, 44.95102791]}, "type": "Feature", "properties": {"collection_times": [{"days": "Mon-Fri", "time": "3:30pm"}, {"days": "Sat-Sun", "time": "Closed"}], "id": "5530500032", "name": "USPS COLLECTION BOX - BLUE BOX", "address": {"city": "MINNETONKA", "state": "MN", "street": "11012 GREENBRIER RD", "postcode": "55305"}}},
{"geometry": {"type": "Point", "coordinates": [-93.4146551684, 44.9726849134]}, "type": "Feature", "properties": {"collection_times": [{"days": "Mon-Fri", "time": "4:30pm"}, {"days": "Sat-Sun", "time": "Closed"}], "id": "5530500034", "name": "USPS COLLECTION BOX - BLUE BOX", "address": {"city": "MINNETONKA", "state": "MN", "street": "10600 WAYZATA BLVD", "postcode": "55305"}}},
{"geometry": {"type": "Point", "coordinates": [-93.4555311325, 44.9706111863]}, "type": "Feature", "properties": {"collection_times": [{"days": "Mon-Fri", "time": "4:30pm"}, {"days": "Sat-Sun", "time": "Closed"}], "id": "5530500036", "name": "USPS COLLECTION BOX - BLUE BOX", "address": {"city": "MINNETONKA", "state": "MN", "street": "13911 RIDGEDALE DR", "postcode": "55305"}}},
{"geometry": {"type": "Point", "coordinates": [-93.4372820324, 44.9704237646]}, "type": "Feature", "properties": {"collection_times": [{"days": "Mon-Fri", "time": "4:00pm"}, {"days": "Sat-Sun", "time": "Closed"}], "id": "5530500038", "name": "USPS COLLECTION BOX - BLUE BOX", "address": {"city": "MINNETONKA", "state": "MN", "street": "12653 WAYZATA BLVD", "postcode": "55305"}}},
{"geometry": {"type": "Point", "coordinates": [-93.4401999843, 44.9655942573]}, "type": "Feature", "properties": {"collection_times": [{"days": "Mon-Fri", "time": "4:00pm"}, {"days": "Sat-Sun", "time": "Closed"}], "id": "5530500039", "name": "USPS COLLECTION BOX - BLUE BOX", "address": {"city": "MINNETONKA", "state": "MN", "street": "12601 RIDGEDALE DR", "postcode": "55305"}}},
{"geometry": {"type": "Point", "coordinates": [-93.4128629856, 44.9723702463]}, "type": "Feature", "properties": {"collection_times": [{"days": "Mon-Fri", "time": "4:15pm"}, {"days": "Sat-Sun", "time": "Closed"}], "id": "5530500041", "name": "USPS COLLECTION BOX - BLUE BOX", "address": {"city": "MINNETONKA", "state": "MN", "street": "10505 WAYZATA BLVD", "postcode": "55305"}}},
{"geometry": {"type": "Point", "coordinates": [-93.4463516081, 44.9728066418]}, "type": "Feature", "properties": {"collection_times": [{"days": "Mon-Fri", "time": "4:30pm"}, {"days": "Sat-Sun", "time": "Closed"}], "id": "5530500045", "name": "USPS COLLECTION BOX - BLUE BOX", "address": {"city": "MINNETONKA", "state": "MN", "street": "13100 WAYZATA BLVD", "postcode": "55305"}}},
{"geometry": {"type": "Point", "coordinates": [-93.4197158668, 44.9730906683]}, "type": "Feature", "properties": {"collection_times": [{"days": "Mon-Fri", "time": "4:30pm"}, {"days": "Sat-Sun", "time": "Closed"}], "id": "5530500046", "name": "USPS COLLECTION BOX - BLUE BOX", "address": {"city": "MINNETONKA", "state": "MN", "street": "11100 WAYZATA BLVD", "postcode": "55305"}}},
{"geometry": {"type": "Point", "coordinates": [-93.4166378076, 44.9714203302]}, "type": "Feature", "properties": {"collection_times": [{"days": "Mon-Fri", "time": "4:15pm"}, {"days": "Sat-Sun", "time": "Closed"}], "id": "5530500048", "name": "USPS COLLECTION BOX - BLUE BOX", "address": {"city": "MINNETONKA", "state": "MN", "street": "10801 WAYZATA BLVD", "postcode": "55305"}}},
{"geometry": {"type": "Point", "coordinates": [-93.4281468154, 44.9712866559]}, "type": "Feature", "properties": {"collection_times": [{"days": "Mon-Fri", "time": "4:30pm"}, {"days": "Sat-Sun", "time": "Closed"}], "id": "5530500050", "name": "USPS COLLECTION BOX - BLUE BOX", "address": {"city": "MINNETONKA", "state": "MN", "street": "11800 WAYZATA BLVD", "postcode": "55305"}}},
{"geometry": {"type": "Point", "coordinates": [-93.4195515155, 44.9331592558]}, "type": "Feature", "properties": {"collection_times": [{"days": "Mon-Fri", "time": "4:00pm"}, {"days": "Sat-Sun", "time": "Closed"}], "id": "5530500051", "name": "USPS COLLECTION BOX - BLUE BOX", "address": {"city": "MINNETONKA", "state": "MN", "street": "1589 HIGHWAY 7", "postcode": "55305"}}},
{"geometry": {"type": "Point", "coordinates": [-93.2811653469, 44.7441431561]}, "type": "Feature", "properties": {"collection_times": [{"days": "Mon-Fri", "time": "4:30pm"}, {"days": "Sat", "time": "10:00am"}, {"days": "Sun", "time": "Closed"}], "id": "5530600000", "name": "USPS COLLECTION BOX - BLUE BOX", "address": {"city": "BURNSVILLE", "state": "MN", "street": "14300 NICOLLET CT", "postcode": "55306"}}},
{"geometry": {"type": "Point", "coordinates": [-93.2872504879, 44.7392102173]}, "type": "Feature", "properties": {"collection_times": [{"days": "Mon-Fri", "time": "4:30pm"}, {"days": "Sat", "time": "10:00am"}, {"days": "Sun", "time": "Closed"}], "id": "5530600001", "name": "USPS COLLECTION BOX - BLUE BOX", "address": {"city": "BURNSVILLE", "state": "MN", "street": "14500 BURNHAVEN DR", "postcode": "55306"}}},
{"geometry": {"type": "Point", "coordinates": [-93.268855476, 44.7394964933]}, "type": "Feature", "properties": {"collection_times": [{"days": "Mon-Fri", "time": "4:15pm"}, {"days": "Sat", "time": "3:00pm"}, {"days": "Sun", "time": "Closed"}], "id": "5530600004", "name": "USPS COLLECTION BOX - BLUE BOX", "address": {"city": "BURNSVILLE", "state": "MN", "street": "401 CO RD 42 E", "postcode": "55306"}}},
{"geometry": {"type": "Point", "coordinates": [-93.3234797891, 44.7439834567]}, "type": "Feature", "properties": {"collection_times": [{"days": "Mon-Fri", "time": "4:30pm"}, {"days": "Sat", "time": "11:00am"}, {"days": "Sun", "time": "Closed"}], "id": "5530600005", "name": "USPS COLLECTION BOX - BLUE BOX", "address": {"city": "BURNSVILLE", "state": "MN", "street": "14255 W BURNSVILLE PKWY", "postcode": "55306"}}},
{"geometry": {"type": "Point", "coordinates": [-93.3234894917, 44.7361331256]}, "type": "Feature", "properties": {"collection_times": [{"days": "Mon-Fri", "time": "12:00pm"}, {"days": "Sat", "time": "11:00am"}, {"days": "Sun", "time": "Closed"}], "id": "5530600009", "name": "USPS COLLECTION BOX - BLUE BOX", "address": {"city": "BURNSVILLE", "state": "MN", "street": "14750 W BURNSVILLE PKWY", "postcode": "55306"}}},
{"geometry": {"type": "Point", "coordinates": [-94.0791810947, 44.6071443702]}, "type": "Feature", "properties": {"collection_times": [{"days": "Mon-Fri", "time": "3:30pm"}, {"days": "Sat", "time": "10:00am"}, {"days": "Sun", "time": "Closed"}], "id": "5530700001", "name": "USPS COLLECTION BOX - BLUE BOX", "address": {"city": "ARLINGTON", "state": "MN", "street": "220 W MAIN ST", "postcode": "55307"}}},
{"geometry": {"type": "Point", "coordinates": [-94.0791810947, 44.6071443702]}, "type": "Feature", "properties": {"collection_times": [{"days": "Mon-Fri", "time": "4:30pm"}, {"days": "Sat", "time": "10:00am"}, {"days": "Sun", "time": "Closed"}], "id": "5530700003", "name": "USPS COLLECTION BOX - PO LOBBY", "address": {"city": "ARLINGTON", "state": "MN", "street": "220 W MAIN ST", "postcode": "55307"}}},
{"geometry": {"type": "Point", "coordinates": [-93.8710443844, 45.3894884514]}, "type": "Feature", "properties": {"collection_times": [{"days": "Mon-Fri", "time": "4:30pm"}, {"days": "Sat", "time": "10:30am"}, {"days": "Sun", "time": "Closed"}], "id": "5530800001", "name": "USPS COLLECTION BOX - BLUE BOX", "address": {"city": "BECKER", "state": "MN", "street": "13974 1ST ST", "postcode": "55308"}}},
{"geometry": {"type": "Point", "coordinates": [-93.8831936077, 45.3972711331]}, "type": "Feature", "properties": {"collection_times": [{"days": "Mon-Fri", "time": "12:00pm"}, {"days": "Sat-Sun", "time": "Closed"}], "id": "5530800002", "name": "USPS COLLECTION BOX - BLUE BOX", "address": {"city": "BECKER", "state": "MN", "street": "13400 1ST ST", "postcode": "55308"}}},
{"geometry": {"type": "Point", "coordinates": [-93.8710443844, 45.3894884514]}, "type": "Feature", "properties": {"collection_times": [{"days": "Mon-Fri", "time": "4:30pm"}, {"days": "Sat", "time": "10:30am"}, {"days": "Sun", "time": "Closed"}], "id": "5530800004", "name": "USPS COLLECTION BOX - PO LOBBY", "address": {"city": "BECKER", "state": "MN", "street": "13974 1ST ST", "postcode": "55308"}}},
{"geometry": {"type": "Point", "coordinates": [-93.7393126281, 45.3328616534]}, "type": "Feature", "properties": {"collection_times": [{"days": "Mon-Fri", "time": "4:45pm"}, {"days": "Sat", "time": "11:00am"}, {"days": "Sun", "time": "Closed"}], "id": "5530900005", "name": "USPS COLLECTION BOX - BLUE BOX", "address": {"city": "BIG LAKE", "state": "MN", "street": "625 ROSE DR", "postcode": "55309"}}},
{"geometry": {"type": "Point", "coordinates": [-93.7393126281, 45.3328616534]}, "type": "Feature", "properties": {"collection_times": [{"days": "Mon-Fri", "time": "4:45pm"}, {"days": "Sat", "time": "11:00am"}, {"days": "Sun", "time": "Closed"}], "id": "5530900006", "name": "USPS COLLECTION BOX - PO LOBBY", "address": {"city": "BIG LAKE", "state": "MN", "street": "625 ROSE DR", "postcode": "55309"}}},
{"geometry": {"type": "Point", "coordinates": [-93.7393126281, 45.3328616534]}, "type": "Feature", "properties": {"collection_times": [{"days": "Mon-Fri", "time": "4:45pm"}, {"days": "Sat", "time": "11:00am"}, {"days": "Sun", "time": "Closed"}], "id": "5530900007", "name": "USPS COLLECTION BOX - BLUE BOX", "address": {"city": "BIG LAKE", "state": "MN", "street": "625 ROSE DR", "postcode": "55309"}}},
{"geometry": {"type": "Point", "coordinates": [-94.8949941078, 44.7660267335]}, "type": "Feature", "properties": {"collection_times": [{"days": "Mon-Fri", "time": "2:00pm"}, {"days": "Sat", "time": "11:45am"}, {"days": "Sun", "time": "Closed"}], "id": "5531000001", "name": "USPS COLLECTION BOX - BLUE BOX", "address": {"city": "BIRD ISLAND", "state": "MN", "street": "240 MAIN ST", "postcode": "55310"}}},
{"geometry": {"type": "Point", "coordinates": [-94.8949941078, 44.7660267335]}, "type": "Feature", "properties": {"collection_times": [{"days": "Mon-Fri", "time": "2:00pm"}, {"days": "Sat", "time": "11:45am"}, {"days": "Sun", "time": "Closed"}], "id": "5531000002", "name": "USPS COLLECTION BOX - PO LOBBY", "address": {"city": "BIRD ISLAND", "state": "MN", "street": "240 MAIN ST", "postcode": "55310"}}},
{"geometry": {"type": "Point", "coordinates": [-93.4529570138, 45.1035343704]}, "type": "Feature", "properties": {"collection_times": [{"days": "Mon-Fri", "time": "5:00pm"}, {"days": "Sat", "time": "3:00pm"}, {"days": "Sun", "time": "Closed"}], "id": "5531100001", "name": "USPS COLLECTION BOX - BLUE BOX", "address": {"city": "MAPLE GROVE", "state": "MN", "street": "13500 GROVE DR", "postcode": "55311"}}},
{"geometry": {"type": "Point", "coordinates": [-93.4529570138, 45.1035343704]}, "type": "Feature", "properties": {"collection_times": [{"days": "Mon-Fri", "time": "5:00pm"}, {"days": "Sat", "time": "3:30pm"}, {"days": "Sun", "time": "Closed"}], "id": "5531100005", "name": "USPS COLLECTION BOX - PO LOBBY", "address": {"city": "MAPLE GROVE", "state": "MN", "street": "13500 GROVE DR", "postcode": "55311"}}},
{"geometry": {"type": "Point", "coordinates": [-93.4878460225, 45.1254960036]}, "type": "Feature", "properties": {"collection_times": [{"days": "Mon-Sat", "time": "10:00am"}, {"days": "Sun", "time": "Closed"}], "id": "5531100006", "name": "USPS COLLECTION BOX - BLUE BOX", "address": {"city": "MAPLE GROVE", "state": "MN", "street": "16401 COUNTY ROAD 30", "postcode": "55311"}}},
{"geometry": {"type": "Point", "coordinates": [-93.4529570138, 45.1035343704]}, "type": "Feature", "properties": {"collection_times": [{"days": "Mon-Fri", "time": "5:00pm"}, {"days": "Sat", "time": "3:00pm"}, {"days": "Sun", "time": "Closed"}], "id": "5531100007", "name": "USPS COLLECTION BOX - BLUE BOX", "address": {"city": "MAPLE GROVE", "state": "MN", "street": "13500 GROVE DR", "postcode": "55311"}}},
{"geometry": {"type": "Point", "coordinates": [-93.4529570138, 45.1035343704]}, "type": "Feature", "properties": {"collection_times": [{"days": "Mon-Fri", "time": "5:00pm"}, {"days": "Sat", "time": "3:00pm"}, {"days": "Sun", "time": "Closed"}], "id": "5531100008", "name": "USPS COLLECTION BOX - BLUE BOX", "address": {"city": "MAPLE GROVE", "state": "MN", "street": "13500 GROVE DR", "postcode": "55311"}}},
{"geometry": {"type": "Point", "coordinates": [-93.4529570138, 45.1035343704]}, "type": "Feature", "properties": {"collection_times": [{"days": "Mon-Fri", "time": "5:00pm"}, {"days": "Sat", "time": "3:30pm"}, {"days": "Sun", "time": "Closed"}], "id": "5531100009", "name": "USPS COLLECTION BOX - APC", "address": {"city": "MAPLE GROVE", "state": "MN", "street": "13500 GROVE DR", "postcode": "55311"}}},
{"geometry": {"type": "Point", "coordinates": [-94.3519919811, 44.7319275982]}, "type": "Feature", "properties": {"collection_times": [{"days": "Mon-Fri", "time": "3:15pm"}, {"days": "Sat", "time": "9:30am"}, {"days": "Sun", "time": "Closed"}], "id": "5531200001", "name": "USPS COLLECTION BOX - BLUE BOX", "address": {"city": "BROWNTON", "state": "MN", "street": "113 4TH AVE S", "postcode": "55312"}}},
{"geometry": {"type": "Point", "coordinates": [-94.3519919811, 44.7319275982]}, "type": "Feature", "properties": {"collection_times": [{"days": "Mon-Fri", "time": "3:15pm"}, {"days": "Sat", "time": "9:30am"}, {"days": "Sun", "time": "Closed"}], "id": "5531200002", "name": "USPS COLLECTION BOX - PO LOBBY", "address": {"city": "BROWNTON", "state": "MN", "street": "113 4TH AVE S", "postcode": "55312"}}},
{"geometry": {"type": "Point", "coordinates": [-93.8763277725, 45.1742456256]}, "type": "Feature", "properties": {"collection_times": [{"days": "Mon-Fri", "time": "5:00pm"}, {"days": "Sat", "time": "3:00pm"}, {"days": "Sun", "time": "Closed"}], "id": "5531300001", "name": "USPS COLLECTION BOX - BLUE BOX", "address": {"city": "BUFFALO", "state": "MN", "street": "209 CENTRAL AVE", "postcode": "55313"}}},
{"geometry": {"type": "Point", "coordinates": [-93.8513246493, 45.1569648697]}, "type": "Feature", "properties": {"collection_times": [{"days": "Mon-Sat", "time": "9:00am"}, {"days": "Sun", "time": "Closed"}], "id": "5531300004", "name": "USPS COLLECTION BOX - BLUE BOX", "address": {"city": "BUFFALO", "state": "MN", "street": "1008 HIGHWAY 55 E", "postcode": "55313"}}},
{"geometry": {"type": "Point", "coordinates": [-93.8565079467, 45.1757682377]}, "type": "Feature", "properties": {"collection_times": [{"days": "Mon-Sat", "time": "9:00am"}, {"days": "Sun", "time": "Closed"}], "id": "5531300006", "name": "USPS COLLECTION BOX - BLUE BOX", "address": {"city": "BUFFALO", "state": "MN", "street": "114 ASPEN AVE NE", "postcode": "55313"}}},
{"geometry": {"type": "Point", "coordinates": [-93.8749470094, 45.1719134488]}, "type": "Feature", "properties": {"collection_times": [{"days": "Mon-Fri", "time": "2:00pm"}, {"days": "Sat", "time": "12:00pm"}, {"days": "Sun", "time": "Closed"}], "id": "5531300008", "name": "USPS COLLECTION BOX - BLUE BOX", "address": {"city": "BUFFALO", "state": "MN", "street": "11 1ST AVE S", "postcode": "55313"}}},
{"geometry": {"type": "Point", "coordinates": [-93.8696129056, 45.1515956272]}, "type": "Feature", "properties": {"collection_times": [{"days": "Mon-Sat", "time": "12:00pm"}, {"days": "Sun", "time": "Closed"}], "id": "5531300013", "name": "USPS COLLECTION BOX - BLUE BOX", "address": {"city": "BUFFALO", "state": "MN", "street": "500 17TH ST S", "postcode": "55313"}}},
{"geometry": {"type": "Point", "coordinates": [-93.8487512549, 45.1547981228]}, "type": "Feature", "properties": {"collection_times": [{"days": "Mon-Sat", "time": "9:00am"}, {"days": "Sun", "time": "Closed"}], "id": "5531300014", "name": "USPS COLLECTION BOX - BLUE BOX", "address": {"city": "BUFFALO", "state": "MN", "street": "1300 HWY 55 E", "postcode": "55313"}}},
{"geometry": {"type": "Point", "coordinates": [-93.8760381901, 45.1885598005]}, "type": "Feature", "properties": {"collection_times": [{"days": "Mon-Sat", "time": "9:00am"}, {"days": "Sun", "time": "Closed"}], "id": "5531300015", "name": "USPS COLLECTION BOX - BLUE BOX", "address": {"city": "BUFFALO", "state": "MN", "street": "1315 HIGHWAY 25 N", "postcode": "55313"}}},
{"geometry": {"type": "Point", "coordinates": [-93.8763277725, 45.1742456256]}, "type": "Feature", "properties": {"collection_times": [{"days": "Mon-Fri", "time": "5:00pm"}, {"days": "Sat", "time": "3:00pm"}, {"days": "Sun", "time": "Closed"}], "id": "5531300017", "name": "USPS COLLECTION BOX - PO LOBBY", "address": {"city": "BUFFALO", "state": "MN", "street": "209 CENTRAL AVE", "postcode": "55313"}}},
{"geometry": {"type": "Point", "coordinates": [-93.8486307625, 45.1713273828]}, "type": "Feature", "properties": {"collection_times": [{"days": "Mon-Fri", "time": "5:00pm"}, {"days": "Sat", "time": "12:00pm"}, {"days": "Sun", "time": "Closed"}], "id": "5531300018", "name": "USPS COLLECTION BOX - BLUE BOX", "address": {"city": "BUFFALO", "state": "MN", "street": "201 ATLAS AVE NE", "postcode": "55313"}}},
{"geometry": {"type": "Point", "coordinates": [-93.8763277725, 45.1742456256]}, "type": "Feature", "properties": {"collection_times": [{"days": "Mon-Fri", "time": "5:00pm"}, {"days": "Sat", "time": "3:00pm"}, {"days": "Sun", "time": "Closed"}], "id": "5531300019", "name": "USPS COLLECTION BOX - BLUE BOX", "address": {"city": "BUFFALO", "state": "MN", "street": "209 CENTRAL AVE", "postcode": "55313"}}},
{"geometry": {"type": "Point", "coordinates": [-93.8486307625, 45.1713273828]}, "type": "Feature", "properties": {"collection_times": [{"days": "Mon-Fri", "time": "5:00pm"}, {"days": "Sat", "time": "12:00pm"}, {"days": "Sun", "time": "Closed"}], "id": "5531300020", "name": "USPS COLLECTION BOX - BLUE BOX", "address": {"city": "BUFFALO", "state": "MN", "street": "201 ATLAS AVE NE", "postcode": "55313"}}},
{"geometry": {"type": "Point", "coordinates": [-93.8763277725, 45.1742456256]}, "type": "Feature", "properties": {"collection_times": [{"days": "Mon-Fri", "time": "5:00pm"}, {"days": "Sat", "time": "3:00pm"}, {"days": "Sun", "time": "Closed"}], "id": "5531300021", "name": "USPS COLLECTION BOX - PO LOBBY", "address": {"city": "BUFFALO", "state": "MN", "street": "209 CENTRAL AVE", "postcode": "55313"}}},
{"geometry": {"type": "Point", "coordinates": [-94.6170697441, 44.7365193189]}, "type": "Feature", "properties": {"collection_times": [{"days": "Mon-Fri", "time": "2:30pm"}, {"days": "Sat", "time": "10:15am"}, {"days": "Sun", "time": "Closed"}], "id": "5531400001", "name": "USPS COLLECTION BOX - BLUE BOX", "address": {"city": "BUFFALO LAKE", "state": "MN", "street": "146 N MAIN ST", "postcode": "55314"}}},
{"geometry": {"type": "Point", "coordinates": [-94.6170697441, 44.7365193189]}, "type": "Feature", "properties": {"collection_times": [{"days": "Mon-Fri", "time": "2:30pm"}, {"days": "Sat", "time": "10:15am"}, {"days": "Sun", "time": "Closed"}], "id": "5531400002", "name": "USPS COLLECTION BOX - PO LOBBY", "address": {"city": "BUFFALO LAKE", "state": "MN", "street": "146 N MAIN ST", "postcode": "55314"}}},
{"geometry": {"type": "Point", "coordinates": [-93.6253862955, 44.7633555927]}, "type": "Feature", "properties": {"collection_times": [{"days": "Mon-Fri", "time": "4:00pm"}, {"days": "Sat", "time": "9:30am"}, {"days": "Sun", "time": "Closed"}], "id": "5531500001", "name": "USPS COLLECTION BOX - BLUE BOX", "address": {"city": "CARVER", "state": "MN", "street": "317 BROADWAY", "postcode": "55315"}}},
{"geometry": {"type": "Point", "coordinates": [-93.6253862955, 44.7633555927]}, "type": "Feature", "properties": {"collection_times": [{"days": "Mon-Fri", "time": "4:00pm"}, {"days": "Sat", "time": "9:30am"}, {"days": "Sun", "time": "Closed"}], "id": "5531500002", "name": "USPS COLLECTION BOX - PO LOBBY", "address": {"city": "CARVER", "state": "MN", "street": "317 BROADWAY", "postcode": "55315"}}},
{"geometry": {"type": "Point", "coordinates": [-93.3924415649, 45.1843316507]}, "type": "Feature", "properties": {"collection_times": [{"days": "Mon-Sat", "time": "11:00am"}, {"days": "Sun", "time": "Closed"}], "id": "5531600001", "name": "USPS COLLECTION BOX - BLUE BOX", "address": {"city": "CHAMPLIN", "state": "MN", "street": "500 JEFFERSON HWY N", "postcode": "55316"}}},
{"geometry": {"type": "Point", "coordinates": [-93.3887258908, 45.159703628]}, "type": "Feature", "properties": {"collection_times": [{"days": "Mon-Sat", "time": "11:00am"}, {"days": "Sun", "time": "Closed"}], "id": "5531600003", "name": "USPS COLLECTION BOX - BLUE BOX", "address": {"city": "CHAMPLIN", "state": "MN", "street": "8600 114TH AVE N", "postcode": "55316"}}},
{"geometry": {"type": "Point", "coordinates": [-93.3384548667, 45.1524213326]}, "type": "Feature", "properties": {"collection_times": [{"days": "Mon-Sat", "time": "9:00am"}, {"days": "Sun", "time": "Closed"}], "id": "5531600006", "name": "USPS COLLECTION BOX - BLUE BOX", "address": {"city": "CHAMPLIN", "state": "MN", "street": "10917 W RIVER RD", "postcode": "55316"}}},
{"geometry": {"type": "Point", "coordinates": [-93.3807265053, 45.1654754321]}, "type": "Feature", "properties": {"collection_times": [{"days": "Mon-Sat", "time": "10:00am"}, {"days": "Sun", "time": "Closed"}], "id": "5531600007", "name": "USPS COLLECTION BOX - BLUE BOX", "address": {"city": "CHAMPLIN", "state": "MN", "street": "11660 WINNETKA AVE N", "postcode": "55316"}}},
{"geometry": {"type": "Point", "coordinates": [-93.3598616921, 45.1518558782]}, "type": "Feature", "properties": {"collection_times": [{"days": "Mon-Sat", "time": "11:00am"}, {"days": "Sun", "time": "Closed"}], "id": "5531600009", "name": "USPS COLLECTION BOX - BLUE BOX", "address": {"city": "CHAMPLIN", "state": "MN", "street": "6210 109TH AVE N", "postcode": "55316"}}},
{"geometry": {"type": "Point", "coordinates": [-93.3926497657, 45.1762958104]}, "type": "Feature", "properties": {"collection_times": [{"days": "Mon-Fri", "time": "4:30pm"}, {"days": "Sat", "time": "3:00pm"}, {"days": "Sun", "time": "Closed"}], "id": "5531600010", "name": "USPS COLLECTION BOX - PO LOBBY", "address": {"city": "CHAMPLIN", "state": "MN", "street": "12299 CHAMPLIN DR", "postcode": "55316"}}},
{"geometry": {"type": "Point", "coordinates": [-93.3926497657, 45.1762958104]}, "type": "Feature", "properties": {"collection_times": [{"days": "Mon-Fri", "time": "5:00pm"}, {"days": "Sat", "time": "3:00pm"}, {"days": "Sun", "time": "Closed"}], "id": "5531600011", "name": "USPS COLLECTION BOX - BLUE BOX", "address": {"city": "CHAMPLIN", "state": "MN", "street": "12299 CHAMPLIN DR", "postcode": "55316"}}},
{"geometry": {"type": "Point", "coordinates": [-93.3906347758, 45.170389163]}, "type": "Feature", "properties": {"collection_times": [{"days": "Mon-Sat", "time": "12:00pm"}, {"days": "Sun", "time": "Closed"}], "id": "5531600012", "name": "USPS COLLECTION BOX - BLUE BOX", "address": {"city": "CHAMPLIN", "state": "MN", "street": "11301 DAYTON RD", "postcode": "55316"}}},
{"geometry": {"type": "Point", "coordinates": [-93.3926497657, 45.1762958104]}, "type": "Feature", "properties": {"collection_times": [{"days": "Mon-Fri", "time": "4:30pm"}, {"days": "Sat", "time": "3:00pm"}, {"days": "Sun", "time": "Closed"}], "id": "5531600013", "name": "USPS COLLECTION BOX - PO LOBBY", "address": {"city": "CHAMPLIN", "state": "MN", "street": "12299 CHAMPLIN DR", "postcode": "55316"}}},
{"geometry": {"type": "Point", "coordinates": [-93.3906347758, 45.170389163]}, "type": "Feature", "properties": {"collection_times": [{"days": "Mon-Sat", "time": "9:30am"}, {"days": "Sun", "time": "Closed"}], "id": "5531600015", "name": "USPS COLLECTION BOX - BLUE BOX", "address": {"city": "CHAMPLIN", "state": "MN", "street": "11101 ZEALAND AVE N", "postcode": "55316"}}},
{"geometry": {"type": "Point", "coordinates": [-93.5375057297, 44.8596935767]}, "type": "Feature", "properties": {"collection_times": [{"days": "Mon-Fri", "time": "3:30pm"}, {"days": "Sat", "time": "9:30am"}, {"days": "Sun", "time": "Closed"}], "id": "5531700003", "name": "USPS COLLECTION BOX - BLUE BOX", "address": {"city": "CHANHASSEN", "state": "MN", "street": "7900 MARKET BLVD", "postcode": "55317"}}},
{"geometry": {"type": "Point", "coordinates": [-93.5420196283, 44.8623455989]}, "type": "Feature", "properties": {"collection_times": [{"days": "Mon-Fri", "time": "3:30pm"}, {"days": "Sat", "time": "9:30am"}, {"days": "Sun", "time": "Closed"}], "id": "5531700004", "name": "USPS COLLECTION BOX - BLUE BOX", "address": {"city": "CHANHASSEN", "state": "MN", "street": "800 W 78TH ST", "postcode": "55317"}}},
{"geometry": {"type": "Point", "coordinates": [-93.5363260468, 44.8632623921]}, "type": "Feature", "properties": {"collection_times": [{"days": "Mon-Fri", "time": "4:45pm"}, {"days": "Sat", "time": "10:30am"}, {"days": "Sun", "time": "Closed"}], "id": "5531700009", "name": "USPS COLLECTION BOX - PO LOBBY", "address": {"city": "CHANHASSEN", "state": "MN", "street": "7730 LAREDO DR", "postcode": "55317"}}},
{"geometry": {"type": "Point", "coordinates": [-93.5363260468, 44.8632623921]}, "type": "Feature", "properties": {"collection_times": [{"days": "Mon-Fri", "time": "4:45pm"}, {"days": "Sat", "time": "12:00pm"}, {"days": "Sun", "time": "Closed"}], "id": "5531700010", "name": "USPS COLLECTION BOX - BLUE BOX", "address": {"city": "CHANHASSEN", "state": "MN", "street": "7730 LAREDO DR", "postcode": "55317"}}},
{"geometry": {"type": "Point", "coordinates": [-93.5363260468, 44.8632623921]}, "type": "Feature", "properties": {"collection_times": [{"days": "Mon-Fri", "time": "4:45pm"}, {"days": "Sat", "time": "12:00pm"}, {"days": "Sun", "time": "Closed"}], "id": "5531700011", "name": "USPS COLLECTION BOX - BLUE BOX", "address": {"city": "CHANHASSEN", "state": "MN", "street": "7730 LAREDO DR", "postcode": "55317"}}},
{"geometry": {"type": "Point", "coordinates": [-93.5150941822, 44.8603069925]}, "type": "Feature", "properties": {"collection_times": [{"days": "Mon-Fri", "time": "4:00pm"}, {"days": "Sat-Sun", "time": "Closed"}], "id": "5531700012", "name": "USPS COLLECTION BOX - BLUE BOX", "address": {"city": "CHANHASSEN", "state": "MN", "street": "18750 LAKE DR E", "postcode": "55317"}}},
{"geometry": {"type": "Point", "coordinates": [-93.5623428633, 44.8520041716]}, "type": "Feature", "properties": {"collection_times": [{"days": "Mon-Fri", "time": "4:00pm"}, {"days": "Sat-Sun", "time": "Closed"}], "id": "5531700013", "name": "USPS COLLECTION BOX - BLUE BOX", "address": {"city": "CHANHASSEN", "state": "MN", "street": "1600 LAKE DR W", "postcode": "55317"}}},
{"geometry": {"type": "Point", "coordinates": [-93.5513340854, 44.857474051]}, "type": "Feature", "properties": {"collection_times": [{"days": "Mon-Fri", "time": "3:00pm"}, {"days": "Sat", "time": "10:30am"}, {"days": "Sun", "time": "Closed"}], "id": "5531700014", "name": "USPS COLLECTION BOX - BLUE BOX", "address": {"city": "CHANHASSEN", "state": "MN", "street": "7755 CENTURY BLVD", "postcode": "55317"}}},
{"geometry": {"type": "Point", "coordinates": [-93.5719648914, 44.8613242272]}, "type": "Feature", "properties": {"collection_times": [{"days": "Mon-Fri", "time": "3:00pm"}, {"days": "Sat", "time": "10:00am"}, {"days": "Sun", "time": "Closed"}], "id": "5531700016", "name": "USPS COLLECTION BOX - BLUE BOX", "address": {"city": "CHANHASSEN", "state": "MN", "street": "7915 STONE CREEK DR", "postcode": "55317"}}},
{"geometry": {"type": "Point", "coordinates": [-93.5363260468, 44.8632623921]}, "type": "Feature", "properties": {"collection_times": [{"days": "Mon-Fri", "time": "4:45pm"}, {"days": "Sat", "time": "10:30am"}, {"days": "Sun", "time": "Closed"}], "id": "5531700017", "name": "USPS COLLECTION BOX - PO LOBBY", "address": {"city": "CHANHASSEN", "state": "MN", "street": "7730 LAREDO DR", "postcode": "55317"}}},
{"geometry": {"type": "Point", "coordinates": [-93.5115682395, 44.8624647256]}, "type": "Feature", "properties": {"collection_times": [{"days": "Mon-Fri", "time": "3:30pm"}, {"days": "Sat-Sun", "time": "Closed"}], "id": "5531700018", "name": "USPS COLLECTION BOX - BLUE BOX", "address": {"city": "CHANHASSEN", "state": "MN", "street": "7770 DELL RD", "postcode": "55317"}}},
{"geometry": {"type": "Point", "coordinates": [-93.5990230535, 44.7919242912]}, "type": "Feature", "properties": {"collection_times": [{"days": "Mon-Fri", "time": "11:00am"}, {"days": "Sat", "time": "10:30am"}, {"days": "Sun", "time": "Closed"}], "id": "5531800001", "name": "USPS COLLECTION BOX - BLUE BOX", "address": {"city": "CHASKA", "state": "MN", "street": "810 YELLOW BRICK RD", "postcode": "55318"}}},
{"geometry": {"type": "Point", "coordinates": [-93.5892859367, 44.8512198698]}, "type": "Feature", "properties": {"collection_times": [{"days": "Mon-Fri", "time": "4:00pm"}, {"days": "Sat-Sun", "time": "Closed"}], "id": "5531800005", "name": "USPS COLLECTION BOX - BLUE BOX", "address": {"city": "CHASKA", "state": "MN", "street": "4060 NOREX DR", "postcode": "55318"}}},
{"geometry": {"type": "Point", "coordinates": [-93.5799239995, 44.8411304128]}, "type": "Feature", "properties": {"collection_times": [{"days": "Mon-Fri", "time": "4:00pm"}, {"days": "Sat-Sun", "time": "Closed"}], "id": "5531800011", "name": "USPS COLLECTION BOX - BLUE BOX", "address": {"city": "CHASKA", "state": "MN", "street": "305 LAKE HAZELTINE DR", "postcode": "55318"}}},
{"geometry": {"type": "Point", "coordinates": [-93.5995197147, 44.8353516583]}, "type": "Feature", "properties": {"collection_times": [{"days": "Mon-Fri", "time": "4:00pm"}, {"days": "Sat-Sun", "time": "Closed"}], "id": "5531800015", "name": "USPS COLLECTION BOX - BLUE BOX", "address": {"city": "CHASKA", "state": "MN", "street": "1107 HAZELTINE BLVD", "postcode": "55318"}}},
{"geometry": {"type": "Point", "coordinates": [-93.6022890217, 44.7863854378]}, "type": "Feature", "properties": {"collection_times": [{"days": "Mon-Fri", "time": "5:00pm"}, {"days": "Sat", "time": "1:00pm"}, {"days": "Sun", "time": "Closed"}], "id": "5531800020", "name": "USPS COLLECTION BOX - BLUE BOX", "address": {"city": "CHASKA", "state": "MN", "street": "300 N PINE ST", "postcode": "55318"}}},
{"geometry": {"type": "Point", "coordinates": [-93.5954619645, 44.8357537028]}, "type": "Feature", "properties": {"collection_times": [{"days": "Mon-Fri", "time": "1:00pm"}, {"days": "Sat", "time": "11:00am"}, {"days": "Sun", "time": "Closed"}], "id": "5531800021", "name": "USPS COLLECTION BOX - BLUE BOX", "address": {"city": "CHASKA", "state": "MN", "street": "3317 LAKE SHORE CT", "postcode": "55318"}}},
{"geometry": {"type": "Point", "coordinates": [-93.5748905091, 44.838068915]}, "type": "Feature", "properties": {"collection_times": [{"days": "Mon-Fri", "time": "10:00am"}, {"days": "Sat", "time": "9:00am"}, {"days": "Sun", "time": "Closed"}], "id": "5531800023", "name": "USPS COLLECTION BOX - BLUE BOX", "address": {"city": "CHASKA", "state": "MN", "street": "1225 LAKEVIEW DR", "postcode": "55318"}}},
{"geometry": {"type": "Point", "coordinates": [-93.5845612073, 44.807827023]}, "type": "Feature", "properties": {"collection_times": [{"days": "Mon-Sat", "time": "12:00pm"}, {"days": "Sun", "time": "Closed"}], "id": "5531800024", "name": "USPS COLLECTION BOX - BLUE BOX", "address": {"city": "CHASKA", "state": "MN", "street": "1 KELLY RD", "postcode": "55318"}}},
{"geometry": {"type": "Point", "coordinates": [-93.5922037499, 44.8474582268]}, "type": "Feature", "properties": {"collection_times": [{"days": "Mon-Fri", "time": "4:00pm"}, {"days": "Sat-Sun", "time": "Closed"}], "id": "5531800026", "name": "USPS COLLECTION BOX - BLUE BOX", "address": {"city": "CHASKA", "state": "MN", "street": "119 N JONATHAN BLVD", "postcode": "55318"}}},
{"geometry": {"type": "Point", "coordinates": [-93.6022890217, 44.7863854378]}, "type": "Feature", "properties": {"collection_times": [{"days": "Mon-Fri", "time": "5:00pm"}, {"days": "Sat", "time": "1:00pm"}, {"days": "Sun", "time": "Closed"}], "id": "5531800028", "name": "USPS COLLECTION BOX - PO LOBBY", "address": {"city": "CHASKA", "state": "MN", "street": "300 N PINE ST", "postcode": "55318"}}},
{"geometry": {"type": "Point", "coordinates": [-93.5995761403, 44.828515473]}, "type": "Feature", "properties": {"collection_times": [{"days": "Mon-Fri", "time": "4:00pm"}, {"days": "Sat", "time": "10:00am"}, {"days": "Sun", "time": "Closed"}], "id": "5531800029", "name": "USPS COLLECTION BOX - BLUE BOX", "address": {"city": "CHASKA", "state": "MN", "street": "200 PIONEER TRL", "postcode": "55318"}}},
{"geometry": {"type": "Point", "coordinates": [-93.6387066805, 44.8109064015]}, "type": "Feature", "properties": {"collection_times": [{"days": "Mon-Fri", "time": "1:00pm"}, {"days": "Sat", "time": "11:00am"}, {"days": "Sun", "time": "Closed"}], "id": "5531800030", "name": "USPS COLLECTION BOX - BLUE BOX", "address": {"city": "CHASKA", "state": "MN", "street": "1 CITY HALL PLZ", "postcode": "55318"}}},
{"geometry": {"type": "Point", "coordinates": [-93.5932512152, 44.7886247791]}, "type": "Feature", "properties": {"collection_times": [{"days": "Mon-Sat", "time": "9:00am"}, {"days": "Sun", "time": "Closed"}], "id": "5531800031", "name": "USPS COLLECTION BOX - BLUE BOX", "address": {"city": "CHASKA", "state": "MN", "street": "600 E 4TH ST", "postcode": "55318"}}},
{"geometry": {"type": "Point", "coordinates": [-93.6042846734, 44.8042315568]}, "type": "Feature", "properties": {"collection_times": [{"days": "Mon-Fri", "time": "1:00pm"}, {"days": "Sat", "time": "10:00am"}, {"days": "Sun", "time": "Closed"}], "id": "5531800032", "name": "USPS COLLECTION BOX - BLUE BOX", "address": {"city": "CHASKA", "state": "MN", "street": "1465 WHITE OAK DR", "postcode": "55318"}}},
{"geometry": {"type": "Point", "coordinates": [-93.6016011412, 44.7888420782]}, "type": "Feature", "properties": {"collection_times": [{"days": "Mon-Fri", "time": "2:00pm"}, {"days": "Sat", "time": "10:00am"}, {"days": "Sun", "time": "Closed"}], "id": "5531800033", "name": "USPS COLLECTION BOX - BLUE BOX", "address": {"city": "CHASKA", "state": "MN", "street": "510 N CHESTNUT ST", "postcode": "55318"}}},
{"geometry": {"type": "Point", "coordinates": [-94.0019155476, 45.4430415805]}, "type": "Feature", "properties": {"collection_times": [{"days": "Mon-Fri", "time": "4:15pm"}, {"days": "Sat", "time": "11:15am"}, {"days": "Sun", "time": "Closed"}], "id": "5531900001", "name": "USPS COLLECTION BOX - BLUE BOX", "address": {"city": "CLEAR LAKE", "state": "MN", "street": "8698 MAIN AVE", "postcode": "55319"}}},
{"geometry": {"type": "Point", "coordinates": [-94.0019155476, 45.4430415805]}, "type": "Feature", "properties": {"collection_times": [{"days": "Mon-Fri", "time": "4:30pm"}, {"days": "Sat", "time": "11:15am"}, {"days": "Sun", "time": "Closed"}], "id": "5531900002", "name": "USPS COLLECTION BOX - PO LOBBY", "address": {"city": "CLEAR LAKE", "state": "MN", "street": "8698 MAIN AVE", "postcode": "55319"}}},
{"geometry": {"type": "Point", "coordinates": [-94.1349641528, 45.4091250894]}, "type": "Feature", "properties": {"collection_times": [{"days": "Mon-Fri", "time": "4:00pm"}, {"days": "Sat", "time": "9:45am"}, {"days": "Sun", "time": "Closed"}], "id": "5532000003", "name": "USPS COLLECTION BOX - BLUE BOX", "address": {"city": "CLEARWATER", "state": "MN", "street": "625 SMITH ST", "postcode": "55320"}}},
{"geometry": {"type": "Point", "coordinates": [-94.1349641528, 45.4091250894]}, "type": "Feature", "properties": {"collection_times": [{"days": "Mon-Fri", "time": "4:00pm"}, {"days": "Sat", "time": "9:45am"}, {"days": "Sun", "time": "Closed"}], "id": "5532000004", "name": "USPS COLLECTION BOX - PO LOBBY", "address": {"city": "CLEARWATER", "state": "MN", "street": "625 SMITH ST", "postcode": "55320"}}},
{"geometry": {"type": "Point", "coordinates": [-94.1349641528, 45.4091250894]}, "type": "Feature", "properties": {"collection_times": [{"days": "Mon-Fri", "time": "4:00pm"}, {"days": "Sat", "time": "9:45am"}, {"days": "Sun", "time": "Closed"}], "id": "5532000005", "name": "USPS COLLECTION BOX - PO LOBBY", "address": {"city": "CLEARWATER", "state": "MN", "street": "625 SMITH ST", "postcode": "55320"}}},
{"geometry": {"type": "Point", "coordinates": [-94.193689621, 45.0799505517]}, "type": "Feature", "properties": {"collection_times": [{"days": "Mon-Sat", "time": "11:00am"}, {"days": "Sun", "time": "Closed"}], "id": "5532100001", "name": "USPS COLLECTION BOX - BLUE BOX", "address": {"city": "COKATO", "state": "MN", "street": "310 COKATO ST W", "postcode": "55321"}}},
{"geometry": {"type": "Point", "coordinates": [-94.1942151502, 45.0828659646]}, "type": "Feature", "properties": {"collection_times": [{"days": "Mon-Sat", "time": "11:00am"}, {"days": "Sun", "time": "Closed"}], "id": "5532100002", "name": "USPS COLLECTION BOX - BLUE BOX", "address": {"city": "COKATO", "state": "MN", "street": "620 US HIGHWAY 12 SW", "postcode": "55321"}}},
{"geometry": {"type": "Point", "coordinates": [-94.1885204091, 45.0762194659]}, "type": "Feature", "properties": {"collection_times": [{"days": "Mon-Fri", "time": "4:45pm"}, {"days": "Sat", "time": "12:00pm"}, {"days": "Sun", "time": "Closed"}], "id": "5532100003", "name": "USPS COLLECTION BOX - BLUE BOX", "address": {"city": "COKATO", "state": "MN", "street": "190 3RD ST SE", "postcode": "55321"}}},
{"geometry": {"type": "Point", "coordinates": [-94.1885204091, 45.0762194659]}, "type": "Feature", "properties": {"collection_times": [{"days": "Mon-Fri", "time": "4:45pm"}, {"days": "Sat", "time": "12:00pm"}, {"days": "Sun", "time": "Closed"}], "id": "5532100004", "name": "USPS COLLECTION BOX - PO LOBBY", "address": {"city": "COKATO", "state": "MN", "street": "190 3RD ST SE", "postcode": "55321"}}},
{"geometry": {"type": "Point", "coordinates": [-94.1885204091, 45.0762194659]}, "type": "Feature", "properties": {"collection_times": [{"days": "Mon-Fri", "time": "4:45pm"}, {"days": "Sat", "time": "12:00pm"}, {"days": "Sun", "time": "Closed"}], "id": "5532100005", "name": "USPS COLLECTION BOX - BLUE BOX", "address": {"city": "COKATO", "state": "MN", "street": "190 3RD ST SE", "postcode": "55321"}}},
{"geometry": {"type": "Point", "coordinates": [-93.7813827838, 44.766537455]}, "type": "Feature", "properties": {"collection_times": [{"days": "Mon-Fri", "time": "3:45pm"}, {"days": "Sat", "time": "9:15am"}, {"days": "Sun", "time": "Closed"}], "id": "5532200001", "name": "USPS COLLECTION BOX - BLUE BOX", "address": {"city": "COLOGNE", "state": "MN", "street": "509 PAUL AVE S", "postcode": "55322"}}},
{"geometry": {"type": "Point", "coordinates": [-93.7813827838, 44.766537455]}, "type": "Feature", "properties": {"collection_times": [{"days": "Mon-Fri", "time": "3:45pm"}, {"days": "Sat", "time": "9:15am"}, {"days": "Sun", "time": "Closed"}], "id": "5532200002", "name": "USPS COLLECTION BOX - PO LOBBY", "address": {"city": "COLOGNE", "state": "MN", "street": "509 PAUL AVE S", "postcode": "55322"}}},
{"geometry": {"type": "Point", "coordinates": [-93.575299887, 44.9866589283]}, "type": "Feature", "properties": {"collection_times": [{"days": "Mon-Fri", "time": "4:30pm"}, {"days": "Sat", "time": "10:30am"}, {"days": "Sun", "time": "Closed"}], "id": "5532300001", "name": "USPS COLLECTION BOX - BLUE BOX", "address": {"city": "CRYSTAL BAY", "state": "MN", "street": "1355 BROWN RD S", "postcode": "55323"}}},
{"geometry": {"type": "Point", "coordinates": [-93.575299887, 44.9866589283]}, "type": "Feature", "properties": {"collection_times": [{"days": "Mon-Fri", "time": "4:30pm"}, {"days": "Sat", "time": "10:30am"}, {"days": "Sun", "time": "Closed"}], "id": "5532300002", "name": "USPS COLLECTION BOX - PO LOBBY", "address": {"city": "CRYSTAL BAY", "state": "MN", "street": "1355 BROWN RD S", "postcode": "55323"}}},
{"geometry": {"type": "Point", "coordinates": [-94.4103841413, 45.0962201328]}, "type": "Feature", "properties": {"collection_times": [{"days": "Mon-Fri", "time": "3:30pm"}, {"days": "Sat", "time": "8:45am"}, {"days": "Sun", "time": "Closed"}], "id": "5532400001", "name": "USPS COLLECTION BOX - BLUE BOX", "address": {"city": "DARWIN", "state": "MN", "street": "321 N 1ST ST", "postcode": "55324"}}},
{"geometry": {"type": "Point", "coordinates": [-94.4103841413, 45.0962201328]}, "type": "Feature", "properties": {"collection_times": [{"days": "Mon-Fri", "time": "3:30pm"}, {"days": "Sat", "time": "8:45am"}, {"days": "Sun", "time": "Closed"}], "id": "5532400002", "name": "USPS COLLECTION BOX - PO LOBBY", "address": {"city": "DARWIN", "state": "MN", "street": "321 N 1ST ST", "postcode": "55324"}}},
{"geometry": {"type": "Point", "coordinates": [-94.3083089008, 45.0813159037]}, "type": "Feature", "properties": {"collection_times": [{"days": "Mon-Fri", "time": "4:30pm"}, {"days": "Sat", "time": "10:00am"}, {"days": "Sun", "time": "Closed"}], "id": "5532500001", "name": "USPS COLLECTION BOX - BLUE BOX", "address": {"city": "DASSEL", "state": "MN", "street": "501 2ND ST N", "postcode": "55325"}}},
{"geometry": {"type": "Point", "coordinates": [-94.3083089008, 45.0813159037]}, "type": "Feature", "properties": {"collection_times": [{"days": "Mon-Fri", "time": "4:45pm"}, {"days": "Sat", "time": "10:00am"}, {"days": "Sun", "time": "Closed"}], "id": "5532500002", "name": "USPS COLLECTION BOX - PO LOBBY", "address": {"city": "DASSEL", "state": "MN", "street": "501 2ND ST N", "postcode": "55325"}}},
{"geometry": {"type": "Point", "coordinates": [-93.5171664329, 45.2440848962]}, "type": "Feature", "properties": {"collection_times": [{"days": "Mon-Fri", "time": "4:15pm"}, {"days": "Sat", "time": "10:00am"}, {"days": "Sun", "time": "Closed"}], "id": "5532700002", "name": "USPS COLLECTION BOX - BLUE BOX", "address": {"city": "DAYTON", "state": "MN", "street": "18511 ROBINSON ST", "postcode": "55327"}}},
{"geometry": {"type": "Point", "coordinates": [-93.5171664329, 45.2440848962]}, "type": "Feature", "properties": {"collection_times": [{"days": "Mon-Fri", "time": "4:15pm"}, {"days": "Sat", "time": "10:00am"}, {"days": "Sun", "time": "Closed"}], "id": "5532700003", "name": "USPS COLLECTION BOX - PO LOBBY", "address": {"city": "DAYTON", "state": "MN", "street": "18511 ROBINSON ST", "postcode": "55327"}}},
{"geometry": {"type": "Point", "coordinates": [-93.789280972, 45.0407176877]}, "type": "Feature", "properties": {"collection_times": [{"days": "Mon-Fri", "time": "4:45pm"}, {"days": "Sat", "time": "12:30pm"}, {"days": "Sun", "time": "Closed"}], "id": "5532800001", "name": "USPS COLLECTION BOX - BLUE BOX", "address": {"city": "DELANO", "state": "MN", "street": "100 RIVER ST N", "postcode": "55328"}}},
{"geometry": {"type": "Point", "coordinates": [-93.7908739739, 45.0351841844]}, "type": "Feature", "properties": {"collection_times": [{"days": "Mon-Sat", "time": "9:15am"}, {"days": "Sun", "time": "Closed"}], "id": "5532800002", "name": "USPS COLLECTION BOX - BLUE BOX", "address": {"city": "DELANO", "state": "MN", "street": "403 RIVER RD W", "postcode": "55328"}}},
{"geometry": {"type": "Point", "coordinates": [-93.7669390182, 45.0334757197]}, "type": "Feature", "properties": {"collection_times": [{"days": "Mon-Sat", "time": "9:00am"}, {"days": "Sun", "time": "Closed"}], "id": "5532800003", "name": "USPS COLLECTION BOX - BLUE BOX", "address": {"city": "DELANO", "state": "MN", "street": "8045 COUNTY LINE RD SE", "postcode": "55328"}}},
{"geometry": {"type": "Point", "coordinates": [-93.789280972, 45.0407176877]}, "type": "Feature", "properties": {"collection_times": [{"days": "Mon-Fri", "time": "4:45pm"}, {"days": "Sat", "time": "10:00am"}, {"days": "Sun", "time": "Closed"}], "id": "5532800004", "name": "USPS COLLECTION BOX - PO LOBBY", "address": {"city": "DELANO", "state": "MN", "street": "100 RIVER ST N", "postcode": "55328"}}},
{"geometry": {"type": "Point", "coordinates": [-93.789280972, 45.0407176877]}, "type": "Feature", "properties": {"collection_times": [{"days": "Mon-Fri", "time": "4:45pm"}, {"days": "Sat", "time": "12:30pm"}, {"days": "Sun", "time": "Closed"}], "id": "5532800005", "name": "USPS COLLECTION BOX - BLUE BOX", "address": {"city": "DELANO", "state": "MN", "street": "100 RIVER ST N", "postcode": "55328"}}},
{"geometry": {"type": "Point", "coordinates": [-93.7710027639, 45.0356104364]}, "type": "Feature", "properties": {"collection_times": [{"days": "Mon-Sat", "time": "9:00am"}, {"days": "Sun", "time": "Closed"}], "id": "5532800006", "name": "USPS COLLECTION BOX - BLUE BOX", "address": {"city": "DELANO", "state": "MN", "street": "1314 BABCOCK BLVD E", "postcode": "55328"}}},
{"geometry": {"type": "Point", "coordinates": [-94.5479002328, 45.325485659]}, "type": "Feature", "properties": {"collection_times": [{"days": "Mon-Fri", "time": "3:00pm"}, {"days": "Sat", "time": "11:00am"}, {"days": "Sun", "time": "Closed"}], "id": "5532900002", "name": "USPS COLLECTION BOX - BLUE BOX", "address": {"city": "EDEN VALLEY", "state": "MN", "street": "378 CHURCH ST N", "postcode": "55329"}}},
{"geometry": {"type": "Point", "coordinates": [-94.5479002328, 45.325485659]}, "type": "Feature", "properties": {"collection_times": [{"days": "Mon-Fri", "time": "3:00pm"}, {"days": "Sat", "time": "11:00am"}, {"days": "Sun", "time": "Closed"}], "id": "5532900003", "name": "USPS COLLECTION BOX - PO LOBBY", "address": {"city": "EDEN VALLEY", "state": "MN", "street": "378 CHURCH ST N", "postcode": "55329"}}},
{"geometry": {"type": "Point", "coordinates": [-93.5621157375, 45.3168798956]}, "type": "Feature", "properties": {"collection_times": [{"days": "Mon-Fri", "time": "5:00pm"}, {"days": "Sat", "time": "12:00pm"}, {"days": "Sun", "time": "Closed"}], "id": "5533000001", "name": "USPS COLLECTION BOX - BLUE BOX", "address": {"city": "OTSEGO", "state": "MN", "street": "19120 FREEPORT ST NW", "postcode": "55330"}}},
{"geometry": {"type": "Point", "coordinates": [-93.5567744703, 45.314979801]}, "type": "Feature", "properties": {"collection_times": [{"days": "Mon-Fri", "time": "1:00pm"}, {"days": "Sat", "time": "11:00am"}, {"days": "Sun", "time": "Closed"}], "id": "5533000003", "name": "USPS COLLECTION BOX - BLUE BOX", "address": {"city": "OTSEGO", "state": "MN", "street": "710 DODGE AVE NW", "postcode": "55330"}}},
{"geometry": {"type": "Point", "coordinates": [-93.5773070994, 45.3136576072]}, "type": "Feature", "properties": {"collection_times": [{"days": "Mon-Sat", "time": "2:00pm"}, {"days": "Sun", "time": "Closed"}], "id": "5533000005", "name": "USPS COLLECTION BOX - BLUE BOX", "address": {"city": "OTSEGO", "state": "MN", "street": "19140 FREEPORT ST NW", "postcode": "55330"}}},
{"geometry": {"type": "Point", "coordinates": [-93.5640602017, 45.2816272538]}, "type": "Feature", "properties": {"collection_times": [{"days": "Mon-Sat", "time": "10:00am"}, {"days": "Sun", "time": "Closed"}], "id": "5533000008", "name": "USPS COLLECTION BOX - BLUE BOX", "address": {"city": "OTSEGO", "state": "MN", "street": "9025 QUADAY AVE NE", "postcode": "55330"}}},
{"geometry": {"type": "Point", "coordinates": [-93.5672837728, 45.3032391728]}, "type": "Feature", "properties": {"collection_times": [{"days": "Mon-Fri", "time": "2:30pm"}, {"days": "Sat", "time": "11:00am"}, {"days": "Sun", "time": "Closed"}], "id": "5533000011", "name": "USPS COLLECTION BOX - BLUE BOX", "address": {"city": "OTSEGO", "state": "MN", "street": "305 JACKSON AVE NW", "postcode": "55330"}}},
{"geometry": {"type": "Point", "coordinates": [-93.5531756747, 45.30738463]}, "type": "Feature", "properties": {"collection_times": [{"days": "Mon-Sat", "time": "1:00pm"}, {"days": "Sun", "time": "Closed"}], "id": "5533000012", "name": "USPS COLLECTION BOX - BLUE BOX", "address": {"city": "OTSEGO", "state": "MN", "street": "548 AUBURN PL NW", "postcode": "55330"}}},
{"geometry": {"type": "Point", "coordinates": [-93.5609839882, 45.3243946304]}, "type": "Feature", "properties": {"collection_times": [{"days": "Mon-Sat", "time": "1:00pm"}, {"days": "Sun", "time": "Closed"}], "id": "5533000016", "name": "USPS COLLECTION BOX - BLUE BOX", "address": {"city": "OTSEGO", "state": "MN", "street": "19424 EVANS ST NW", "postcode": "55330"}}},
{"geometry": {"type": "Point", "coordinates": [-93.5623739992, 45.3190018112]}, "type": "Feature", "properties": {"collection_times": [{"days": "Mon-Sat", "time": "2:00pm"}, {"days": "Sun", "time": "Closed"}], "id": "5533000017", "name": "USPS COLLECTION BOX - BLUE BOX", "address": {"city": "OTSEGO", "state": "MN", "street": "19216 FREEPORT ST NW", "postcode": "55330"}}},
{"geometry": {"type": "Point", "coordinates": [-93.5621157375, 45.3168798956]}, "type": "Feature", "properties": {"collection_times": [{"days": "Mon-Fri", "time": "5:00pm"}, {"days": "Sat", "time": "12:00pm"}, {"days": "Sun", "time": "Closed"}], "id": "5533000018", "name": "USPS COLLECTION BOX - PO LOBBY", "address": {"city": "OTSEGO", "state": "MN", "street": "19120 FREEPORT ST NW", "postcode": "55330"}}},
{"geometry": {"type": "Point", "coordinates": [-93.6083698906, 45.3067995705]}, "type": "Feature", "properties": {"collection_times": [{"days": "Mon-Sat", "time": "10:30am"}, {"days": "Sun", "time": "Closed"}], "id": "5533000019", "name": "USPS COLLECTION BOX - BLUE BOX", "address": {"city": "OTSEGO", "state": "MN", "street": "13374 HIGHWAY 10", "postcode": "55330"}}},
{"geometry": {"type": "Point", "coordinates": [-93.5621157375, 45.3168798956]}, "type": "Feature", "properties": {"collection_times": [{"days": "Mon-Fri", "time": "5:00pm"}, {"days": "Sat", "time": "12:00pm"}, {"days": "Sun", "time": "Closed"}], "id": "5533000023", "name": "USPS COLLECTION BOX - BLUE BOX", "address": {"city": "OTSEGO", "state": "MN", "street": "19120 FREEPORT ST NW", "postcode": "55330"}}},
{"geometry": {"type": "Point", "coordinates": [-93.577483413, 45.3079663513]}, "type": "Feature", "properties": {"collection_times": [{"days": "Mon-Sat", "time": "9:30am"}, {"days": "Sun", "time": "Closed"}], "id": "5533000024", "name": "USPS COLLECTION BOX - BLUE BOX", "address": {"city": "OTSEGO", "state": "MN", "street": "610 PROCTOR AVE NW", "postcode": "55330"}}},
{"geometry": {"type": "Point", "coordinates": [-93.59962, 45.30347]}, "type": "Feature", "properties": {"collection_times": [{"days": "Mon-Sat", "time": "1:00pm"}, {"days": "Sun", "time": "Closed"}], "id": "5533000027", "name": "USPS COLLECTION BOX - BLUE BOX", "address": {"city": "OTSEGO", "state": "MN", "street": "13065 ORONO PKWY NW", "postcode": "55330"}}},
{"geometry": {"type": "Point", "coordinates": [-93.5719553591, 45.3325618267]}, "type": "Feature", "properties": {"collection_times": [{"days": "Mon-Sat", "time": "1:00pm"}, {"days": "Sun", "time": "Closed"}], "id": "5533000028", "name": "USPS COLLECTION BOX - BLUE BOX", "address": {"city": "OTSEGO", "state": "MN", "street": "15800 87TH ST NE", "postcode": "55330"}}},
{"geometry": {"type": "Point", "coordinates": [-93.5519243158, 45.3007221369]}, "type": "Feature", "properties": {"collection_times": [{"days": "Mon-Sat", "time": "1:00pm"}, {"days": "Sun", "time": "Closed"}], "id": "5533000029", "name": "USPS COLLECTION BOX - BLUE BOX", "address": {"city": "OTSEGO", "state": "MN", "street": "18185 ZANE ST NW", "postcode": "55330"}}},
{"geometry": {"type": "Point", "coordinates": [-93.5648258209, 45.3041724852]}, "type": "Feature", "properties": {"collection_times": [{"days": "Mon-Fri", "time": "5:00pm"}, {"days": "Sat", "time": "3:45pm"}, {"days": "Sun", "time": "Closed"}], "id": "5533000030", "name": "USPS COLLECTION BOX - BLUE BOX", "address": {"city": "OTSEGO", "state": "MN", "street": "560 3RD ST NW", "postcode": "55330"}}},
{"geometry": {"type": "Point", "coordinates": [-93.5621157375, 45.3168798956]}, "type": "Feature", "properties": {"collection_times": [{"days": "Mon-Fri", "time": "5:00pm"}, {"days": "Sat", "time": "12:00pm"}, {"days": "Sun", "time": "Closed"}], "id": "5533000031", "name": "USPS COLLECTION BOX - APC", "address": {"city": "OTSEGO", "state": "MN", "street": "19120 FREEPORT ST NW", "postcode": "55330"}}},
{"geometry": {"type": "Point", "coordinates": [-93.476388128, 45.3280867971]}, "type": "Feature", "properties": {"collection_times": [{"days": "Mon-Sat", "time": "10:00am"}, {"days": "Sun", "time": "Closed"}], "id": "5533000033", "name": "USPS COLLECTION BOX - BLUE BOX", "address": {"city": "OTSEGO", "state": "MN", "street": "8141 VIKING BLVD NW", "postcode": "55330"}}},
{"geometry": {"type": "Point", "coordinates": [-93.5636086294, 44.902297672]}, "type": "Feature", "properties": {"collection_times": [{"days": "Mon-Fri", "time": "5:00pm"}, {"days": "Sat", "time": "12:00pm"}, {"days": "Sun", "time": "Closed"}], "id": "5533100001", "name": "USPS COLLECTION BOX - BLUE BOX", "address": {"city": "EXCELSIOR", "state": "MN", "street": "545 2ND ST", "postcode": "55331"}}},
{"geometry": {"type": "Point", "coordinates": [-93.5385322653, 44.9234619908]}, "type": "Feature", "properties": {"collection_times": [{"days": "Mon-Sat", "time": "11:00am"}, {"days": "Sun", "time": "Closed"}], "id": "5533100002", "name": "USPS COLLECTION BOX - BLUE BOX", "address": {"city": "EXCELSIOR", "state": "MN", "street": "20225 COTTAGEWOOD LN", "postcode": "55331"}}},
{"geometry": {"type": "Point", "coordinates": [-93.5314889276, 44.908179344]}, "type": "Feature", "properties": {"collection_times": [{"days": "Mon-Sat", "time": "10:30am"}, {"days": "Sun", "time": "Closed"}], "id": "5533100003", "name": "USPS COLLECTION BOX - BLUE BOX", "address": {"city": "EXCELSIOR", "state": "MN", "street": "19905 HIGHWAY 7", "postcode": "55331"}}},
{"geometry": {"type": "Point", "coordinates": [-93.5675916523, 44.902068178]}, "type": "Feature", "properties": {"collection_times": [{"days": "Mon-Fri", "time": "1:00pm"}, {"days": "Sat", "time": "12:00pm"}, {"days": "Sun", "time": "Closed"}], "id": "5533100009", "name": "USPS COLLECTION BOX - BLUE BOX", "address": {"city": "EXCELSIOR", "state": "MN", "street": "300 WATER ST", "postcode": "55331"}}},
{"geometry": {"type": "Point", "coordinates": [-93.6068157401, 44.8979976812]}, "type": "Feature", "properties": {"collection_times": [{"days": "Mon-Sat", "time": "9:30am"}, {"days": "Sun", "time": "Closed"}], "id": "5533100010", "name": "USPS COLLECTION BOX - BLUE BOX", "address": {"city": "EXCELSIOR", "state": "MN", "street": "26730 HIGHWAY 7", "postcode": "55331"}}},
{"geometry": {"type": "Point", "coordinates": [-93.5636086294, 44.902297672]}, "type": "Feature", "properties": {"collection_times": [{"days": "Mon-Fri", "time": "5:00pm"}, {"days": "Sat", "time": "12:00pm"}, {"days": "Sun", "time": "Closed"}], "id": "5533100013", "name": "USPS COLLECTION BOX - PO LOBBY", "address": {"city": "EXCELSIOR", "state": "MN", "street": "545 2ND ST", "postcode": "55331"}}},
{"geometry": {"type": "Point", "coordinates": [-94.7208340066, 44.52739832]}, "type": "Feature", "properties": {"collection_times": [{"days": "Mon-Fri", "time": "2:30pm"}, {"days": "Sat", "time": "11:30am"}, {"days": "Sun", "time": "Closed"}], "id": "5533200001", "name": "USPS COLLECTION BOX - BLUE BOX", "address": {"city": "FAIRFAX", "state": "MN", "street": "137 PARK ST S", "postcode": "55332"}}},
{"geometry": {"type": "Point", "coordinates": [-94.7208340066, 44.52739832]}, "type": "Feature", "properties": {"collection_times": [{"days": "Mon-Fri", "time": "2:30pm"}, {"days": "Sat", "time": "11:30am"}, {"days": "Sun", "time": "Closed"}], "id": "5533200002", "name": "USPS COLLECTION BOX - PO LOBBY", "address": {"city": "FAIRFAX", "state": "MN", "street": "137 PARK ST S", "postcode": "55332"}}},
{"geometry": {"type": "Point", "coordinates": [-94.722131477, 44.5289513269]}, "type": "Feature", "properties": {"collection_times": [{"days": "Mon-Fri", "time": "1:00pm"}, {"days": "Sat-Sun", "time": "Closed"}], "id": "5533200003", "name": "USPS COLLECTION BOX - BLUE BOX", "address": {"city": "FAIRFAX", "state": "MN", "street": "111 LINCOLN AVE W", "postcode": "55332"}}},
{"geometry": {"type": "Point", "coordinates": [-94.8829434732, 44.5298641536]}, "type": "Feature", "properties": {"collection_times": [{"days": "Mon-Fri", "time": "2:00pm"}, {"days": "Sat", "time": "9:30am"}, {"days": "Sun", "time": "Closed"}], "id": "5533300001", "name": "USPS COLLECTION BOX - BLUE BOX", "address": {"city": "FRANKLIN", "state": "MN", "street": "265 2ND AVE E", "postcode": "55333"}}},
{"geometry": {"type": "Point", "coordinates": [-94.8829434732, 44.5298641536]}, "type": "Feature", "properties": {"collection_times": [{"days": "Mon-Fri", "time": "2:00pm"}, {"days": "Sat-Sun", "time": "Closed"}], "id": "5533300002", "name": "USPS COLLECTION BOX - PO LOBBY", "address": {"city": "FRANKLIN", "state": "MN", "street": "265 2ND AVE E", "postcode": "55333"}}},
{"geometry": {"type": "Point", "coordinates": [-94.2194099768, 44.5528394648]}, "type": "Feature", "properties": {"collection_times": [{"days": "Mon-Fri", "time": "3:30pm"}, {"days": "Sat", "time": "9:15am"}, {"days": "Sun", "time": "Closed"}], "id": "5533400001", "name": "USPS COLLECTION BOX - BLUE BOX", "address": {"city": "GAYLORD", "state": "MN", "street": "311 MAIN AVE", "postcode": "55334"}}},
{"geometry": {"type": "Point", "coordinates": [-94.2194099768, 44.5528394648]}, "type": "Feature", "properties": {"collection_times": [{"days": "Mon-Fri", "time": "3:30pm"}, {"days": "Sat", "time": "9:15am"}, {"days": "Sun", "time": "Closed"}], "id": "5533400002", "name": "USPS COLLECTION BOX - PO LOBBY", "address": {"city": "GAYLORD", "state": "MN", "street": "311 MAIN AVE", "postcode": "55334"}}},
{"geometry": {"type": "Point", "coordinates": [-94.2194099768, 44.5528394648]}, "type": "Feature", "properties": {"collection_times": [{"days": "Mon-Fri", "time": "3:30pm"}, {"days": "Sat", "time": "9:15am"}, {"days": "Sun", "time": "Closed"}], "id": "5533400003", "name": "USPS COLLECTION BOX - BLUE BOX", "address": {"city": "GAYLORD", "state": "MN", "street": "311 MAIN AVE", "postcode": "55334"}}},
{"geometry": {"type": "Point", "coordinates": [-94.5266435375, 44.5334186232]}, "type": "Feature", "properties": {"collection_times": [{"days": "Mon-Fri", "time": "2:45pm"}, {"days": "Sat", "time": "10:00am"}, {"days": "Sun", "time": "Closed"}], "id": "5533500001", "name": "USPS COLLECTION BOX - BLUE BOX", "address": {"city": "GIBBON", "state": "MN", "street": "1070 1ST AVE", "postcode": "55335"}}},
{"geometry": {"type": "Point", "coordinates": [-94.5266435375, 44.5334186232]}, "type": "Feature", "properties": {"collection_times": [{"days": "Mon-Fri", "time": "2:45pm"}, {"days": "Sat", "time": "10:00am"}, {"days": "Sun", "time": "Closed"}], "id": "5533500003", "name": "USPS COLLECTION BOX - PO LOBBY", "address": {"city": "GIBBON", "state": "MN", "street": "1070 1ST AVE", "postcode": "55335"}}},
{"geometry": {"type": "Point", "coordinates": [-94.1502952711, 44.7701307007]}, "type": "Feature", "properties": {"collection_times": [{"days": "Mon-Fri", "time": "5:00pm"}, {"days": "Sat", "time": "10:00am"}, {"days": "Sun", "time": "Closed"}], "id": "5533600001", "name": "USPS COLLECTION BOX - BLUE BOX", "address": {"city": "GLENCOE", "state": "MN", "street": "905 11TH ST E", "postcode": "55336"}}},
{"geometry": {"type": "Point", "coordinates": [-94.1539962189, 44.768979436]}, "type": "Feature", "properties": {"collection_times": [{"days": "Mon-Fri", "time": "3:30pm"}, {"days": "Sat", "time": "10:00am"}, {"days": "Sun", "time": "Closed"}], "id": "5533600002", "name": "USPS COLLECTION BOX - BLUE BOX", "address": {"city": "GLENCOE", "state": "MN", "street": "630 10TH ST E", "postcode": "55336"}}},
{"geometry": {"type": "Point", "coordinates": [-94.1327516855, 44.7703114284]}, "type": "Feature", "properties": {"collection_times": [{"days": "Mon-Fri", "time": "3:30pm"}, {"days": "Sat", "time": "10:00am"}, {"days": "Sun", "time": "Closed"}], "id": "5533600004", "name": "USPS COLLECTION BOX - BLUE BOX", "address": {"city": "GLENCOE", "state": "MN", "street": "2211 11TH ST E", "postcode": "55336"}}},
{"geometry": {"type": "Point", "coordinates": [-94.1502952711, 44.7701307007]}, "type": "Feature", "properties": {"collection_times": [{"days": "Mon-Fri", "time": "4:45pm"}, {"days": "Sat", "time": "10:00am"}, {"days": "Sun", "time": "Closed"}], "id": "5533600012", "name": "USPS COLLECTION BOX - PO LOBBY", "address": {"city": "GLENCOE", "state": "MN", "street": "905 11TH ST E", "postcode": "55336"}}},
{"geometry": {"type": "Point", "coordinates": [-94.1502952711, 44.7701307007]}, "type": "Feature", "properties": {"collection_times": [{"days": "Mon-Fri", "time": "5:00pm"}, {"days": "Sat", "time": "10:00am"}, {"days": "Sun", "time": "Closed"}], "id": "5533600013", "name": "USPS COLLECTION BOX - BLUE BOX", "address": {"city": "GLENCOE", "state": "MN", "street": "905 11TH ST E", "postcode": "55336"}}},
{"geometry": {"type": "Point", "coordinates": [-93.3124971981, 44.7464026078]}, "type": "Feature", "properties": {"collection_times": [{"days": "Mon-Fri", "time": "3:00pm"}, {"days": "Sat", "time": "9:00am"}, {"days": "Sun", "time": "Closed"}], "id": "5533700022", "name": "USPS COLLECTION BOX - BLUE BOX", "address": {"city": "BURNSVILLE", "state": "MN", "street": "2500 COUNTY ROAD 42 W", "postcode": "55337"}}},
{"geometry": {"type": "Point", "coordinates": [-93.2787764358, 44.7800497605]}, "type": "Feature", "properties": {"collection_times": [{"days": "Mon-Fri", "time": "4:15pm"}, {"days": "Sat", "time": "10:00am"}, {"days": "Sun", "time": "Closed"}], "id": "5533700029", "name": "USPS COLLECTION BOX - BLUE BOX", "address": {"city": "BURNSVILLE", "state": "MN", "street": "12281 NICOLLET AVE", "postcode": "55337"}}},
{"geometry": {"type": "Point", "coordinates": [-93.2829167404, 44.7740496476]}, "type": "Feature", "properties": {"collection_times": [{"days": "Mon-Fri", "time": "3:00pm"}, {"days": "Sat", "time": "9:00am"}, {"days": "Sun", "time": "Closed"}], "id": "5533700033", "name": "USPS COLLECTION BOX - BLUE BOX", "address": {"city": "BURNSVILLE", "state": "MN", "street": "12600 PLEASANT AVE", "postcode": "55337"}}},
{"geometry": {"type": "Point", "coordinates": [-93.2458997374, 44.7885586085]}, "type": "Feature", "properties": {"collection_times": [{"days": "Mon-Sat", "time": "10:30am"}, {"days": "Sun", "time": "Closed"}], "id": "5533700039", "name": "USPS COLLECTION BOX - BLUE BOX", "address": {"city": "BURNSVILLE", "state": "MN", "street": "1900 HIGHWAY 13 E", "postcode": "55337"}}},
{"geometry": {"type": "Point", "coordinates": [-93.2681575302, 44.7795432032]}, "type": "Feature", "properties": {"collection_times": [{"days": "Mon-Fri", "time": "3:00pm"}, {"days": "Sat", "time": "1:00pm"}, {"days": "Sun", "time": "Closed"}], "id": "5533700048", "name": "USPS COLLECTION BOX - BLUE BOX", "address": {"city": "BURNSVILLE", "state": "MN", "street": "500 E TRAVELERS TRL", "postcode": "55337"}}},
{"geometry": {"type": "Point", "coordinates": [-93.26020568, 44.7388671592]}, "type": "Feature", "properties": {"collection_times": [{"days": "Mon-Fri", "time": "4:15pm"}, {"days": "Sat", "time": "11:00am"}, {"days": "Sun", "time": "Closed"}], "id": "5533700049", "name": "USPS COLLECTION BOX - BLUE BOX", "address": {"city": "BURNSVILLE", "state": "MN", "street": "1020 E 146TH ST", "postcode": "55337"}}},
{"geometry": {"type": "Point", "coordinates": [-93.283960679, 44.7698973558]}, "type": "Feature", "properties": {"collection_times": [{"days": "Mon-Fri", "time": "3:00pm"}, {"days": "Sat", "time": "10:00am"}, {"days": "Sun", "time": "Closed"}], "id": "5533700052", "name": "USPS COLLECTION BOX - BLUE BOX", "address": {"city": "BURNSVILLE", "state": "MN", "street": "301 W BURNSVILLE PKWY", "postcode": "55337"}}},
{"geometry": {"type": "Point", "coordinates": [-93.2581575762, 44.7386482379]}, "type": "Feature", "properties": {"collection_times": [{"days": "Mon-Fri", "time": "4:00pm"}, {"days": "Sat", "time": "1:00pm"}, {"days": "Sun", "time": "Closed"}], "id": "5533700053", "name": "USPS COLLECTION BOX - BLUE BOX", "address": {"city": "BURNSVILLE", "state": "MN", "street": "14601 COUNTY ROAD 11", "postcode": "55337"}}},
{"geometry": {"type": "Point", "coordinates": [-93.3050214443, 44.7727573429]}, "type": "Feature", "properties": {"collection_times": [{"days": "Mon-Sat", "time": "1:00pm"}, {"days": "Sun", "time": "Closed"}], "id": "5533700054", "name": "USPS COLLECTION BOX - BLUE BOX", "address": {"city": "BURNSVILLE", "state": "MN", "street": "12700 COUNTY ROAD 5", "postcode": "55337"}}},
{"geometry": {"type": "Point", "coordinates": [-93.2753401269, 44.7662663129]}, "type": "Feature", "properties": {"collection_times": [{"days": "Mon-Fri", "time": "4:30pm"}, {"days": "Sat-Sun", "time": "Closed"}], "id": "5533700074", "name": "USPS COLLECTION BOX - BLUE BOX", "address": {"city": "BURNSVILLE", "state": "MN", "street": "100 CIVIC CENTER PKWY", "postcode": "55337"}}},
{"geometry": {"type": "Point", "coordinates": [-93.2836576493, 44.7527240907]}, "type": "Feature", "properties": {"collection_times": [{"days": "Mon-Fri", "time": "5:45pm"}, {"days": "Sat", "time": "5:00pm"}, {"days": "Sun", "time": "Closed"}], "id": "5533700077", "name": "USPS COLLECTION BOX - BLUE BOX", "address": {"city": "BURNSVILLE", "state": "MN", "street": "13800 NICOLLET BLVD", "postcode": "55337"}}},
{"geometry": {"type": "Point", "coordinates": [-93.2836576493, 44.7527240907]}, "type": "Feature", "properties": {"collection_times": [{"days": "Mon-Fri", "time": "5:45pm"}, {"days": "Sat", "time": "5:00pm"}, {"days": "Sun", "time": "Closed"}], "id": "5533700085", "name": "USPS COLLECTION BOX - PO LOBBY", "address": {"city": "BURNSVILLE", "state": "MN", "street": "13800 NICOLLET BLVD", "postcode": "55337"}}},
{"geometry": {"type": "Point", "coordinates": [-93.2502995816, 44.7847872603]}, "type": "Feature", "properties": {"collection_times": [{"days": "Mon-Fri", "time": "3:00pm"}, {"days": "Sat", "time": "1:00pm"}, {"days": "Sun", "time": "Closed"}], "id": "5533700093", "name": "USPS COLLECTION BOX - BLUE BOX", "address": {"city": "BURNSVILLE", "state": "MN", "street": "1801 E 121ST ST", "postcode": "55337"}}},
{"geometry": {"type": "Point", "coordinates": [-93.2843522384, 44.769948223]}, "type": "Feature", "properties": {"collection_times": [{"days": "Mon-Fri", "time": "3:00pm"}, {"days": "Sat", "time": "10:00am"}, {"days": "Sun", "time": "Closed"}], "id": "5533700096", "name": "USPS COLLECTION BOX - BLUE BOX", "address": {"city": "BURNSVILLE", "state": "MN", "street": "350 W BURNSVILLE PKWY", "postcode": "55337"}}},
{"geometry": {"type": "Point", "coordinates": [-93.2559304663, 44.7841981467]}, "type": "Feature", "properties": {"collection_times": [{"days": "Mon-Fri", "time": "4:00pm"}, {"days": "Sat", "time": "10:00am"}, {"days": "Sun", "time": "Closed"}], "id": "5533700097", "name": "USPS COLLECTION BOX - BLUE BOX", "address": {"city": "BURNSVILLE", "state": "MN", "street": "1300 LARC INDUSTRIAL BLVD", "postcode": "55337"}}},
{"geometry": {"type": "Point", "coordinates": [-93.2836576493, 44.7527240907]}, "type": "Feature", "properties": {"collection_times": [{"days": "Mon-Fri", "time": "5:45pm"}, {"days": "Sat", "time": "5:00pm"}, {"days": "Sun", "time": "Closed"}], "id": "5533700098", "name": "USPS COLLECTION BOX - APC", "address": {"city": "BURNSVILLE", "state": "MN", "street": "13800 NICOLLET BLVD", "postcode": "55337"}}},
{"geometry": {"type": "Point", "coordinates": [-93.2780435182, 44.7813744236]}, "type": "Feature", "properties": {"collection_times": [{"days": "Mon-Fri", "time": "4:15pm"}, {"days": "Sat", "time": "10:00am"}, {"days": "Sun", "time": "Closed"}], "id": "5533700099", "name": "USPS COLLECTION BOX - BLUE BOX", "address": {"city": "BURNSVILLE", "state": "MN", "street": "12200 NICOLLET AVE", "postcode": "55337"}}},
{"geometry": {"type": "Point", "coordinates": [-93.9875065595, 44.6741515817]}, "type": "Feature", "properties": {"collection_times": [{"days": "Mon-Fri", "time": "3:30pm"}, {"days": "Sat", "time": "9:00am"}, {"days": "Sun", "time": "Closed"}], "id": "5533800001", "name": "USPS COLLECTION BOX - BLUE BOX", "address": {"city": "GREEN ISLE", "state": "MN", "street": "500 MCGRANN ST", "postcode": "55338"}}},
{"geometry": {"type": "Point", "coordinates": [-93.9875065595, 44.6741515817]}, "type": "Feature", "properties": {"collection_times": [{"days": "Mon-Fri", "time": "3:30pm"}, {"days": "Sat", "time": "9:00am"}, {"days": "Sun", "time": "Closed"}], "id": "5533800002", "name": "USPS COLLECTION BOX - PO LOBBY", "address": {"city": "GREEN ISLE", "state": "MN", "street": "500 MCGRANN ST", "postcode": "55338"}}},
{"geometry": {"type": "Point", "coordinates": [-93.9691328774, 44.7326270506]}, "type": "Feature", "properties": {"collection_times": [{"days": "Mon-Fri", "time": "4:00pm"}, {"days": "Sat", "time": "9:45am"}, {"days": "Sun", "time": "Closed"}], "id": "5533900001", "name": "USPS COLLECTION BOX - BLUE BOX", "address": {"city": "HAMBURG", "state": "MN", "street": "361 HENRIETTA AVE", "postcode": "55339"}}},
{"geometry": {"type": "Point", "coordinates": [-93.9691328774, 44.7326270506]}, "type": "Feature", "properties": {"collection_times": [{"days": "Mon-Fri", "time": "4:00pm"}, {"days": "Sat", "time": "9:45am"}, {"days": "Sun", "time": "Closed"}], "id": "5533900002", "name": "USPS COLLECTION BOX - PO LOBBY", "address": {"city": "HAMBURG", "state": "MN", "street": "361 HENRIETTA AVE", "postcode": "55339"}}},
{"geometry": {"type": "Point", "coordinates": [-93.543009765, 45.0931728328]}, "type": "Feature", "properties": {"collection_times": [{"days": "Mon-Fri", "time": "10:00am"}, {"days": "Sat-Sun", "time": "Closed"}], "id": "5534000001", "name": "USPS COLLECTION BOX - BLUE BOX", "address": {"city": "HAMEL", "state": "MN", "street": "7625 CO RD 116", "postcode": "55340"}}},
{"geometry": {"type": "Point", "coordinates": [-93.5420480193, 45.0460177226]}, "type": "Feature", "properties": {"collection_times": [{"days": "Mon-Fri", "time": "9:00am"}, {"days": "Sat-Sun", "time": "Closed"}], "id": "5534000004", "name": "USPS COLLECTION BOX - BLUE BOX", "address": {"city": "HAMEL", "state": "MN", "street": "762 HIGHWAY 55", "postcode": "55340"}}},
{"geometry": {"type": "Point", "coordinates": [-93.5246762669, 45.0406813947]}, "type": "Feature", "properties": {"collection_times": [{"days": "Mon-Fri", "time": "4:00pm"}, {"days": "Sat", "time": "10:00am"}, {"days": "Sun", "time": "Closed"}], "id": "5534000005", "name": "USPS COLLECTION BOX - PO LOBBY", "address": {"city": "HAMEL", "state": "MN", "street": "105 HAMEL RD", "postcode": "55340"}}},
{"geometry": {"type": "Point", "coordinates": [-93.5246762669, 45.0406813947]}, "type": "Feature", "properties": {"collection_times": [{"days": "Mon-Fri", "time": "4:00pm"}, {"days": "Sat", "time": "10:00am"}, {"days": "Sun", "time": "Closed"}], "id": "5534000006", "name": "USPS COLLECTION BOX - BLUE BOX", "address": {"city": "HAMEL", "state": "MN", "street": "105 HAMEL RD", "postcode": "55340"}}},
{"geometry": {"type": "Point", "coordinates": [-93.6669885963, 45.1585975614]}, "type": "Feature", "properties": {"collection_times": [{"days": "Mon-Fri", "time": "4:30pm"}, {"days": "Sat", "time": "9:30am"}, {"days": "Sun", "time": "Closed"}], "id": "5534100001", "name": "USPS COLLECTION BOX - BLUE BOX", "address": {"city": "HANOVER", "state": "MN", "street": "10961 4TH ST NE", "postcode": "55341"}}},
{"geometry": {"type": "Point", "coordinates": [-93.6669885963, 45.1585975614]}, "type": "Feature", "properties": {"collection_times": [{"days": "Mon-Fri", "time": "4:30pm"}, {"days": "Sat", "time": "9:30am"}, {"days": "Sun", "time": "Closed"}], "id": "5534100002", "name": "USPS COLLECTION BOX - PO LOBBY", "address": {"city": "HANOVER", "state": "MN", "street": "10961 4TH ST NE", "postcode": "55341"}}},
{"geometry": {"type": "Point", "coordinates": [-94.7151163532, 44.7436134707]}, "type": "Feature", "properties": {"collection_times": [{"days": "Mon-Fri", "time": "2:15pm"}, {"days": "Sat", "time": "10:00am"}, {"days": "Sun", "time": "Closed"}], "id": "5534200002", "name": "USPS COLLECTION BOX - PO LOBBY", "address": {"city": "HECTOR", "state": "MN", "street": "237 MAIN ST S", "postcode": "55342"}}},
{"geometry": {"type": "Point", "coordinates": [-93.4123046289, 44.9223724856]}, "type": "Feature", "properties": {"collection_times": [{"days": "Mon-Fri", "time": "6:00pm"}, {"days": "Sat", "time": "5:00pm"}, {"days": "Sun", "time": "Closed"}], "id": "5534300001", "name": "USPS COLLECTION BOX - BLUE BOX", "address": {"city": "HOPKINS", "state": "MN", "street": "910 1ST ST S", "postcode": "55343"}}},
{"geometry": {"type": "Point", "coordinates": [-93.4202837753, 44.9043996768]}, "type": "Feature", "properties": {"collection_times": [{"days": "Mon-Fri", "time": "5:00pm"}, {"days": "Sat-Sun", "time": "Closed"}], "id": "5534300011", "name": "USPS COLLECTION BOX - BLUE BOX", "address": {"city": "HOPKINS", "state": "MN", "street": "5500 FELTL RD", "postcode": "55343"}}},
{"geometry": {"type": "Point", "coordinates": [-93.4184607474, 44.9014707837]}, "type": "Feature", "properties": {"collection_times": [{"days": "Mon-Fri", "time": "5:00pm"}, {"days": "Sat-Sun", "time": "Closed"}], "id": "5534300012", "name": "USPS COLLECTION BOX - BLUE BOX", "address": {"city": "HOPKINS", "state": "MN", "street": "11100 BREN RD W", "postcode": "55343"}}},
{"geometry": {"type": "Point", "coordinates": [-93.4114682769, 44.8990835725]}, "type": "Feature", "properties": {"collection_times": [{"days": "Mon-Fri", "time": "4:00pm"}, {"days": "Sat-Sun", "time": "Closed"}], "id": "5534300013", "name": "USPS COLLECTION BOX - BLUE BOX", "address": {"city": "HOPKINS", "state": "MN", "street": "10301 BREN RD W", "postcode": "55343"}}},
{"geometry": {"type": "Point", "coordinates": [-93.4040440265, 44.9002476041]}, "type": "Feature", "properties": {"collection_times": [{"days": "Mon-Fri", "time": "5:00pm"}, {"days": "Sat-Sun", "time": "Closed"}], "id": "5534300016", "name": "USPS COLLECTION BOX - BLUE BOX", "address": {"city": "HOPKINS", "state": "MN", "street": "5700 SMETANA DR", "postcode": "55343"}}},
{"geometry": {"type": "Point", "coordinates": [-93.4231084444, 44.9163906185]}, "type": "Feature", "properties": {"collection_times": [{"days": "Mon-Fri", "time": "5:00pm"}, {"days": "Sat-Sun", "time": "Closed"}], "id": "5534300017", "name": "USPS COLLECTION BOX - BLUE BOX", "address": {"city": "HOPKINS", "state": "MN", "street": "11348 K TEL DR", "postcode": "55343"}}},
{"geometry": {"type": "Point", "coordinates": [-93.41560081, 44.9143537582]}, "type": "Feature", "properties": {"collection_times": [{"days": "Mon-Fri", "time": "5:00pm"}, {"days": "Sat-Sun", "time": "Closed"}], "id": "5534300021", "name": "USPS COLLECTION BOX - BLUE BOX", "address": {"city": "HOPKINS", "state": "MN", "street": "10301 WHITEWATER DR", "postcode": "55343"}}},
{"geometry": {"type": "Point", "coordinates": [-93.4113294575, 44.9166164736]}, "type": "Feature", "properties": {"collection_times": [{"days": "Mon-Fri", "time": "5:00pm"}, {"days": "Sat-Sun", "time": "Closed"}], "id": "5534300041", "name": "USPS COLLECTION BOX - BLUE BOX", "address": {"city": "HOPKINS", "state": "MN", "street": "856 5TH ST S", "postcode": "55343"}}},
{"geometry": {"type": "Point", "coordinates": [-93.4113381515, 44.9251027549]}, "type": "Feature", "properties": {"collection_times": [{"days": "Mon-Fri", "time": "5:00pm"}, {"days": "Sat-Sun", "time": "Closed"}], "id": "5534300042", "name": "USPS COLLECTION BOX - BLUE BOX", "address": {"city": "HOPKINS", "state": "MN", "street": "16 9TH AVE N", "postcode": "55343"}}},
{"geometry": {"type": "Point", "coordinates": [-93.4123046289, 44.9223724856]}, "type": "Feature", "properties": {"collection_times": [{"days": "Mon-Fri", "time": "6:00pm"}, {"days": "Sat", "time": "5:00pm"}, {"days": "Sun", "time": "Closed"}], "id": "5534300053", "name": "USPS COLLECTION BOX - PO LOBBY", "address": {"city": "HOPKINS", "state": "MN", "street": "910 1ST ST S", "postcode": "55343"}}},
{"geometry": {"type": "Point", "coordinates": [-93.4082458967, 44.8934302116]}, "type": "Feature", "properties": {"collection_times": [{"days": "Mon-Fri", "time": "5:00pm"}, {"days": "Sat-Sun", "time": "Closed"}], "id": "5534300062", "name": "USPS COLLECTION BOX - BLUE BOX", "address": {"city": "HOPKINS", "state": "MN", "street": "6110 BLUE CIRCLE DR", "postcode": "55343"}}},
{"geometry": {"type": "Point", "coordinates": [-93.4076626979, 44.8978757714]}, "type": "Feature", "properties": {"collection_times": [{"days": "Mon-Fri", "time": "4:00pm"}, {"days": "Sat-Sun", "time": "Closed"}], "id": "5534300063", "name": "USPS COLLECTION BOX - BLUE BOX", "address": {"city": "HOPKINS", "state": "MN", "street": "5850 OPUS PKWY", "postcode": "55343"}}},
{"geometry": {"type": "Point", "coordinates": [-93.4123046289, 44.9223724856]}, "type": "Feature", "properties": {"collection_times": [{"days": "Mon-Fri", "time": "6:00pm"}, {"days": "Sat", "time": "5:00pm"}, {"days": "Sun", "time": "Closed"}], "id": "5534300065", "name": "USPS COLLECTION BOX - APC", "address": {"city": "HOPKINS", "state": "MN", "street": "910 1ST ST S", "postcode": "55343"}}},
{"geometry": {"type": "Point", "coordinates": [-93.4123046289, 44.9223724856]}, "type": "Feature", "properties": {"collection_times": [{"days": "Mon-Fri", "time": "6:00pm"}, {"days": "Sat", "time": "5:00pm"}, {"days": "Sun", "time": "Closed"}], "id": "5534300066", "name": "USPS COLLECTION BOX - BLUE BOX", "address": {"city": "HOPKINS", "state": "MN", "street": "910 1ST ST S", "postcode": "55343"}}},
{"geometry": {"type": "Point", "coordinates": [-93.4477374519, 44.8634879602]}, "type": "Feature", "properties": {"collection_times": [{"days": "Mon-Fri", "time": "4:30pm"}, {"days": "Sat-Sun", "time": "Closed"}], "id": "5534400005", "name": "USPS COLLECTION BOX - BLUE BOX", "address": {"city": "EDEN PRAIRIE", "state": "MN", "street": "7697 ANAGRAM DR", "postcode": "55344"}}},
{"geometry": {"type": "Point", "coordinates": [-93.4643030352, 44.8634033301]}, "type": "Feature", "properties": {"collection_times": [{"days": "Mon-Fri", "time": "4:30pm"}, {"days": "Sat-Sun", "time": "Closed"}], "id": "5534400007", "name": "USPS COLLECTION BOX - BLUE BOX", "address": {"city": "EDEN PRAIRIE", "state": "MN", "street": "14760 MARTIN DR", "postcode": "55344"}}},
{"geometry": {"type": "Point", "coordinates": [-93.4702636071, 44.8575700167]}, "type": "Feature", "properties": {"collection_times": [{"days": "Mon-Fri", "time": "4:30pm"}, {"days": "Sat-Sun", "time": "Closed"}], "id": "5534400008", "name": "USPS COLLECTION BOX - BLUE BOX", "address": {"city": "EDEN PRAIRIE", "state": "MN", "street": "15000 TECHNOLOGY DR", "postcode": "55344"}}},
{"geometry": {"type": "Point", "coordinates": [-93.4854576284, 44.8685265595]}, "type": "Feature", "properties": {"collection_times": [{"days": "Mon-Fri", "time": "4:30pm"}, {"days": "Sat-Sun", "time": "Closed"}], "id": "5534400009", "name": "USPS COLLECTION BOX - BLUE BOX", "address": {"city": "EDEN PRAIRIE", "state": "MN", "street": "7447 EDEN PRAIRIE RD", "postcode": "55344"}}},
{"geometry": {"type": "Point", "coordinates": [-93.4560327071, 44.868712284]}, "type": "Feature", "properties": {"collection_times": [{"days": "Mon-Fri", "time": "4:30pm"}, {"days": "Sat-Sun", "time": "Closed"}], "id": "5534400013", "name": "USPS COLLECTION BOX - BLUE BOX", "address": {"city": "EDEN PRAIRIE", "state": "MN", "street": "7400 MITCHELL RD", "postcode": "55344"}}},
{"geometry": {"type": "Point", "coordinates": [-93.4206752466, 44.8572281184]}, "type": "Feature", "properties": {"collection_times": [{"days": "Mon-Fri", "time": "4:30pm"}, {"days": "Sat-Sun", "time": "Closed"}], "id": "5534400014", "name": "USPS COLLECTION BOX - BLUE BOX", "address": {"city": "EDEN PRAIRIE", "state": "MN", "street": "300 PRAIRIE CENTER DR", "postcode": "55344"}}},
{"geometry": {"type": "Point", "coordinates": [-93.4274701629, 44.8569489401]}, "type": "Feature", "properties": {"collection_times": [{"days": "Mon-Fri", "time": "4:30pm"}, {"days": "Sat-Sun", "time": "Closed"}], "id": "5534400017", "name": "USPS COLLECTION BOX - BLUE BOX", "address": {"city": "EDEN PRAIRIE", "state": "MN", "street": "11800 SINGLETREE LN", "postcode": "55344"}}},
{"geometry": {"type": "Point", "coordinates": [-93.4262777402, 44.8572352161]}, "type": "Feature", "properties": {"collection_times": [{"days": "Mon-Fri", "time": "4:30pm"}, {"days": "Sat-Sun", "time": "Closed"}], "id": "5534400018", "name": "USPS COLLECTION BOX - BLUE BOX", "address": {"city": "EDEN PRAIRIE", "state": "MN", "street": "8201 FLYING CLOUD DR", "postcode": "55344"}}},
{"geometry": {"type": "Point", "coordinates": [-93.4148420759, 44.8829290849]}, "type": "Feature", "properties": {"collection_times": [{"days": "Mon-Fri", "time": "4:30pm"}, {"days": "Sat-Sun", "time": "Closed"}], "id": "5534400019", "name": "USPS COLLECTION BOX - BLUE BOX", "address": {"city": "EDEN PRAIRIE", "state": "MN", "street": "6600 CITY WEST PKWY", "postcode": "55344"}}},
{"geometry": {"type": "Point", "coordinates": [-93.4192687084, 44.8582797689]}, "type": "Feature", "properties": {"collection_times": [{"days": "Mon-Fri", "time": "4:00pm"}, {"days": "Sat-Sun", "time": "Closed"}], "id": "5534400021", "name": "USPS COLLECTION BOX - BLUE BOX", "address": {"city": "EDEN PRAIRIE", "state": "MN", "street": "11200 W 78TH ST", "postcode": "55344"}}},
{"geometry": {"type": "Point", "coordinates": [-93.4029237643, 44.8861703924]},