{"type": "FeatureCollection", "features": [
{"geometry": {"type": "Point", "coordinates": [-91.3014499789, 47.258158858]}, "type": "Feature", "properties": {"collection_times": [{"days": "Mon-Sat", "time": "12:45pm"}, {"days": "Sun", "time": "Closed"}], "id": "5560100000", "name": "USPS COLLECTION BOX - BLUE BOX", "address": {"city": "BEAVER BAY", "state": "MN", "street": "1014 MAIN ST", "postcode": "55601"}}},
{"geometry": {"type": "Point", "coordinates": [-91.3014499789, 47.258158858]}, "type": "Feature", "properties": {"collection_times": [{"days": "Mon-Fri", "time": "12:45pm"}, {"days": "Sat", "time": "10:15am"}, {"days": "Sun", "time": "Closed"}], "id": "5560100001", "name": "USPS COLLECTION BOX - PO LOBBY", "address": {"city": "BEAVER BAY", "state": "MN", "street": "1014 MAIN ST", "postcode": "55601"}}},
{"geometry": {"type": "Point", "coordinates": [-91.84527306, 47.347124979]}, "type": "Feature", "properties": {"collection_times": [{"days": "Mon-Sat", "time": "11:30am"}, {"days": "Sun", "time": "Closed"}], "id": "5560200000", "name": "USPS COLLECTION BOX - BLUE BOX", "address": {"city": "BRIMSON", "state": "MN", "street": "3127 HIGHWAY 44", "postcode": "55602"}}},
{"geometry": {"type": "Point", "coordinates": [-91.3017847239, 47.4522784608]}, "type": "Feature", "properties": {"collection_times": [{"days": "Mon-Fri", "time": "11:45am"}, {"days": "Sat", "time": "11:00am"}, {"days": "Sun", "time": "Closed"}], "id": "5560300000", "name": "USPS COLLECTION BOX - PO LOBBY", "address": {"city": "FINLAND", "state": "MN", "street": "6638 HIGHWAY 1", "postcode": "55603"}}},
{"geometry": {"type": "Point", "coordinates": [-91.3017847239, 47.4522784608]}, "type": "Feature", "properties": {"collection_times": [{"days": "Mon-Sat", "time": "11:45am"}, {"days": "Sun", "time": "Closed"}], "id": "5560300001", "name": "USPS COLLECTION BOX - BLUE BOX", "address": {"city": "FINLAND", "state": "MN", "street": "6638 HIGHWAY 1", "postcode": "55603"}}},
{"geometry": {"type": "Point", "coordinates": [-90.3281815691, 47.7530368444]}, "type": "Feature", "properties": {"collection_times": [{"days": "Mon-Sat", "time": "12:00pm"}, {"days": "Sun", "time": "Closed"}], "id": "5560400000", "name": "USPS COLLECTION BOX - BLUE BOX", "address": {"city": "GRAND MARAIS", "state": "MN", "street": "117 E HIGHWAY 61", "postcode": "55604"}}},
{"geometry": {"type": "Point", "coordinates": [-90.3281815691, 47.7530368444]}, "type": "Feature", "properties": {"collection_times": [{"days": "Mon-Sat", "time": "12:00pm"}, {"days": "Sun", "time": "Closed"}], "id": "5560400001", "name": "USPS COLLECTION BOX - BLUE BOX", "address": {"city": "GRAND MARAIS", "state": "MN", "street": "117 E HIGHWAY 61", "postcode": "55604"}}},
{"geometry": {"type": "Point", "coordinates": [-90.3322701339, 47.7514467239]}, "type": "Feature", "properties": {"collection_times": [{"days": "Mon-Sat", "time": "9:00am"}, {"days": "Sun", "time": "Closed"}], "id": "5560400002", "name": "USPS COLLECTION BOX - BLUE BOX", "address": {"city": "GRAND MARAIS", "state": "MN", "street": "21 E HIGHWAY 61", "postcode": "55604"}}},
{"geometry": {"type": "Point", "coordinates": [-90.3281815691, 47.7530368444]}, "type": "Feature", "properties": {"collection_times": [{"days": "Mon-Fri", "time": "12:00pm"}, {"days": "Sat", "time": "11:00am"}, {"days": "Sun", "time": "Closed"}], "id": "5560400003", "name": "USPS COLLECTION BOX - PO LOBBY", "address": {"city": "GRAND MARAIS", "state": "MN", "street": "117 E HIGHWAY 61", "postcode": "55604"}}},
{"geometry": {"type": "Point", "coordinates": [-89.6898835738, 47.9581558591]}, "type": "Feature", "properties": {"collection_times": [{"days": "Mon-Sat", "time": "9:00am"}, {"days": "Sun", "time": "Closed"}], "id": "5560500000", "name": "USPS COLLECTION BOX - BLUE BOX", "address": {"city": "GRAND PORTAGE", "state": "MN", "street": "77 MILE CREEK RD", "postcode": "55605"}}},
{"geometry": {"type": "Point", "coordinates": [-89.6898835738, 47.9581558591]}, "type": "Feature", "properties": {"collection_times": [{"days": "Mon-Sat", "time": "9:00am"}, {"days": "Sun", "time": "Closed"}], "id": "5560500001", "name": "USPS COLLECTION BOX - PO LOBBY", "address": {"city": "GRAND PORTAGE", "state": "MN", "street": "77 MILE CREEK RD", "postcode": "55605"}}},
{"geometry": {"type": "Point", "coordinates": [-89.9673249456, 47.8683505418]}, "type": "Feature", "properties": {"collection_times": [{"days": "Mon-Sat", "time": "11:30am"}, {"days": "Sun", "time": "Closed"}], "id": "5560600000", "name": "USPS COLLECTION BOX - BLUE BOX", "address": {"city": "HOVLAND", "state": "MN", "street": "12 ARROWHEAD TRL", "postcode": "55606"}}},
{"geometry": {"type": "Point", "coordinates": [-89.9673249456, 47.8683505418]}, "type": "Feature", "properties": {"collection_times": [{"days": "Mon-Sat", "time": "11:30am"}, {"days": "Sun", "time": "Closed"}], "id": "5560600001", "name": "USPS COLLECTION BOX - PO LOBBY", "address": {"city": "HOVLAND", "state": "MN", "street": "12 ARROWHEAD TRL", "postcode": "55606"}}},
{"geometry": {"type": "Point", "coordinates": [-91.6729270074, 47.0203876446]}, "type": "Feature", "properties": {"collection_times": [{"days": "Mon-Sat", "time": "1:45pm"}, {"days": "Sun", "time": "Closed"}], "id": "5560900000", "name": "USPS COLLECTION BOX - BLUE BOX", "address": {"city": "KNIFE RIVER", "state": "MN", "street": "200 CENTRAL AVE", "postcode": "55609"}}},
{"geometry": {"type": "Point", "coordinates": [-91.6729270074, 47.0203876446]}, "type": "Feature", "properties": {"collection_times": [{"days": "Mon-Fri", "time": "12:15pm"}, {"days": "Sat", "time": "9:45am"}, {"days": "Sun", "time": "Closed"}], "id": "5560900001", "name": "USPS COLLECTION BOX - PO LOBBY", "address": {"city": "KNIFE RIVER", "state": "MN", "street": "200 CENTRAL AVE", "postcode": "55609"}}},
{"geometry": {"type": "Point", "coordinates": [-90.6894486376, 47.6435466558]}, "type": "Feature", "properties": {"collection_times": [{"days": "Mon-Sat", "time": "12:30pm"}, {"days": "Sun", "time": "Closed"}], "id": "5561200000", "name": "USPS COLLECTION BOX - BLUE BOX", "address": {"city": "LUTSEN", "state": "MN", "street": "5321 W HIGHWAY 61", "postcode": "55612"}}},
{"geometry": {"type": "Point", "coordinates": [-90.6894486376, 47.6435466558]}, "type": "Feature", "properties": {"collection_times": [{"days": "Mon-Fri", "time": "12:30pm"}, {"days": "Sat", "time": "10:30am"}, {"days": "Sun", "time": "Closed"}], "id": "5561200001", "name": "USPS COLLECTION BOX - PO LOBBY", "address": {"city": "LUTSEN", "state": "MN", "street": "5321 W HIGHWAY 61", "postcode": "55612"}}},
{"geometry": {"type": "Point", "coordinates": [-90.9200017735, 47.5286638645]}, "type": "Feature", "properties": {"collection_times": [{"days": "Mon-Sat", "time": "1:00pm"}, {"days": "Sun", "time": "Closed"}], "id": "5561300000", "name": "USPS COLLECTION BOX - BLUE BOX", "address": {"city": "SCHROEDER", "state": "MN", "street": "7940 W HIGHWAY 61", "postcode": "55613"}}},
{"geometry": {"type": "Point", "coordinates": [-90.9200017735, 47.5286638645]}, "type": "Feature", "properties": {"collection_times": [{"days": "Mon-Fri", "time": "1:00pm"}, {"days": "Sat", "time": "10:00am"}, {"days": "Sun", "time": "Closed"}], "id": "5561300001", "name": "USPS COLLECTION BOX - PO LOBBY", "address": {"city": "SCHROEDER", "state": "MN", "street": "7940 W HIGHWAY 61", "postcode": "55613"}}},
{"geometry": {"type": "Point", "coordinates": [-91.2697452712, 47.2934144213]}, "type": "Feature", "properties": {"collection_times": [{"days": "Mon-Sat", "time": "12:30pm"}, {"days": "Sun", "time": "Closed"}], "id": "5561400000", "name": "USPS COLLECTION BOX - BLUE BOX", "address": {"city": "SILVER BAY", "state": "MN", "street": "14 SHOPPING CTR", "postcode": "55614"}}},
{"geometry": {"type": "Point", "coordinates": [-91.2696285621, 47.2934903151]}, "type": "Feature", "properties": {"collection_times": [{"days": "Mon-Fri", "time": "12:30pm"}, {"days": "Sat", "time": "9:30am"}, {"days": "Sun", "time": "Closed"}], "id": "5561400003", "name": "USPS COLLECTION BOX - PO LOBBY", "address": {"city": "SILVER BAY", "state": "MN", "street": "13 SHOPPING CTR", "postcode": "55614"}}},
{"geometry": {"type": "Point", "coordinates": [-91.3455227299, 47.3595261855]}, "type": "Feature", "properties": {"collection_times": [{"days": "Mon-Sat", "time": "1:30pm"}, {"days": "Sun", "time": "Closed"}], "id": "5561400004", "name": "USPS COLLECTION BOX - BLUE BOX", "address": {"city": "SILVER BAY", "state": "MN", "street": "6598 LAKESIDE ESTATES RD", "postcode": "55614"}}},
{"geometry": {"type": "Point", "coordinates": [-90.8444806104, 47.5696057619]}, "type": "Feature", "properties": {"collection_times": [{"days": "Mon-Sat", "time": "1:00pm"}, {"days": "Sun", "time": "Closed"}], "id": "5561500000", "name": "USPS COLLECTION BOX - BLUE BOX", "address": {"city": "TOFTE", "state": "MN", "street": "7223 TOFTE PARK RD", "postcode": "55615"}}},
{"geometry": {"type": "Point", "coordinates": [-90.8444806104, 47.5696057619]}, "type": "Feature", "properties": {"collection_times": [{"days": "Mon-Fri", "time": "1:00pm"}, {"days": "Sat", "time": "10:00am"}, {"days": "Sun", "time": "Closed"}], "id": "5561500001", "name": "USPS COLLECTION BOX - PO LOBBY", "address": {"city": "TOFTE", "state": "MN", "street": "7223 TOFTE PARK RD", "postcode": "55615"}}},
{"geometry": {"type": "Point", "coordinates": [-91.6709893656, 47.0198214767]}, "type": "Feature", "properties": {"collection_times": [{"days": "Mon-Sat", "time": "1:30pm"}, {"days": "Sun", "time": "Closed"}], "id": "5561600000", "name": "USPS COLLECTION BOX - BLUE BOX", "address": {"city": "TWO HARBORS", "state": "MN", "street": "106 WATERFRONT DR", "postcode": "55616"}}},
{"geometry": {"type": "Point", "coordinates": [-91.6749546423, 47.0297469088]}, "type": "Feature", "properties": {"collection_times": [{"days": "Mon-Sat", "time": "12:45pm"}, {"days": "Sun", "time": "Closed"}], "id": "5561600005", "name": "USPS COLLECTION BOX - BLUE BOX", "address": {"city": "TWO HARBORS", "state": "MN", "street": "802 11TH ST", "postcode": "55616"}}},
{"geometry": {"type": "Point", "coordinates": [-91.663827114, 47.0256921464]}, "type": "Feature", "properties": {"collection_times": [{"days": "Mon-Sat", "time": "12:45pm"}, {"days": "Sun", "time": "Closed"}], "id": "5561600007", "name": "USPS COLLECTION BOX - BLUE BOX", "address": {"city": "TWO HARBORS", "state": "MN", "street": "331 7TH AVE", "postcode": "55616"}}},
{"geometry": {"type": "Point", "coordinates": [-91.6745294286, 47.0180381018]}, "type": "Feature", "properties": {"collection_times": [{"days": "Mon-Sat", "time": "1:30pm"}, {"days": "Sun", "time": "Closed"}], "id": "5561600009", "name": "USPS COLLECTION BOX - PO LOBBY", "address": {"city": "TWO HARBORS", "state": "MN", "street": "106 WATERFRONT DR", "postcode": "55616"}}},
{"geometry": {"type": "Point", "coordinates": [-91.7098771055, 47.0086949619]}, "type": "Feature", "properties": {"collection_times": [{"days": "Mon-Sat", "time": "12:45pm"}, {"days": "Sun", "time": "Closed"}], "id": "5561600012", "name": "USPS COLLECTION BOX - BLUE BOX", "address": {"city": "TWO HARBORS", "state": "MN", "street": "1086 HIGHWAY 61", "postcode": "55616"}}}
]}
