{"type": "FeatureCollection", "features": [
{"geometry": {"type": "Point", "coordinates": [-92.6509359101, 47.7781419335]}, "type": "Feature", "properties": {"collection_times": [{"days": "Mon-Sat", "time": "11:15am"}, {"days": "Sun", "time": "Closed"}], "id": "5570300000", "name": "USPS COLLECTION BOX - BLUE BOX", "address": {"city": "ANGORA", "state": "MN", "street": "9138 HIGHWAY 22", "postcode": "55703"}}},
{"geometry": {"type": "Point", "coordinates": [-92.7550906448, 47.7534913993]}, "type": "Feature", "properties": {"collection_times": [{"days": "Mon-Sat", "time": "11:30am"}, {"days": "Sun", "time": "Closed"}], "id": "5570300002", "name": "USPS COLLECTION BOX - BLUE BOX", "address": {"city": "ANGORA", "state": "MN", "street": "7466 BRITT BYPASS", "postcode": "55703"}}},
{"geometry": {"type": "Point", "coordinates": [-92.7550906448, 47.7534913993]}, "type": "Feature", "properties": {"collection_times": [{"days": "Mon-Sat", "time": "11:30am"}, {"days": "Sun", "time": "Closed"}], "id": "5570300004", "name": "USPS COLLECTION BOX - BLUE BOX", "address": {"city": "ANGORA", "state": "MN", "street": "7301 BRITT BYPASS", "postcode": "55703"}}},
{"geometry": {"type": "Point", "coordinates": [-92.754957091, 46.2097672804]}, "type": "Feature", "properties": {"collection_times": [{"days": "Mon-Sat", "time": "11:15am"}, {"days": "Sun", "time": "Closed"}], "id": "5570400000", "name": "USPS COLLECTION BOX - BLUE BOX", "address": {"city": "ASKOV", "state": "MN", "street": "6370 KORMAGERGADE", "postcode": "55704"}}},
{"geometry": {"type": "Point", "coordinates": [-92.7809975482, 46.1912631271]}, "type": "Feature", "properties": {"collection_times": [{"days": "Mon-Fri", "time": "11:15am"}, {"days": "Sat", "time": "9:45am"}, {"days": "Sun", "time": "Closed"}], "id": "5570400001", "name": "USPS COLLECTION BOX - PO LOBBY", "address": {"city": "ASKOV", "state": "MN", "street": "6370 KOBMAGERGADE", "postcode": "55704"}}},
{"geometry": {"type": "Point", "coordinates": [-92.2368530875, 47.5290527292]}, "type": "Feature", "properties": {"collection_times": [{"days": "Mon-Sat", "time": "12:15pm"}, {"days": "Sun", "time": "Closed"}], "id": "5570500001", "name": "USPS COLLECTION BOX - BLUE BOX", "address": {"city": "AURORA", "state": "MN", "street": "200 MAIN ST N", "postcode": "55705"}}},
{"geometry": {"type": "Point", "coordinates": [-92.2368530875, 47.5290527292]}, "type": "Feature", "properties": {"collection_times": [{"days": "Mon-Fri", "time": "12:15pm"}, {"days": "Sat", "time": "9:30am"}, {"days": "Sun", "time": "Closed"}], "id": "5570500002", "name": "USPS COLLECTION BOX - BLUE BOX", "address": {"city": "AURORA", "state": "MN", "street": "200 MAIN ST N", "postcode": "55705"}}},
{"geometry": {"type": "Point", "coordinates": [-92.2368530875, 47.5290527292]}, "type": "Feature", "properties": {"collection_times": [{"days": "Mon-Fri", "time": "12:15pm"}, {"days": "Sat", "time": "9:30am"}, {"days": "Sun", "time": "Closed"}], "id": "5570500008", "name": "USPS COLLECTION BOX - PO LOBBY", "address": {"city": "AURORA", "state": "MN", "street": "200 MAIN ST N", "postcode": "55705"}}},
{"geometry": {"type": "Point", "coordinates": [-91.949962122, 47.7132499267]}, "type": "Feature", "properties": {"collection_times": [{"days": "Mon-Sat", "time": "9:45am"}, {"days": "Sun", "time": "Closed"}], "id": "5570600000", "name": "USPS COLLECTION BOX - BLUE BOX", "address": {"city": "BABBITT", "state": "MN", "street": "31 COMMERCE RD", "postcode": "55706"}}},
{"geometry": {"type": "Point", "coordinates": [-91.9496094639, 47.7132022201]}, "type": "Feature", "properties": {"collection_times": [{"days": "Mon-Sat", "time": "9:45am"}, {"days": "Sun", "time": "Closed"}], "id": "5570600008", "name": "USPS COLLECTION BOX - PO LOBBY", "address": {"city": "BABBITT", "state": "MN", "street": "40 COMMERCE RD", "postcode": "55706"}}},
{"geometry": {"type": "Point", "coordinates": [-92.6192991172, 46.5467945348]}, "type": "Feature", "properties": {"collection_times": [{"days": "Mon-Fri", "time": "10:45am"}, {"days": "Sat", "time": "1:00pm"}, {"days": "Sun", "time": "Closed"}], "id": "5570700000", "name": "USPS COLLECTION BOX - BLUE BOX", "address": {"city": "BARNUM", "state": "MN", "street": "3686 ALAN SYVERSON DR", "postcode": "55707"}}},
{"geometry": {"type": "Point", "coordinates": [-92.6350524694, 46.5726310039]}, "type": "Feature", "properties": {"collection_times": [{"days": "Mon-Fri", "time": "10:45am"}, {"days": "Sat", "time": "1:15pm"}, {"days": "Sun", "time": "Closed"}], "id": "5570700001", "name": "USPS COLLECTION BOX - BLUE BOX", "address": {"city": "BARNUM", "state": "MN", "street": "2751 MARKET ST", "postcode": "55707"}}},
{"geometry": {"type": "Point", "coordinates": [-92.6192991172, 46.5467945348]}, "type": "Feature", "properties": {"collection_times": [{"days": "Mon-Fri", "time": "10:45am"}, {"days": "Sat", "time": "9:00am"}, {"days": "Sun", "time": "Closed"}], "id": "5570700002", "name": "USPS COLLECTION BOX - PO LOBBY", "address": {"city": "BARNUM", "state": "MN", "street": "3686 ALAN SYVERSON DR", "postcode": "55707"}}},
{"geometry": {"type": "Point", "coordinates": [-92.3464501306, 47.5329830986]}, "type": "Feature", "properties": {"collection_times": [{"days": "Mon-Sat", "time": "11:45am"}, {"days": "Sun", "time": "Closed"}], "id": "5570800000", "name": "USPS COLLECTION BOX - BLUE BOX", "address": {"city": "BIWABIK", "state": "MN", "street": "210 MAIN ST", "postcode": "55708"}}},
{"geometry": {"type": "Point", "coordinates": [-92.3464501306, 47.5329830986]}, "type": "Feature", "properties": {"collection_times": [{"days": "Mon-Fri", "time": "11:45am"}, {"days": "Sat", "time": "9:00am"}, {"days": "Sun", "time": "Closed"}], "id": "5570800001", "name": "USPS COLLECTION BOX - PO LOBBY", "address": {"city": "BIWABIK", "state": "MN", "street": "210 MAIN ST", "postcode": "55708"}}},
{"geometry": {"type": "Point", "coordinates": [-93.4150573642, 47.2954188713]}, "type": "Feature", "properties": {"collection_times": [{"days": "Mon-Fri", "time": "11:45am"}, {"days": "Sat", "time": "9:30am"}, {"days": "Sun", "time": "Closed"}], "id": "5570900000", "name": "USPS COLLECTION BOX - BLUE BOX", "address": {"city": "BOVEY", "state": "MN", "street": "500 2ND ST", "postcode": "55709"}}},
{"geometry": {"type": "Point", "coordinates": [-93.4036889227, 47.2951486961]}, "type": "Feature", "properties": {"collection_times": [{"days": "Mon-Fri", "time": "10:00am"}, {"days": "Sat", "time": "9:30am"}, {"days": "Sun", "time": "Closed"}], "id": "5570900001", "name": "USPS COLLECTION BOX - BLUE BOX", "address": {"city": "BOVEY", "state": "MN", "street": "7896 US HIGHWAY 169", "postcode": "55709"}}},
{"geometry": {"type": "Point", "coordinates": [-93.4150573642, 47.2954188713]}, "type": "Feature", "properties": {"collection_times": [{"days": "Mon-Fri", "time": "11:45am"}, {"days": "Sat", "time": "9:30am"}, {"days": "Sun", "time": "Closed"}], "id": "5570900002", "name": "USPS COLLECTION BOX - PO LOBBY", "address": {"city": "BOVEY", "state": "MN", "street": "500 2ND ST", "postcode": "55709"}}},
{"geometry": {"type": "Point", "coordinates": [-92.6050135869, 46.86440863]}, "type": "Feature", "properties": {"collection_times": [{"days": "Mon-Sat", "time": "11:45am"}, {"days": "Sun", "time": "Closed"}], "id": "5571100000", "name": "USPS COLLECTION BOX - BLUE BOX", "address": {"city": "BROOKSTON", "state": "MN", "street": "4869 HIGHWAY 31", "postcode": "55711"}}},
{"geometry": {"type": "Point", "coordinates": [-92.6050135869, 46.86440863]}, "type": "Feature", "properties": {"collection_times": [{"days": "Mon-Fri", "time": "11:45am"}, {"days": "Sat", "time": "9:00am"}, {"days": "Sun", "time": "Closed"}], "id": "5571100001", "name": "USPS COLLECTION BOX - PO LOBBY", "address": {"city": "BROOKSTON", "state": "MN", "street": "4869 HIGHWAY 31", "postcode": "55711"}}},
{"geometry": {"type": "Point", "coordinates": [-92.5008028056, 46.2877229125]}, "type": "Feature", "properties": {"collection_times": [{"days": "Mon-Sat", "time": "11:00am"}, {"days": "Sun", "time": "Closed"}], "id": "5571200000", "name": "USPS COLLECTION BOX - BLUE BOX", "address": {"city": "BRUNO", "state": "MN", "street": "4613 E MAIN ST", "postcode": "55712"}}},
{"geometry": {"type": "Point", "coordinates": [-92.5008028056, 46.2877229125]}, "type": "Feature", "properties": {"collection_times": [{"days": "Mon-Fri", "time": "11:00am"}, {"days": "Sat", "time": "9:15am"}, {"days": "Sun", "time": "Closed"}], "id": "5571200001", "name": "USPS COLLECTION BOX - PO LOBBY", "address": {"city": "BRUNO", "state": "MN", "street": "4613 E MAIN ST", "postcode": "55712"}}},
{"geometry": {"type": "Point", "coordinates": [-92.779487907, 47.4956788367]}, "type": "Feature", "properties": {"collection_times": [{"days": "Mon-Fri", "time": "11:15am"}, {"days": "Sat", "time": "10:15am"}, {"days": "Sun", "time": "Closed"}], "id": "5571300000", "name": "USPS COLLECTION BOX - BLUE BOX", "address": {"city": "BUHL", "state": "MN", "street": "221 STATE ST", "postcode": "55713"}}},
{"geometry": {"type": "Point", "coordinates": [-92.779487907, 47.4956788367]}, "type": "Feature", "properties": {"collection_times": [{"days": "Mon-Fri", "time": "11:15am"}, {"days": "Sat-Sun", "time": "Closed"}], "id": "5571300001", "name": "USPS COLLECTION BOX - PO LOBBY", "address": {"city": "BUHL", "state": "MN", "street": "221 STATE ST", "postcode": "55713"}}},
{"geometry": {"type": "Point", "coordinates": [-93.2770671674, 47.3216366908]}, "type": "Feature", "properties": {"collection_times": [{"days": "Mon-Fri", "time": "11:30am"}, {"days": "Sat", "time": "9:45am"}, {"days": "Sun", "time": "Closed"}], "id": "5571600000", "name": "USPS COLLECTION BOX - BLUE BOX", "address": {"city": "CALUMET", "state": "MN", "street": "930 GARY ST", "postcode": "55716"}}},
{"geometry": {"type": "Point", "coordinates": [-93.2770671674, 47.3216366908]}, "type": "Feature", "properties": {"collection_times": [{"days": "Mon-Fri", "time": "11:30am"}, {"days": "Sat", "time": "9:45am"}, {"days": "Sun", "time": "Closed"}], "id": "5571600001", "name": "USPS COLLECTION BOX - PO LOBBY", "address": {"city": "CALUMET", "state": "MN", "street": "930 GARY ST", "postcode": "55716"}}},
{"geometry": {"type": "Point", "coordinates": [-92.4245883224, 46.6640603988]}, "type": "Feature", "properties": {"collection_times": [{"days": "Mon-Sat", "time": "12:00pm"}, {"days": "Sun", "time": "Closed"}], "id": "5571800000", "name": "USPS COLLECTION BOX - BLUE BOX", "address": {"city": "CARLTON", "state": "MN", "street": "313 CHESTNUT AVE", "postcode": "55718"}}},
{"geometry": {"type": "Point", "coordinates": [-92.4245883224, 46.6640603988]}, "type": "Feature", "properties": {"collection_times": [{"days": "Mon-Fri", "time": "12:00pm"}, {"days": "Sat", "time": "10:15am"}, {"days": "Sun", "time": "Closed"}], "id": "5571800004", "name": "USPS COLLECTION BOX - PO LOBBY", "address": {"city": "CARLTON", "state": "MN", "street": "313 CHESTNUT AVE", "postcode": "55718"}}},
{"geometry": {"type": "Point", "coordinates": [-92.8839075997, 47.4894667724]}, "type": "Feature", "properties": {"collection_times": [{"days": "Mon-Fri", "time": "10:45am"}, {"days": "Sat", "time": "10:00am"}, {"days": "Sun", "time": "Closed"}], "id": "5571900011", "name": "USPS COLLECTION BOX - BLUE BOX", "address": {"city": "CHISHOLM", "state": "MN", "street": "14 3RD AVE NW", "postcode": "55719"}}},
{"geometry": {"type": "Point", "coordinates": [-92.8839075997, 47.4894667724]}, "type": "Feature", "properties": {"collection_times": [{"days": "Mon-Fri", "time": "10:45am"}, {"days": "Sat", "time": "10:00am"}, {"days": "Sun", "time": "Closed"}], "id": "5571900012", "name": "USPS COLLECTION BOX - BLUE BOX", "address": {"city": "CHISHOLM", "state": "MN", "street": "14 3RD AVE NW", "postcode": "55719"}}},
{"geometry": {"type": "Point", "coordinates": [-92.8839075997, 47.4894667724]}, "type": "Feature", "properties": {"collection_times": [{"days": "Mon-Fri", "time": "10:45am"}, {"days": "Sat", "time": "10:00am"}, {"days": "Sun", "time": "Closed"}], "id": "5571900017", "name": "USPS COLLECTION BOX - PO LOBBY", "address": {"city": "CHISHOLM", "state": "MN", "street": "14 3RD AVE NW", "postcode": "55719"}}},
{"geometry": {"type": "Point", "coordinates": [-92.4601314988, 46.7216884175]}, "type": "Feature", "properties": {"collection_times": [{"days": "Mon-Sat", "time": "1:45pm"}, {"days": "Sun", "time": "Closed"}], "id": "5572000001", "name": "USPS COLLECTION BOX - BLUE BOX", "address": {"city": "CLOQUET", "state": "MN", "street": "316 CLOQUET AVE", "postcode": "55720"}}},
{"geometry": {"type": "Point", "coordinates": [-92.4585138629, 46.7216938076]}, "type": "Feature", "properties": {"collection_times": [{"days": "Mon-Sat", "time": "10:30am"}, {"days": "Sun", "time": "Closed"}], "id": "5572000003", "name": "USPS COLLECTION BOX - BLUE BOX", "address": {"city": "CLOQUET", "state": "MN", "street": "508 CLOQUET AVE", "postcode": "55720"}}},
{"geometry": {"type": "Point", "coordinates": [-92.4635717506, 46.7317737873]}, "type": "Feature", "properties": {"collection_times": [{"days": "Mon-Sat", "time": "10:00am"}, {"days": "Sun", "time": "Closed"}], "id": "5572000005", "name": "USPS COLLECTION BOX - BLUE BOX", "address": {"city": "CLOQUET", "state": "MN", "street": "512 SKYLINE BLVD", "postcode": "55720"}}},
{"geometry": {"type": "Point", "coordinates": [-92.4628130375, 46.7256575087]}, "type": "Feature", "properties": {"collection_times": [{"days": "Mon-Sat", "time": "9:00am"}, {"days": "Sun", "time": "Closed"}], "id": "5572000010", "name": "USPS COLLECTION BOX - BLUE BOX", "address": {"city": "CLOQUET", "state": "MN", "street": "707 HIGHWAY 33 S", "postcode": "55720"}}},
{"geometry": {"type": "Point", "coordinates": [-92.4568785554, 46.7064718065]}, "type": "Feature", "properties": {"collection_times": [{"days": "Mon-Sat", "time": "9:15am"}, {"days": "Sun", "time": "Closed"}], "id": "5572000011", "name": "USPS COLLECTION BOX - BLUE BOX", "address": {"city": "CLOQUET", "state": "MN", "street": "1308 HIGHWAY 33 S", "postcode": "55720"}}},
{"geometry": {"type": "Point", "coordinates": [-92.449144852, 46.7197729997]}, "type": "Feature", "properties": {"collection_times": [{"days": "Mon-Sat", "time": "9:30am"}, {"days": "Sun", "time": "Closed"}], "id": "5572000025", "name": "USPS COLLECTION BOX - BLUE BOX", "address": {"city": "CLOQUET", "state": "MN", "street": "101 14TH ST", "postcode": "55720"}}},
{"geometry": {"type": "Point", "coordinates": [-92.4601314988, 46.7216884175]}, "type": "Feature", "properties": {"collection_times": [{"days": "Mon-Sat", "time": "1:45pm"}, {"days": "Sun", "time": "Closed"}], "id": "5572000029", "name": "USPS COLLECTION BOX - PO LOBBY", "address": {"city": "CLOQUET", "state": "MN", "street": "316 CLOQUET AVE", "postcode": "55720"}}},
{"geometry": {"type": "Point", "coordinates": [-93.6202257367, 47.2632994217]}, "type": "Feature", "properties": {"collection_times": [{"days": "Mon-Sat", "time": "11:30am"}, {"days": "Sun", "time": "Closed"}], "id": "5572100001", "name": "USPS COLLECTION BOX - BLUE BOX", "address": {"city": "COHASSET", "state": "MN", "street": "10 W HIGHWAY 2", "postcode": "55721"}}},
{"geometry": {"type": "Point", "coordinates": [-93.6202257367, 47.2632994217]}, "type": "Feature", "properties": {"collection_times": [{"days": "Mon-Fri", "time": "11:30am"}, {"days": "Sat", "time": "10:00am"}, {"days": "Sun", "time": "Closed"}], "id": "5572100002", "name": "USPS COLLECTION BOX - PO LOBBY", "address": {"city": "COHASSET", "state": "MN", "street": "10 W HIGHWAY 2", "postcode": "55721"}}},
{"geometry": {"type": "Point", "coordinates": [-93.4317082497, 47.286662647]}, "type": "Feature", "properties": {"collection_times": [{"days": "Mon-Sat", "time": "12:00pm"}, {"days": "Sun", "time": "Closed"}], "id": "5572200000", "name": "USPS COLLECTION BOX - BLUE BOX", "address": {"city": "COLERAINE", "state": "MN", "street": "208 POSTAL ST", "postcode": "55722"}}},
{"geometry": {"type": "Point", "coordinates": [-93.4317082497, 47.286662647]}, "type": "Feature", "properties": {"collection_times": [{"days": "Mon-Fri", "time": "12:00pm"}, {"days": "Sat-Sun", "time": "Closed"}], "id": "5572200002", "name": "USPS COLLECTION BOX - PO LOBBY", "address": {"city": "COLERAINE", "state": "MN", "street": "208 POSTAL ST", "postcode": "55722"}}},
{"geometry": {"type": "Point", "coordinates": [-92.6887914067, 47.8521205408]}, "type": "Feature", "properties": {"collection_times": [{"days": "Mon-Sat", "time": "11:00am"}, {"days": "Sun", "time": "Closed"}], "id": "5572300001", "name": "USPS COLLECTION BOX - BLUE BOX", "address": {"city": "COOK", "state": "MN", "street": "126 S RIVER ST", "postcode": "55723"}}},
{"geometry": {"type": "Point", "coordinates": [-92.6887914067, 47.8521205408]}, "type": "Feature", "properties": {"collection_times": [{"days": "Mon-Fri", "time": "11:00am"}, {"days": "Sat", "time": "10:30am"}, {"days": "Sun", "time": "Closed"}], "id": "5572300002", "name": "USPS COLLECTION BOX - PO LOBBY", "address": {"city": "COOK", "state": "MN", "street": "126 S RIVER ST", "postcode": "55723"}}},
{"geometry": {"type": "Point", "coordinates": [-92.4746642599, 47.1630655677]}, "type": "Feature", "properties": {"collection_times": [{"days": "Mon-Sat", "time": "12:15pm"}, {"days": "Sun", "time": "Closed"}], "id": "5572400000", "name": "USPS COLLECTION BOX - BLUE BOX", "address": {"city": "COTTON", "state": "MN", "street": "9087 HIGHWAY 53", "postcode": "55724"}}},
{"geometry": {"type": "Point", "coordinates": [-92.4746642599, 47.1630655677]}, "type": "Feature", "properties": {"collection_times": [{"days": "Mon-Fri", "time": "12:15pm"}, {"days": "Sat", "time": "9:00am"}, {"days": "Sun", "time": "Closed"}], "id": "5572400002", "name": "USPS COLLECTION BOX - PO LOBBY", "address": {"city": "COTTON", "state": "MN", "street": "9087 HIGHWAY 53", "postcode": "55724"}}},
{"geometry": {"type": "Point", "coordinates": [-92.41703679, 47.2449039773]}, "type": "Feature", "properties": {"collection_times": [{"days": "Mon-Sat", "time": "10:00am"}, {"days": "Sun", "time": "Closed"}], "id": "5572400003", "name": "USPS COLLECTION BOX - BLUE BOX", "address": {"city": "COTTON", "state": "MN", "street": "1767 MELRUDE RD", "postcode": "55724"}}},
{"geometry": {"type": "Point", "coordinates": [-92.4892131999, 48.2645287829]}, "type": "Feature", "properties": {"collection_times": [{"days": "Mon-Sat", "time": "7:00am"}, {"days": "Sun", "time": "Closed"}], "id": "5572500000", "name": "USPS COLLECTION BOX - BLUE BOX", "address": {"city": "CRANE LAKE", "state": "MN", "street": "7511 GOLD COAST RD", "postcode": "55725"}}},
{"geometry": {"type": "Point", "coordinates": [-92.4892131999, 48.2645287829]}, "type": "Feature", "properties": {"collection_times": [{"days": "Mon-Sat", "time": "7:00am"}, {"days": "Sun", "time": "Closed"}], "id": "5572500001", "name": "USPS COLLECTION BOX - PO LOBBY", "address": {"city": "CRANE LAKE", "state": "MN", "street": "7511 GOLD COAST RD", "postcode": "55725"}}},
{"geometry": {"type": "Point", "coordinates": [-92.8816177913, 46.6796267231]}, "type": "Feature", "properties": {"collection_times": [{"days": "Mon-Sat", "time": "11:45am"}, {"days": "Sun", "time": "Closed"}], "id": "5572600000", "name": "USPS COLLECTION BOX - BLUE BOX", "address": {"city": "CROMWELL", "state": "MN", "street": "5570 HIGHWAY 210", "postcode": "55726"}}},
{"geometry": {"type": "Point", "coordinates": [-92.8816177913, 46.6796267231]}, "type": "Feature", "properties": {"collection_times": [{"days": "Mon-Fri", "time": "11:45am"}, {"days": "Sat", "time": "8:45am"}, {"days": "Sun", "time": "Closed"}], "id": "5572600001", "name": "USPS COLLECTION BOX - PO LOBBY", "address": {"city": "CROMWELL", "state": "MN", "street": "5570 HIGHWAY 210", "postcode": "55726"}}},
{"geometry": {"type": "Point", "coordinates": [-91.8638783615, 47.9020005133]}, "type": "Feature", "properties": {"collection_times": [{"days": "Mon-Sat", "time": "11:00am"}, {"days": "Sun", "time": "Closed"}], "id": "5573100001", "name": "USPS COLLECTION BOX - BLUE BOX", "address": {"city": "ELY", "state": "MN", "street": "34 S 2ND AVE E", "postcode": "55731"}}},
{"geometry": {"type": "Point", "coordinates": [-91.8638783615, 47.9020005133]}, "type": "Feature", "properties": {"collection_times": [{"days": "Mon-Sat", "time": "11:00am"}, {"days": "Sun", "time": "Closed"}], "id": "5573100002", "name": "USPS COLLECTION BOX - BLUE BOX", "address": {"city": "ELY", "state": "MN", "street": "34 S 2ND AVE E", "postcode": "55731"}}},
{"geometry": {"type": "Point", "coordinates": [-91.8486499193, 47.9031373054]}, "type": "Feature", "properties": {"collection_times": [{"days": "Mon-Sat", "time": "10:00am"}, {"days": "Sun", "time": "Closed"}], "id": "5573100005", "name": "USPS COLLECTION BOX - BLUE BOX", "address": {"city": "ELY", "state": "MN", "street": "1203 E SHERIDAN ST", "postcode": "55731"}}},
{"geometry": {"type": "Point", "coordinates": [-91.8666272285, 47.9023743689]}, "type": "Feature", "properties": {"collection_times": [{"days": "Mon-Sat", "time": "10:00am"}, {"days": "Sun", "time": "Closed"}], "id": "5573100006", "name": "USPS COLLECTION BOX - BLUE BOX", "address": {"city": "ELY", "state": "MN", "street": "22 E CHAPMAN ST", "postcode": "55731"}}},
{"geometry": {"type": "Point", "coordinates": [-91.8634997602, 47.9031567155]}, "type": "Feature", "properties": {"collection_times": [{"days": "Mon-Sat", "time": "10:00am"}, {"days": "Sun", "time": "Closed"}], "id": "5573100007", "name": "USPS COLLECTION BOX - BLUE BOX", "address": {"city": "ELY", "state": "MN", "street": "229 E SHERIDAN ST", "postcode": "55731"}}},
{"geometry": {"type": "Point", "coordinates": [-91.8638783615, 47.9020005133]}, "type": "Feature", "properties": {"collection_times": [{"days": "Mon-Sat", "time": "11:00am"}, {"days": "Sun", "time": "Closed"}], "id": "5573100010", "name": "USPS COLLECTION BOX - PO LOBBY", "address": {"city": "ELY", "state": "MN", "street": "34 S 2ND AVE E", "postcode": "55731"}}},
{"geometry": {"type": "Point", "coordinates": [-92.197753235, 47.659274822]}, "type": "Feature", "properties": {"collection_times": [{"days": "Mon-Sat", "time": "11:30am"}, {"days": "Sun", "time": "Closed"}], "id": "5573200000", "name": "USPS COLLECTION BOX - BLUE BOX", "address": {"city": "TOWER", "state": "MN", "street": "4880 HIGHWAY 21", "postcode": "55732"}}},
{"geometry": {"type": "Point", "coordinates": [-92.3657811236, 46.7068999929]}, "type": "Feature", "properties": {"collection_times": [{"days": "Mon-Sat", "time": "2:00pm"}, {"days": "Sun", "time": "Closed"}], "id": "5573300000", "name": "USPS COLLECTION BOX - BLUE BOX", "address": {"city": "ESKO", "state": "MN", "street": "10 W HIGHWAY 61", "postcode": "55733"}}},
{"geometry": {"type": "Point", "coordinates": [-92.3657811236, 46.7068999929]}, "type": "Feature", "properties": {"collection_times": [{"days": "Mon-Fri", "time": "2:00pm"}, {"days": "Sat", "time": "9:00am"}, {"days": "Sun", "time": "Closed"}], "id": "5573300001", "name": "USPS COLLECTION BOX - PO LOBBY", "address": {"city": "ESKO", "state": "MN", "street": "10 W HIGHWAY 61", "postcode": "55733"}}},
{"geometry": {"type": "Point", "coordinates": [-92.5395753707, 47.4634637194]}, "type": "Feature", "properties": {"collection_times": [{"days": "Mon-Sat", "time": "12:00pm"}, {"days": "Sun", "time": "Closed"}], "id": "5573400000", "name": "USPS COLLECTION BOX - BLUE BOX", "address": {"city": "EVELETH", "state": "MN", "street": "423 JONES ST", "postcode": "55734"}}},
{"geometry": {"type": "Point", "coordinates": [-92.5398758355, 47.4624627561]}, "type": "Feature", "properties": {"collection_times": [{"days": "Mon-Sat", "time": "11:00am"}, {"days": "Sun", "time": "Closed"}], "id": "5573400002", "name": "USPS COLLECTION BOX - BLUE BOX", "address": {"city": "EVELETH", "state": "MN", "street": "302 GRANT AVE", "postcode": "55734"}}},
{"geometry": {"type": "Point", "coordinates": [-92.5349068457, 47.4619495645]}, "type": "Feature", "properties": {"collection_times": [{"days": "Mon-Sat", "time": "11:00am"}, {"days": "Sun", "time": "Closed"}], "id": "5573400003", "name": "USPS COLLECTION BOX - BLUE BOX", "address": {"city": "EVELETH", "state": "MN", "street": "227 MCKINLEY AVE", "postcode": "55734"}}},
{"geometry": {"type": "Point", "coordinates": [-92.5395753707, 47.4634637194]}, "type": "Feature", "properties": {"collection_times": [{"days": "Mon-Sat", "time": "12:00pm"}, {"days": "Sun", "time": "Closed"}], "id": "5573400010", "name": "USPS COLLECTION BOX - PO LOBBY", "address": {"city": "EVELETH", "state": "MN", "street": "423 JONES ST", "postcode": "55734"}}},
{"geometry": {"type": "Point", "coordinates": [-93.0618153964, 46.2290601201]}, "type": "Feature", "properties": {"collection_times": [{"days": "Mon-Fri", "time": "10:45am"}, {"days": "Sat", "time": "10:00am"}, {"days": "Sun", "time": "Closed"}], "id": "5573500001", "name": "USPS COLLECTION BOX - PO LOBBY", "address": {"city": "FINLAYSON", "state": "MN", "street": "2217 FINLAND AVE", "postcode": "55735"}}},
{"geometry": {"type": "Point", "coordinates": [-93.0618153964, 46.2290601201]}, "type": "Feature", "properties": {"collection_times": [{"days": "Mon-Sat", "time": "10:45am"}, {"days": "Sun", "time": "Closed"}], "id": "5573500002", "name": "USPS COLLECTION BOX - BLUE BOX", "address": {"city": "FINLAYSON", "state": "MN", "street": "2217 FINLAND AVE", "postcode": "55735"}}},
{"geometry": {"type": "Point", "coordinates": [-92.9152484016, 46.9269359288]}, "type": "Feature", "properties": {"collection_times": [{"days": "Mon-Sat", "time": "12:15pm"}, {"days": "Sun", "time": "Closed"}], "id": "5573600000", "name": "USPS COLLECTION BOX - BLUE BOX", "address": {"city": "FLOODWOOD", "state": "MN", "street": "118 W 7TH AVE", "postcode": "55736"}}},
{"geometry": {"type": "Point", "coordinates": [-92.9152484016, 46.9269359288]}, "type": "Feature", "properties": {"collection_times": [{"days": "Mon-Fri", "time": "12:15pm"}, {"days": "Sat-Sun", "time": "Closed"}], "id": "5573600001", "name": "USPS COLLECTION BOX - PO LOBBY", "address": {"city": "FLOODWOOD", "state": "MN", "street": "118 W 7TH AVE", "postcode": "55736"}}},
{"geometry": {"type": "Point", "coordinates": [-92.6519444944, 47.2681000908]}, "type": "Feature", "properties": {"collection_times": [{"days": "Mon-Sat", "time": "11:30am"}, {"days": "Sun", "time": "Closed"}], "id": "5573800000", "name": "USPS COLLECTION BOX - BLUE BOX", "address": {"city": "FORBES", "state": "MN", "street": "3525 HIGHWAY 7", "postcode": "55738"}}},
{"geometry": {"type": "Point", "coordinates": [-92.6519444944, 47.2681000908]}, "type": "Feature", "properties": {"collection_times": [{"days": "Mon-Fri", "time": "11:30am"}, {"days": "Sat", "time": "11:15am"}, {"days": "Sun", "time": "Closed"}], "id": "5573800001", "name": "USPS COLLECTION BOX - PO LOBBY", "address": {"city": "FORBES", "state": "MN", "street": "3525 HIGHWAY 7", "postcode": "55738"}}},
{"geometry": {"type": "Point", "coordinates": [-92.4666839087, 47.4873121986]}, "type": "Feature", "properties": {"collection_times": [{"days": "Mon-Sat", "time": "12:15pm"}, {"days": "Sun", "time": "Closed"}], "id": "5574100000", "name": "USPS COLLECTION BOX - BLUE BOX", "address": {"city": "GILBERT", "state": "MN", "street": "2 N BROADWAY AVE", "postcode": "55741"}}},
{"geometry": {"type": "Point", "coordinates": [-92.4666839087, 47.4873121986]}, "type": "Feature", "properties": {"collection_times": [{"days": "Mon-Fri", "time": "12:15pm"}, {"days": "Sat-Sun", "time": "Closed"}], "id": "5574100002", "name": "USPS COLLECTION BOX - PO LOBBY", "address": {"city": "GILBERT", "state": "MN", "street": "2 N BROADWAY AVE", "postcode": "55741"}}},
{"geometry": {"type": "Point", "coordinates": [-93.5299687734, 47.2370441777]}, "type": "Feature", "properties": {"collection_times": [{"days": "Mon-Sat", "time": "12:15pm"}, {"days": "Sun", "time": "Closed"}], "id": "5574400000", "name": "USPS COLLECTION BOX - BLUE BOX", "address": {"city": "GRAND RAPIDS", "state": "MN", "street": "505 NW 1ST AVE", "postcode": "55744"}}},
{"geometry": {"type": "Point", "coordinates": [-93.5300077175, 47.2349399765]}, "type": "Feature", "properties": {"collection_times": [{"days": "Mon-Sat", "time": "10:00am"}, {"days": "Sun", "time": "Closed"}], "id": "5574400010", "name": "USPS COLLECTION BOX - BLUE BOX", "address": {"city": "GRAND RAPIDS", "state": "MN", "street": "301 NW 1ST AVE", "postcode": "55744"}}},
{"geometry": {"type": "Point", "coordinates": [-93.5292516051, 47.2045526113]}, "type": "Feature", "properties": {"collection_times": [{"days": "Mon-Sat", "time": "10:00am"}, {"days": "Sun", "time": "Closed"}], "id": "5574400020", "name": "USPS COLLECTION BOX - BLUE BOX", "address": {"city": "GRAND RAPIDS", "state": "MN", "street": "2410 S POKEGAMA AVE", "postcode": "55744"}}},
{"geometry": {"type": "Point", "coordinates": [-93.5299687734, 47.2370441777]}, "type": "Feature", "properties": {"collection_times": [{"days": "Mon-Sat", "time": "12:15pm"}, {"days": "Sun", "time": "Closed"}], "id": "5574400021", "name": "USPS COLLECTION BOX - PO LOBBY", "address": {"city": "GRAND RAPIDS", "state": "MN", "street": "505 NW 1ST AVE", "postcode": "55744"}}},
{"geometry": {"type": "Point", "coordinates": [-92.9391762791, 47.4286963303]}, "type": "Feature", "properties": {"collection_times": [{"days": "Mon-Sat", "time": "11:45am"}, {"days": "Sun", "time": "Closed"}], "id": "5574600001", "name": "USPS COLLECTION BOX - BLUE BOX", "address": {"city": "HIBBING", "state": "MN", "street": "1902 3RD AVE E", "postcode": "55746"}}},
{"geometry": {"type": "Point", "coordinates": [-92.9417843562, 47.4152666834]}, "type": "Feature", "properties": {"collection_times": [{"days": "Mon-Sat", "time": "10:00am"}, {"days": "Sun", "time": "Closed"}], "id": "5574600003", "name": "USPS COLLECTION BOX - BLUE BOX", "address": {"city": "HIBBING", "state": "MN", "street": "3017 1ST AVE", "postcode": "55746"}}},
{"geometry": {"type": "Point", "coordinates": [-92.9415551881, 47.4055255585]}, "type": "Feature", "properties": {"collection_times": [{"days": "Mon-Sat", "time": "10:00am"}, {"days": "Sun", "time": "Closed"}], "id": "5574600004", "name": "USPS COLLECTION BOX - BLUE BOX", "address": {"city": "HIBBING", "state": "MN", "street": "3817 1ST AVE", "postcode": "55746"}}},
{"geometry": {"type": "Point", "coordinates": [-92.9521950398, 47.4073848487]}, "type": "Feature", "properties": {"collection_times": [{"days": "Mon-Sat", "time": "10:15am"}, {"days": "Sun", "time": "Closed"}], "id": "5574600011", "name": "USPS COLLECTION BOX - BLUE BOX", "address": {"city": "HIBBING", "state": "MN", "street": "3505 9TH AVE W", "postcode": "55746"}}},
{"geometry": {"type": "Point", "coordinates": [-92.9239332139, 47.4213468309]}, "type": "Feature", "properties": {"collection_times": [{"days": "Mon-Sat", "time": "10:00am"}, {"days": "Sun", "time": "Closed"}], "id": "5574600020", "name": "USPS COLLECTION BOX - BLUE BOX", "address": {"city": "HIBBING", "state": "MN", "street": "2506 E BELTLINE", "postcode": "55746"}}},
{"geometry": {"type": "Point", "coordinates": [-92.9250095683, 47.403870103]}, "type": "Feature", "properties": {"collection_times": [{"days": "Mon-Sat", "time": "10:00am"}, {"days": "Sun", "time": "Closed"}], "id": "5574600021", "name": "USPS COLLECTION BOX - BLUE BOX", "address": {"city": "HIBBING", "state": "MN", "street": "3920 13TH AVE E", "postcode": "55746"}}},
{"geometry": {"type": "Point", "coordinates": [-92.9391762791, 47.4286963303]}, "type": "Feature", "properties": {"collection_times": [{"days": "Mon-Sat", "time": "11:45am"}, {"days": "Sun", "time": "Closed"}], "id": "5574600025", "name": "USPS COLLECTION BOX - PO LOBBY", "address": {"city": "HIBBING", "state": "MN", "street": "1902 3RD AVE E", "postcode": "55746"}}},
{"geometry": {"type": "Point", "coordinates": [-92.9767953308, 47.3989682405]}, "type": "Feature", "properties": {"collection_times": [{"days": "Mon-Sat", "time": "10:30am"}, {"days": "Sun", "time": "Closed"}], "id": "5574600028", "name": "USPS COLLECTION BOX - BLUE BOX", "address": {"city": "HIBBING", "state": "MN", "street": "12080 HIGHWAY 169 W", "postcode": "55746"}}},
{"geometry": {"type": "Point", "coordinates": [-93.5975213636, 46.9922478057]}, "type": "Feature", "properties": {"collection_times": [{"days": "Mon-Sat", "time": "10:00am"}, {"days": "Sun", "time": "Closed"}], "id": "5574800000", "name": "USPS COLLECTION BOX - BLUE BOX", "address": {"city": "HILL CITY", "state": "MN", "street": "133 LAKE AVE", "postcode": "55748"}}},
{"geometry": {"type": "Point", "coordinates": [-93.5975213636, 46.9922478057]}, "type": "Feature", "properties": {"collection_times": [{"days": "Mon-Sat", "time": "10:00am"}, {"days": "Sun", "time": "Closed"}], "id": "5574800001", "name": "USPS COLLECTION BOX - PO LOBBY", "address": {"city": "HILL CITY", "state": "MN", "street": "133 LAKE AVE", "postcode": "55748"}}},
{"geometry": {"type": "Point", "coordinates": [-92.1585561839, 47.517594072]}, "type": "Feature", "properties": {"collection_times": [{"days": "Mon-Sat", "time": "11:45am"}, {"days": "Sun", "time": "Closed"}], "id": "5575000000", "name": "USPS COLLECTION BOX - BLUE BOX", "address": {"city": "HOYT LAKES", "state": "MN", "street": "281 KENNEDY MEMORIAL DR", "postcode": "55750"}}},
{"geometry": {"type": "Point", "coordinates": [-92.1585561839, 47.517594072]}, "type": "Feature", "properties": {"collection_times": [{"days": "Mon-Fri", "time": "11:45am"}, {"days": "Sat", "time": "10:15am"}, {"days": "Sun", "time": "Closed"}], "id": "5575000010", "name": "USPS COLLECTION BOX - PO LOBBY", "address": {"city": "HOYT LAKES", "state": "MN", "street": "281 KENNEDY MEMORIAL DR", "postcode": "55750"}}},
{"geometry": {"type": "Point", "coordinates": [-92.6043526688, 47.4172044366]}, "type": "Feature", "properties": {"collection_times": [{"days": "Mon-Sat", "time": "11:30am"}, {"days": "Sun", "time": "Closed"}], "id": "5575100000", "name": "USPS COLLECTION BOX - BLUE BOX", "address": {"city": "IRON", "state": "MN", "street": "4123 MERRITT AVE", "postcode": "55751"}}},
{"geometry": {"type": "Point", "coordinates": [-92.6043526688, 47.4172044366]}, "type": "Feature", "properties": {"collection_times": [{"days": "Mon-Fri", "time": "11:30am"}, {"days": "Sat", "time": "11:15am"}, {"days": "Sun", "time": "Closed"}], "id": "5575100001", "name": "USPS COLLECTION BOX - PO LOBBY", "address": {"city": "IRON", "state": "MN", "street": "4123 MERRITT AVE", "postcode": "55751"}}},
{"geometry": {"type": "Point", "coordinates": [-93.0759768047, 47.398788398]}, "type": "Feature", "properties": {"collection_times": [{"days": "Mon-Sat", "time": "10:45am"}, {"days": "Sun", "time": "Closed"}], "id": "5575300000", "name": "USPS COLLECTION BOX - BLUE BOX", "address": {"city": "KEEWATIN", "state": "MN", "street": "123 3RD AVE", "postcode": "55753"}}},
{"geometry": {"type": "Point", "coordinates": [-93.0759768047, 47.398788398]}, "type": "Feature", "properties": {"collection_times": [{"days": "Mon-Sat", "time": "10:45am"}, {"days": "Sun", "time": "Closed"}], "id": "5575300001", "name": "USPS COLLECTION BOX - PO LOBBY", "address": {"city": "KEEWATIN", "state": "MN", "street": "123 3RD AVE", "postcode": "55753"}}},
{"geometry": {"type": "Point", "coordinates": [-92.586339506, 46.3398532004]}, "type": "Feature", "properties": {"collection_times": [{"days": "Mon-Sat", "time": "10:45am"}, {"days": "Sun", "time": "Closed"}], "id": "5575600000", "name": "USPS COLLECTION BOX - BLUE BOX", "address": {"city": "KERRICK", "state": "MN", "street": "8384 MAIN ST", "postcode": "55756"}}},
{"geometry": {"type": "Point", "coordinates": [-92.586339506, 46.3398532004]}, "type": "Feature", "properties": {"collection_times": [{"days": "Mon-Fri", "time": "10:45am"}, {"days": "Sat", "time": "9:30am"}, {"days": "Sun", "time": "Closed"}], "id": "5575600002", "name": "USPS COLLECTION BOX - PO LOBBY", "address": {"city": "KERRICK", "state": "MN", "street": "8384 MAIN ST", "postcode": "55756"}}},
{"geometry": {"type": "Point", "coordinates": [-92.8776508323, 46.4905141749]}, "type": "Feature", "properties": {"collection_times": [{"days": "Mon-Sat", "time": "10:45am"}, {"days": "Sun", "time": "Closed"}], "id": "5575700000", "name": "USPS COLLECTION BOX - BLUE BOX", "address": {"city": "KETTLE RIVER", "state": "MN", "street": "3970 MAIN ST", "postcode": "55757"}}},
{"geometry": {"type": "Point", "coordinates": [-92.8776508323, 46.4905141749]}, "type": "Feature", "properties": {"collection_times": [{"days": "Mon-Fri", "time": "11:00am"}, {"days": "Sat", "time": "9:00am"}, {"days": "Sun", "time": "Closed"}], "id": "5575700001", "name": "USPS COLLECTION BOX - PO LOBBY", "address": {"city": "KETTLE RIVER", "state": "MN", "street": "3970 MAIN ST", "postcode": "55757"}}},
{"geometry": {"type": "Point", "coordinates": [-93.3087374253, 46.606929308]}, "type": "Feature", "properties": {"collection_times": [{"days": "Mon-Sat", "time": "11:45am"}, {"days": "Sun", "time": "Closed"}], "id": "5576000000", "name": "USPS COLLECTION BOX - BLUE BOX", "address": {"city": "MC GREGOR", "state": "MN", "street": "26 N MADDY ST", "postcode": "55760"}}},
{"geometry": {"type": "Point", "coordinates": [-93.3087374253, 46.606929308]}, "type": "Feature", "properties": {"collection_times": [{"days": "Mon-Fri", "time": "11:45am"}, {"days": "Sat", "time": "9:30am"}, {"days": "Sun", "time": "Closed"}], "id": "5576000001", "name": "USPS COLLECTION BOX - PO LOBBY", "address": {"city": "MC GREGOR", "state": "MN", "street": "26 N MADDY ST", "postcode": "55760"}}},
{"geometry": {"type": "Point", "coordinates": [-93.3070949257, 46.7092285483]}, "type": "Feature", "properties": {"collection_times": [{"days": "Mon-Sat", "time": "10:00am"}, {"days": "Sun", "time": "Closed"}], "id": "5576000002", "name": "USPS COLLECTION BOX - BLUE BOX", "address": {"city": "MC GREGOR", "state": "MN", "street": "47952 STATE HIGHWAY 65", "postcode": "55760"}}},
{"geometry": {"type": "Point", "coordinates": [-92.3785928238, 47.3573803514]}, "type": "Feature", "properties": {"collection_times": [{"days": "Mon-Sat", "time": "11:00am"}, {"days": "Sun", "time": "Closed"}], "id": "5576300000", "name": "USPS COLLECTION BOX - BLUE BOX", "address": {"city": "MAKINEN", "state": "MN", "street": "6604 WILSON RD", "postcode": "55763"}}},
{"geometry": {"type": "Point", "coordinates": [-92.3785928238, 47.3573803514]}, "type": "Feature", "properties": {"collection_times": [{"days": "Mon-Fri", "time": "11:00am"}, {"days": "Sat", "time": "9:45am"}, {"days": "Sun", "time": "Closed"}], "id": "5576300003", "name": "USPS COLLECTION BOX - PO LOBBY", "address": {"city": "MAKINEN", "state": "MN", "street": "6604 WILSON RD", "postcode": "55763"}}},
{"geometry": {"type": "Point", "coordinates": [-93.2959135177, 47.3205958]}, "type": "Feature", "properties": {"collection_times": [{"days": "Mon-Sat", "time": "11:15am"}, {"days": "Sun", "time": "Closed"}], "id": "5576400000", "name": "USPS COLLECTION BOX - BLUE BOX", "address": {"city": "MARBLE", "state": "MN", "street": "109 ALICE AVE", "postcode": "55764"}}},
{"geometry": {"type": "Point", "coordinates": [-93.2959135177, 47.3205958]}, "type": "Feature", "properties": {"collection_times": [{"days": "Mon-Sat", "time": "11:15am"}, {"days": "Sun", "time": "Closed"}], "id": "5576400001", "name": "USPS COLLECTION BOX - PO LOBBY", "address": {"city": "MARBLE", "state": "MN", "street": "109 ALICE AVE", "postcode": "55764"}}},
{"geometry": {"type": "Point", "coordinates": [-92.7323668932, 47.0702622286]}, "type": "Feature", "properties": {"collection_times": [{"days": "Mon-Sat", "time": "12:00pm"}, {"days": "Sun", "time": "Closed"}], "id": "5576500000", "name": "USPS COLLECTION BOX - BLUE BOX", "address": {"city": "MEADOWLANDS", "state": "MN", "street": "7729 CENTRAL AVE", "postcode": "55765"}}},
{"geometry": {"type": "Point", "coordinates": [-92.7323668932, 47.0702622286]}, "type": "Feature", "properties": {"collection_times": [{"days": "Mon-Fri", "time": "12:00pm"}, {"days": "Sat", "time": "9:30am"}, {"days": "Sun", "time": "Closed"}], "id": "5576500001", "name": "USPS COLLECTION BOX - PO LOBBY", "address": {"city": "MEADOWLANDS", "state": "MN", "street": "7729 CENTRAL AVE", "postcode": "55765"}}},
{"geometry": {"type": "Point", "coordinates": [-92.7617577564, 46.4520051124]}, "type": "Feature", "properties": {"collection_times": [{"days": "Mon-Sat", "time": "12:15pm"}, {"days": "Sun", "time": "Closed"}], "id": "5576700000", "name": "USPS COLLECTION BOX - BLUE BOX", "address": {"city": "MOOSE LAKE", "state": "MN", "street": "205 ELM AVE", "postcode": "55767"}}},
{"geometry": {"type": "Point", "coordinates": [-92.7617577564, 46.4520051124]}, "type": "Feature", "properties": {"collection_times": [{"days": "Mon-Sat", "time": "12:15pm"}, {"days": "Sun", "time": "Closed"}], "id": "5576700001", "name": "USPS COLLECTION BOX - BLUE BOX", "address": {"city": "MOOSE LAKE", "state": "MN", "street": "205 ELM AVE", "postcode": "55767"}}},
{"geometry": {"type": "Point", "coordinates": [-92.7617577564, 46.4520051124]}, "type": "Feature", "properties": {"collection_times": [{"days": "Mon-Fri", "time": "12:15pm"}, {"days": "Sat", "time": "11:15am"}, {"days": "Sun", "time": "Closed"}], "id": "5576700002", "name": "USPS COLLECTION BOX - PO LOBBY", "address": {"city": "MOOSE LAKE", "state": "MN", "street": "205 ELM AVE", "postcode": "55767"}}},
{"geometry": {"type": "Point", "coordinates": [-92.7617577564, 46.4520051124]}, "type": "Feature", "properties": {"collection_times": [{"days": "Mon-Fri", "time": "12:15pm"}, {"days": "Sat", "time": "11:15am"}, {"days": "Sun", "time": "Closed"}], "id": "5576700003", "name": "USPS COLLECTION BOX - PO LOBBY", "address": {"city": "MOOSE LAKE", "state": "MN", "street": "205 ELM AVE", "postcode": "55767"}}},
{"geometry": {"type": "Point", "coordinates": [-92.6221130309, 47.5319643892]}, "type": "Feature", "properties": {"collection_times": [{"days": "Mon-Sat", "time": "11:45am"}, {"days": "Sun", "time": "Closed"}], "id": "5576800000", "name": "USPS COLLECTION BOX - BLUE BOX", "address": {"city": "MOUNTAIN IRON", "state": "MN", "street": "5756 MOUNTAIN AVE", "postcode": "55768"}}},
{"geometry": {"type": "Point", "coordinates": [-92.5815433996, 47.5226238055]}, "type": "Feature", "properties": {"collection_times": [{"days": "Mon-Sat", "time": "11:00am"}, {"days": "Sun", "time": "Closed"}], "id": "5576800001", "name": "USPS COLLECTION BOX - BLUE BOX", "address": {"city": "MOUNTAIN IRON", "state": "MN", "street": "5537 NICHOLS AVE", "postcode": "55768"}}},
{"geometry": {"type": "Point", "coordinates": [-92.6221130309, 47.5319643892]}, "type": "Feature", "properties": {"collection_times": [{"days": "Mon-Fri", "time": "11:45am"}, {"days": "Sat-Sun", "time": "Closed"}], "id": "5576800002", "name": "USPS COLLECTION BOX - PO LOBBY", "address": {"city": "MOUNTAIN IRON", "state": "MN", "street": "5756 MOUNTAIN AVE", "postcode": "55768"}}},
{"geometry": {"type": "Point", "coordinates": [-93.1672100605, 47.380042888]}, "type": "Feature", "properties": {"collection_times": [{"days": "Mon-Sat", "time": "11:00am"}, {"days": "Sun", "time": "Closed"}], "id": "5576900000", "name": "USPS COLLECTION BOX - BLUE BOX", "address": {"city": "NASHWAUK", "state": "MN", "street": "132 2ND ST", "postcode": "55769"}}},
{"geometry": {"type": "Point", "coordinates": [-93.1670814903, 47.3804278379]}, "type": "Feature", "properties": {"collection_times": [{"days": "Mon-Sat", "time": "10:00am"}, {"days": "Sun", "time": "Closed"}], "id": "5576900001", "name": "USPS COLLECTION BOX - BLUE BOX", "address": {"city": "NASHWAUK", "state": "MN", "street": "202 CENTRAL AVE", "postcode": "55769"}}},
{"geometry": {"type": "Point", "coordinates": [-93.1672100605, 47.380042888]}, "type": "Feature", "properties": {"collection_times": [{"days": "Mon-Fri", "time": "11:00am"}, {"days": "Sat", "time": "9:30am"}, {"days": "Sun", "time": "Closed"}], "id": "5576900002", "name": "USPS COLLECTION BOX - PO LOBBY", "address": {"city": "NASHWAUK", "state": "MN", "street": "132 2ND ST", "postcode": "55769"}}},
{"geometry": {"type": "Point", "coordinates": [-92.8316837931, 48.0525023884]}, "type": "Feature", "properties": {"collection_times": [{"days": "Mon-Sat", "time": "10:30am"}, {"days": "Sun", "time": "Closed"}], "id": "5577100000", "name": "USPS COLLECTION BOX - BLUE BOX", "address": {"city": "ORR", "state": "MN", "street": "4523 HIGHWAY 53", "postcode": "55771"}}},
{"geometry": {"type": "Point", "coordinates": [-93.0444565528, 48.4080054106]}, "type": "Feature", "properties": {"collection_times": [{"days": "Mon-Sat", "time": "7:30am"}, {"days": "Sun", "time": "Closed"}], "id": "5577100003", "name": "USPS COLLECTION BOX - BLUE BOX", "address": {"city": "ORR", "state": "MN", "street": "9378 HIGHWAY 53", "postcode": "55771"}}},
{"geometry": {"type": "Point", "coordinates": [-92.8316837931, 48.0525023884]}, "type": "Feature", "properties": {"collection_times": [{"days": "Mon-Fri", "time": "10:30am"}, {"days": "Sat-Sun", "time": "Closed"}], "id": "5577100004", "name": "USPS COLLECTION BOX - PO LOBBY", "address": {"city": "ORR", "state": "MN", "street": "4523 HIGHWAY 53", "postcode": "55771"}}},
{"geometry": {"type": "Point", "coordinates": [-93.092900549, 48.110900256]}, "type": "Feature", "properties": {"collection_times": [{"days": "Mon-Sat", "time": "7:30am"}, {"days": "Sun", "time": "Closed"}], "id": "5577100005", "name": "USPS COLLECTION BOX - BLUE BOX", "address": {"city": "ORR", "state": "MN", "street": "13072 NETT LAKE RD", "postcode": "55771"}}},
{"geometry": {"type": "Point", "coordinates": [-93.2014203027, 47.3376834761]}, "type": "Feature", "properties": {"collection_times": [{"days": "Mon-Fri", "time": "11:15am"}, {"days": "Sat", "time": "9:45am"}, {"days": "Sun", "time": "Closed"}], "id": "5577500000", "name": "USPS COLLECTION BOX - BLUE BOX", "address": {"city": "PENGILLY", "state": "MN", "street": "31143 STATE HIGHWAY 65", "postcode": "55775"}}},
{"geometry": {"type": "Point", "coordinates": [-93.2014203027, 47.3376834761]}, "type": "Feature", "properties": {"collection_times": [{"days": "Mon-Fri", "time": "11:15am"}, {"days": "Sat-Sun", "time": "Closed"}], "id": "5577500001", "name": "USPS COLLECTION BOX - PO LOBBY", "address": {"city": "PENGILLY", "state": "MN", "street": "31143 STATE HIGHWAY 65", "postcode": "55775"}}},
{"geometry": {"type": "Point", "coordinates": [-92.4329795999, 46.8524632523]}, "type": "Feature", "properties": {"collection_times": [{"days": "Mon-Sat", "time": "1:30pm"}, {"days": "Sun", "time": "Closed"}], "id": "5577900000", "name": "USPS COLLECTION BOX - BLUE BOX", "address": {"city": "SAGINAW", "state": "MN", "street": "7027 SAGINAW RD", "postcode": "55779"}}},
{"geometry": {"type": "Point", "coordinates": [-92.4329795999, 46.8524632523]}, "type": "Feature", "properties": {"collection_times": [{"days": "Mon-Fri", "time": "1:30pm"}, {"days": "Sat", "time": "10:15am"}, {"days": "Sun", "time": "Closed"}], "id": "5577900003", "name": "USPS COLLECTION BOX - PO LOBBY", "address": {"city": "SAGINAW", "state": "MN", "street": "7027 SAGINAW RD", "postcode": "55779"}}},
{"geometry": {"type": "Point", "coordinates": [-92.3599008724, 46.8923278248]}, "type": "Feature", "properties": {"collection_times": [{"days": "Mon-Sat", "time": "1:30pm"}, {"days": "Sun", "time": "Closed"}], "id": "5577900004", "name": "USPS COLLECTION BOX - BLUE BOX", "address": {"city": "SAGINAW", "state": "MN", "street": "5302 TWIG BLVD", "postcode": "55779"}}},
{"geometry": {"type": "Point", "coordinates": [-92.6344394328, 46.6712071284]}, "type": "Feature", "properties": {"collection_times": [{"days": "Mon-Sat", "time": "1:30pm"}, {"days": "Sun", "time": "Closed"}], "id": "5578000000", "name": "USPS COLLECTION BOX - BLUE BOX", "address": {"city": "SAWYER", "state": "MN", "street": "3252 HIGHWAY 210", "postcode": "55780"}}},
{"geometry": {"type": "Point", "coordinates": [-92.6344394328, 46.6712071284]}, "type": "Feature", "properties": {"collection_times": [{"days": "Mon-Fri", "time": "1:30pm"}, {"days": "Sat", "time": "8:45am"}, {"days": "Sun", "time": "Closed"}], "id": "5578000001", "name": "USPS COLLECTION BOX - PO LOBBY", "address": {"city": "SAWYER", "state": "MN", "street": "3252 HIGHWAY 210", "postcode": "55780"}}},
{"geometry": {"type": "Point", "coordinates": [-93.0245272745, 47.6648919941]}, "type": "Feature", "properties": {"collection_times": [{"days": "Mon-Sat", "time": "10:00am"}, {"days": "Sun", "time": "Closed"}], "id": "5578100000", "name": "USPS COLLECTION BOX - BLUE BOX", "address": {"city": "SIDE LAKE", "state": "MN", "street": "7481 MCCARTHY BEACH RD", "postcode": "55781"}}},
{"geometry": {"type": "Point", "coordinates": [-93.0245272745, 47.6648919941]}, "type": "Feature", "properties": {"collection_times": [{"days": "Mon-Sat", "time": "10:00am"}, {"days": "Sun", "time": "Closed"}], "id": "5578100001", "name": "USPS COLLECTION BOX - PO LOBBY", "address": {"city": "SIDE LAKE", "state": "MN", "street": "7481 MCCARTHY BEACH RD", "postcode": "55781"}}},
{"geometry": {"type": "Point", "coordinates": [-92.2315441547, 47.814174548]}, "type": "Feature", "properties": {"collection_times": [{"days": "Mon-Sat", "time": "11:30am"}, {"days": "Sun", "time": "Closed"}], "id": "5578200000", "name": "USPS COLLECTION BOX - BLUE BOX", "address": {"city": "SOUDAN", "state": "MN", "street": "31 1ST AVE", "postcode": "55782"}}},
{"geometry": {"type": "Point", "coordinates": [-92.2315441547, 47.814174548]}, "type": "Feature", "properties": {"collection_times": [{"days": "Mon-Fri", "time": "11:30am"}, {"days": "Sat", "time": "10:00am"}, {"days": "Sun", "time": "Closed"}], "id": "5578200001", "name": "USPS COLLECTION BOX - PO LOBBY", "address": {"city": "SOUDAN", "state": "MN", "street": "31 1ST AVE", "postcode": "55782"}}},
{"geometry": {"type": "Point", "coordinates": [-92.8251105679, 46.3834281912]}, "type": "Feature", "properties": {"collection_times": [{"days": "Mon-Sat", "time": "12:00pm"}, {"days": "Sun", "time": "Closed"}], "id": "5578300000", "name": "USPS COLLECTION BOX - BLUE BOX", "address": {"city": "STURGEON LAKE", "state": "MN", "street": "8992 1ST AVE", "postcode": "55783"}}},
{"geometry": {"type": "Point", "coordinates": [-92.8251105679, 46.3834281912]}, "type": "Feature", "properties": {"collection_times": [{"days": "Mon-Fri", "time": "12:00pm"}, {"days": "Sat", "time": "9:30am"}, {"days": "Sun", "time": "Closed"}], "id": "5578300001", "name": "USPS COLLECTION BOX - PO LOBBY", "address": {"city": "STURGEON LAKE", "state": "MN", "street": "8992 1ST AVE", "postcode": "55783"}}},
{"geometry": {"type": "Point", "coordinates": [-93.3812979003, 47.3111978158]}, "type": "Feature", "properties": {"collection_times": [{"days": "Mon-Fri", "time": "11:45am"}, {"days": "Sat", "time": "10:00am"}, {"days": "Sun", "time": "Closed"}], "id": "5578600000", "name": "USPS COLLECTION BOX - BLUE BOX", "address": {"city": "TACONITE", "state": "MN", "street": "28 HAYNES ST", "postcode": "55786"}}},
{"geometry": {"type": "Point", "coordinates": [-93.3812979003, 47.3111978158]}, "type": "Feature", "properties": {"collection_times": [{"days": "Mon-Fri", "time": "11:45am"}, {"days": "Sat", "time": "10:00am"}, {"days": "Sun", "time": "Closed"}], "id": "5578600001", "name": "USPS COLLECTION BOX - PO LOBBY", "address": {"city": "TACONITE", "state": "MN", "street": "28 HAYNES ST", "postcode": "55786"}}},
{"geometry": {"type": "Point", "coordinates": [-93.1272850775, 46.6478511765]}, "type": "Feature", "properties": {"collection_times": [{"days": "Mon-Sat", "time": "10:45am"}, {"days": "Sun", "time": "Closed"}], "id": "5578700000", "name": "USPS COLLECTION BOX - BLUE BOX", "address": {"city": "TAMARACK", "state": "MN", "street": "275 MAIN ST N", "postcode": "55787"}}},
{"geometry": {"type": "Point", "coordinates": [-93.1272850775, 46.6478511765]}, "type": "Feature", "properties": {"collection_times": [{"days": "Mon-Fri", "time": "10:45am"}, {"days": "Sat", "time": "8:45am"}, {"days": "Sun", "time": "Closed"}], "id": "5578700001", "name": "USPS COLLECTION BOX - PO LOBBY", "address": {"city": "TAMARACK", "state": "MN", "street": "275 MAIN ST N", "postcode": "55787"}}},
{"geometry": {"type": "Point", "coordinates": [-92.274801556, 47.8052752718]}, "type": "Feature", "properties": {"collection_times": [{"days": "Mon-Fri", "time": "11:30am"}, {"days": "Sat", "time": "10:45am"}, {"days": "Sun", "time": "Closed"}], "id": "5579000000", "name": "USPS COLLECTION BOX - BLUE BOX", "address": {"city": "TOWER", "state": "MN", "street": "508 MAIN ST", "postcode": "55790"}}},
{"geometry": {"type": "Point", "coordinates": [-92.274801556, 47.8052752718]}, "type": "Feature", "properties": {"collection_times": [{"days": "Mon-Fri", "time": "11:30am"}, {"days": "Sat", "time": "10:45am"}, {"days": "Sun", "time": "Closed"}], "id": "5579000001", "name": "USPS COLLECTION BOX - PO LOBBY", "address": {"city": "TOWER", "state": "MN", "street": "508 MAIN ST", "postcode": "55790"}}},
{"geometry": {"type": "Point", "coordinates": [-92.5335540647, 47.5222448927]}, "type": "Feature", "properties": {"collection_times": [{"days": "Mon-Sat", "time": "12:45pm"}, {"days": "Sun", "time": "Closed"}], "id": "5579200001", "name": "USPS COLLECTION BOX - BLUE BOX", "address": {"city": "VIRGINIA", "state": "MN", "street": "230 1ST ST S", "postcode": "55792"}}},
{"geometry": {"type": "Point", "coordinates": [-92.5420691604, 47.5270048509]}, "type": "Feature", "properties": {"collection_times": [{"days": "Mon-Sat", "time": "10:00am"}, {"days": "Sun", "time": "Closed"}], "id": "5579200007", "name": "USPS COLLECTION BOX - BLUE BOX", "address": {"city": "VIRGINIA", "state": "MN", "street": "601 4TH ST N", "postcode": "55792"}}},
{"geometry": {"type": "Point", "coordinates": [-92.5368813424, 47.5214251027]}, "type": "Feature", "properties": {"collection_times": [{"days": "Mon-Sat", "time": "12:00pm"}, {"days": "Sun", "time": "Closed"}], "id": "5579200009", "name": "USPS COLLECTION BOX - BLUE BOX", "address": {"city": "VIRGINIA", "state": "MN", "street": "409 2ND ST S", "postcode": "55792"}}},
{"geometry": {"type": "Point", "coordinates": [-92.5368813424, 47.5214251027]}, "type": "Feature", "properties": {"collection_times": [{"days": "Mon-Sat", "time": "12:00pm"}, {"days": "Sun", "time": "Closed"}], "id": "5579200010", "name": "USPS COLLECTION BOX - BLUE BOX", "address": {"city": "VIRGINIA", "state": "MN", "street": "409 2ND ST S", "postcode": "55792"}}},
{"geometry": {"type": "Point", "coordinates": [-92.5461382474, 47.5306762041]}, "type": "Feature", "properties": {"collection_times": [{"days": "Mon-Sat", "time": "10:00am"}, {"days": "Sun", "time": "Closed"}], "id": "5579200011", "name": "USPS COLLECTION BOX - BLUE BOX", "address": {"city": "VIRGINIA", "state": "MN", "street": "820 9TH ST N", "postcode": "55792"}}},
{"geometry": {"type": "Point", "coordinates": [-92.5510325544, 47.5233650759]}, "type": "Feature", "properties": {"collection_times": [{"days": "Mon-Sat", "time": "12:00pm"}, {"days": "Sun", "time": "Closed"}], "id": "5579200013", "name": "USPS COLLECTION BOX - BLUE BOX", "address": {"city": "VIRGINIA", "state": "MN", "street": "1001 CHESTNUT ST W", "postcode": "55792"}}},
{"geometry": {"type": "Point", "coordinates": [-92.5335540647, 47.5222448927]}, "type": "Feature", "properties": {"collection_times": [{"days": "Mon-Sat", "time": "12:45pm"}, {"days": "Sun", "time": "Closed"}], "id": "5579200024", "name": "USPS COLLECTION BOX - BLUE BOX", "address": {"city": "VIRGINIA", "state": "MN", "street": "230 1ST ST S", "postcode": "55792"}}},
{"geometry": {"type": "Point", "coordinates": [-92.5335540647, 47.5222448927]}, "type": "Feature", "properties": {"collection_times": [{"days": "Mon-Sat", "time": "12:45pm"}, {"days": "Sun", "time": "Closed"}], "id": "5579200025", "name": "USPS COLLECTION BOX - BLUE BOX", "address": {"city": "VIRGINIA", "state": "MN", "street": "230 1ST ST S", "postcode": "55792"}}},
{"geometry": {"type": "Point", "coordinates": [-92.5335540647, 47.5223545383]}, "type": "Feature", "properties": {"collection_times": [{"days": "Mon-Sat", "time": "12:45pm"}, {"days": "Sun", "time": "Closed"}], "id": "5579200027", "name": "USPS COLLECTION BOX - PO LOBBY", "address": {"city": "VIRGINIA", "state": "MN", "street": "231 1ST ST S", "postcode": "55792"}}},
{"geometry": {"type": "Point", "coordinates": [-92.5335540647, 47.5223545383]}, "type": "Feature", "properties": {"collection_times": [{"days": "Mon-Sat", "time": "12:45pm"}, {"days": "Sun", "time": "Closed"}], "id": "5579200028", "name": "USPS COLLECTION BOX - PO LOBBY", "address": {"city": "VIRGINIA", "state": "MN", "street": "231 1ST ST S", "postcode": "55792"}}},
{"geometry": {"type": "Point", "coordinates": [-92.5493175138, 47.5088806114]}, "type": "Feature", "properties": {"collection_times": [{"days": "Mon-Sat", "time": "11:45am"}, {"days": "Sun", "time": "Closed"}], "id": "5579200029", "name": "USPS COLLECTION BOX - BLUE BOX", "address": {"city": "VIRGINIA", "state": "MN", "street": "1111 17TH ST S", "postcode": "55792"}}},
{"geometry": {"type": "Point", "coordinates": [-92.5422455156, 47.5173947094]}, "type": "Feature", "properties": {"collection_times": [{"days": "Mon-Sat", "time": "12:00pm"}, {"days": "Sun", "time": "Closed"}], "id": "5579200031", "name": "USPS COLLECTION BOX - BLUE BOX", "address": {"city": "VIRGINIA", "state": "MN", "street": "704 S 7TH AVE", "postcode": "55792"}}},
{"geometry": {"type": "Point", "coordinates": [-93.265215175, 47.1289360015]}, "type": "Feature", "properties": {"collection_times": [{"days": "Mon-Sat", "time": "11:45am"}, {"days": "Sun", "time": "Closed"}], "id": "5579300000", "name": "USPS COLLECTION BOX - BLUE BOX", "address": {"city": "WARBA", "state": "MN", "street": "112 BRIDGE ST", "postcode": "55793"}}},
{"geometry": {"type": "Point", "coordinates": [-93.265215175, 47.1289360015]}, "type": "Feature", "properties": {"collection_times": [{"days": "Mon-Fri", "time": "11:45am"}, {"days": "Sat-Sun", "time": "Closed"}], "id": "5579300002", "name": "USPS COLLECTION BOX - PO LOBBY", "address": {"city": "WARBA", "state": "MN", "street": "112 BRIDGE ST", "postcode": "55793"}}},
{"geometry": {"type": "Point", "coordinates": [-92.8398574849, 46.319461248]}, "type": "Feature", "properties": {"collection_times": [{"days": "Mon-Sat", "time": "10:45am"}, {"days": "Sun", "time": "Closed"}], "id": "5579500000", "name": "USPS COLLECTION BOX - BLUE BOX", "address": {"city": "WILLOW RIVER", "state": "MN", "street": "3002 MAIN ST", "postcode": "55795"}}},
{"geometry": {"type": "Point", "coordinates": [-92.8398574849, 46.319461248]}, "type": "Feature", "properties": {"collection_times": [{"days": "Mon-Fri", "time": "10:45am"}, {"days": "Sat", "time": "9:45am"}, {"days": "Sun", "time": "Closed"}], "id": "5579500002", "name": "USPS COLLECTION BOX - PO LOBBY", "address": {"city": "WILLOW RIVER", "state": "MN", "street": "3002 MAIN ST", "postcode": "55795"}}},
{"geometry": {"type": "Point", "coordinates": [-92.3864038378, 46.621680724]}, "type": "Feature", "properties": {"collection_times": [{"days": "Mon-Sat", "time": "11:15am"}, {"days": "Sun", "time": "Closed"}], "id": "5579700000", "name": "USPS COLLECTION BOX - BLUE BOX", "address": {"city": "WRENSHALL", "state": "MN", "street": "104 BROADWAY", "postcode": "55797"}}},
{"geometry": {"type": "Point", "coordinates": [-92.3864038378, 46.621680724]}, "type": "Feature", "properties": {"collection_times": [{"days": "Mon-Fri", "time": "11:15am"}, {"days": "Sat", "time": "9:30am"}, {"days": "Sun", "time": "Closed"}], "id": "5579700001", "name": "USPS COLLECTION BOX - PO LOBBY", "address": {"city": "WRENSHALL", "state": "MN", "street": "104 BROADWAY", "postcode": "55797"}}},
{"geometry": {"type": "Point", "coordinates": [-93.0030693474, 46.6726226781]}, "type": "Feature", "properties": {"collection_times": [{"days": "Mon-Sat", "time": "11:45am"}, {"days": "Sun", "time": "Closed"}], "id": "5579800000", "name": "USPS COLLECTION BOX - BLUE BOX", "address": {"city": "WRIGHT", "state": "MN", "street": "6703 PACIFIC AVE", "postcode": "55798"}}},
{"geometry": {"type": "Point", "coordinates": [-93.0030693474, 46.6726226781]}, "type": "Feature", "properties": {"collection_times": [{"days": "Mon-Fri", "time": "11:45am"}, {"days": "Sat", "time": "9:00am"}, {"days": "Sun", "time": "Closed"}], "id": "5579800001", "name": "USPS COLLECTION BOX - PO LOBBY", "address": {"city": "WRIGHT", "state": "MN", "street": "6703 PACIFIC AVE", "postcode": "55798"}}}
]}
