{"type": "FeatureCollection", "features": [
{"geometry": {"type": "Point", "coordinates": [-92.106168704, 46.78241417]}, "type": "Feature", "properties": {"collection_times": [{"days": "Mon-Fri", "time": "1:00pm"}, {"days": "Sat-Sun", "time": "Closed"}], "id": "5580200001", "name": "USPS COLLECTION BOX - PO LOBBY", "address": {"city": "DULUTH", "state": "MN", "street": "515 W 1ST ST", "postcode": "55802"}}},
{"geometry": {"type": "Point", "coordinates": [-92.1008746242, 46.7864765405]}, "type": "Feature", "properties": {"collection_times": [{"days": "Mon-Fri", "time": "1:45pm"}, {"days": "Sat-Sun", "time": "Closed"}], "id": "5580200010", "name": "USPS COLLECTION BOX - BLUE BOX", "address": {"city": "DULUTH", "state": "MN", "street": "125 W 1ST ST", "postcode": "55802"}}},
{"geometry": {"type": "Point", "coordinates": [-92.0998292157, 46.7857045184]}, "type": "Feature", "properties": {"collection_times": [{"days": "Mon-Fri", "time": "1:45pm"}, {"days": "Sat-Sun", "time": "Closed"}], "id": "5580200013", "name": "USPS COLLECTION BOX - BLUE BOX", "address": {"city": "DULUTH", "state": "MN", "street": "131 W SUPERIOR ST", "postcode": "55802"}}},
{"geometry": {"type": "Point", "coordinates": [-92.1020475487, 46.7840244323]}, "type": "Feature", "properties": {"collection_times": [{"days": "Mon-Sat", "time": "1:30pm"}, {"days": "Sun", "time": "Closed"}], "id": "5580200014", "name": "USPS COLLECTION BOX - BLUE BOX", "address": {"city": "DULUTH", "state": "MN", "street": "307 W SUPERIOR ST", "postcode": "55802"}}},
{"geometry": {"type": "Point", "coordinates": [-92.1033253721, 46.7830560304]}, "type": "Feature", "properties": {"collection_times": [{"days": "Mon-Fri", "time": "1:30pm"}, {"days": "Sat-Sun", "time": "Closed"}], "id": "5580200016", "name": "USPS COLLECTION BOX - BLUE BOX", "address": {"city": "DULUTH", "state": "MN", "street": "407 W SUPERIOR ST", "postcode": "55802"}}},
{"geometry": {"type": "Point", "coordinates": [-92.0966583131, 46.7882301078]}, "type": "Feature", "properties": {"collection_times": [{"days": "Mon-Sat", "time": "12:15pm"}, {"days": "Sun", "time": "Closed"}], "id": "5580200020", "name": "USPS COLLECTION BOX - BLUE BOX", "address": {"city": "DULUTH", "state": "MN", "street": "127 E SUPERIOR ST", "postcode": "55802"}}},
{"geometry": {"type": "Point", "coordinates": [-92.0940321187, 46.7805800885]}, "type": "Feature", "properties": {"collection_times": [{"days": "Mon-Sat", "time": "12:15pm"}, {"days": "Sun", "time": "Closed"}], "id": "5580200031", "name": "USPS COLLECTION BOX - BLUE BOX", "address": {"city": "DULUTH", "state": "MN", "street": "11 W MORSE ST", "postcode": "55802"}}},
{"geometry": {"type": "Point", "coordinates": [-92.0827979052, 46.7986626884]}, "type": "Feature", "properties": {"collection_times": [{"days": "Mon-Fri", "time": "2:15pm"}, {"days": "Sat", "time": "12:45pm"}, {"days": "Sun", "time": "Closed"}], "id": "5580200033", "name": "USPS COLLECTION BOX - BLUE BOX", "address": {"city": "DULUTH", "state": "MN", "street": "1230 E SUPERIOR ST", "postcode": "55802"}}},
{"geometry": {"type": "Point", "coordinates": [-92.0946833416, 46.7818082793]}, "type": "Feature", "properties": {"collection_times": [{"days": "Mon-Fri", "time": "12:00pm"}, {"days": "Sat", "time": "11:00am"}, {"days": "Sun", "time": "Closed"}], "id": "5580200036", "name": "USPS COLLECTION BOX - BLUE BOX", "address": {"city": "DULUTH", "state": "MN", "street": "394 S LAKE AVE", "postcode": "55802"}}},
{"geometry": {"type": "Point", "coordinates": [-92.1042224998, 46.7853156161]}, "type": "Feature", "properties": {"collection_times": [{"days": "Mon-Fri", "time": "12:45pm"}, {"days": "Sat-Sun", "time": "Closed"}], "id": "5580200038", "name": "USPS COLLECTION BOX - BLUE BOX", "address": {"city": "DULUTH", "state": "MN", "street": "320 W 2ND ST", "postcode": "55802"}}},
{"geometry": {"type": "Point", "coordinates": [-92.1014052116, 46.7836725673]}, "type": "Feature", "properties": {"collection_times": [{"days": "Mon-Fri", "time": "12:30pm"}, {"days": "Sat-Sun", "time": "Closed"}], "id": "5580200039", "name": "USPS COLLECTION BOX - BLUE BOX", "address": {"city": "DULUTH", "state": "MN", "street": "300 W MICHIGAN ST", "postcode": "55802"}}},
{"geometry": {"type": "Point", "coordinates": [-92.0906447923, 46.7926590608]}, "type": "Feature", "properties": {"collection_times": [{"days": "Mon-Fri", "time": "12:00pm"}, {"days": "Sat-Sun", "time": "Closed"}], "id": "5580200085", "name": "USPS COLLECTION BOX - BLUE BOX", "address": {"city": "DULUTH", "state": "MN", "street": "600 E SUPERIOR ST", "postcode": "55802"}}},
{"geometry": {"type": "Point", "coordinates": [-92.1060019948, 46.7825410664]}, "type": "Feature", "properties": {"collection_times": [{"days": "Mon-Sat", "time": "1:00pm"}, {"days": "Sun", "time": "Closed"}], "id": "5580200089", "name": "USPS COLLECTION BOX - BLUE BOX", "address": {"city": "DULUTH", "state": "MN", "street": "531 1ST ST", "postcode": "55802"}}},
{"geometry": {"type": "Point", "coordinates": [-92.1031452763, 46.7847720155]}, "type": "Feature", "properties": {"collection_times": [{"days": "Mon-Fri", "time": "1:15pm"}, {"days": "Sat-Sun", "time": "Closed"}], "id": "5580200096", "name": "USPS COLLECTION BOX - BLUE BOX", "address": {"city": "DULUTH", "state": "MN", "street": "301 W 1ST ST", "postcode": "55802"}}},
{"geometry": {"type": "Point", "coordinates": [-92.1031452763, 46.7847720155]}, "type": "Feature", "properties": {"collection_times": [{"days": "Mon-Fri", "time": "1:15pm"}, {"days": "Sat-Sun", "time": "Closed"}], "id": "5580200097", "name": "USPS COLLECTION BOX - BLUE BOX", "address": {"city": "DULUTH", "state": "MN", "street": "301 W 1ST ST", "postcode": "55802"}}},
{"geometry": {"type": "Point", "coordinates": [-92.0736675027, 46.8211842296]}, "type": "Feature", "properties": {"collection_times": [{"days": "Mon-Sat", "time": "2:30pm"}, {"days": "Sun", "time": "Closed"}], "id": "5580300001", "name": "USPS COLLECTION BOX - PO LOBBY", "address": {"city": "DULUTH", "state": "MN", "street": "200 MOUNT ROYAL SHOPPING CIR", "postcode": "55803"}}},
{"geometry": {"type": "Point", "coordinates": [-92.0736675027, 46.8211842296]}, "type": "Feature", "properties": {"collection_times": [{"days": "Mon-Sat", "time": "1:30pm"}, {"days": "Sun", "time": "Closed"}], "id": "5580300002", "name": "USPS COLLECTION BOX - BLUE BOX", "address": {"city": "DULUTH", "state": "MN", "street": "200 MOUNT ROYAL SHOPPING CIR", "postcode": "55803"}}},
{"geometry": {"type": "Point", "coordinates": [-92.0736675027, 46.8211842296]}, "type": "Feature", "properties": {"collection_times": [{"days": "Mon-Sat", "time": "1:30pm"}, {"days": "Sun", "time": "Closed"}], "id": "5580300003", "name": "USPS COLLECTION BOX - BLUE BOX", "address": {"city": "DULUTH", "state": "MN", "street": "200 MOUNT ROYAL SHOPPING CIR", "postcode": "55803"}}},
{"geometry": {"type": "Point", "coordinates": [-92.0736675027, 46.8211842296]}, "type": "Feature", "properties": {"collection_times": [{"days": "Mon-Sat", "time": "2:30pm"}, {"days": "Sun", "time": "Closed"}], "id": "5580300004", "name": "USPS COLLECTION BOX - BLUE BOX", "address": {"city": "DULUTH", "state": "MN", "street": "200 MOUNT ROYAL SHOPPING CIR", "postcode": "55803"}}},
{"geometry": {"type": "Point", "coordinates": [-92.0817084717, 46.8501723193]}, "type": "Feature", "properties": {"collection_times": [{"days": "Mon-Fri", "time": "1:15pm"}, {"days": "Sat", "time": "10:00am"}, {"days": "Sun", "time": "Closed"}], "id": "5580300008", "name": "USPS COLLECTION BOX - BLUE BOX", "address": {"city": "DULUTH", "state": "MN", "street": "4020 WOODLAND AVE", "postcode": "55803"}}},
{"geometry": {"type": "Point", "coordinates": [-92.0342631014, 46.8266336306]}, "type": "Feature", "properties": {"collection_times": [{"days": "Mon-Fri", "time": "2:00pm"}, {"days": "Sat", "time": "12:30pm"}, {"days": "Sun", "time": "Closed"}], "id": "5580400002", "name": "USPS COLLECTION BOX - BLUE BOX", "address": {"city": "DULUTH", "state": "MN", "street": "4431 E SUPERIOR ST", "postcode": "55804"}}},
{"geometry": {"type": "Point", "coordinates": [-92.0342631014, 46.8266336306]}, "type": "Feature", "properties": {"collection_times": [{"days": "Mon-Fri", "time": "2:00pm"}, {"days": "Sat", "time": "12:30pm"}, {"days": "Sun", "time": "Closed"}], "id": "5580400003", "name": "USPS COLLECTION BOX - BLUE BOX", "address": {"city": "DULUTH", "state": "MN", "street": "4431 E SUPERIOR ST", "postcode": "55804"}}},
{"geometry": {"type": "Point", "coordinates": [-92.0160884121, 46.8364741191]}, "type": "Feature", "properties": {"collection_times": [{"days": "Mon-Fri", "time": "1:45pm"}, {"days": "Sat", "time": "12:30pm"}, {"days": "Sun", "time": "Closed"}], "id": "5580400004", "name": "USPS COLLECTION BOX - BLUE BOX", "address": {"city": "DULUTH", "state": "MN", "street": "5401 E SUPERIOR ST", "postcode": "55804"}}},
{"geometry": {"type": "Point", "coordinates": [-92.0273974723, 46.8302700903]}, "type": "Feature", "properties": {"collection_times": [{"days": "Mon-Fri", "time": "1:45pm"}, {"days": "Sat", "time": "12:30pm"}, {"days": "Sun", "time": "Closed"}], "id": "5580400005", "name": "USPS COLLECTION BOX - BLUE BOX", "address": {"city": "DULUTH", "state": "MN", "street": "4801 E SUPERIOR ST", "postcode": "55804"}}},
{"geometry": {"type": "Point", "coordinates": [-92.0933692347, 46.796588926]}, "type": "Feature", "properties": {"collection_times": [{"days": "Mon-Fri", "time": "11:15am"}, {"days": "Sat", "time": "10:00am"}, {"days": "Sun", "time": "Closed"}], "id": "5580500003", "name": "USPS COLLECTION BOX - BLUE BOX", "address": {"city": "DULUTH", "state": "MN", "street": "732 E 4TH ST", "postcode": "55805"}}},
{"geometry": {"type": "Point", "coordinates": [-92.0964485258, 46.8018949624]}, "type": "Feature", "properties": {"collection_times": [{"days": "Mon-Fri", "time": "11:00am"}, {"days": "Sat", "time": "10:00am"}, {"days": "Sun", "time": "Closed"}], "id": "5580500004", "name": "USPS COLLECTION BOX - BLUE BOX", "address": {"city": "DULUTH", "state": "MN", "street": "931 E 9TH ST", "postcode": "55805"}}},
{"geometry": {"type": "Point", "coordinates": [-92.0939671143, 46.7931315303]}, "type": "Feature", "properties": {"collection_times": [{"days": "Mon-Fri", "time": "12:00pm"}, {"days": "Sat-Sun", "time": "Closed"}], "id": "5580500013", "name": "USPS COLLECTION BOX - BLUE BOX", "address": {"city": "DULUTH", "state": "MN", "street": "502 E 2ND ST", "postcode": "55805"}}},
{"geometry": {"type": "Point", "coordinates": [-92.0867350318, 46.797177624]}, "type": "Feature", "properties": {"collection_times": [{"days": "Mon-Fri", "time": "11:30am"}, {"days": "Sat", "time": "10:30am"}, {"days": "Sun", "time": "Closed"}], "id": "5580500015", "name": "USPS COLLECTION BOX - BLUE BOX", "address": {"city": "DULUTH", "state": "MN", "street": "1000 E 1ST ST", "postcode": "55805"}}},
{"geometry": {"type": "Point", "coordinates": [-92.0828278888, 46.8003184011]}, "type": "Feature", "properties": {"collection_times": [{"days": "Mon-Sat", "time": "10:00am"}, {"days": "Sun", "time": "Closed"}], "id": "5580500023", "name": "USPS COLLECTION BOX - BLUE BOX", "address": {"city": "DULUTH", "state": "MN", "street": "1331 E 1ST ST", "postcode": "55805"}}},
{"geometry": {"type": "Point", "coordinates": [-92.0867350318, 46.797177624]}, "type": "Feature", "properties": {"collection_times": [{"days": "Mon-Fri", "time": "11:30am"}, {"days": "Sat", "time": "10:30am"}, {"days": "Sun", "time": "Closed"}], "id": "5580500026", "name": "USPS COLLECTION BOX - BLUE BOX", "address": {"city": "DULUTH", "state": "MN", "street": "1000 E 1ST ST", "postcode": "55805"}}},
{"geometry": {"type": "Point", "coordinates": [-92.1322190924, 46.759846413]}, "type": "Feature", "properties": {"collection_times": [{"days": "Mon-Sat", "time": "3:15pm"}, {"days": "Sun", "time": "Closed"}], "id": "5580600004", "name": "USPS COLLECTION BOX - BLUE BOX", "address": {"city": "DULUTH", "state": "MN", "street": "2800 W MICHIGAN ST", "postcode": "55806"}}},
{"geometry": {"type": "Point", "coordinates": [-92.1322190924, 46.759846413]}, "type": "Feature", "properties": {"collection_times": [{"days": "Mon-Sat", "time": "3:15pm"}, {"days": "Sun", "time": "Closed"}], "id": "5580600020", "name": "USPS COLLECTION BOX - BLUE BOX", "address": {"city": "DULUTH", "state": "MN", "street": "2800 W MICHIGAN ST", "postcode": "55806"}}},
{"geometry": {"type": "Point", "coordinates": [-92.1322190924, 46.759846413]}, "type": "Feature", "properties": {"collection_times": [{"days": "Mon-Sat", "time": "3:15pm"}, {"days": "Sun", "time": "Closed"}], "id": "5580600023", "name": "USPS COLLECTION BOX - PO LOBBY", "address": {"city": "DULUTH", "state": "MN", "street": "2800 W MICHIGAN ST", "postcode": "55806"}}},
{"geometry": {"type": "Point", "coordinates": [-92.1322190924, 46.759846413]}, "type": "Feature", "properties": {"collection_times": [{"days": "Mon-Sat", "time": "3:15pm"}, {"days": "Sun", "time": "Closed"}], "id": "5580600024", "name": "USPS COLLECTION BOX - PO LOBBY", "address": {"city": "DULUTH", "state": "MN", "street": "2800 W MICHIGAN ST", "postcode": "55806"}}},
{"geometry": {"type": "Point", "coordinates": [-92.1633935084, 46.7376010043]}, "type": "Feature", "properties": {"collection_times": [{"days": "Mon-Sat", "time": "10:00am"}, {"days": "Sun", "time": "Closed"}], "id": "5580700006", "name": "USPS COLLECTION BOX - BLUE BOX", "address": {"city": "DULUTH", "state": "MN", "street": "5300 BRISTOL ST", "postcode": "55807"}}},
{"geometry": {"type": "Point", "coordinates": [-92.1683482358, 46.7396819538]}, "type": "Feature", "properties": {"collection_times": [{"days": "Mon-Sat", "time": "10:00am"}, {"days": "Sun", "time": "Closed"}], "id": "5580700015", "name": "USPS COLLECTION BOX - BLUE BOX", "address": {"city": "DULUTH", "state": "MN", "street": "5631 GRAND AVE", "postcode": "55807"}}},
{"geometry": {"type": "Point", "coordinates": [-92.166586272, 46.7365567774]}, "type": "Feature", "properties": {"collection_times": [{"days": "Mon-Fri", "time": "2:30pm"}, {"days": "Sat", "time": "10:30am"}, {"days": "Sun", "time": "Closed"}], "id": "5580700028", "name": "USPS COLLECTION BOX - BLUE BOX", "address": {"city": "DULUTH", "state": "MN", "street": "215 N CENTRAL AVE", "postcode": "55807"}}},
{"geometry": {"type": "Point", "coordinates": [-92.1665841081, 46.7367580192]}, "type": "Feature", "properties": {"collection_times": [{"days": "Mon-Sat", "time": "10:00am"}, {"days": "Sun", "time": "Closed"}], "id": "5580700031", "name": "USPS COLLECTION BOX - BLUE BOX", "address": {"city": "DULUTH", "state": "MN", "street": "231 N CENTRAL AVE", "postcode": "55807"}}},
{"geometry": {"type": "Point", "coordinates": [-92.166586272, 46.7365567774]}, "type": "Feature", "properties": {"collection_times": [{"days": "Mon-Fri", "time": "2:30pm"}, {"days": "Sat-Sun", "time": "Closed"}], "id": "5580700032", "name": "USPS COLLECTION BOX - PO LOBBY", "address": {"city": "DULUTH", "state": "MN", "street": "215 N CENTRAL AVE", "postcode": "55807"}}},
{"geometry": {"type": "Point", "coordinates": [-92.2107160877, 46.6918996624]}, "type": "Feature", "properties": {"collection_times": [{"days": "Mon-Sat", "time": "10:30am"}, {"days": "Sun", "time": "Closed"}], "id": "5580800002", "name": "USPS COLLECTION BOX - BLUE BOX", "address": {"city": "DULUTH", "state": "MN", "street": "1002 88TH AVE W", "postcode": "55808"}}},
{"geometry": {"type": "Point", "coordinates": [-92.2265699292, 46.6708113386]}, "type": "Feature", "properties": {"collection_times": [{"days": "Mon-Sat", "time": "10:30am"}, {"days": "Sun", "time": "Closed"}], "id": "5580800006", "name": "USPS COLLECTION BOX - BLUE BOX", "address": {"city": "DULUTH", "state": "MN", "street": "1331 COMMONWEALTH AVE", "postcode": "55808"}}},
{"geometry": {"type": "Point", "coordinates": [-92.22272, 46.74396]}, "type": "Feature", "properties": {"collection_times": [{"days": "Mon-Fri", "time": "2:00pm"}, {"days": "Sat", "time": "1:00pm"}, {"days": "Sun", "time": "Closed"}], "id": "5581000003", "name": "USPS COLLECTION BOX - BLUE BOX", "address": {"city": "PROCTOR", "state": "MN", "street": "217 2ND ST", "postcode": "55810"}}},
{"geometry": {"type": "Point", "coordinates": [-92.217094, 46.73933]}, "type": "Feature", "properties": {"collection_times": [{"days": "Mon-Sat", "time": "11:00am"}, {"days": "Sun", "time": "Closed"}], "id": "5581000007", "name": "USPS COLLECTION BOX - BLUE BOX", "address": {"city": "PROCTOR", "state": "MN", "street": "124 S BOUNDARY AVE", "postcode": "55810"}}},
{"geometry": {"type": "Point", "coordinates": [-92.28013, 46.77868]}, "type": "Feature", "properties": {"collection_times": [{"days": "Mon-Sat", "time": "1:45pm"}, {"days": "Sun", "time": "Closed"}], "id": "5581000009", "name": "USPS COLLECTION BOX - BLUE BOX", "address": {"city": "PROCTOR", "state": "MN", "street": "3710 MIDWAY RD", "postcode": "55810"}}},
{"geometry": {"type": "Point", "coordinates": [-92.22272, 46.74396]}, "type": "Feature", "properties": {"collection_times": [{"days": "Mon-Fri", "time": "2:00pm"}, {"days": "Sat-Sun", "time": "Closed"}], "id": "5581000010", "name": "USPS COLLECTION BOX - PO LOBBY", "address": {"city": "PROCTOR", "state": "MN", "street": "217 2ND ST", "postcode": "55810"}}},
{"geometry": {"type": "Point", "coordinates": [-92.1609525553, 46.8066077525]}, "type": "Feature", "properties": {"collection_times": [{"days": "Mon-Fri", "time": "12:00pm"}, {"days": "Sat", "time": "11:00am"}, {"days": "Sun", "time": "Closed"}], "id": "5581100005", "name": "USPS COLLECTION BOX - BLUE BOX", "address": {"city": "HERMANTOWN", "state": "MN", "street": "1600 MILLER TRUNK HWY", "postcode": "55811"}}},
{"geometry": {"type": "Point", "coordinates": [-92.1695683815, 46.8101632441]}, "type": "Feature", "properties": {"collection_times": [{"days": "Mon-Sat", "time": "11:30am"}, {"days": "Sun", "time": "Closed"}], "id": "5581100007", "name": "USPS COLLECTION BOX - BLUE BOX", "address": {"city": "HERMANTOWN", "state": "MN", "street": "5105 BURNING TREE RD", "postcode": "55811"}}},
{"geometry": {"type": "Point", "coordinates": [-92.1441142179, 46.8009172503]}, "type": "Feature", "properties": {"collection_times": [{"days": "Mon-Fri", "time": "12:15pm"}, {"days": "Sat", "time": "10:30am"}, {"days": "Sun", "time": "Closed"}], "id": "5581100012", "name": "USPS COLLECTION BOX - BLUE BOX", "address": {"city": "HERMANTOWN", "state": "MN", "street": "615 W CENTRAL ENTRANCE", "postcode": "55811"}}},
{"geometry": {"type": "Point", "coordinates": [-92.2192197924, 46.8364794178]}, "type": "Feature", "properties": {"collection_times": [{"days": "Mon-Sat", "time": "11:15am"}, {"days": "Sun", "time": "Closed"}], "id": "5581100015", "name": "USPS COLLECTION BOX - BLUE BOX", "address": {"city": "HERMANTOWN", "state": "MN", "street": "5116 MILLER TRUNK HWY", "postcode": "55811"}}},
{"geometry": {"type": "Point", "coordinates": [-92.1549593118, 46.8050529877]}, "type": "Feature", "properties": {"collection_times": [{"days": "Mon-Fri", "time": "12:15pm"}, {"days": "Sat", "time": "12:00pm"}, {"days": "Sun", "time": "Closed"}], "id": "5581100016", "name": "USPS COLLECTION BOX - BLUE BOX", "address": {"city": "HERMANTOWN", "state": "MN", "street": "1301 MILLER TRUNK HWY", "postcode": "55811"}}},
{"geometry": {"type": "Point", "coordinates": [-92.0992820453, 46.8220899426]}, "type": "Feature", "properties": {"collection_times": [{"days": "Mon-Fri", "time": "12:45pm"}, {"days": "Sat", "time": "10:00am"}, {"days": "Sun", "time": "Closed"}], "id": "5581100021", "name": "USPS COLLECTION BOX - BLUE BOX", "address": {"city": "HERMANTOWN", "state": "MN", "street": "1332 W ARROWHEAD RD", "postcode": "55811"}}},
{"geometry": {"type": "Point", "coordinates": [-92.1074739318, 46.8008620722]}, "type": "Feature", "properties": {"collection_times": [{"days": "Mon-Fri", "time": "10:45am"}, {"days": "Sat-Sun", "time": "Closed"}], "id": "5581100022", "name": "USPS COLLECTION BOX - BLUE BOX", "address": {"city": "HERMANTOWN", "state": "MN", "street": "1215 RICE LAKE RD", "postcode": "55811"}}},
{"geometry": {"type": "Point", "coordinates": [-92.1071147477, 46.7974454778]}, "type": "Feature", "properties": {"collection_times": [{"days": "Mon-Fri", "time": "10:45am"}, {"days": "Sat-Sun", "time": "Closed"}], "id": "5581100023", "name": "USPS COLLECTION BOX - BLUE BOX", "address": {"city": "HERMANTOWN", "state": "MN", "street": "1123 MESABA AVE", "postcode": "55811"}}},
{"geometry": {"type": "Point", "coordinates": [-92.1860097877, 46.8214221502]}, "type": "Feature", "properties": {"collection_times": [{"days": "Mon-Fri", "time": "11:15am"}, {"days": "Sat", "time": "11:00am"}, {"days": "Sun", "time": "Closed"}], "id": "5581100025", "name": "USPS COLLECTION BOX - BLUE BOX", "address": {"city": "HERMANTOWN", "state": "MN", "street": "4810 MILLER TRUNK HWY", "postcode": "55811"}}},
{"geometry": {"type": "Point", "coordinates": [-92.1586829014, 46.7815329074]}, "type": "Feature", "properties": {"collection_times": [{"days": "Mon-Fri", "time": "11:45am"}, {"days": "Sat", "time": "10:00am"}, {"days": "Sun", "time": "Closed"}], "id": "5581100027", "name": "USPS COLLECTION BOX - BLUE BOX", "address": {"city": "HERMANTOWN", "state": "MN", "street": "2703 PIEDMONT AVE", "postcode": "55811"}}},
{"geometry": {"type": "Point", "coordinates": [-92.2788637264, 46.8524118089]}, "type": "Feature", "properties": {"collection_times": [{"days": "Mon-Sat", "time": "2:00pm"}, {"days": "Sun", "time": "Closed"}], "id": "5581100029", "name": "USPS COLLECTION BOX - BLUE BOX", "address": {"city": "HERMANTOWN", "state": "MN", "street": "5686 MILLER TRUNK HWY", "postcode": "55811"}}},
{"geometry": {"type": "Point", "coordinates": [-92.1649191835, 46.8085560349]}, "type": "Feature", "properties": {"collection_times": [{"days": "Mon-Sat", "time": "11:30am"}, {"days": "Sun", "time": "Closed"}], "id": "5581100032", "name": "USPS COLLECTION BOX - BLUE BOX", "address": {"city": "HERMANTOWN", "state": "MN", "street": "1902 MILLER TRUNK HWY", "postcode": "55811"}}},
{"geometry": {"type": "Point", "coordinates": [-92.1387351911, 46.7825877809]}, "type": "Feature", "properties": {"collection_times": [{"days": "Mon-Fri", "time": "10:30am"}, {"days": "Sat-Sun", "time": "Closed"}], "id": "5581100038", "name": "USPS COLLECTION BOX - BLUE BOX", "address": {"city": "HERMANTOWN", "state": "MN", "street": "2101 TRINITY RD", "postcode": "55811"}}},
{"geometry": {"type": "Point", "coordinates": [-92.1003413496, 46.8185603907]}, "type": "Feature", "properties": {"collection_times": [{"days": "Mon-Fri", "time": "12:45pm"}, {"days": "Sat-Sun", "time": "Closed"}], "id": "5581100058", "name": "USPS COLLECTION BOX - BLUE BOX", "address": {"city": "HERMANTOWN", "state": "MN", "street": "1200 KENWOOD AVE", "postcode": "55811"}}},
{"geometry": {"type": "Point", "coordinates": [-92.1695723989, 46.8103771152]}, "type": "Feature", "properties": {"collection_times": [{"days": "Mon-Sat", "time": "11:30am"}, {"days": "Sun", "time": "Closed"}], "id": "5581100060", "name": "USPS COLLECTION BOX - BLUE BOX", "address": {"city": "HERMANTOWN", "state": "MN", "street": "5401 BURNING TREE RD", "postcode": "55811"}}},
{"geometry": {"type": "Point", "coordinates": [-92.1694775482, 46.8054101287]}, "type": "Feature", "properties": {"collection_times": [{"days": "Mon-Sat", "time": "11:30am"}, {"days": "Sun", "time": "Closed"}], "id": "5581100067", "name": "USPS COLLECTION BOX - BLUE BOX", "address": {"city": "HERMANTOWN", "state": "MN", "street": "4915 MATTERHORN DR", "postcode": "55811"}}},
{"geometry": {"type": "Point", "coordinates": [-92.2192197924, 46.8364794178]}, "type": "Feature", "properties": {"collection_times": [{"days": "Mon-Sat", "time": "11:15am"}, {"days": "Sun", "time": "Closed"}], "id": "5581100069", "name": "USPS COLLECTION BOX - BLUE BOX", "address": {"city": "HERMANTOWN", "state": "MN", "street": "5116 MILLER TRUNK HWY", "postcode": "55811"}}},
{"geometry": {"type": "Point", "coordinates": [-92.1609525553, 46.8066077525]}, "type": "Feature", "properties": {"collection_times": [{"days": "Mon-Fri", "time": "12:00pm"}, {"days": "Sat", "time": "11:00am"}, {"days": "Sun", "time": "Closed"}], "id": "5581100070", "name": "USPS COLLECTION BOX - BLUE BOX", "address": {"city": "HERMANTOWN", "state": "MN", "street": "1600 MILLER TRUNK HWY", "postcode": "55811"}}},
{"geometry": {"type": "Point", "coordinates": [-92.1651368618, 46.811328863]}, "type": "Feature", "properties": {"collection_times": [{"days": "Mon-Fri", "time": "12:30pm"}, {"days": "Sat-Sun", "time": "Closed"}], "id": "5581100071", "name": "USPS COLLECTION BOX - BLUE BOX", "address": {"city": "HERMANTOWN", "state": "MN", "street": "4444 HAINES RD", "postcode": "55811"}}},
{"geometry": {"type": "Point", "coordinates": [-92.0704739817, 46.8037988762]}, "type": "Feature", "properties": {"collection_times": [{"days": "Mon-Fri", "time": "2:15pm"}, {"days": "Sat", "time": "11:00am"}, {"days": "Sun", "time": "Closed"}], "id": "5581200005", "name": "USPS COLLECTION BOX - BLUE BOX", "address": {"city": "DULUTH", "state": "MN", "street": "2002 LONDON RD", "postcode": "55812"}}},
{"geometry": {"type": "Point", "coordinates": [-92.1001575938, 46.8184769412]}, "type": "Feature", "properties": {"collection_times": [{"days": "Mon-Fri", "time": "1:00pm"}, {"days": "Sat", "time": "9:30am"}, {"days": "Sun", "time": "Closed"}], "id": "5581200012", "name": "USPS COLLECTION BOX - BLUE BOX", "address": {"city": "DULUTH", "state": "MN", "street": "10 E NIAGARA ST", "postcode": "55812"}}}
]}
