{"type": "FeatureCollection", "features": [
{"geometry": {"type": "Point", "coordinates": [-92.491117247, 44.037079015]}, "type": "Feature", "properties": {"collection_times": [{"days": "Mon-Fri", "time": "5:00pm"}, {"days": "Sat", "time": "4:30pm"}, {"days": "Sun", "time": "Closed"}], "id": "5590100001", "name": "USPS COLLECTION BOX - BLUE BOX", "address": {"city": "ROCHESTER", "state": "MN", "street": "1445 VALLEYHIGH DR NW", "postcode": "55901"}}},
{"geometry": {"type": "Point", "coordinates": [-92.4795725174, 44.0313990088]}, "type": "Feature", "properties": {"collection_times": [{"days": "Mon-Fri", "time": "1:45pm"}, {"days": "Sat-Sun", "time": "Closed"}], "id": "5590100016", "name": "USPS COLLECTION BOX - BLUE BOX", "address": {"city": "ROCHESTER", "state": "MN", "street": "1134 7TH ST NW", "postcode": "55901"}}},
{"geometry": {"type": "Point", "coordinates": [-92.4982684736, 44.0635194782]}, "type": "Feature", "properties": {"collection_times": [{"days": "Mon-Fri", "time": "3:45pm"}, {"days": "Sat", "time": "2:00pm"}, {"days": "Sun", "time": "Closed"}], "id": "5590100104", "name": "USPS COLLECTION BOX - BLUE BOX", "address": {"city": "ROCHESTER", "state": "MN", "street": "3936 HIGHWAY 52 N", "postcode": "55901"}}},
{"geometry": {"type": "Point", "coordinates": [-92.4628957439, 44.0416049911]}, "type": "Feature", "properties": {"collection_times": [{"days": "Mon-Fri", "time": "3:15pm"}, {"days": "Sat-Sun", "time": "Closed"}], "id": "5590100113", "name": "USPS COLLECTION BOX - BLUE BOX", "address": {"city": "ROCHESTER", "state": "MN", "street": "120 ELTON HILLS LN NW", "postcode": "55901"}}},
{"geometry": {"type": "Point", "coordinates": [-92.4715738064, 44.0614555712]}, "type": "Feature", "properties": {"collection_times": [{"days": "Mon-Fri", "time": "3:45pm"}, {"days": "Sat", "time": "2:15pm"}, {"days": "Sun", "time": "Closed"}], "id": "5590100122", "name": "USPS COLLECTION BOX - BLUE BOX", "address": {"city": "ROCHESTER", "state": "MN", "street": "500 37TH ST NW", "postcode": "55901"}}},
{"geometry": {"type": "Point", "coordinates": [-92.491117247, 44.037079015]}, "type": "Feature", "properties": {"collection_times": [{"days": "Mon-Fri", "time": "5:00pm"}, {"days": "Sat", "time": "4:30pm"}, {"days": "Sun", "time": "Closed"}], "id": "5590100134", "name": "USPS COLLECTION BOX - PO LOBBY", "address": {"city": "ROCHESTER", "state": "MN", "street": "1445 VALLEYHIGH DR NW", "postcode": "55901"}}},
{"geometry": {"type": "Point", "coordinates": [-92.491117247, 44.037079015]}, "type": "Feature", "properties": {"collection_times": [{"days": "Mon-Fri", "time": "5:00pm"}, {"days": "Sat", "time": "4:30pm"}, {"days": "Sun", "time": "Closed"}], "id": "5590100135", "name": "USPS COLLECTION BOX - PO LOBBY", "address": {"city": "ROCHESTER", "state": "MN", "street": "1445 VALLEYHIGH DR NW", "postcode": "55901"}}},
{"geometry": {"type": "Point", "coordinates": [-92.494696839, 44.0560218353]}, "type": "Feature", "properties": {"collection_times": [{"days": "Mon-Fri", "time": "3:45pm"}, {"days": "Sat", "time": "2:00pm"}, {"days": "Sun", "time": "Closed"}], "id": "5590100137", "name": "USPS COLLECTION BOX - BLUE BOX", "address": {"city": "ROCHESTER", "state": "MN", "street": "3839 MARKETPLACE DR NW", "postcode": "55901"}}},
{"geometry": {"type": "Point", "coordinates": [-92.491117247, 44.037079015]}, "type": "Feature", "properties": {"collection_times": [{"days": "Mon-Fri", "time": "5:00pm"}, {"days": "Sat", "time": "4:30pm"}, {"days": "Sun", "time": "Closed"}], "id": "5590100138", "name": "USPS COLLECTION BOX - APC", "address": {"city": "ROCHESTER", "state": "MN", "street": "1445 VALLEYHIGH DR NW", "postcode": "55901"}}},
{"geometry": {"type": "Point", "coordinates": [-92.4869752377, 44.0018482103]}, "type": "Feature", "properties": {"collection_times": [{"days": "Mon-Fri", "time": "2:15pm"}, {"days": "Sat-Sun", "time": "Closed"}], "id": "5590200005", "name": "USPS COLLECTION BOX - BLUE BOX", "address": {"city": "ROCHESTER", "state": "MN", "street": "1600 GREENVIEW DR SW", "postcode": "55902"}}},
{"geometry": {"type": "Point", "coordinates": [-92.4860986132, 44.0226395588]}, "type": "Feature", "properties": {"collection_times": [{"days": "Mon-Fri", "time": "2:00pm"}, {"days": "Sat-Sun", "time": "Closed"}], "id": "5590200019", "name": "USPS COLLECTION BOX - BLUE BOX", "address": {"city": "ROCHESTER", "state": "MN", "street": "1605 1ST ST SW", "postcode": "55902"}}},
{"geometry": {"type": "Point", "coordinates": [-92.4634113339, 44.0216358467]}, "type": "Feature", "properties": {"collection_times": [{"days": "Mon-Fri", "time": "2:45pm"}, {"days": "Sat-Sun", "time": "Closed"}], "id": "5590200044", "name": "USPS COLLECTION BOX - BLUE BOX", "address": {"city": "ROCHESTER", "state": "MN", "street": "21 2ND ST SW", "postcode": "55902"}}},
{"geometry": {"type": "Point", "coordinates": [-92.4833601135, 44.0068056107]}, "type": "Feature", "properties": {"collection_times": [{"days": "Mon-Fri", "time": "2:15pm"}, {"days": "Sat-Sun", "time": "Closed"}], "id": "5590200052", "name": "USPS COLLECTION BOX - BLUE BOX", "address": {"city": "ROCHESTER", "state": "MN", "street": "1300 SALEM RD SW", "postcode": "55902"}}},
{"geometry": {"type": "Point", "coordinates": [-92.4603799556, 44.0193805309]}, "type": "Feature", "properties": {"collection_times": [{"days": "Mon-Fri", "time": "3:45pm"}, {"days": "Sat-Sun", "time": "Closed"}], "id": "5590400030", "name": "USPS COLLECTION BOX - BLUE BOX", "address": {"city": "ROCHESTER", "state": "MN", "street": "151 4TH ST SE", "postcode": "55904"}}},
{"geometry": {"type": "Point", "coordinates": [-92.46005981, 44.0126335414]}, "type": "Feature", "properties": {"collection_times": [{"days": "Mon-Fri", "time": "3:45pm"}, {"days": "Sat-Sun", "time": "Closed"}], "id": "5590400031", "name": "USPS COLLECTION BOX - BLUE BOX", "address": {"city": "ROCHESTER", "state": "MN", "street": "201 9TH ST SE", "postcode": "55904"}}},
{"geometry": {"type": "Point", "coordinates": [-92.4628227946, 44.0224921345]}, "type": "Feature", "properties": {"collection_times": [{"days": "Mon-Fri", "time": "4:15pm"}, {"days": "Sat", "time": "3:15pm"}, {"days": "Sun", "time": "Closed"}], "id": "5590400032", "name": "USPS COLLECTION BOX - BLUE BOX", "address": {"city": "ROCHESTER", "state": "MN", "street": "102 S BROADWAY", "postcode": "55904"}}},
{"geometry": {"type": "Point", "coordinates": [-92.4438193494, 44.0107942011]}, "type": "Feature", "properties": {"collection_times": [{"days": "Mon-Fri", "time": "3:30pm"}, {"days": "Sat-Sun", "time": "Closed"}], "id": "5590400037", "name": "USPS COLLECTION BOX - BLUE BOX", "address": {"city": "ROCHESTER", "state": "MN", "street": "1021 15TH AVE SE", "postcode": "55904"}}},
{"geometry": {"type": "Point", "coordinates": [-92.4628227949, 44.0224921346]}, "type": "Feature", "properties": {"collection_times": [{"days": "Mon-Fri", "time": "4:15pm"}, {"days": "Sat", "time": "3:15pm"}, {"days": "Sun", "time": "Closed"}], "id": "5590400044", "name": "USPS COLLECTION BOX - BLUE BOX", "address": {"city": "ROCHESTER", "state": "MN", "street": "102 S BROADWAY", "postcode": "55904"}}},
{"geometry": {"type": "Point", "coordinates": [-92.4628543567, 44.0214841739]}, "type": "Feature", "properties": {"collection_times": [{"days": "Mon-Fri", "time": "3:45pm"}, {"days": "Sat-Sun", "time": "Closed"}], "id": "5590400045", "name": "USPS COLLECTION BOX - BLUE BOX", "address": {"city": "ROCHESTER", "state": "MN", "street": "206 S BROADWAY", "postcode": "55904"}}},
{"geometry": {"type": "Point", "coordinates": [-92.4382468976, 44.0089126135]}, "type": "Feature", "properties": {"collection_times": [{"days": "Mon-Sat", "time": "4:15pm"}, {"days": "Sun", "time": "Closed"}], "id": "5590400046", "name": "USPS COLLECTION BOX - PO LOBBY", "address": {"city": "ROCHESTER", "state": "MN", "street": "1224 EASTGATE DR SE", "postcode": "55904"}}},
{"geometry": {"type": "Point", "coordinates": [-92.4382468976, 44.0089126135]}, "type": "Feature", "properties": {"collection_times": [{"days": "Mon-Sat", "time": "4:15pm"}, {"days": "Sun", "time": "Closed"}], "id": "5590400047", "name": "USPS COLLECTION BOX - BLUE BOX", "address": {"city": "ROCHESTER", "state": "MN", "street": "1224 EASTGATE DR SE", "postcode": "55904"}}},
{"geometry": {"type": "Point", "coordinates": [-92.4382468976, 44.0089126135]}, "type": "Feature", "properties": {"collection_times": [{"days": "Mon-Sat", "time": "4:15pm"}, {"days": "Sun", "time": "Closed"}], "id": "5590400049", "name": "USPS COLLECTION BOX - APC", "address": {"city": "ROCHESTER", "state": "MN", "street": "1224 EASTGATE DR SE", "postcode": "55904"}}},
{"geometry": {"type": "Point", "coordinates": [-92.4619548691, 44.0388312391]}, "type": "Feature", "properties": {"collection_times": [{"days": "Mon-Fri", "time": "3:30pm"}, {"days": "Sat", "time": "3:15pm"}, {"days": "Sun", "time": "Closed"}], "id": "5590600009", "name": "USPS COLLECTION BOX - BLUE BOX", "address": {"city": "ROCHESTER", "state": "MN", "street": "1510 N BROADWAY", "postcode": "55906"}}},
{"geometry": {"type": "Point", "coordinates": [-92.4195439149, 44.0148042392]}, "type": "Feature", "properties": {"collection_times": [{"days": "Mon-Fri", "time": "3:00pm"}, {"days": "Sat-Sun", "time": "Closed"}], "id": "5590600017", "name": "USPS COLLECTION BOX - BLUE BOX", "address": {"city": "ROCHESTER", "state": "MN", "street": "851 30TH AVE SE", "postcode": "55906"}}},
{"geometry": {"type": "Point", "coordinates": [-92.7192562773, 43.5657028466]}, "type": "Feature", "properties": {"collection_times": [{"days": "Mon-Fri", "time": "2:15pm"}, {"days": "Sat", "time": "9:00am"}, {"days": "Sun", "time": "Closed"}], "id": "5590900001", "name": "USPS COLLECTION BOX - BLUE BOX", "address": {"city": "ADAMS", "state": "MN", "street": "18 NW 4TH ST", "postcode": "55909"}}},
{"geometry": {"type": "Point", "coordinates": [-92.7192562773, 43.5657028466]}, "type": "Feature", "properties": {"collection_times": [{"days": "Mon-Fri", "time": "2:15pm"}, {"days": "Sat", "time": "9:00am"}, {"days": "Sun", "time": "Closed"}], "id": "5590900002", "name": "USPS COLLECTION BOX - PO LOBBY", "address": {"city": "ADAMS", "state": "MN", "street": "18 NW 4TH ST", "postcode": "55909"}}},
{"geometry": {"type": "Point", "coordinates": [-91.9397077967, 44.071307251]}, "type": "Feature", "properties": {"collection_times": [{"days": "Mon-Fri", "time": "2:30pm"}, {"days": "Sat", "time": "9:00am"}, {"days": "Sun", "time": "Closed"}], "id": "5591000001", "name": "USPS COLLECTION BOX - BLUE BOX", "address": {"city": "ALTURA", "state": "MN", "street": "17 S MAIN ST", "postcode": "55910"}}},
{"geometry": {"type": "Point", "coordinates": [-91.9397077967, 44.071307251]}, "type": "Feature", "properties": {"collection_times": [{"days": "Mon-Fri", "time": "2:00pm"}, {"days": "Sat", "time": "9:00am"}, {"days": "Sun", "time": "Closed"}], "id": "5591000002", "name": "USPS COLLECTION BOX - PO LOBBY", "address": {"city": "ALTURA", "state": "MN", "street": "17 S MAIN ST", "postcode": "55910"}}},
{"geometry": {"type": "Point", "coordinates": [-92.9897224726, 43.6656289476]}, "type": "Feature", "properties": {"collection_times": [{"days": "Mon-Sat", "time": "1:00pm"}, {"days": "Sun", "time": "Closed"}], "id": "5591200001", "name": "USPS COLLECTION BOX - BLUE BOX", "address": {"city": "AUSTIN", "state": "MN", "street": "1305 1ST AVE SW", "postcode": "55912"}}},
{"geometry": {"type": "Point", "coordinates": [-92.9918242232, 43.6847802484]}, "type": "Feature", "properties": {"collection_times": [{"days": "Mon-Sat", "time": "12:00pm"}, {"days": "Sun", "time": "Closed"}], "id": "5591200003", "name": "USPS COLLECTION BOX - BLUE BOX", "address": {"city": "AUSTIN", "state": "MN", "street": "1001 18TH AVE NW", "postcode": "55912"}}},
{"geometry": {"type": "Point", "coordinates": [-92.9614828787, 43.6699218689]}, "type": "Feature", "properties": {"collection_times": [{"days": "Mon-Sat", "time": "1:00pm"}, {"days": "Sun", "time": "Closed"}], "id": "5591200006", "name": "USPS COLLECTION BOX - BLUE BOX", "address": {"city": "AUSTIN", "state": "MN", "street": "500 10TH ST NE", "postcode": "55912"}}},
{"geometry": {"type": "Point", "coordinates": [-92.95168581, 43.6668046087]}, "type": "Feature", "properties": {"collection_times": [{"days": "Mon-Sat", "time": "2:30pm"}, {"days": "Sun", "time": "Closed"}], "id": "5591200007", "name": "USPS COLLECTION BOX - BLUE BOX", "address": {"city": "AUSTIN", "state": "MN", "street": "1701 E OAKLAND AVE", "postcode": "55912"}}},
{"geometry": {"type": "Point", "coordinates": [-92.9887076712, 43.6657298796]}, "type": "Feature", "properties": {"collection_times": [{"days": "Mon-Sat", "time": "12:00pm"}, {"days": "Sun", "time": "Closed"}], "id": "5591200009", "name": "USPS COLLECTION BOX - BLUE BOX", "address": {"city": "AUSTIN", "state": "MN", "street": "1200 1ST AVE SW", "postcode": "55912"}}},
{"geometry": {"type": "Point", "coordinates": [-92.9935615529, 43.6694322316]}, "type": "Feature", "properties": {"collection_times": [{"days": "Mon-Sat", "time": "1:00pm"}, {"days": "Sun", "time": "Closed"}], "id": "5591200010", "name": "USPS COLLECTION BOX - BLUE BOX", "address": {"city": "AUSTIN", "state": "MN", "street": "407 14TH ST NW", "postcode": "55912"}}},
{"geometry": {"type": "Point", "coordinates": [-92.9860636318, 43.6849685569]}, "type": "Feature", "properties": {"collection_times": [{"days": "Mon-Sat", "time": "12:00pm"}, {"days": "Sun", "time": "Closed"}], "id": "5591200011", "name": "USPS COLLECTION BOX - BLUE BOX", "address": {"city": "AUSTIN", "state": "MN", "street": "1000 18TH AVE NW", "postcode": "55912"}}},
{"geometry": {"type": "Point", "coordinates": [-92.974889592, 43.6684186102]}, "type": "Feature", "properties": {"collection_times": [{"days": "Mon-Sat", "time": "1:00pm"}, {"days": "Sun", "time": "Closed"}], "id": "5591200016", "name": "USPS COLLECTION BOX - BLUE BOX", "address": {"city": "AUSTIN", "state": "MN", "street": "100 2ND AVE NW", "postcode": "55912"}}},
{"geometry": {"type": "Point", "coordinates": [-92.9696704891, 43.6692383225]}, "type": "Feature", "properties": {"collection_times": [{"days": "Mon-Sat", "time": "1:00pm"}, {"days": "Sun", "time": "Closed"}], "id": "5591200017", "name": "USPS COLLECTION BOX - BLUE BOX", "address": {"city": "AUSTIN", "state": "MN", "street": "400 4TH ST NE", "postcode": "55912"}}},
{"geometry": {"type": "Point", "coordinates": [-92.9736152517, 43.6656284226]}, "type": "Feature", "properties": {"collection_times": [{"days": "Mon-Sat", "time": "3:00pm"}, {"days": "Sun", "time": "Closed"}], "id": "5591200018", "name": "USPS COLLECTION BOX - BLUE BOX", "address": {"city": "AUSTIN", "state": "MN", "street": "200 1ST AVE SE", "postcode": "55912"}}},
{"geometry": {"type": "Point", "coordinates": [-92.9586418963, 43.6657450568]}, "type": "Feature", "properties": {"collection_times": [{"days": "Mon-Sat", "time": "2:30pm"}, {"days": "Sun", "time": "Closed"}], "id": "5591200021", "name": "USPS COLLECTION BOX - BLUE BOX", "address": {"city": "AUSTIN", "state": "MN", "street": "1205 OAKLAND PL SE", "postcode": "55912"}}},
{"geometry": {"type": "Point", "coordinates": [-92.9736152517, 43.6656284226]}, "type": "Feature", "properties": {"collection_times": [{"days": "Mon-Sat", "time": "3:00pm"}, {"days": "Sun", "time": "Closed"}], "id": "5591200024", "name": "USPS COLLECTION BOX - PO LOBBY", "address": {"city": "AUSTIN", "state": "MN", "street": "200 1ST AVE SE", "postcode": "55912"}}},
{"geometry": {"type": "Point", "coordinates": [-92.9928882216, 43.684778786]}, "type": "Feature", "properties": {"collection_times": [{"days": "Mon-Sat", "time": "1:00pm"}, {"days": "Sun", "time": "Closed"}], "id": "5591200026", "name": "USPS COLLECTION BOX - BLUE BOX", "address": {"city": "AUSTIN", "state": "MN", "street": "1209 18TH AVE NW", "postcode": "55912"}}},
{"geometry": {"type": "Point", "coordinates": [-92.9736152517, 43.6656284226]}, "type": "Feature", "properties": {"collection_times": [{"days": "Mon-Sat", "time": "3:00pm"}, {"days": "Sun", "time": "Closed"}], "id": "5591200031", "name": "USPS COLLECTION BOX - BLUE BOX", "address": {"city": "AUSTIN", "state": "MN", "street": "200 1ST AVE SE", "postcode": "55912"}}},
{"geometry": {"type": "Point", "coordinates": [-92.9736152517, 43.6656284226]}, "type": "Feature", "properties": {"collection_times": [{"days": "Mon-Sat", "time": "3:00pm"}, {"days": "Sun", "time": "Closed"}], "id": "5591200032", "name": "USPS COLLECTION BOX - BLUE BOX", "address": {"city": "AUSTIN", "state": "MN", "street": "200 1ST AVE SE", "postcode": "55912"}}},
{"geometry": {"type": "Point", "coordinates": [-92.9736152517, 43.6656284226]}, "type": "Feature", "properties": {"collection_times": [{"days": "Mon-Sat", "time": "3:00pm"}, {"days": "Sun", "time": "Closed"}], "id": "5591200033", "name": "USPS COLLECTION BOX - BLUE BOX", "address": {"city": "AUSTIN", "state": "MN", "street": "200 1ST AVE SE", "postcode": "55912"}}},
{"geometry": {"type": "Point", "coordinates": [-92.9736152517, 43.6656284226]}, "type": "Feature", "properties": {"collection_times": [{"days": "Mon-Sat", "time": "3:00pm"}, {"days": "Sun", "time": "Closed"}], "id": "5591200034", "name": "USPS COLLECTION BOX - BLUE BOX", "address": {"city": "AUSTIN", "state": "MN", "street": "200 1ST AVE SE", "postcode": "55912"}}},
{"geometry": {"type": "Point", "coordinates": [-92.9736152517, 43.6656284226]}, "type": "Feature", "properties": {"collection_times": [{"days": "Mon-Sat", "time": "3:00pm"}, {"days": "Sun", "time": "Closed"}], "id": "5591200035", "name": "USPS COLLECTION BOX - BLUE BOX", "address": {"city": "AUSTIN", "state": "MN", "street": "200 1ST AVE SE", "postcode": "55912"}}},
{"geometry": {"type": "Point", "coordinates": [-92.970892264, 43.6691606839]}, "type": "Feature", "properties": {"collection_times": [{"days": "Mon-Sat", "time": "10:30am"}, {"days": "Sun", "time": "Closed"}], "id": "5591200036", "name": "USPS COLLECTION BOX - BLUE BOX", "address": {"city": "AUSTIN", "state": "MN", "street": "400 3RD AVE NE", "postcode": "55912"}}},
{"geometry": {"type": "Point", "coordinates": [-92.9786954314, 43.6748655519]}, "type": "Feature", "properties": {"collection_times": [{"days": "Mon-Sat", "time": "12:00pm"}, {"days": "Sun", "time": "Closed"}], "id": "5591200037", "name": "USPS COLLECTION BOX - BLUE BOX", "address": {"city": "AUSTIN", "state": "MN", "street": "1000 1ST DR NW", "postcode": "55912"}}},
{"geometry": {"type": "Point", "coordinates": [-93.0705491079, 43.8775116293]}, "type": "Feature", "properties": {"collection_times": [{"days": "Mon-Fri", "time": "2:30pm"}, {"days": "Sat", "time": "11:00am"}, {"days": "Sun", "time": "Closed"}], "id": "5591700003", "name": "USPS COLLECTION BOX - BLUE BOX", "address": {"city": "BLOOMING PRAIRIE", "state": "MN", "street": "401 2ND ST SE", "postcode": "55917"}}},
{"geometry": {"type": "Point", "coordinates": [-93.0496185409, 43.864398846]}, "type": "Feature", "properties": {"collection_times": [{"days": "Mon-Fri", "time": "2:30pm"}, {"days": "Sat", "time": "11:00am"}, {"days": "Sun", "time": "Closed"}], "id": "5591700004", "name": "USPS COLLECTION BOX - PO LOBBY", "address": {"city": "BLOOMING PRAIRIE", "state": "MN", "street": "450 2ND ST SE", "postcode": "55917"}}},
{"geometry": {"type": "Point", "coordinates": [-92.8694527991, 43.7406556722]}, "type": "Feature", "properties": {"collection_times": [{"days": "Mon-Fri", "time": "2:30pm"}, {"days": "Sat", "time": "9:30am"}, {"days": "Sun", "time": "Closed"}], "id": "5591800001", "name": "USPS COLLECTION BOX - BLUE BOX", "address": {"city": "BROWNSDALE", "state": "MN", "street": "118 MILL ST S", "postcode": "55918"}}},
{"geometry": {"type": "Point", "coordinates": [-92.8694527991, 43.7406556722]}, "type": "Feature", "properties": {"collection_times": [{"days": "Mon-Fri", "time": "2:30pm"}, {"days": "Sat", "time": "9:30am"}, {"days": "Sun", "time": "Closed"}], "id": "5591800002", "name": "USPS COLLECTION BOX - PO LOBBY", "address": {"city": "BROWNSDALE", "state": "MN", "street": "118 MILL ST S", "postcode": "55918"}}},
{"geometry": {"type": "Point", "coordinates": [-91.2776150704, 43.694109373]}, "type": "Feature", "properties": {"collection_times": [{"days": "Mon-Fri", "time": "2:00pm"}, {"days": "Sat", "time": "10:00am"}, {"days": "Sun", "time": "Closed"}], "id": "5591900001", "name": "USPS COLLECTION BOX - BLUE BOX", "address": {"city": "BROWNSVILLE", "state": "MN", "street": "508 MAIN ST", "postcode": "55919"}}},
{"geometry": {"type": "Point", "coordinates": [-91.2776150704, 43.694109373]}, "type": "Feature", "properties": {"collection_times": [{"days": "Mon-Fri", "time": "2:00pm"}, {"days": "Sat", "time": "10:00am"}, {"days": "Sun", "time": "Closed"}], "id": "5591900003", "name": "USPS COLLECTION BOX - PO LOBBY", "address": {"city": "BROWNSVILLE", "state": "MN", "street": "508 MAIN ST", "postcode": "55919"}}},
{"geometry": {"type": "Point", "coordinates": [-92.6452985045, 44.0306400455]}, "type": "Feature", "properties": {"collection_times": [{"days": "Mon-Fri", "time": "4:00pm"}, {"days": "Sat", "time": "11:45am"}, {"days": "Sun", "time": "Closed"}], "id": "5592000001", "name": "USPS COLLECTION BOX - BLUE BOX", "address": {"city": "BYRON", "state": "MN", "street": "218 BYRON AVE N", "postcode": "55920"}}},
{"geometry": {"type": "Point", "coordinates": [-92.6452985045, 44.0306400455]}, "type": "Feature", "properties": {"collection_times": [{"days": "Mon-Fri", "time": "4:00pm"}, {"days": "Sat", "time": "11:45am"}, {"days": "Sun", "time": "Closed"}], "id": "5592000003", "name": "USPS COLLECTION BOX - PO LOBBY", "address": {"city": "BYRON", "state": "MN", "street": "218 BYRON AVE N", "postcode": "55920"}}},
{"geometry": {"type": "Point", "coordinates": [-91.4956439629, 43.6336650278]}, "type": "Feature", "properties": {"collection_times": [{"days": "Mon-Fri", "time": "2:15pm"}, {"days": "Sat", "time": "11:00am"}, {"days": "Sun", "time": "Closed"}], "id": "5592100001", "name": "USPS COLLECTION BOX - BLUE BOX", "address": {"city": "CALEDONIA", "state": "MN", "street": "125 E GROVE ST", "postcode": "55921"}}},
{"geometry": {"type": "Point", "coordinates": [-91.5013608121, 43.6383393692]}, "type": "Feature", "properties": {"collection_times": [{"days": "Mon-Sat", "time": "10:00am"}, {"days": "Sun", "time": "Closed"}], "id": "5592100006", "name": "USPS COLLECTION BOX - BLUE BOX", "address": {"city": "CALEDONIA", "state": "MN", "street": "510 VISTA DR", "postcode": "55921"}}},
{"geometry": {"type": "Point", "coordinates": [-91.4956439629, 43.6336650278]}, "type": "Feature", "properties": {"collection_times": [{"days": "Mon-Fri", "time": "2:15pm"}, {"days": "Sat", "time": "11:00am"}, {"days": "Sun", "time": "Closed"}], "id": "5592100007", "name": "USPS COLLECTION BOX - PO LOBBY", "address": {"city": "CALEDONIA", "state": "MN", "street": "125 E GROVE ST", "postcode": "55921"}}},
{"geometry": {"type": "Point", "coordinates": [-91.9296516425, 43.5318660609]}, "type": "Feature", "properties": {"collection_times": [{"days": "Mon-Fri", "time": "2:15pm"}, {"days": "Sat", "time": "9:00am"}, {"days": "Sun", "time": "Closed"}], "id": "5592200001", "name": "USPS COLLECTION BOX - BLUE BOX", "address": {"city": "CANTON", "state": "MN", "street": "308 N MAIN ST", "postcode": "55922"}}},
{"geometry": {"type": "Point", "coordinates": [-91.9296516425, 43.5318660609]}, "type": "Feature", "properties": {"collection_times": [{"days": "Mon-Fri", "time": "2:15pm"}, {"days": "Sat", "time": "9:00am"}, {"days": "Sun", "time": "Closed"}], "id": "5592200002", "name": "USPS COLLECTION BOX - PO LOBBY", "address": {"city": "CANTON", "state": "MN", "street": "308 N MAIN ST", "postcode": "55922"}}},
{"geometry": {"type": "Point", "coordinates": [-92.1879939926, 43.8450182365]}, "type": "Feature", "properties": {"collection_times": [{"days": "Mon-Fri", "time": "2:00pm"}, {"days": "Sat", "time": "12:00pm"}, {"days": "Sun", "time": "Closed"}], "id": "5592300003", "name": "USPS COLLECTION BOX - BLUE BOX", "address": {"city": "CHATFIELD", "state": "MN", "street": "15 3RD ST SE", "postcode": "55923"}}},
{"geometry": {"type": "Point", "coordinates": [-92.1926839627, 43.8495205321]}, "type": "Feature", "properties": {"collection_times": [{"days": "Mon-Fri", "time": "3:00pm"}, {"days": "Sat", "time": "10:00am"}, {"days": "Sun", "time": "Closed"}], "id": "5592300006", "name": "USPS COLLECTION BOX - PO LOBBY", "address": {"city": "CHATFIELD", "state": "MN", "street": "245 MAIN ST N", "postcode": "55923"}}},
{"geometry": {"type": "Point", "coordinates": [-92.1926839627, 43.8495205321]}, "type": "Feature", "properties": {"collection_times": [{"days": "Mon-Fri", "time": "3:00pm"}, {"days": "Sat", "time": "10:00am"}, {"days": "Sun", "time": "Closed"}], "id": "5592300007", "name": "USPS COLLECTION BOX - BLUE BOX", "address": {"city": "CHATFIELD", "state": "MN", "street": "245 MAIN ST N", "postcode": "55923"}}},
{"geometry": {"type": "Point", "coordinates": [-92.9962764583, 44.0442130613]}, "type": "Feature", "properties": {"collection_times": [{"days": "Mon-Fri", "time": "3:00pm"}, {"days": "Sat", "time": "9:30am"}, {"days": "Sun", "time": "Closed"}], "id": "5592400001", "name": "USPS COLLECTION BOX - BLUE BOX", "address": {"city": "CLAREMONT", "state": "MN", "street": "120 W FRONT ST", "postcode": "55924"}}},
{"geometry": {"type": "Point", "coordinates": [-92.9962764583, 44.0442130613]}, "type": "Feature", "properties": {"collection_times": [{"days": "Mon-Fri", "time": "3:00pm"}, {"days": "Sat", "time": "9:30am"}, {"days": "Sun", "time": "Closed"}], "id": "5592400002", "name": "USPS COLLECTION BOX - PO LOBBY", "address": {"city": "CLAREMONT", "state": "MN", "street": "120 W FRONT ST", "postcode": "55924"}}},
{"geometry": {"type": "Point", "coordinates": [-91.3527400092, 43.9062608127]}, "type": "Feature", "properties": {"collection_times": [{"days": "Mon-Fri", "time": "2:45pm"}, {"days": "Sat", "time": "10:00am"}, {"days": "Sun", "time": "Closed"}], "id": "5592500000", "name": "USPS COLLECTION BOX - BLUE BOX", "address": {"city": "DAKOTA", "state": "MN", "street": "745 FRONTAGE RD", "postcode": "55925"}}},
{"geometry": {"type": "Point", "coordinates": [-91.4120708791, 43.9174670581]}, "type": "Feature", "properties": {"collection_times": [{"days": "Mon-Sat", "time": "9:15am"}, {"days": "Sun", "time": "Closed"}], "id": "5592500001", "name": "USPS COLLECTION BOX - BLUE BOX", "address": {"city": "DAKOTA", "state": "MN", "street": "42165 COUNTY ROAD 12", "postcode": "55925"}}},
{"geometry": {"type": "Point", "coordinates": [-91.4120708791, 43.9174670581]}, "type": "Feature", "properties": {"collection_times": [{"days": "Mon-Sat", "time": "11:00am"}, {"days": "Sun", "time": "Closed"}], "id": "5592500002", "name": "USPS COLLECTION BOX - BLUE BOX", "address": {"city": "DAKOTA", "state": "MN", "street": "42705 COUNTY ROAD 12", "postcode": "55925"}}},
{"geometry": {"type": "Point", "coordinates": [-91.3527400092, 43.9062608127]}, "type": "Feature", "properties": {"collection_times": [{"days": "Mon-Fri", "time": "12:00pm"}, {"days": "Sat", "time": "10:00am"}, {"days": "Sun", "time": "Closed"}], "id": "5592500003", "name": "USPS COLLECTION BOX - PO LOBBY", "address": {"city": "DAKOTA", "state": "MN", "street": "745 FRONTAGE RD", "postcode": "55925"}}},
{"geometry": {"type": "Point", "coordinates": [-92.7050300996, 43.722318591]}, "type": "Feature", "properties": {"collection_times": [{"days": "Mon-Fri", "time": "3:00pm"}, {"days": "Sat", "time": "9:30am"}, {"days": "Sun", "time": "Closed"}], "id": "5592600000", "name": "USPS COLLECTION BOX - BLUE BOX", "address": {"city": "DEXTER", "state": "MN", "street": "100 N MAIN ST", "postcode": "55926"}}},
{"geometry": {"type": "Point", "coordinates": [-92.7050300996, 43.722318591]}, "type": "Feature", "properties": {"collection_times": [{"days": "Mon-Fri", "time": "3:00pm"}, {"days": "Sat", "time": "9:30am"}, {"days": "Sun", "time": "Closed"}], "id": "5592600002", "name": "USPS COLLECTION BOX - PO LOBBY", "address": {"city": "DEXTER", "state": "MN", "street": "100 N MAIN ST", "postcode": "55926"}}},
{"geometry": {"type": "Point", "coordinates": [-92.8553709908, 44.0280326984]}, "type": "Feature", "properties": {"collection_times": [{"days": "Mon-Fri", "time": "3:15pm"}, {"days": "Sat", "time": "9:30am"}, {"days": "Sun", "time": "Closed"}], "id": "5592700000", "name": "USPS COLLECTION BOX - BLUE BOX", "address": {"city": "DODGE CENTER", "state": "MN", "street": "37 W MAIN ST", "postcode": "55927"}}},
{"geometry": {"type": "Point", "coordinates": [-92.8553709908, 44.0280326984]}, "type": "Feature", "properties": {"collection_times": [{"days": "Mon-Fri", "time": "3:15pm"}, {"days": "Sat", "time": "9:30am"}, {"days": "Sun", "time": "Closed"}], "id": "5592700002", "name": "USPS COLLECTION BOX - PO LOBBY", "address": {"city": "DODGE CENTER", "state": "MN", "street": "37 W MAIN ST", "postcode": "55927"}}},
{"geometry": {"type": "Point", "coordinates": [-92.1375248149, 43.9746390296]}, "type": "Feature", "properties": {"collection_times": [{"days": "Mon-Fri", "time": "3:00pm"}, {"days": "Sat", "time": "11:30am"}, {"days": "Sun", "time": "Closed"}], "id": "5592900000", "name": "USPS COLLECTION BOX - BLUE BOX", "address": {"city": "DOVER", "state": "MN", "street": "212 MAIN ST N", "postcode": "55929"}}},
{"geometry": {"type": "Point", "coordinates": [-92.1375248149, 43.9746390296]}, "type": "Feature", "properties": {"collection_times": [{"days": "Mon-Fri", "time": "11:00am"}, {"days": "Sat", "time": "11:30am"}, {"days": "Sun", "time": "Closed"}], "id": "5592900001", "name": "USPS COLLECTION BOX - PO LOBBY", "address": {"city": "DOVER", "state": "MN", "street": "212 MAIN ST N", "postcode": "55929"}}},
{"geometry": {"type": "Point", "coordinates": [-91.4635411926, 43.5078291401]}, "type": "Feature", "properties": {"collection_times": [{"days": "Mon-Fri", "time": "1:30pm"}, {"days": "Sat", "time": "9:30am"}, {"days": "Sun", "time": "Closed"}], "id": "5593100000", "name": "USPS COLLECTION BOX - BLUE BOX", "address": {"city": "EITZEN", "state": "MN", "street": "100 W MAIN ST", "postcode": "55931"}}},
{"geometry": {"type": "Point", "coordinates": [-91.4635411926, 43.5078291401]}, "type": "Feature", "properties": {"collection_times": [{"days": "Mon-Fri", "time": "1:30pm"}, {"days": "Sat", "time": "9:30am"}, {"days": "Sun", "time": "Closed"}], "id": "5593100001", "name": "USPS COLLECTION BOX - PO LOBBY", "address": {"city": "EITZEN", "state": "MN", "street": "100 W MAIN ST", "postcode": "55931"}}},
{"geometry": {"type": "Point", "coordinates": [-92.2514950119, 44.1317682537]}, "type": "Feature", "properties": {"collection_times": [{"days": "Mon-Fri", "time": "3:15pm"}, {"days": "Sat", "time": "9:15am"}, {"days": "Sun", "time": "Closed"}], "id": "5593200000", "name": "USPS COLLECTION BOX - BLUE BOX", "address": {"city": "ELGIN", "state": "MN", "street": "120 1ST AVE NE", "postcode": "55932"}}},
{"geometry": {"type": "Point", "coordinates": [-92.2514950119, 44.1317682537]}, "type": "Feature", "properties": {"collection_times": [{"days": "Mon-Fri", "time": "3:15pm"}, {"days": "Sat", "time": "9:15am"}, {"days": "Sun", "time": "Closed"}], "id": "5593200001", "name": "USPS COLLECTION BOX - PO LOBBY", "address": {"city": "ELGIN", "state": "MN", "street": "120 1ST AVE NE", "postcode": "55932"}}},
{"geometry": {"type": "Point", "coordinates": [-92.7091215181, 43.6631172788]}, "type": "Feature", "properties": {"collection_times": [{"days": "Mon-Sat", "time": "9:00am"}, {"days": "Sun", "time": "Closed"}], "id": "5593300000", "name": "USPS COLLECTION BOX - BLUE BOX", "address": {"city": "ELKTON", "state": "MN", "street": "115 MAIN ST", "postcode": "55933"}}},
{"geometry": {"type": "Point", "coordinates": [-92.2308014032, 43.9888185979]}, "type": "Feature", "properties": {"collection_times": [{"days": "Mon-Fri", "time": "3:15pm"}, {"days": "Sat", "time": "8:30am"}, {"days": "Sun", "time": "Closed"}], "id": "5593400004", "name": "USPS COLLECTION BOX - BLUE BOX", "address": {"city": "EYOTA", "state": "MN", "street": "126 SOUTH FRONT ST SW", "postcode": "55934"}}},
{"geometry": {"type": "Point", "coordinates": [-92.2308014032, 43.9888185979]}, "type": "Feature", "properties": {"collection_times": [{"days": "Mon-Fri", "time": "3:15pm"}, {"days": "Sat", "time": "8:30am"}, {"days": "Sun", "time": "Closed"}], "id": "5593400005", "name": "USPS COLLECTION BOX - PO LOBBY", "address": {"city": "EYOTA", "state": "MN", "street": "126 SOUTH FRONT ST SW", "postcode": "55934"}}},
{"geometry": {"type": "Point", "coordinates": [-92.26456604, 44.0076869064]}, "type": "Feature", "properties": {"collection_times": [{"days": "Mon-Sat", "time": "1:30pm"}, {"days": "Sun", "time": "Closed"}], "id": "5593400006", "name": "USPS COLLECTION BOX - BLUE BOX", "address": {"city": "EYOTA", "state": "MN", "street": "501 GLEN ST SW", "postcode": "55934"}}},
{"geometry": {"type": "Point", "coordinates": [-92.1362179597, 43.7402635463]}, "type": "Feature", "properties": {"collection_times": [{"days": "Mon-Fri", "time": "2:45pm"}, {"days": "Sat", "time": "11:15am"}, {"days": "Sun", "time": "Closed"}], "id": "5593500001", "name": "USPS COLLECTION BOX - BLUE BOX", "address": {"city": "FOUNTAIN", "state": "MN", "street": "105 MAIN ST", "postcode": "55935"}}},
{"geometry": {"type": "Point", "coordinates": [-92.1362179597, 43.7402635463]}, "type": "Feature", "properties": {"collection_times": [{"days": "Mon-Fri", "time": "2:45pm"}, {"days": "Sat", "time": "11:15am"}, {"days": "Sun", "time": "Closed"}], "id": "5593500002", "name": "USPS COLLECTION BOX - PO LOBBY", "address": {"city": "FOUNTAIN", "state": "MN", "street": "105 MAIN ST", "postcode": "55935"}}},
{"geometry": {"type": "Point", "coordinates": [-92.5728409404, 43.7049637989]}, "type": "Feature", "properties": {"collection_times": [{"days": "Mon-Fri", "time": "3:15pm"}, {"days": "Sat", "time": "10:00am"}, {"days": "Sun", "time": "Closed"}], "id": "5593600000", "name": "USPS COLLECTION BOX - BLUE BOX", "address": {"city": "GRAND MEADOW", "state": "MN", "street": "129 MAIN ST S", "postcode": "55936"}}},
{"geometry": {"type": "Point", "coordinates": [-92.5728409404, 43.7049637989]}, "type": "Feature", "properties": {"collection_times": [{"days": "Mon-Fri", "time": "3:15pm"}, {"days": "Sat", "time": "10:00am"}, {"days": "Sun", "time": "Closed"}], "id": "5593600001", "name": "USPS COLLECTION BOX - PO LOBBY", "address": {"city": "GRAND MEADOW", "state": "MN", "street": "129 MAIN ST S", "postcode": "55936"}}},
{"geometry": {"type": "Point", "coordinates": [-92.0099745251, 43.5548643947]}, "type": "Feature", "properties": {"collection_times": [{"days": "Mon-Fri", "time": "2:30pm"}, {"days": "Sat", "time": "10:00am"}, {"days": "Sun", "time": "Closed"}], "id": "5593900001", "name": "USPS COLLECTION BOX - BLUE BOX", "address": {"city": "HARMONY", "state": "MN", "street": "50 MAIN AVE N", "postcode": "55939"}}},
{"geometry": {"type": "Point", "coordinates": [-92.0099745251, 43.5548643947]}, "type": "Feature", "properties": {"collection_times": [{"days": "Mon-Fri", "time": "2:30pm"}, {"days": "Sat", "time": "10:00am"}, {"days": "Sun", "time": "Closed"}], "id": "5593900003", "name": "USPS COLLECTION BOX - PO LOBBY", "address": {"city": "HARMONY", "state": "MN", "street": "50 MAIN AVE N", "postcode": "55939"}}},
{"geometry": {"type": "Point", "coordinates": [-92.8479310447, 43.8904610935]}, "type": "Feature", "properties": {"collection_times": [{"days": "Mon-Fri", "time": "3:30pm"}, {"days": "Sat", "time": "10:00am"}, {"days": "Sun", "time": "Closed"}], "id": "5594000001", "name": "USPS COLLECTION BOX - BLUE BOX", "address": {"city": "HAYFIELD", "state": "MN", "street": "11 W MAIN ST", "postcode": "55940"}}},
{"geometry": {"type": "Point", "coordinates": [-92.8479310447, 43.8904610935]}, "type": "Feature", "properties": {"collection_times": [{"days": "Mon-Fri", "time": "3:30pm"}, {"days": "Sat", "time": "10:00am"}, {"days": "Sun", "time": "Closed"}], "id": "5594000002", "name": "USPS COLLECTION BOX - PO LOBBY", "address": {"city": "HAYFIELD", "state": "MN", "street": "11 W MAIN ST", "postcode": "55940"}}},
{"geometry": {"type": "Point", "coordinates": [-91.3452281925, 43.7601245317]}, "type": "Feature", "properties": {"collection_times": [{"days": "Mon-Fri", "time": "2:15pm"}, {"days": "Sat", "time": "10:00am"}, {"days": "Sun", "time": "Closed"}], "id": "5594100002", "name": "USPS COLLECTION BOX - BLUE BOX", "address": {"city": "HOKAH", "state": "MN", "street": "49 MAIN ST", "postcode": "55941"}}},
{"geometry": {"type": "Point", "coordinates": [-91.3452281925, 43.7601245317]}, "type": "Feature", "properties": {"collection_times": [{"days": "Mon-Fri", "time": "2:15pm"}, {"days": "Sat", "time": "10:00am"}, {"days": "Sun", "time": "Closed"}], "id": "5594100003", "name": "USPS COLLECTION BOX - PO LOBBY", "address": {"city": "HOKAH", "state": "MN", "street": "49 MAIN ST", "postcode": "55941"}}},
{"geometry": {"type": "Point", "coordinates": [-91.5688572138, 43.7629249013]}, "type": "Feature", "properties": {"collection_times": [{"days": "Mon-Fri", "time": "2:45pm"}, {"days": "Sat", "time": "10:00am"}, {"days": "Sun", "time": "Closed"}], "id": "5594300001", "name": "USPS COLLECTION BOX - BLUE BOX", "address": {"city": "HOUSTON", "state": "MN", "street": "127 S GRANT ST", "postcode": "55943"}}},
{"geometry": {"type": "Point", "coordinates": [-91.5688572138, 43.7629249013]}, "type": "Feature", "properties": {"collection_times": [{"days": "Mon-Fri", "time": "2:45pm"}, {"days": "Sat", "time": "10:00am"}, {"days": "Sun", "time": "Closed"}], "id": "5594300002", "name": "USPS COLLECTION BOX - PO LOBBY", "address": {"city": "HOUSTON", "state": "MN", "street": "127 S GRANT ST", "postcode": "55943"}}},
{"geometry": {"type": "Point", "coordinates": [-92.7478676709, 44.0284832399]}, "type": "Feature", "properties": {"collection_times": [{"days": "Mon-Fri", "time": "3:45pm"}, {"days": "Sat", "time": "10:00am"}, {"days": "Sun", "time": "Closed"}], "id": "5594400005", "name": "USPS COLLECTION BOX - BLUE BOX", "address": {"city": "KASSON", "state": "MN", "street": "14 E VETERANS MEMORIAL HWY", "postcode": "55944"}}},
{"geometry": {"type": "Point", "coordinates": [-92.7478676709, 44.0284832399]}, "type": "Feature", "properties": {"collection_times": [{"days": "Mon-Fri", "time": "3:45pm"}, {"days": "Sat", "time": "10:00am"}, {"days": "Sun", "time": "Closed"}], "id": "5594400006", "name": "USPS COLLECTION BOX - PO LOBBY", "address": {"city": "KASSON", "state": "MN", "street": "14 E VETERANS MEMORIAL HWY", "postcode": "55944"}}},
{"geometry": {"type": "Point", "coordinates": [-91.9963143754, 44.3075509752]}, "type": "Feature", "properties": {"collection_times": [{"days": "Mon-Fri", "time": "2:15pm"}, {"days": "Sat", "time": "9:00am"}, {"days": "Sun", "time": "Closed"}], "id": "5594500001", "name": "USPS COLLECTION BOX - BLUE BOX", "address": {"city": "KELLOGG", "state": "MN", "street": "345 E BELVIDERE AVE", "postcode": "55945"}}},
{"geometry": {"type": "Point", "coordinates": [-91.9963143754, 44.3075509752]}, "type": "Feature", "properties": {"collection_times": [{"days": "Mon-Fri", "time": "2:15pm"}, {"days": "Sat", "time": "9:00am"}, {"days": "Sun", "time": "Closed"}], "id": "5594500002", "name": "USPS COLLECTION BOX - PO LOBBY", "address": {"city": "KELLOGG", "state": "MN", "street": "345 E BELVIDERE AVE", "postcode": "55945"}}},
{"geometry": {"type": "Point", "coordinates": [-92.9851243017, 44.2757834805]}, "type": "Feature", "properties": {"collection_times": [{"days": "Mon-Sat", "time": "9:00am"}, {"days": "Sun", "time": "Closed"}], "id": "5594600001", "name": "USPS COLLECTION BOX - BLUE BOX", "address": {"city": "KENYON", "state": "MN", "street": "109 RED WING AVE", "postcode": "55946"}}},
{"geometry": {"type": "Point", "coordinates": [-92.9881484039, 44.2721078895]}, "type": "Feature", "properties": {"collection_times": [{"days": "Mon-Fri", "time": "2:15pm"}, {"days": "Sat", "time": "10:45am"}, {"days": "Sun", "time": "Closed"}], "id": "5594600002", "name": "USPS COLLECTION BOX - BLUE BOX", "address": {"city": "KENYON", "state": "MN", "street": "529 2ND ST", "postcode": "55946"}}},
{"geometry": {"type": "Point", "coordinates": [-92.9881484039, 44.2721078895]}, "type": "Feature", "properties": {"collection_times": [{"days": "Mon-Fri", "time": "2:15pm"}, {"days": "Sat", "time": "10:45am"}, {"days": "Sun", "time": "Closed"}], "id": "5594600003", "name": "USPS COLLECTION BOX - PO LOBBY", "address": {"city": "KENYON", "state": "MN", "street": "529 2ND ST", "postcode": "55946"}}},
{"geometry": {"type": "Point", "coordinates": [-91.3029939744, 43.8292499966]}, "type": "Feature", "properties": {"collection_times": [{"days": "Mon-Fri", "time": "2:30pm"}, {"days": "Sat", "time": "12:00pm"}, {"days": "Sun", "time": "Closed"}], "id": "5594700001", "name": "USPS COLLECTION BOX - BLUE BOX", "address": {"city": "LA CRESCENT", "state": "MN", "street": "230 MAIN ST", "postcode": "55947"}}},
{"geometry": {"type": "Point", "coordinates": [-91.3024710418, 43.8329069216]}, "type": "Feature", "properties": {"collection_times": [{"days": "Mon-Sat", "time": "1:00pm"}, {"days": "Sun", "time": "Closed"}], "id": "5594700005", "name": "USPS COLLECTION BOX - BLUE BOX", "address": {"city": "LA CRESCENT", "state": "MN", "street": "216 N 4TH ST", "postcode": "55947"}}},
{"geometry": {"type": "Point", "coordinates": [-91.3029939744, 43.8292499966]}, "type": "Feature", "properties": {"collection_times": [{"days": "Mon-Fri", "time": "2:30pm"}, {"days": "Sat", "time": "12:00pm"}, {"days": "Sun", "time": "Closed"}], "id": "5594700012", "name": "USPS COLLECTION BOX - PO LOBBY", "address": {"city": "LA CRESCENT", "state": "MN", "street": "230 MAIN ST", "postcode": "55947"}}},
{"geometry": {"type": "Point", "coordinates": [-91.3041493191, 43.8292298157]}, "type": "Feature", "properties": {"collection_times": [{"days": "Mon-Sat", "time": "1:00pm"}, {"days": "Sun", "time": "Closed"}], "id": "5594700014", "name": "USPS COLLECTION BOX - BLUE BOX", "address": {"city": "LA CRESCENT", "state": "MN", "street": "316 MAIN ST", "postcode": "55947"}}},
{"geometry": {"type": "Point", "coordinates": [-91.9768122803, 43.7220558106]}, "type": "Feature", "properties": {"collection_times": [{"days": "Mon-Fri", "time": "2:30pm"}, {"days": "Sat", "time": "10:00am"}, {"days": "Sun", "time": "Closed"}], "id": "5594900001", "name": "USPS COLLECTION BOX - BLUE BOX", "address": {"city": "LANESBORO", "state": "MN", "street": "114 COFFEE ST", "postcode": "55949"}}},
{"geometry": {"type": "Point", "coordinates": [-91.9768122803, 43.7220558106]}, "type": "Feature", "properties": {"collection_times": [{"days": "Mon-Fri", "time": "2:30pm"}, {"days": "Sat", "time": "10:00am"}, {"days": "Sun", "time": "Closed"}], "id": "5594900002", "name": "USPS COLLECTION BOX - PO LOBBY", "address": {"city": "LANESBORO", "state": "MN", "street": "114 COFFEE ST", "postcode": "55949"}}},
{"geometry": {"type": "Point", "coordinates": [-92.9699502791, 43.7461530637]}, "type": "Feature", "properties": {"collection_times": [{"days": "Mon-Fri", "time": "2:15pm"}, {"days": "Sat", "time": "9:00am"}, {"days": "Sun", "time": "Closed"}], "id": "5595000001", "name": "USPS COLLECTION BOX - BLUE BOX", "address": {"city": "LANSING", "state": "MN", "street": "54010 270TH ST", "postcode": "55950"}}},
{"geometry": {"type": "Point", "coordinates": [-92.9699502791, 43.7461530637]}, "type": "Feature", "properties": {"collection_times": [{"days": "Mon-Fri", "time": "1:45pm"}, {"days": "Sat", "time": "9:00am"}, {"days": "Sun", "time": "Closed"}], "id": "5595000002", "name": "USPS COLLECTION BOX - PO LOBBY", "address": {"city": "LANSING", "state": "MN", "street": "54010 270TH ST", "postcode": "55950"}}},
{"geometry": {"type": "Point", "coordinates": [-92.5040205849, 43.50990962]}, "type": "Feature", "properties": {"collection_times": [{"days": "Mon-Fri", "time": "2:15pm"}, {"days": "Sat", "time": "10:30am"}, {"days": "Sun", "time": "Closed"}], "id": "5595100000", "name": "USPS COLLECTION BOX - BLUE BOX", "address": {"city": "LE ROY", "state": "MN", "street": "112 W MAIN ST", "postcode": "55951"}}},
{"geometry": {"type": "Point", "coordinates": [-92.5040205849, 43.50990962]}, "type": "Feature", "properties": {"collection_times": [{"days": "Mon-Fri", "time": "2:15pm"}, {"days": "Sat", "time": "10:30am"}, {"days": "Sun", "time": "Closed"}], "id": "5595100001", "name": "USPS COLLECTION BOX - PO LOBBY", "address": {"city": "LE ROY", "state": "MN", "street": "112 W MAIN ST", "postcode": "55951"}}},
{"geometry": {"type": "Point", "coordinates": [-91.8500761659, 43.9337549375]}, "type": "Feature", "properties": {"collection_times": [{"days": "Mon-Sat", "time": "9:00am"}, {"days": "Sun", "time": "Closed"}], "id": "5595200001", "name": "USPS COLLECTION BOX - BLUE BOX", "address": {"city": "LEWISTON", "state": "MN", "street": "BOX 41 RR 2", "postcode": "55952"}}},
{"geometry": {"type": "Point", "coordinates": [-91.8595189713, 43.9841958548]}, "type": "Feature", "properties": {"collection_times": [{"days": "Mon-Fri", "time": "3:15pm"}, {"days": "Sat", "time": "9:30am"}, {"days": "Sun", "time": "Closed"}], "id": "5595200002", "name": "USPS COLLECTION BOX - BLUE BOX", "address": {"city": "LEWISTON", "state": "MN", "street": "675 E MAIN ST", "postcode": "55952"}}},
{"geometry": {"type": "Point", "coordinates": [-91.8595189713, 43.9841958548]}, "type": "Feature", "properties": {"collection_times": [{"days": "Mon-Fri", "time": "3:15pm"}, {"days": "Sat", "time": "9:30am"}, {"days": "Sun", "time": "Closed"}], "id": "5595200005", "name": "USPS COLLECTION BOX - PO LOBBY", "address": {"city": "LEWISTON", "state": "MN", "street": "675 E MAIN ST", "postcode": "55952"}}},
{"geometry": {"type": "Point", "coordinates": [-92.9444589984, 43.5059895628]}, "type": "Feature", "properties": {"collection_times": [{"days": "Mon-Fri", "time": "2:30pm"}, {"days": "Sat", "time": "9:00am"}, {"days": "Sun", "time": "Closed"}], "id": "5595300001", "name": "USPS COLLECTION BOX - BLUE BOX", "address": {"city": "LYLE", "state": "MN", "street": "106 GROVE ST", "postcode": "55953"}}},
{"geometry": {"type": "Point", "coordinates": [-92.9444589984, 43.5059895628]}, "type": "Feature", "properties": {"collection_times": [{"days": "Mon-Fri", "time": "2:30pm"}, {"days": "Sat", "time": "9:00am"}, {"days": "Sun", "time": "Closed"}], "id": "5595300002", "name": "USPS COLLECTION BOX - PO LOBBY", "address": {"city": "LYLE", "state": "MN", "street": "106 GROVE ST", "postcode": "55953"}}},
{"geometry": {"type": "Point", "coordinates": [-91.7698660522, 43.5204168324]}, "type": "Feature", "properties": {"collection_times": [{"days": "Mon-Fri", "time": "1:45pm"}, {"days": "Sat", "time": "11:00am"}, {"days": "Sun", "time": "Closed"}], "id": "5595400000", "name": "USPS COLLECTION BOX - BLUE BOX", "address": {"city": "MABEL", "state": "MN", "street": "106 MAIN ST S", "postcode": "55954"}}},
{"geometry": {"type": "Point", "coordinates": [-91.7698660522, 43.5204168324]}, "type": "Feature", "properties": {"collection_times": [{"days": "Mon-Fri", "time": "1:45pm"}, {"days": "Sat", "time": "11:00am"}, {"days": "Sun", "time": "Closed"}], "id": "5595400002", "name": "USPS COLLECTION BOX - PO LOBBY", "address": {"city": "MABEL", "state": "MN", "street": "106 MAIN ST S", "postcode": "55954"}}},
{"geometry": {"type": "Point", "coordinates": [-92.7556432354, 44.0666499799]}, "type": "Feature", "properties": {"collection_times": [{"days": "Mon-Fri", "time": "3:45pm"}, {"days": "Sat", "time": "9:00am"}, {"days": "Sun", "time": "Closed"}], "id": "5595500000", "name": "USPS COLLECTION BOX - BLUE BOX", "address": {"city": "MANTORVILLE", "state": "MN", "street": "21 5TH ST W", "postcode": "55955"}}},
{"geometry": {"type": "Point", "coordinates": [-92.7556432354, 44.0666499799]}, "type": "Feature", "properties": {"collection_times": [{"days": "Mon-Fri", "time": "3:45pm"}, {"days": "Sat", "time": "9:00am"}, {"days": "Sun", "time": "Closed"}], "id": "5595500002", "name": "USPS COLLECTION BOX - PO LOBBY", "address": {"city": "MANTORVILLE", "state": "MN", "street": "21 5TH ST", "postcode": "55955"}}},
{"geometry": {"type": "Point", "coordinates": [-92.5462899605, 44.2691494163]}, "type": "Feature", "properties": {"collection_times": [{"days": "Mon-Fri", "time": "3:15pm"}, {"days": "Sat", "time": "9:00am"}, {"days": "Sun", "time": "Closed"}], "id": "5595600000", "name": "USPS COLLECTION BOX - BLUE BOX", "address": {"city": "MAZEPPA", "state": "MN", "street": "220 1ST AVE N", "postcode": "55956"}}},
{"geometry": {"type": "Point", "coordinates": [-92.5462899605, 44.2691494163]}, "type": "Feature", "properties": {"collection_times": [{"days": "Mon-Fri", "time": "3:15pm"}, {"days": "Sat", "time": "9:00am"}, {"days": "Sun", "time": "Closed"}], "id": "5595600002", "name": "USPS COLLECTION BOX - PO LOBBY", "address": {"city": "MAZEPPA", "state": "MN", "street": "220 1ST AVE N", "postcode": "55956"}}},
{"geometry": {"type": "Point", "coordinates": [-92.2954590614, 44.2446197985]}, "type": "Feature", "properties": {"collection_times": [{"days": "Mon-Fri", "time": "1:30pm"}, {"days": "Sat", "time": "11:30am"}, {"days": "Sun", "time": "Closed"}], "id": "5595700000", "name": "USPS COLLECTION BOX - BLUE BOX", "address": {"city": "MILLVILLE", "state": "MN", "street": "431 DIVISION ST", "postcode": "55957"}}},
{"geometry": {"type": "Point", "coordinates": [-92.2954590614, 44.2446197985]}, "type": "Feature", "properties": {"collection_times": [{"days": "Mon-Fri", "time": "1:30pm"}, {"days": "Sat", "time": "11:30am"}, {"days": "Sun", "time": "Closed"}], "id": "5595700001", "name": "USPS COLLECTION BOX - PO LOBBY", "address": {"city": "MILLVILLE", "state": "MN", "street": "431 DIVISION ST", "postcode": "55957"}}},
{"geometry": {"type": "Point", "coordinates": [-91.7361252563, 44.0818215423]}, "type": "Feature", "properties": {"collection_times": [{"days": "Mon-Sat", "time": "10:30am"}, {"days": "Sun", "time": "Closed"}], "id": "5595900001", "name": "USPS COLLECTION BOX - BLUE BOX", "address": {"city": "MINNESOTA CITY", "state": "MN", "street": "7220 HIGHWAY 61 W", "postcode": "55959"}}},
{"geometry": {"type": "Point", "coordinates": [-91.7225390215, 44.0654803161]}, "type": "Feature", "properties": {"collection_times": [{"days": "Mon-Sat", "time": "10:00am"}, {"days": "Sun", "time": "Closed"}], "id": "5595900002", "name": "USPS COLLECTION BOX - BLUE BOX", "address": {"city": "MINNESOTA CITY", "state": "MN", "street": "23 HIDDEN VLY", "postcode": "55959"}}},
{"geometry": {"type": "Point", "coordinates": [-91.749738596, 44.0930284067]}, "type": "Feature", "properties": {"collection_times": [{"days": "Mon-Fri", "time": "1:45pm"}, {"days": "Sat", "time": "11:00am"}, {"days": "Sun", "time": "Closed"}], "id": "5595900003", "name": "USPS COLLECTION BOX - BLUE BOX", "address": {"city": "MINNESOTA CITY", "state": "MN", "street": "200 MILL ST", "postcode": "55959"}}},
{"geometry": {"type": "Point", "coordinates": [-91.749738596, 44.0930284067]}, "type": "Feature", "properties": {"collection_times": [{"days": "Mon-Fri", "time": "1:45pm"}, {"days": "Sat", "time": "11:00am"}, {"days": "Sun", "time": "Closed"}], "id": "5595900004", "name": "USPS COLLECTION BOX - PO LOBBY", "address": {"city": "MINNESOTA CITY", "state": "MN", "street": "200 MILL ST", "postcode": "55959"}}},
{"geometry": {"type": "Point", "coordinates": [-92.5346907724, 44.1640118775]}, "type": "Feature", "properties": {"collection_times": [{"days": "Mon-Fri", "time": "4:00pm"}, {"days": "Sat", "time": "9:00am"}, {"days": "Sun", "time": "Closed"}], "id": "5596000001", "name": "USPS COLLECTION BOX - BLUE BOX", "address": {"city": "ORONOCO", "state": "MN", "street": "10 S MINNESOTA AVE", "postcode": "55960"}}},
{"geometry": {"type": "Point", "coordinates": [-92.5346907724, 44.1640118775]}, "type": "Feature", "properties": {"collection_times": [{"days": "Mon-Fri", "time": "4:00pm"}, {"days": "Sat", "time": "9:00am"}, {"days": "Sun", "time": "Closed"}], "id": "5596000003", "name": "USPS COLLECTION BOX - PO LOBBY", "address": {"city": "ORONOCO", "state": "MN", "street": "10 MINNESOTA AVE", "postcode": "55960"}}},
{"geometry": {"type": "Point", "coordinates": [-92.4291972792, 43.6137748467]}, "type": "Feature", "properties": {"collection_times": [{"days": "Mon-Fri", "time": "1:45pm"}, {"days": "Sat", "time": "9:30am"}, {"days": "Sun", "time": "Closed"}], "id": "5596100001", "name": "USPS COLLECTION BOX - BLUE BOX", "address": {"city": "OSTRANDER", "state": "MN", "street": "303 MAIN ST", "postcode": "55961"}}},
{"geometry": {"type": "Point", "coordinates": [-92.4291972792, 43.6137748467]}, "type": "Feature", "properties": {"collection_times": [{"days": "Mon-Fri", "time": "1:45pm"}, {"days": "Sat", "time": "9:30am"}, {"days": "Sun", "time": "Closed"}], "id": "5596100002", "name": "USPS COLLECTION BOX - PO LOBBY", "address": {"city": "OSTRANDER", "state": "MN", "street": "303 MAIN ST", "postcode": "55961"}}},
{"geometry": {"type": "Point", "coordinates": [-91.8322592072, 43.7862793666]}, "type": "Feature", "properties": {"collection_times": [{"days": "Mon-Fri", "time": "2:15pm"}, {"days": "Sat", "time": "10:30am"}, {"days": "Sun", "time": "Closed"}], "id": "5596200000", "name": "USPS COLLECTION BOX - BLUE BOX", "address": {"city": "PETERSON", "state": "MN", "street": "328 MILL ST", "postcode": "55962"}}},
{"geometry": {"type": "Point", "coordinates": [-91.8322592072, 43.7862793666]}, "type": "Feature", "properties": {"collection_times": [{"days": "Mon-Fri", "time": "11:00am"}, {"days": "Sat", "time": "10:30am"}, {"days": "Sun", "time": "Closed"}], "id": "5596200001", "name": "USPS COLLECTION BOX - PO LOBBY", "address": {"city": "PETERSON", "state": "MN", "street": "328 MILL ST", "postcode": "55962"}}},
{"geometry": {"type": "Point", "coordinates": [-92.646345128, 44.2013183628]}, "type": "Feature", "properties": {"collection_times": [{"days": "Mon-Fri", "time": "3:45pm"}, {"days": "Sat", "time": "10:15am"}, {"days": "Sun", "time": "Closed"}], "id": "5596300001", "name": "USPS COLLECTION BOX - BLUE BOX", "address": {"city": "PINE ISLAND", "state": "MN", "street": "217 S MAIN ST", "postcode": "55963"}}},
{"geometry": {"type": "Point", "coordinates": [-92.646345128, 44.2013183628]}, "type": "Feature", "properties": {"collection_times": [{"days": "Mon-Fri", "time": "3:45pm"}, {"days": "Sat", "time": "10:00am"}, {"days": "Sun", "time": "Closed"}], "id": "5596300003", "name": "USPS COLLECTION BOX - PO LOBBY", "address": {"city": "PINE ISLAND", "state": "MN", "street": "217 S MAIN ST", "postcode": "55963"}}},
{"geometry": {"type": "Point", "coordinates": [-92.6462226623, 44.2015779288]}, "type": "Feature", "properties": {"collection_times": [{"days": "Mon-Fri", "time": "3:45pm"}, {"days": "Sat", "time": "10:15am"}, {"days": "Sun", "time": "Closed"}], "id": "5596300004", "name": "USPS COLLECTION BOX - BLUE BOX", "address": {"city": "PINE ISLAND", "state": "MN", "street": "100 2ND ST SE", "postcode": "55963"}}},
{"geometry": {"type": "Point", "coordinates": [-92.1671469954, 44.1633628311]}, "type": "Feature", "properties": {"collection_times": [{"days": "Mon-Sat", "time": "2:00pm"}, {"days": "Sun", "time": "Closed"}], "id": "5596400006", "name": "USPS COLLECTION BOX - BLUE BOX", "address": {"city": "PLAINVIEW", "state": "MN", "street": "245 1ST ST SW", "postcode": "55964"}}},
{"geometry": {"type": "Point", "coordinates": [-92.170318428, 44.1649208421]}, "type": "Feature", "properties": {"collection_times": [{"days": "Mon-Fri", "time": "3:00pm"}, {"days": "Sat", "time": "10:30am"}, {"days": "Sun", "time": "Closed"}], "id": "5596400009", "name": "USPS COLLECTION BOX - BLUE BOX", "address": {"city": "PLAINVIEW", "state": "MN", "street": "334 W BROADWAY", "postcode": "55964"}}},
{"geometry": {"type": "Point", "coordinates": [-92.170318428, 44.1649208421]}, "type": "Feature", "properties": {"collection_times": [{"days": "Mon-Fri", "time": "3:00pm"}, {"days": "Sat", "time": "10:30am"}, {"days": "Sun", "time": "Closed"}], "id": "5596400010", "name": "USPS COLLECTION BOX - PO LOBBY", "address": {"city": "PLAINVIEW", "state": "MN", "street": "334 W BROADWAY", "postcode": "55964"}}},
{"geometry": {"type": "Point", "coordinates": [-92.0805180553, 43.6722123724]}, "type": "Feature", "properties": {"collection_times": [{"days": "Mon-Fri", "time": "2:45pm"}, {"days": "Sat", "time": "10:15am"}, {"days": "Sun", "time": "Closed"}], "id": "5596500002", "name": "USPS COLLECTION BOX - BLUE BOX", "address": {"city": "PRESTON", "state": "MN", "street": "212 PLEASANT ST NE", "postcode": "55965"}}},
{"geometry": {"type": "Point", "coordinates": [-92.0805180553, 43.6722123724]}, "type": "Feature", "properties": {"collection_times": [{"days": "Mon-Fri", "time": "2:45pm"}, {"days": "Sat", "time": "10:15am"}, {"days": "Sun", "time": "Closed"}], "id": "5596500004", "name": "USPS COLLECTION BOX - PO LOBBY", "address": {"city": "PRESTON", "state": "MN", "street": "212 PLEASANT ST NE", "postcode": "55965"}}},
{"geometry": {"type": "Point", "coordinates": [-92.481495835, 43.7761075526]}, "type": "Feature", "properties": {"collection_times": [{"days": "Mon-Fri", "time": "3:30pm"}, {"days": "Sat", "time": "9:00am"}, {"days": "Sun", "time": "Closed"}], "id": "5596700001", "name": "USPS COLLECTION BOX - BLUE BOX", "address": {"city": "RACINE", "state": "MN", "street": "11 PINE AVE NE", "postcode": "55967"}}},
{"geometry": {"type": "Point", "coordinates": [-92.481495835, 43.7761075526]}, "type": "Feature", "properties": {"collection_times": [{"days": "Mon-Fri", "time": "3:30pm"}, {"days": "Sat", "time": "9:00am"}, {"days": "Sun", "time": "Closed"}], "id": "5596700002", "name": "USPS COLLECTION BOX - PO LOBBY", "address": {"city": "RACINE", "state": "MN", "street": "11 PINE AVE NE", "postcode": "55967"}}},
{"geometry": {"type": "Point", "coordinates": [-91.8116689786, 44.0981443083]}, "type": "Feature", "properties": {"collection_times": [{"days": "Mon-Fri", "time": "2:00pm"}, {"days": "Sat", "time": "9:00am"}, {"days": "Sun", "time": "Closed"}], "id": "5596900001", "name": "USPS COLLECTION BOX - BLUE BOX", "address": {"city": "ROLLINGSTONE", "state": "MN", "street": "105 MAIN ST", "postcode": "55969"}}},
{"geometry": {"type": "Point", "coordinates": [-91.8116689786, 44.0981443083]}, "type": "Feature", "properties": {"collection_times": [{"days": "Mon-Fri", "time": "2:00pm"}, {"days": "Sat", "time": "9:00am"}, {"days": "Sun", "time": "Closed"}], "id": "5596900002", "name": "USPS COLLECTION BOX - PO LOBBY", "address": {"city": "ROLLINGSTONE", "state": "MN", "street": "105 MAIN ST", "postcode": "55969"}}},
{"geometry": {"type": "Point", "coordinates": [-92.8312957645, 43.6042903345]}, "type": "Feature", "properties": {"collection_times": [{"days": "Mon-Fri", "time": "2:30pm"}, {"days": "Sat", "time": "9:00am"}, {"days": "Sun", "time": "Closed"}], "id": "5597000001", "name": "USPS COLLECTION BOX - BLUE BOX", "address": {"city": "ROSE CREEK", "state": "MN", "street": "101 3RD ST S", "postcode": "55970"}}},
{"geometry": {"type": "Point", "coordinates": [-92.8312957645, 43.6042903345]}, "type": "Feature", "properties": {"collection_times": [{"days": "Mon-Fri", "time": "2:30pm"}, {"days": "Sat", "time": "9:00am"}, {"days": "Sun", "time": "Closed"}], "id": "5597000002", "name": "USPS COLLECTION BOX - PO LOBBY", "address": {"city": "ROSE CREEK", "state": "MN", "street": "101 3RD ST S", "postcode": "55970"}}},
{"geometry": {"type": "Point", "coordinates": [-91.7532810642, 43.8082798866]}, "type": "Feature", "properties": {"collection_times": [{"days": "Mon-Sat", "time": "1:00pm"}, {"days": "Sun", "time": "Closed"}], "id": "5597100001", "name": "USPS COLLECTION BOX - BLUE BOX", "address": {"city": "RUSHFORD", "state": "MN", "street": "109 W JESSIE ST", "postcode": "55971"}}},
{"geometry": {"type": "Point", "coordinates": [-91.753221504, 43.8054857283]}, "type": "Feature", "properties": {"collection_times": [{"days": "Mon-Fri", "time": "1:45pm"}, {"days": "Sat", "time": "10:30am"}, {"days": "Sun", "time": "Closed"}], "id": "5597100002", "name": "USPS COLLECTION BOX - BLUE BOX", "address": {"city": "RUSHFORD", "state": "MN", "street": "501 S MILL ST", "postcode": "55971"}}},
{"geometry": {"type": "Point", "coordinates": [-91.753221504, 43.8054857283]}, "type": "Feature", "properties": {"collection_times": [{"days": "Mon-Fri", "time": "1:45pm"}, {"days": "Sat", "time": "10:30am"}, {"days": "Sun", "time": "Closed"}], "id": "5597100004", "name": "USPS COLLECTION BOX - PO LOBBY", "address": {"city": "RUSHFORD", "state": "MN", "street": "501 S MILL ST", "postcode": "55971"}}},
{"geometry": {"type": "Point", "coordinates": [-91.753221504, 43.8054857283]}, "type": "Feature", "properties": {"collection_times": [{"days": "Mon-Fri", "time": "1:45pm"}, {"days": "Sat", "time": "10:30am"}, {"days": "Sun", "time": "Closed"}], "id": "5597100005", "name": "USPS COLLECTION BOX - PO LOBBY", "address": {"city": "RUSHFORD", "state": "MN", "street": "501 S MILL ST", "postcode": "55971"}}},
{"geometry": {"type": "Point", "coordinates": [-92.0648534965, 43.9670418923]}, "type": "Feature", "properties": {"collection_times": [{"days": "Mon-Fri", "time": "2:45pm"}, {"days": "Sat", "time": "9:00am"}, {"days": "Sun", "time": "Closed"}], "id": "5597200004", "name": "USPS COLLECTION BOX - BLUE BOX", "address": {"city": "SAINT CHARLES", "state": "MN", "street": "1201 WHITEWATER AVE", "postcode": "55972"}}},
{"geometry": {"type": "Point", "coordinates": [-92.0648534965, 43.9670418923]}, "type": "Feature", "properties": {"collection_times": [{"days": "Mon-Fri", "time": "2:45pm"}, {"days": "Sat", "time": "9:00am"}, {"days": "Sun", "time": "Closed"}], "id": "5597200005", "name": "USPS COLLECTION BOX - PO LOBBY", "address": {"city": "SAINT CHARLES", "state": "MN", "street": "1201 WHITEWATER AVE", "postcode": "55972"}}},
{"geometry": {"type": "Point", "coordinates": [-91.636173008, 43.560778577]}, "type": "Feature", "properties": {"collection_times": [{"days": "Mon-Fri", "time": "2:00pm"}, {"days": "Sat", "time": "11:00am"}, {"days": "Sun", "time": "Closed"}], "id": "5597400001", "name": "USPS COLLECTION BOX - BLUE BOX", "address": {"city": "SPRING GROVE", "state": "MN", "street": "125 S DIVISION AVE", "postcode": "55974"}}},
{"geometry": {"type": "Point", "coordinates": [-91.636173008, 43.560778577]}, "type": "Feature", "properties": {"collection_times": [{"days": "Mon-Fri", "time": "2:00pm"}, {"days": "Sat", "time": "11:00am"}, {"days": "Sun", "time": "Closed"}], "id": "5597400002", "name": "USPS COLLECTION BOX - BLUE BOX", "address": {"city": "SPRING GROVE", "state": "MN", "street": "125 S DIVISION AVE", "postcode": "55974"}}},
{"geometry": {"type": "Point", "coordinates": [-91.636173008, 43.560778577]}, "type": "Feature", "properties": {"collection_times": [{"days": "Mon-Fri", "time": "2:00pm"}, {"days": "Sat", "time": "11:00am"}, {"days": "Sun", "time": "Closed"}], "id": "5597400003", "name": "USPS COLLECTION BOX - PO LOBBY", "address": {"city": "SPRING GROVE", "state": "MN", "street": "125 S DIVISION AVE", "postcode": "55974"}}},
{"geometry": {"type": "Point", "coordinates": [-92.3908620451, 43.6878330615]}, "type": "Feature", "properties": {"collection_times": [{"days": "Mon-Sat", "time": "3:15pm"}, {"days": "Sun", "time": "Closed"}], "id": "5597500001", "name": "USPS COLLECTION BOX - BLUE BOX", "address": {"city": "SPRING VALLEY", "state": "MN", "street": "209 N BROADWAY ST", "postcode": "55975"}}},
{"geometry": {"type": "Point", "coordinates": [-92.3908620451, 43.6878330615]}, "type": "Feature", "properties": {"collection_times": [{"days": "Mon-Sat", "time": "3:15pm"}, {"days": "Sun", "time": "Closed"}], "id": "5597500007", "name": "USPS COLLECTION BOX - PO LOBBY", "address": {"city": "SPRING VALLEY", "state": "MN", "street": "209 N BROADWAY ST", "postcode": "55975"}}},
{"geometry": {"type": "Point", "coordinates": [-92.3953330532, 43.6950199598]}, "type": "Feature", "properties": {"collection_times": [{"days": "Mon-Sat", "time": "9:15am"}, {"days": "Sun", "time": "Closed"}], "id": "5597500008", "name": "USPS COLLECTION BOX - BLUE BOX", "address": {"city": "SPRING VALLEY", "state": "MN", "street": "640 N BROADWAY ST", "postcode": "55975"}}},
{"geometry": {"type": "Point", "coordinates": [-92.4877247206, 43.8557955694]}, "type": "Feature", "properties": {"collection_times": [{"days": "Mon-Fri", "time": "2:00pm"}, {"days": "Sat", "time": "12:15pm"}, {"days": "Sun", "time": "Closed"}], "id": "5597600001", "name": "USPS COLLECTION BOX - BLUE BOX", "address": {"city": "STEWARTVILLE", "state": "MN", "street": "220 CENTER TOWN PLZ N", "postcode": "55976"}}},
{"geometry": {"type": "Point", "coordinates": [-92.4889740656, 43.8559636767]}, "type": "Feature", "properties": {"collection_times": [{"days": "Mon-Fri", "time": "2:00pm"}, {"days": "Sat", "time": "12:15pm"}, {"days": "Sun", "time": "Closed"}], "id": "5597600007", "name": "USPS COLLECTION BOX - BLUE BOX", "address": {"city": "STEWARTVILLE", "state": "MN", "street": "102 2ND ST NW", "postcode": "55976"}}},
{"geometry": {"type": "Point", "coordinates": [-92.4877928616, 43.8544754638]}, "type": "Feature", "properties": {"collection_times": [{"days": "Mon-Fri", "time": "3:45pm"}, {"days": "Sat", "time": "12:15pm"}, {"days": "Sun", "time": "Closed"}], "id": "5597600010", "name": "USPS COLLECTION BOX - BLUE BOX", "address": {"city": "STEWARTVILLE", "state": "MN", "street": "120 2ND ST SE", "postcode": "55976"}}},
{"geometry": {"type": "Point", "coordinates": [-92.4877928616, 43.8544754638]}, "type": "Feature", "properties": {"collection_times": [{"days": "Mon-Fri", "time": "3:45pm"}, {"days": "Sat", "time": "12:15pm"}, {"days": "Sun", "time": "Closed"}], "id": "5597600012", "name": "USPS COLLECTION BOX - PO LOBBY", "address": {"city": "STEWARTVILLE", "state": "MN", "street": "120 2ND ST SE", "postcode": "55976"}}},
{"geometry": {"type": "Point", "coordinates": [-91.9569079399, 43.9755496784]}, "type": "Feature", "properties": {"collection_times": [{"days": "Mon-Fri", "time": "2:30pm"}, {"days": "Sat", "time": "10:30am"}, {"days": "Sun", "time": "Closed"}], "id": "5597900000", "name": "USPS COLLECTION BOX - BLUE BOX", "address": {"city": "UTICA", "state": "MN", "street": "112 W MAIN ST N", "postcode": "55979"}}},
{"geometry": {"type": "Point", "coordinates": [-91.9569079399, 43.9755496784]}, "type": "Feature", "properties": {"collection_times": [{"days": "Mon-Fri", "time": "11:00am"}, {"days": "Sat", "time": "10:30am"}, {"days": "Sun", "time": "Closed"}], "id": "5597900001", "name": "USPS COLLECTION BOX - PO LOBBY", "address": {"city": "UTICA", "state": "MN", "street": "112 W MAIN ST N", "postcode": "55979"}}},
{"geometry": {"type": "Point", "coordinates": [-92.0348214618, 44.3789025026]}, "type": "Feature", "properties": {"collection_times": [{"days": "Mon-Fri", "time": "1:00pm"}, {"days": "Sat", "time": "12:00pm"}, {"days": "Sun", "time": "Closed"}], "id": "5598100006", "name": "USPS COLLECTION BOX - BLUE BOX", "address": {"city": "WABASHA", "state": "MN", "street": "106 HIAWATHA DR W", "postcode": "55981"}}},
{"geometry": {"type": "Point", "coordinates": [-92.0220460604, 44.3735414808]}, "type": "Feature", "properties": {"collection_times": [{"days": "Mon-Sat", "time": "1:00pm"}, {"days": "Sun", "time": "Closed"}], "id": "5598100007", "name": "USPS COLLECTION BOX - BLUE BOX", "address": {"city": "WABASHA", "state": "MN", "street": "618 BROADWAY AVE", "postcode": "55981"}}},
{"geometry": {"type": "Point", "coordinates": [-92.0313840051, 44.3834674333]}, "type": "Feature", "properties": {"collection_times": [{"days": "Mon-Fri", "time": "2:15pm"}, {"days": "Sat", "time": "10:30am"}, {"days": "Sun", "time": "Closed"}], "id": "5598100008", "name": "USPS COLLECTION BOX - BLUE BOX", "address": {"city": "WABASHA", "state": "MN", "street": "109 MAIN ST E", "postcode": "55981"}}},
{"geometry": {"type": "Point", "coordinates": [-92.0313840051, 44.3834674333]}, "type": "Feature", "properties": {"collection_times": [{"days": "Mon-Fri", "time": "2:15pm"}, {"days": "Sat", "time": "10:30am"}, {"days": "Sun", "time": "Closed"}], "id": "5598100010", "name": "USPS COLLECTION BOX - PO LOBBY", "address": {"city": "WABASHA", "state": "MN", "street": "109 MAIN ST E", "postcode": "55981"}}},
{"geometry": {"type": "Point", "coordinates": [-92.8713463784, 43.8108953951]}, "type": "Feature", "properties": {"collection_times": [{"days": "Mon-Fri", "time": "3:15pm"}, {"days": "Sat", "time": "11:30am"}, {"days": "Sun", "time": "Closed"}], "id": "5598200001", "name": "USPS COLLECTION BOX - BLUE BOX", "address": {"city": "WALTHAM", "state": "MN", "street": "223 MAIN ST S", "postcode": "55982"}}},
{"geometry": {"type": "Point", "coordinates": [-92.8713463784, 43.8108953951]}, "type": "Feature", "properties": {"collection_times": [{"days": "Mon-Fri", "time": "3:15pm"}, {"days": "Sat", "time": "11:30am"}, {"days": "Sun", "time": "Closed"}], "id": "5598200002", "name": "USPS COLLECTION BOX - PO LOBBY", "address": {"city": "WALTHAM", "state": "MN", "street": "223 MAIN ST S", "postcode": "55982"}}},
{"geometry": {"type": "Point", "coordinates": [-92.7907325562, 44.3041292948]}, "type": "Feature", "properties": {"collection_times": [{"days": "Mon-Fri", "time": "2:30pm"}, {"days": "Sat", "time": "11:00am"}, {"days": "Sun", "time": "Closed"}], "id": "5598300001", "name": "USPS COLLECTION BOX - BLUE BOX", "address": {"city": "WANAMINGO", "state": "MN", "street": "208 MAIN ST", "postcode": "55983"}}},
{"geometry": {"type": "Point", "coordinates": [-92.7907325562, 44.3041292948]}, "type": "Feature", "properties": {"collection_times": [{"days": "Mon-Fri", "time": "2:30pm"}, {"days": "Sat", "time": "11:00am"}, {"days": "Sun", "time": "Closed"}], "id": "5598300002", "name": "USPS COLLECTION BOX - PO LOBBY", "address": {"city": "WANAMINGO", "state": "MN", "street": "208 MAIN ST", "postcode": "55983"}}},
{"geometry": {"type": "Point", "coordinates": [-92.7907325562, 44.3041292948]}, "type": "Feature", "properties": {"collection_times": [{"days": "Mon-Fri", "time": "2:30pm"}, {"days": "Sat", "time": "11:00am"}, {"days": "Sun", "time": "Closed"}], "id": "5598300003", "name": "USPS COLLECTION BOX - BLUE BOX", "address": {"city": "WANAMINGO", "state": "MN", "street": "208 MAIN ST", "postcode": "55983"}}},
{"geometry": {"type": "Point", "coordinates": [-92.9000445684, 44.1516440274]}, "type": "Feature", "properties": {"collection_times": [{"days": "Mon-Fri", "time": "1:00pm"}, {"days": "Sat", "time": "12:30pm"}, {"days": "Sun", "time": "Closed"}], "id": "5598500000", "name": "USPS COLLECTION BOX - BLUE BOX", "address": {"city": "WEST CONCORD", "state": "MN", "street": "251 W MAIN ST", "postcode": "55985"}}},
{"geometry": {"type": "Point", "coordinates": [-92.9000445684, 44.1516440274]}, "type": "Feature", "properties": {"collection_times": [{"days": "Mon-Fri", "time": "1:00pm"}, {"days": "Sat", "time": "12:30pm"}, {"days": "Sun", "time": "Closed"}], "id": "5598500001", "name": "USPS COLLECTION BOX - PO LOBBY", "address": {"city": "WEST CONCORD", "state": "MN", "street": "251 W MAIN ST", "postcode": "55985"}}},
{"geometry": {"type": "Point", "coordinates": [-91.6222030547, 44.0330862752]}, "type": "Feature", "properties": {"collection_times": [{"days": "Mon-Sat", "time": "1:15pm"}, {"days": "Sun", "time": "Closed"}], "id": "5598700001", "name": "USPS COLLECTION BOX - BLUE BOX", "address": {"city": "WINONA", "state": "MN", "street": "855 MANKATO AVE", "postcode": "55987"}}},
{"geometry": {"type": "Point", "coordinates": [-91.619009781, 44.0442606284]}, "type": "Feature", "properties": {"collection_times": [{"days": "Mon-Sat", "time": "1:30pm"}, {"days": "Sun", "time": "Closed"}], "id": "5598700003", "name": "USPS COLLECTION BOX - BLUE BOX", "address": {"city": "WINONA", "state": "MN", "street": "770 E BROADWAY ST", "postcode": "55987"}}},
{"geometry": {"type": "Point", "coordinates": [-91.6304746112, 44.0507364975]}, "type": "Feature", "properties": {"collection_times": [{"days": "Mon-Sat", "time": "12:00pm"}, {"days": "Sun", "time": "Closed"}], "id": "5598700007", "name": "USPS COLLECTION BOX - BLUE BOX", "address": {"city": "WINONA", "state": "MN", "street": "274 E 3RD ST", "postcode": "55987"}}},
{"geometry": {"type": "Point", "coordinates": [-91.6348684393, 43.9843604581]}, "type": "Feature", "properties": {"collection_times": [{"days": "Mon-Fri", "time": "1:30pm"}, {"days": "Sat", "time": "10:00am"}, {"days": "Sun", "time": "Closed"}], "id": "5598700008", "name": "USPS COLLECTION BOX - BLUE BOX", "address": {"city": "WINONA", "state": "MN", "street": "111 RIVERFRONT", "postcode": "55987"}}},
{"geometry": {"type": "Point", "coordinates": [-91.6354800372, 44.0520300589]}, "type": "Feature", "properties": {"collection_times": [{"days": "Mon-Fri", "time": "1:30pm"}, {"days": "Sat", "time": "10:00am"}, {"days": "Sun", "time": "Closed"}], "id": "5598700009", "name": "USPS COLLECTION BOX - BLUE BOX", "address": {"city": "WINONA", "state": "MN", "street": "79 E 3RD ST", "postcode": "55987"}}},
{"geometry": {"type": "Point", "coordinates": [-91.6375862892, 44.0527286262]}, "type": "Feature", "properties": {"collection_times": [{"days": "Mon-Fri", "time": "1:30pm"}, {"days": "Sat", "time": "10:00am"}, {"days": "Sun", "time": "Closed"}], "id": "5598700010", "name": "USPS COLLECTION BOX - BLUE BOX", "address": {"city": "WINONA", "state": "MN", "street": "90 W 3RD ST", "postcode": "55987"}}},
{"geometry": {"type": "Point", "coordinates": [-91.6417343828, 44.048212985]}, "type": "Feature", "properties": {"collection_times": [{"days": "Mon-Sat", "time": "1:30pm"}, {"days": "Sun", "time": "Closed"}], "id": "5598700015", "name": "USPS COLLECTION BOX - BLUE BOX", "address": {"city": "WINONA", "state": "MN", "street": "151 W SANBORN ST", "postcode": "55987"}}},
{"geometry": {"type": "Point", "coordinates": [-91.6453418933, 44.0481258774]}, "type": "Feature", "properties": {"collection_times": [{"days": "Mon-Sat", "time": "1:30pm"}, {"days": "Sun", "time": "Closed"}], "id": "5598700016", "name": "USPS COLLECTION BOX - BLUE BOX", "address": {"city": "WINONA", "state": "MN", "street": "265 W 9TH ST", "postcode": "55987"}}},
{"geometry": {"type": "Point", "coordinates": [-91.6666461833, 44.0521796448]}, "type": "Feature", "properties": {"collection_times": [{"days": "Mon-Sat", "time": "1:30pm"}, {"days": "Sun", "time": "Closed"}], "id": "5598700018", "name": "USPS COLLECTION BOX - BLUE BOX", "address": {"city": "WINONA", "state": "MN", "street": "1124 W 7TH ST", "postcode": "55987"}}},
{"geometry": {"type": "Point", "coordinates": [-91.6692585345, 44.0484343841]}, "type": "Feature", "properties": {"collection_times": [{"days": "Mon-Sat", "time": "11:00am"}, {"days": "Sun", "time": "Closed"}], "id": "5598700019", "name": "USPS COLLECTION BOX - BLUE BOX", "address": {"city": "WINONA", "state": "MN", "street": "1213 GILMORE AVE", "postcode": "55987"}}},
{"geometry": {"type": "Point", "coordinates": [-91.676491731, 44.0475247789]}, "type": "Feature", "properties": {"collection_times": [{"days": "Mon-Sat", "time": "1:30pm"}, {"days": "Sun", "time": "Closed"}], "id": "5598700020", "name": "USPS COLLECTION BOX - BLUE BOX", "address": {"city": "WINONA", "state": "MN", "street": "1455 W SERVICE DR", "postcode": "55987"}}},
{"geometry": {"type": "Point", "coordinates": [-91.660660105, 44.0531343512]}, "type": "Feature", "properties": {"collection_times": [{"days": "Mon-Sat", "time": "1:00pm"}, {"days": "Sun", "time": "Closed"}], "id": "5598700021", "name": "USPS COLLECTION BOX - BLUE BOX", "address": {"city": "WINONA", "state": "MN", "street": "872 W BROADWAY ST", "postcode": "55987"}}},
{"geometry": {"type": "Point", "coordinates": [-91.6802211292, 44.0540975954]}, "type": "Feature", "properties": {"collection_times": [{"days": "Mon-Sat", "time": "1:30pm"}, {"days": "Sun", "time": "Closed"}], "id": "5598700022", "name": "USPS COLLECTION BOX - BLUE BOX", "address": {"city": "WINONA", "state": "MN", "street": "1601 W 5TH ST", "postcode": "55987"}}},
{"geometry": {"type": "Point", "coordinates": [-91.6954409531, 44.0622159786]}, "type": "Feature", "properties": {"collection_times": [{"days": "Mon-Sat", "time": "1:30pm"}, {"days": "Sun", "time": "Closed"}], "id": "5598700026", "name": "USPS COLLECTION BOX - BLUE BOX", "address": {"city": "WINONA", "state": "MN", "street": "4065 W 6TH ST", "postcode": "55987"}}},
{"geometry": {"type": "Point", "coordinates": [-91.6215093629, 44.0280220346]}, "type": "Feature", "properties": {"collection_times": [{"days": "Mon-Sat", "time": "12:00pm"}, {"days": "Sun", "time": "Closed"}], "id": "5598700029", "name": "USPS COLLECTION BOX - BLUE BOX", "address": {"city": "WINONA", "state": "MN", "street": "1058 HOMER RD", "postcode": "55987"}}},
{"geometry": {"type": "Point", "coordinates": [-91.6383717365, 44.0506457241]}, "type": "Feature", "properties": {"collection_times": [{"days": "Mon-Sat", "time": "2:30pm"}, {"days": "Sun", "time": "Closed"}], "id": "5598700030", "name": "USPS COLLECTION BOX - BLUE BOX", "address": {"city": "WINONA", "state": "MN", "street": "67 W 5TH ST", "postcode": "55987"}}},
{"geometry": {"type": "Point", "coordinates": [-91.6911221995, 44.054004911]}, "type": "Feature", "properties": {"collection_times": [{"days": "Mon-Sat", "time": "12:00pm"}, {"days": "Sun", "time": "Closed"}], "id": "5598700033", "name": "USPS COLLECTION BOX - BLUE BOX", "address": {"city": "WINONA", "state": "MN", "street": "405 COTTONWOOD DR", "postcode": "55987"}}},
{"geometry": {"type": "Point", "coordinates": [-91.6383717365, 44.0506457241]}, "type": "Feature", "properties": {"collection_times": [{"days": "Mon-Sat", "time": "2:30pm"}, {"days": "Sun", "time": "Closed"}], "id": "5598700035", "name": "USPS COLLECTION BOX - PO LOBBY", "address": {"city": "WINONA", "state": "MN", "street": "67 W 5TH ST", "postcode": "55987"}}},
{"geometry": {"type": "Point", "coordinates": [-91.6474041787, 44.0444499416]}, "type": "Feature", "properties": {"collection_times": [{"days": "Mon-Sat", "time": "1:00pm"}, {"days": "Sun", "time": "Closed"}], "id": "5598700040", "name": "USPS COLLECTION BOX - BLUE BOX", "address": {"city": "WINONA", "state": "MN", "street": "268 W SARNIA ST", "postcode": "55987"}}},
{"geometry": {"type": "Point", "coordinates": [-92.2682548486, 43.7071138851]}, "type": "Feature", "properties": {"collection_times": [{"days": "Mon-Fri", "time": "3:00pm"}, {"days": "Sat", "time": "12:00pm"}, {"days": "Sun", "time": "Closed"}], "id": "5599000000", "name": "USPS COLLECTION BOX - BLUE BOX", "address": {"city": "WYKOFF", "state": "MN", "street": "110 GOLD ST N", "postcode": "55990"}}},
{"geometry": {"type": "Point", "coordinates": [-92.2682548486, 43.7071138851]}, "type": "Feature", "properties": {"collection_times": [{"days": "Mon-Fri", "time": "3:00pm"}, {"days": "Sat", "time": "12:00pm"}, {"days": "Sun", "time": "Closed"}], "id": "5599000001", "name": "USPS COLLECTION BOX - PO LOBBY", "address": {"city": "WYKOFF", "state": "MN", "street": "110 GOLD ST N", "postcode": "55990"}}},
{"geometry": {"type": "Point", "coordinates": [-92.422984873, 44.2834093519]}, "type": "Feature", "properties": {"collection_times": [{"days": "Mon-Fri", "time": "3:00pm"}, {"days": "Sat", "time": "12:00pm"}, {"days": "Sun", "time": "Closed"}], "id": "5599100000", "name": "USPS COLLECTION BOX - BLUE BOX", "address": {"city": "HAMMOND", "state": "MN", "street": "477 HIGHWAY 60", "postcode": "55991"}}},
{"geometry": {"type": "Point", "coordinates": [-92.422984873, 44.2834093519]}, "type": "Feature", "properties": {"collection_times": [{"days": "Mon-Fri", "time": "3:00pm"}, {"days": "Sat", "time": "12:00pm"}, {"days": "Sun", "time": "Closed"}], "id": "5599100002", "name": "USPS COLLECTION BOX - PO LOBBY", "address": {"city": "HAMMOND", "state": "MN", "street": "477 HIGHWAY 60", "postcode": "55991"}}},
{"geometry": {"type": "Point", "coordinates": [-92.670778255, 44.2924711144]}, "type": "Feature", "properties": {"collection_times": [{"days": "Mon-Fri", "time": "3:15pm"}, {"days": "Sat", "time": "11:00am"}, {"days": "Sun", "time": "Closed"}], "id": "5599200008", "name": "USPS COLLECTION BOX - BLUE BOX", "address": {"city": "ZUMBROTA", "state": "MN", "street": "138 W 5TH ST", "postcode": "55992"}}},
{"geometry": {"type": "Point", "coordinates": [-92.670778255, 44.2924711144]}, "type": "Feature", "properties": {"collection_times": [{"days": "Mon-Fri", "time": "3:15pm"}, {"days": "Sat", "time": "11:00am"}, {"days": "Sun", "time": "Closed"}], "id": "5599200009", "name": "USPS COLLECTION BOX - PO LOBBY", "address": {"city": "ZUMBROTA", "state": "MN", "street": "138 W 5TH ST", "postcode": "55992"}}}
]}
