{"type": "FeatureCollection", "features": [
{"geometry": {"type": "Point", "coordinates": [-94.0067258919, 44.1652665988]}, "type": "Feature", "properties": {"collection_times": [{"days": "Mon-Sat", "time": "1:30pm"}, {"days": "Sun", "time": "Closed"}], "id": "5600100000", "name": "USPS COLLECTION BOX - BLUE BOX", "address": {"city": "MANKATO", "state": "MN", "street": "410 S RIVERFRONT DR", "postcode": "56001"}}},
{"geometry": {"type": "Point", "coordinates": [-94.003793519, 44.1640257598]}, "type": "Feature", "properties": {"collection_times": [{"days": "Mon-Sat", "time": "4:00pm"}, {"days": "Sun", "time": "Closed"}], "id": "5600100001", "name": "USPS COLLECTION BOX - BLUE BOX", "address": {"city": "MANKATO", "state": "MN", "street": "220 E JACKSON ST", "postcode": "56001"}}},
{"geometry": {"type": "Point", "coordinates": [-94.0050330511, 44.1641028521]}, "type": "Feature", "properties": {"collection_times": [{"days": "Mon-Fri", "time": "1:30pm"}, {"days": "Sat-Sun", "time": "Closed"}], "id": "5600100002", "name": "USPS COLLECTION BOX - BLUE BOX", "address": {"city": "MANKATO", "state": "MN", "street": "12 CIVIC CENTER PLZ", "postcode": "56001"}}},
{"geometry": {"type": "Point", "coordinates": [-94.0023357902, 44.1657512083]}, "type": "Feature", "properties": {"collection_times": [{"days": "Mon-Fri", "time": "1:30pm"}, {"days": "Sat-Sun", "time": "Closed"}], "id": "5600100004", "name": "USPS COLLECTION BOX - BLUE BOX", "address": {"city": "MANKATO", "state": "MN", "street": "209 S 2ND ST", "postcode": "56001"}}},
{"geometry": {"type": "Point", "coordinates": [-94.0029227415, 44.1962424535]}, "type": "Feature", "properties": {"collection_times": [{"days": "Mon-Sat", "time": "4:45pm"}, {"days": "Sun", "time": "Closed"}], "id": "5600100010", "name": "USPS COLLECTION BOX - BLUE BOX", "address": {"city": "MANKATO", "state": "MN", "street": "851 SUMMIT AVE", "postcode": "56001"}}},
{"geometry": {"type": "Point", "coordinates": [-93.9632405656, 44.1686357913]}, "type": "Feature", "properties": {"collection_times": [{"days": "Mon-Sat", "time": "2:00pm"}, {"days": "Sun", "time": "Closed"}], "id": "5600100013", "name": "USPS COLLECTION BOX - BLUE BOX", "address": {"city": "MANKATO", "state": "MN", "street": "50 NAVAHO AVE", "postcode": "56001"}}},
{"geometry": {"type": "Point", "coordinates": [-93.9878563141, 44.1791586121]}, "type": "Feature", "properties": {"collection_times": [{"days": "Mon-Fri", "time": "2:30pm"}, {"days": "Sat", "time": "1:00pm"}, {"days": "Sun", "time": "Closed"}], "id": "5600100028", "name": "USPS COLLECTION BOX - BLUE BOX", "address": {"city": "MANKATO", "state": "MN", "street": "1434 N BROAD ST", "postcode": "56001"}}},
{"geometry": {"type": "Point", "coordinates": [-93.9670931952, 44.16676467]}, "type": "Feature", "properties": {"collection_times": [{"days": "Mon-Sat", "time": "1:30pm"}, {"days": "Sun", "time": "Closed"}], "id": "5600100030", "name": "USPS COLLECTION BOX - BLUE BOX", "address": {"city": "MANKATO", "state": "MN", "street": "1549 E MADISON AVE", "postcode": "56001"}}},
{"geometry": {"type": "Point", "coordinates": [-93.9760839676, 44.1681648095]}, "type": "Feature", "properties": {"collection_times": [{"days": "Mon-Fri", "time": "2:00pm"}, {"days": "Sat-Sun", "time": "Closed"}], "id": "5600100033", "name": "USPS COLLECTION BOX - BLUE BOX", "address": {"city": "MANKATO", "state": "MN", "street": "1200 CALEDONIA ST", "postcode": "56001"}}},
{"geometry": {"type": "Point", "coordinates": [-93.97198, 44.16702]}, "type": "Feature", "properties": {"collection_times": [{"days": "Mon-Fri", "time": "3:30pm"}, {"days": "Sat", "time": "3:00pm"}, {"days": "Sun", "time": "Closed"}], "id": "5600100037", "name": "USPS COLLECTION BOX - BLUE BOX", "address": {"city": "MANKATO", "state": "MN", "street": "1400 MADISON AVE", "postcode": "56001"}}},
{"geometry": {"type": "Point", "coordinates": [-93.9716147376, 44.1560640676]}, "type": "Feature", "properties": {"collection_times": [{"days": "Mon-Sat", "time": "1:30pm"}, {"days": "Sun", "time": "Closed"}], "id": "5600100042", "name": "USPS COLLECTION BOX - BLUE BOX", "address": {"city": "MANKATO", "state": "MN", "street": "2160 HOFFMAN RD", "postcode": "56001"}}},
{"geometry": {"type": "Point", "coordinates": [-93.9935207804, 44.1450297049]}, "type": "Feature", "properties": {"collection_times": [{"days": "Mon-Fri", "time": "1:00pm"}, {"days": "Sat-Sun", "time": "Closed"}], "id": "5600100043", "name": "USPS COLLECTION BOX - BLUE BOX", "address": {"city": "MANKATO", "state": "MN", "street": "230 STADIUM RD", "postcode": "56001"}}},
{"geometry": {"type": "Point", "coordinates": [-94.0040535226, 44.1639877015]}, "type": "Feature", "properties": {"collection_times": [{"days": "Mon-Sat", "time": "4:15pm"}, {"days": "Sun", "time": "Closed"}], "id": "5600100049", "name": "USPS COLLECTION BOX - PO LOBBY", "address": {"city": "MANKATO", "state": "MN", "street": "401 S 2ND ST", "postcode": "56001"}}},
{"geometry": {"type": "Point", "coordinates": [-93.9707467323, 44.1670128309]}, "type": "Feature", "properties": {"collection_times": [{"days": "Mon-Fri", "time": "3:30pm"}, {"days": "Sat", "time": "3:00pm"}, {"days": "Sun", "time": "Closed"}], "id": "5600100050", "name": "USPS COLLECTION BOX - PO LOBBY", "address": {"city": "MANKATO", "state": "MN", "street": "1400 E MADISON AVE", "postcode": "56001"}}},
{"geometry": {"type": "Point", "coordinates": [-93.9528005656, 44.1669745715]}, "type": "Feature", "properties": {"collection_times": [{"days": "Mon-Sat", "time": "2:00pm"}, {"days": "Sun", "time": "Closed"}], "id": "5600100051", "name": "USPS COLLECTION BOX - BLUE BOX", "address": {"city": "MANKATO", "state": "MN", "street": "1850 E MADISON AVE", "postcode": "56001"}}},
{"geometry": {"type": "Point", "coordinates": [-94.003793519, 44.1640257598]}, "type": "Feature", "properties": {"collection_times": [{"days": "Mon-Sat", "time": "4:00pm"}, {"days": "Sun", "time": "Closed"}], "id": "5600100054", "name": "USPS COLLECTION BOX - BLUE BOX", "address": {"city": "MANKATO", "state": "MN", "street": "220 E JACKSON ST", "postcode": "56001"}}},
{"geometry": {"type": "Point", "coordinates": [-94.0046703057, 44.1642944333]}, "type": "Feature", "properties": {"collection_times": [{"days": "Mon-Fri", "time": "1:30pm"}, {"days": "Sat-Sun", "time": "Closed"}], "id": "5600100060", "name": "USPS COLLECTION BOX - BLUE BOX", "address": {"city": "MANKATO", "state": "MN", "street": "3 CIVIC CENTER PLZ", "postcode": "56001"}}},
{"geometry": {"type": "Point", "coordinates": [-93.9632405656, 44.1686357913]}, "type": "Feature", "properties": {"collection_times": [{"days": "Mon-Sat", "time": "2:00pm"}, {"days": "Sun", "time": "Closed"}], "id": "5600100065", "name": "USPS COLLECTION BOX - BLUE BOX", "address": {"city": "MANKATO", "state": "MN", "street": "50 NAVAHO AVE", "postcode": "56001"}}},
{"geometry": {"type": "Point", "coordinates": [-93.9878563141, 44.1791586121]}, "type": "Feature", "properties": {"collection_times": [{"days": "Mon-Fri", "time": "2:30pm"}, {"days": "Sat", "time": "1:00pm"}, {"days": "Sun", "time": "Closed"}], "id": "5600100066", "name": "USPS COLLECTION BOX - BLUE BOX", "address": {"city": "MANKATO", "state": "MN", "street": "1434 N BROAD ST", "postcode": "56001"}}},
{"geometry": {"type": "Point", "coordinates": [-93.9670931952, 44.16676467]}, "type": "Feature", "properties": {"collection_times": [{"days": "Mon-Sat", "time": "1:30pm"}, {"days": "Sun", "time": "Closed"}], "id": "5600100068", "name": "USPS COLLECTION BOX - BLUE BOX", "address": {"city": "MANKATO", "state": "MN", "street": "1549 E MADISON AVE", "postcode": "56001"}}},
{"geometry": {"type": "Point", "coordinates": [-93.9760839676, 44.1681648095]}, "type": "Feature", "properties": {"collection_times": [{"days": "Mon-Fri", "time": "2:00pm"}, {"days": "Sat-Sun", "time": "Closed"}], "id": "5600100069", "name": "USPS COLLECTION BOX - BLUE BOX", "address": {"city": "MANKATO", "state": "MN", "street": "1200 CALEDONIA ST", "postcode": "56001"}}},
{"geometry": {"type": "Point", "coordinates": [-93.9716147376, 44.1560640676]}, "type": "Feature", "properties": {"collection_times": [{"days": "Mon-Sat", "time": "1:30pm"}, {"days": "Sun", "time": "Closed"}], "id": "5600100070", "name": "USPS COLLECTION BOX - BLUE BOX", "address": {"city": "MANKATO", "state": "MN", "street": "2160 HOFFMAN RD", "postcode": "56001"}}},
{"geometry": {"type": "Point", "coordinates": [-93.9528005656, 44.1669745715]}, "type": "Feature", "properties": {"collection_times": [{"days": "Mon-Sat", "time": "2:00pm"}, {"days": "Sun", "time": "Closed"}], "id": "5600100071", "name": "USPS COLLECTION BOX - BLUE BOX", "address": {"city": "MANKATO", "state": "MN", "street": "1850 E MADISON AVE", "postcode": "56001"}}},
{"geometry": {"type": "Point", "coordinates": [-93.9528005656, 44.1669745715]}, "type": "Feature", "properties": {"collection_times": [{"days": "Mon-Sat", "time": "2:00pm"}, {"days": "Sun", "time": "Closed"}], "id": "5600100072", "name": "USPS COLLECTION BOX - BLUE BOX", "address": {"city": "MANKATO", "state": "MN", "street": "1850 E MADISON AVE", "postcode": "56001"}}},
{"geometry": {"type": "Point", "coordinates": [-94.0154648463, 44.1602776323]}, "type": "Feature", "properties": {"collection_times": [{"days": "Mon-Sat", "time": "1:45pm"}, {"days": "Sun", "time": "Closed"}], "id": "5600100073", "name": "USPS COLLECTION BOX - BLUE BOX", "address": {"city": "MANKATO", "state": "MN", "street": "1200 S RIVERFRONT DR", "postcode": "56001"}}},
{"geometry": {"type": "Point", "coordinates": [-94.0154648463, 44.1602776323]}, "type": "Feature", "properties": {"collection_times": [{"days": "Mon-Sat", "time": "1:45pm"}, {"days": "Sun", "time": "Closed"}], "id": "5600100074", "name": "USPS COLLECTION BOX - BLUE BOX", "address": {"city": "MANKATO", "state": "MN", "street": "1200 S RIVERFRONT DR", "postcode": "56001"}}},
{"geometry": {"type": "Point", "coordinates": [-93.9431264772, 44.1771358669]}, "type": "Feature", "properties": {"collection_times": [{"days": "Mon-Fri", "time": "1:30pm"}, {"days": "Sat-Sun", "time": "Closed"}], "id": "5600100076", "name": "USPS COLLECTION BOX - BLUE BOX", "address": {"city": "MANKATO", "state": "MN", "street": "1950 EXCEL DR", "postcode": "56001"}}},
{"geometry": {"type": "Point", "coordinates": [-93.9575033514, 44.1815023611]}, "type": "Feature", "properties": {"collection_times": [{"days": "Mon-Fri", "time": "1:30pm"}, {"days": "Sat-Sun", "time": "Closed"}], "id": "5600100077", "name": "USPS COLLECTION BOX - BLUE BOX", "address": {"city": "MANKATO", "state": "MN", "street": "285 SAINT ANDREWS DR", "postcode": "56001"}}},
{"geometry": {"type": "Point", "coordinates": [-93.97198, 44.16702]}, "type": "Feature", "properties": {"collection_times": [{"days": "Mon-Fri", "time": "3:30pm"}, {"days": "Sat", "time": "3:00pm"}, {"days": "Sun", "time": "Closed"}], "id": "5600100079", "name": "USPS COLLECTION BOX - BLUE BOX", "address": {"city": "MANKATO", "state": "MN", "street": "1400 MADISON AVE", "postcode": "56001"}}},
{"geometry": {"type": "Point", "coordinates": [-93.9476372996, 44.1705220704]}, "type": "Feature", "properties": {"collection_times": [{"days": "Mon-Sat", "time": "3:00pm"}, {"days": "Sun", "time": "Closed"}], "id": "5600100080", "name": "USPS COLLECTION BOX - BLUE BOX", "address": {"city": "MANKATO", "state": "MN", "street": "2010 ADAMS ST", "postcode": "56001"}}},
{"geometry": {"type": "Point", "coordinates": [-94.0071790277, 44.1700970265]}, "type": "Feature", "properties": {"collection_times": [{"days": "Mon-Fri", "time": "3:30pm"}, {"days": "Sat", "time": "3:00pm"}, {"days": "Sun", "time": "Closed"}], "id": "5600300000", "name": "USPS COLLECTION BOX - PO LOBBY", "address": {"city": "NORTH MANKATO", "state": "MN", "street": "245 BELGRADE AVE", "postcode": "56003"}}},
{"geometry": {"type": "Point", "coordinates": [-94.0252353493, 44.1689595694]}, "type": "Feature", "properties": {"collection_times": [{"days": "Mon-Sat", "time": "2:45pm"}, {"days": "Sun", "time": "Closed"}], "id": "5600300001", "name": "USPS COLLECTION BOX - BLUE BOX", "address": {"city": "NORTH MANKATO", "state": "MN", "street": "1001 BELGRADE AVE", "postcode": "56003"}}},
{"geometry": {"type": "Point", "coordinates": [-94.0373023476, 44.1787942218]}, "type": "Feature", "properties": {"collection_times": [{"days": "Mon-Sat", "time": "2:00pm"}, {"days": "Sun", "time": "Closed"}], "id": "5600300002", "name": "USPS COLLECTION BOX - BLUE BOX", "address": {"city": "NORTH MANKATO", "state": "MN", "street": "1765 COMMERCE DR", "postcode": "56003"}}},
{"geometry": {"type": "Point", "coordinates": [-94.0450731704, 44.1842260265]}, "type": "Feature", "properties": {"collection_times": [{"days": "Mon-Fri", "time": "2:00pm"}, {"days": "Sat-Sun", "time": "Closed"}], "id": "5600300003", "name": "USPS COLLECTION BOX - BLUE BOX", "address": {"city": "NORTH MANKATO", "state": "MN", "street": "2075 HOWARD DR W", "postcode": "56003"}}},
{"geometry": {"type": "Point", "coordinates": [-94.0087183782, 44.1738768518]}, "type": "Feature", "properties": {"collection_times": [{"days": "Mon-Sat", "time": "2:30pm"}, {"days": "Sun", "time": "Closed"}], "id": "5600300006", "name": "USPS COLLECTION BOX - BLUE BOX", "address": {"city": "NORTH MANKATO", "state": "MN", "street": "702 RANGE ST", "postcode": "56003"}}},
{"geometry": {"type": "Point", "coordinates": [-94.0252353493, 44.1689595694]}, "type": "Feature", "properties": {"collection_times": [{"days": "Mon-Sat", "time": "2:45pm"}, {"days": "Sun", "time": "Closed"}], "id": "5600300007", "name": "USPS COLLECTION BOX - BLUE BOX", "address": {"city": "NORTH MANKATO", "state": "MN", "street": "1001 BELGRADE AVE", "postcode": "56003"}}},
{"geometry": {"type": "Point", "coordinates": [-94.0391015745, 44.1732856219]}, "type": "Feature", "properties": {"collection_times": [{"days": "Mon-Sat", "time": "2:15pm"}, {"days": "Sun", "time": "Closed"}], "id": "5600300009", "name": "USPS COLLECTION BOX - BLUE BOX", "address": {"city": "NORTH MANKATO", "state": "MN", "street": "1807 LEE BLVD", "postcode": "56003"}}},
{"geometry": {"type": "Point", "coordinates": [-94.0373023476, 44.1787942218]}, "type": "Feature", "properties": {"collection_times": [{"days": "Mon-Sat", "time": "2:00pm"}, {"days": "Sun", "time": "Closed"}], "id": "5600300012", "name": "USPS COLLECTION BOX - BLUE BOX", "address": {"city": "NORTH MANKATO", "state": "MN", "street": "1765 COMMERCE DR", "postcode": "56003"}}},
{"geometry": {"type": "Point", "coordinates": [-94.0373023476, 44.1787942218]}, "type": "Feature", "properties": {"collection_times": [{"days": "Mon-Sat", "time": "2:00pm"}, {"days": "Sun", "time": "Closed"}], "id": "5600300013", "name": "USPS COLLECTION BOX - BLUE BOX", "address": {"city": "NORTH MANKATO", "state": "MN", "street": "1765 COMMERCE DR", "postcode": "56003"}}},
{"geometry": {"type": "Point", "coordinates": [-94.0071790277, 44.1700970265]}, "type": "Feature", "properties": {"collection_times": [{"days": "Mon-Fri", "time": "3:30pm"}, {"days": "Sat", "time": "3:00pm"}, {"days": "Sun", "time": "Closed"}], "id": "5600300014", "name": "USPS COLLECTION BOX - BLUE BOX", "address": {"city": "NORTH MANKATO", "state": "MN", "street": "245 BELGRADE AVE", "postcode": "56003"}}},
{"geometry": {"type": "Point", "coordinates": [-93.358477936, 43.6257181946]}, "type": "Feature", "properties": {"collection_times": [{"days": "Mon-Fri", "time": "1:00pm"}, {"days": "Sat", "time": "12:00pm"}, {"days": "Sun", "time": "Closed"}], "id": "5600700001", "name": "USPS COLLECTION BOX - BLUE BOX", "address": {"city": "ALBERT LEA", "state": "MN", "street": "1820 MARGARETHA AVE", "postcode": "56007"}}},
{"geometry": {"type": "Point", "coordinates": [-93.3686509312, 43.6469327737]}, "type": "Feature", "properties": {"collection_times": [{"days": "Mon-Sat", "time": "1:45pm"}, {"days": "Sun", "time": "Closed"}], "id": "5600700002", "name": "USPS COLLECTION BOX - BLUE BOX", "address": {"city": "ALBERT LEA", "state": "MN", "street": "100 E COLLEGE", "postcode": "56007"}}},
{"geometry": {"type": "Point", "coordinates": [-93.3588390085, 43.6810956526]}, "type": "Feature", "properties": {"collection_times": [{"days": "Mon-Sat", "time": "2:30pm"}, {"days": "Sun", "time": "Closed"}], "id": "5600700004", "name": "USPS COLLECTION BOX - BLUE BOX", "address": {"city": "ALBERT LEA", "state": "MN", "street": "2510 BRIDGE AVE", "postcode": "56007"}}},
{"geometry": {"type": "Point", "coordinates": [-93.3686486358, 43.6496960007]}, "type": "Feature", "properties": {"collection_times": [{"days": "Mon-Sat", "time": "2:00pm"}, {"days": "Sun", "time": "Closed"}], "id": "5600700005", "name": "USPS COLLECTION BOX - BLUE BOX", "address": {"city": "ALBERT LEA", "state": "MN", "street": "105 E CLARK ST", "postcode": "56007"}}},
{"geometry": {"type": "Point", "coordinates": [-93.3726531164, 43.6516231729]}, "type": "Feature", "properties": {"collection_times": [{"days": "Mon-Sat", "time": "2:15pm"}, {"days": "Sun", "time": "Closed"}], "id": "5600700006", "name": "USPS COLLECTION BOX - BLUE BOX", "address": {"city": "ALBERT LEA", "state": "MN", "street": "404 W FOUNTAIN ST", "postcode": "56007"}}},
{"geometry": {"type": "Point", "coordinates": [-93.3699487116, 43.6495774426]}, "type": "Feature", "properties": {"collection_times": [{"days": "Mon-Sat", "time": "2:00pm"}, {"days": "Sun", "time": "Closed"}], "id": "5600700007", "name": "USPS COLLECTION BOX - BLUE BOX", "address": {"city": "ALBERT LEA", "state": "MN", "street": "116 S WASHINGTON AVE", "postcode": "56007"}}},
{"geometry": {"type": "Point", "coordinates": [-93.3892978675, 43.6463571788]}, "type": "Feature", "properties": {"collection_times": [{"days": "Mon-Sat", "time": "1:45pm"}, {"days": "Sun", "time": "Closed"}], "id": "5600700008", "name": "USPS COLLECTION BOX - BLUE BOX", "address": {"city": "ALBERT LEA", "state": "MN", "street": "1619 W MAIN ST", "postcode": "56007"}}},
{"geometry": {"type": "Point", "coordinates": [-93.3588590474, 43.6842126643]}, "type": "Feature", "properties": {"collection_times": [{"days": "Mon-Sat", "time": "2:30pm"}, {"days": "Sun", "time": "Closed"}], "id": "5600700010", "name": "USPS COLLECTION BOX - BLUE BOX", "address": {"city": "ALBERT LEA", "state": "MN", "street": "2708 BRIDGE AVE", "postcode": "56007"}}},
{"geometry": {"type": "Point", "coordinates": [-93.3183895164, 43.6576494009]}, "type": "Feature", "properties": {"collection_times": [{"days": "Mon-Sat", "time": "1:00pm"}, {"days": "Sun", "time": "Closed"}], "id": "5600700013", "name": "USPS COLLECTION BOX - BLUE BOX", "address": {"city": "ALBERT LEA", "state": "MN", "street": "820 HAPPY TRAILS LN", "postcode": "56007"}}},
{"geometry": {"type": "Point", "coordinates": [-93.3674822163, 43.6493654147]}, "type": "Feature", "properties": {"collection_times": [{"days": "Mon-Sat", "time": "2:30pm"}, {"days": "Sun", "time": "Closed"}], "id": "5600700014", "name": "USPS COLLECTION BOX - PO LOBBY", "address": {"city": "ALBERT LEA", "state": "MN", "street": "141 S NEWTON AVE", "postcode": "56007"}}},
{"geometry": {"type": "Point", "coordinates": [-93.393554489, 43.6696722065]}, "type": "Feature", "properties": {"collection_times": [{"days": "Mon-Sat", "time": "10:00am"}, {"days": "Sun", "time": "Closed"}], "id": "5600700015", "name": "USPS COLLECTION BOX - BLUE BOX", "address": {"city": "ALBERT LEA", "state": "MN", "street": "246 FREEBORN RD", "postcode": "56007"}}},
{"geometry": {"type": "Point", "coordinates": [-93.367216751, 43.648768474]}, "type": "Feature", "properties": {"collection_times": [{"days": "Mon-Sat", "time": "2:30pm"}, {"days": "Sun", "time": "Closed"}], "id": "5600700016", "name": "USPS COLLECTION BOX - BLUE BOX", "address": {"city": "ALBERT LEA", "state": "MN", "street": "211 E WILLIAM ST", "postcode": "56007"}}},
{"geometry": {"type": "Point", "coordinates": [-93.3686509312, 43.6469327737]}, "type": "Feature", "properties": {"collection_times": [{"days": "Mon-Sat", "time": "1:45pm"}, {"days": "Sun", "time": "Closed"}], "id": "5600700017", "name": "USPS COLLECTION BOX - BLUE BOX", "address": {"city": "ALBERT LEA", "state": "MN", "street": "100 E COLLEGE", "postcode": "56007"}}},
{"geometry": {"type": "Point", "coordinates": [-93.3588390085, 43.6810956526]}, "type": "Feature", "properties": {"collection_times": [{"days": "Mon-Sat", "time": "2:30pm"}, {"days": "Sun", "time": "Closed"}], "id": "5600700018", "name": "USPS COLLECTION BOX - BLUE BOX", "address": {"city": "ALBERT LEA", "state": "MN", "street": "2510 BRIDGE AVE", "postcode": "56007"}}},
{"geometry": {"type": "Point", "coordinates": [-93.5758475624, 43.6704830824]}, "type": "Feature", "properties": {"collection_times": [{"days": "Mon-Sat", "time": "2:30pm"}, {"days": "Sun", "time": "Closed"}], "id": "5600900000", "name": "USPS COLLECTION BOX - BLUE BOX", "address": {"city": "ALDEN", "state": "MN", "street": "101 N BROADWAY", "postcode": "56009"}}},
{"geometry": {"type": "Point", "coordinates": [-93.5758475624, 43.6704830824]}, "type": "Feature", "properties": {"collection_times": [{"days": "Mon-Fri", "time": "11:45am"}, {"days": "Sat", "time": "9:30am"}, {"days": "Sun", "time": "Closed"}], "id": "5600900001", "name": "USPS COLLECTION BOX - PO LOBBY", "address": {"city": "ALDEN", "state": "MN", "street": "101 N BROADWAY", "postcode": "56009"}}},
{"geometry": {"type": "Point", "coordinates": [-94.1567042119, 43.888019002]}, "type": "Feature", "properties": {"collection_times": [{"days": "Mon-Sat", "time": "3:15pm"}, {"days": "Sun", "time": "Closed"}], "id": "5601000000", "name": "USPS COLLECTION BOX - BLUE BOX", "address": {"city": "AMBOY", "state": "MN", "street": "208 E MAINE ST", "postcode": "56010"}}},
{"geometry": {"type": "Point", "coordinates": [-94.1567042119, 43.888019002]}, "type": "Feature", "properties": {"collection_times": [{"days": "Mon-Fri", "time": "3:15pm"}, {"days": "Sat-Sun", "time": "Closed"}], "id": "5601000001", "name": "USPS COLLECTION BOX - PO LOBBY", "address": {"city": "AMBOY", "state": "MN", "street": "208 E MAINE ST", "postcode": "56010"}}},
{"geometry": {"type": "Point", "coordinates": [-93.7681490834, 44.6244126439]}, "type": "Feature", "properties": {"collection_times": [{"days": "Mon-Sat", "time": "3:15pm"}, {"days": "Sun", "time": "Closed"}], "id": "5601100000", "name": "USPS COLLECTION BOX - BLUE BOX", "address": {"city": "BELLE PLAINE", "state": "MN", "street": "233 N MERIDIAN ST", "postcode": "56011"}}},
{"geometry": {"type": "Point", "coordinates": [-93.7681490834, 44.6244126439]}, "type": "Feature", "properties": {"collection_times": [{"days": "Mon-Fri", "time": "3:15pm"}, {"days": "Sat", "time": "10:00am"}, {"days": "Sun", "time": "Closed"}], "id": "5601100001", "name": "USPS COLLECTION BOX - PO LOBBY", "address": {"city": "BELLE PLAINE", "state": "MN", "street": "233 N MERIDIAN ST", "postcode": "56011"}}},
{"geometry": {"type": "Point", "coordinates": [-93.7681490834, 44.6244126439]}, "type": "Feature", "properties": {"collection_times": [{"days": "Mon-Sat", "time": "3:15pm"}, {"days": "Sun", "time": "Closed"}], "id": "5601100003", "name": "USPS COLLECTION BOX - BLUE BOX", "address": {"city": "BELLE PLAINE", "state": "MN", "street": "233 N MERIDIAN ST", "postcode": "56011"}}},
{"geometry": {"type": "Point", "coordinates": [-93.7681490834, 44.6244126439]}, "type": "Feature", "properties": {"collection_times": [{"days": "Mon-Sat", "time": "3:15pm"}, {"days": "Sun", "time": "Closed"}], "id": "5601100004", "name": "USPS COLLECTION BOX - BLUE BOX", "address": {"city": "BELLE PLAINE", "state": "MN", "street": "233 N MERIDIAN ST", "postcode": "56011"}}},
{"geometry": {"type": "Point", "coordinates": [-94.1024015716, 43.6396233452]}, "type": "Feature", "properties": {"collection_times": [{"days": "Mon-Sat", "time": "2:15pm"}, {"days": "Sun", "time": "Closed"}], "id": "5601300001", "name": "USPS COLLECTION BOX - BLUE BOX", "address": {"city": "BLUE EARTH", "state": "MN", "street": "100 E 5TH ST", "postcode": "56013"}}},
{"geometry": {"type": "Point", "coordinates": [-94.0907997801, 43.6353965201]}, "type": "Feature", "properties": {"collection_times": [{"days": "Mon-Sat", "time": "12:00pm"}, {"days": "Sun", "time": "Closed"}], "id": "5601300002", "name": "USPS COLLECTION BOX - BLUE BOX", "address": {"city": "BLUE EARTH", "state": "MN", "street": "415 S GROVE ST", "postcode": "56013"}}},
{"geometry": {"type": "Point", "coordinates": [-94.1023310424, 43.6374191135]}, "type": "Feature", "properties": {"collection_times": [{"days": "Mon-Sat", "time": "12:00pm"}, {"days": "Sun", "time": "Closed"}], "id": "5601300004", "name": "USPS COLLECTION BOX - BLUE BOX", "address": {"city": "BLUE EARTH", "state": "MN", "street": "219 S MAIN ST", "postcode": "56013"}}},
{"geometry": {"type": "Point", "coordinates": [-94.1025145004, 43.6389527785]}, "type": "Feature", "properties": {"collection_times": [{"days": "Mon-Fri", "time": "2:15pm"}, {"days": "Sat", "time": "10:30am"}, {"days": "Sun", "time": "Closed"}], "id": "5601300006", "name": "USPS COLLECTION BOX - PO LOBBY", "address": {"city": "BLUE EARTH", "state": "MN", "street": "130 N MAIN ST", "postcode": "56013"}}},
{"geometry": {"type": "Point", "coordinates": [-94.1024015716, 43.6396233452]}, "type": "Feature", "properties": {"collection_times": [{"days": "Mon-Sat", "time": "2:15pm"}, {"days": "Sun", "time": "Closed"}], "id": "5601300007", "name": "USPS COLLECTION BOX - BLUE BOX", "address": {"city": "BLUE EARTH", "state": "MN", "street": "100 E 5TH ST", "postcode": "56013"}}},
{"geometry": {"type": "Point", "coordinates": [-93.8126000864, 43.5612082697]}, "type": "Feature", "properties": {"collection_times": [{"days": "Mon-Sat", "time": "2:15pm"}, {"days": "Sun", "time": "Closed"}], "id": "5601400000", "name": "USPS COLLECTION BOX - BLUE BOX", "address": {"city": "BRICELYN", "state": "MN", "street": "215 N MAIN ST", "postcode": "56014"}}},
{"geometry": {"type": "Point", "coordinates": [-93.8126000864, 43.5612082697]}, "type": "Feature", "properties": {"collection_times": [{"days": "Mon-Fri", "time": "11:30am"}, {"days": "Sat-Sun", "time": "Closed"}], "id": "5601400001", "name": "USPS COLLECTION BOX - PO LOBBY", "address": {"city": "BRICELYN", "state": "MN", "street": "215 N MAIN ST", "postcode": "56014"}}},
{"geometry": {"type": "Point", "coordinates": [-93.3293950238, 43.7639051899]}, "type": "Feature", "properties": {"collection_times": [{"days": "Mon-Sat", "time": "1:45pm"}, {"days": "Sun", "time": "Closed"}], "id": "5601600000", "name": "USPS COLLECTION BOX - BLUE BOX", "address": {"city": "CLARKS GROVE", "state": "MN", "street": "104 MAIN ST W", "postcode": "56016"}}},
{"geometry": {"type": "Point", "coordinates": [-93.3293950238, 43.7639051899]}, "type": "Feature", "properties": {"collection_times": [{"days": "Mon-Fri", "time": "1:45pm"}, {"days": "Sat", "time": "9:00am"}, {"days": "Sun", "time": "Closed"}], "id": "5601600001", "name": "USPS COLLECTION BOX - PO LOBBY", "address": {"city": "CLARKS GROVE", "state": "MN", "street": "104 MAIN ST W", "postcode": "56016"}}},
{"geometry": {"type": "Point", "coordinates": [-93.838823753, 44.3254196133]}, "type": "Feature", "properties": {"collection_times": [{"days": "Mon-Sat", "time": "1:30pm"}, {"days": "Sun", "time": "Closed"}], "id": "5601700000", "name": "USPS COLLECTION BOX - BLUE BOX", "address": {"city": "CLEVELAND", "state": "MN", "street": "309 BROADWAY ST", "postcode": "56017"}}},
{"geometry": {"type": "Point", "coordinates": [-93.838823753, 44.3254196133]}, "type": "Feature", "properties": {"collection_times": [{"days": "Mon-Fri", "time": "1:30pm"}, {"days": "Sat", "time": "9:45am"}, {"days": "Sun", "time": "Closed"}], "id": "5601700001", "name": "USPS COLLECTION BOX - PO LOBBY", "address": {"city": "CLEVELAND", "state": "MN", "street": "309 BROADWAY ST", "postcode": "56017"}}},
{"geometry": {"type": "Point", "coordinates": [-94.9026794732, 44.1099434058]}, "type": "Feature", "properties": {"collection_times": [{"days": "Mon-Sat", "time": "2:15pm"}, {"days": "Sun", "time": "Closed"}], "id": "5601900000", "name": "USPS COLLECTION BOX - BLUE BOX", "address": {"city": "COMFREY", "state": "MN", "street": "100 BROWN ST E", "postcode": "56019"}}},
{"geometry": {"type": "Point", "coordinates": [-94.9026794732, 44.1099434058]}, "type": "Feature", "properties": {"collection_times": [{"days": "Mon-Fri", "time": "12:00pm"}, {"days": "Sat", "time": "9:45am"}, {"days": "Sun", "time": "Closed"}], "id": "5601900001", "name": "USPS COLLECTION BOX - PO LOBBY", "address": {"city": "COMFREY", "state": "MN", "street": "100 BROWN ST E", "postcode": "56019"}}},
{"geometry": {"type": "Point", "coordinates": [-93.5182681558, 43.6079405184]}, "type": "Feature", "properties": {"collection_times": [{"days": "Mon-Sat", "time": "2:30pm"}, {"days": "Sun", "time": "Closed"}], "id": "5602000000", "name": "USPS COLLECTION BOX - BLUE BOX", "address": {"city": "CONGER", "state": "MN", "street": "94 MAPLE ST", "postcode": "56020"}}},
{"geometry": {"type": "Point", "coordinates": [-93.5182681558, 43.6079405184]}, "type": "Feature", "properties": {"collection_times": [{"days": "Mon-Fri", "time": "12:00pm"}, {"days": "Sat", "time": "11:45am"}, {"days": "Sun", "time": "Closed"}], "id": "5602000001", "name": "USPS COLLECTION BOX - PO LOBBY", "address": {"city": "CONGER", "state": "MN", "street": "94 MAPLE ST", "postcode": "56020"}}},
{"geometry": {"type": "Point", "coordinates": [-94.341492952, 44.2684421128]}, "type": "Feature", "properties": {"collection_times": [{"days": "Mon-Sat", "time": "3:30pm"}, {"days": "Sun", "time": "Closed"}], "id": "5602100000", "name": "USPS COLLECTION BOX - BLUE BOX", "address": {"city": "COURTLAND", "state": "MN", "street": "317 MAIN ST", "postcode": "56021"}}},
{"geometry": {"type": "Point", "coordinates": [-94.341492952, 44.2684421128]}, "type": "Feature", "properties": {"collection_times": [{"days": "Mon-Fri", "time": "12:30pm"}, {"days": "Sat", "time": "10:00am"}, {"days": "Sun", "time": "Closed"}], "id": "5602100001", "name": "USPS COLLECTION BOX - PO LOBBY", "address": {"city": "COURTLAND", "state": "MN", "street": "317 MAIN ST", "postcode": "56021"}}},
{"geometry": {"type": "Point", "coordinates": [-94.8379119933, 44.0517673251]}, "type": "Feature", "properties": {"collection_times": [{"days": "Mon-Sat", "time": "2:30pm"}, {"days": "Sun", "time": "Closed"}], "id": "5602200000", "name": "USPS COLLECTION BOX - BLUE BOX", "address": {"city": "DARFUR", "state": "MN", "street": "PO BOX 9998", "postcode": "56022"}}},
{"geometry": {"type": "Point", "coordinates": [-94.0195725825, 43.7686981871]}, "type": "Feature", "properties": {"collection_times": [{"days": "Mon-Sat", "time": "2:15pm"}, {"days": "Sun", "time": "Closed"}], "id": "5602300000", "name": "USPS COLLECTION BOX - BLUE BOX", "address": {"city": "DELAVAN", "state": "MN", "street": "100 N MAIN", "postcode": "56023"}}},
{"geometry": {"type": "Point", "coordinates": [-94.0195725825, 43.7686981871]}, "type": "Feature", "properties": {"collection_times": [{"days": "Mon-Fri", "time": "11:30am"}, {"days": "Sat", "time": "9:00am"}, {"days": "Sun", "time": "Closed"}], "id": "5602300001", "name": "USPS COLLECTION BOX - PO LOBBY", "address": {"city": "DELAVAN", "state": "MN", "street": "100 N MAIN", "postcode": "56023"}}},
{"geometry": {"type": "Point", "coordinates": [-93.8797251714, 44.1631288998]}, "type": "Feature", "properties": {"collection_times": [{"days": "Mon-Sat", "time": "3:45pm"}, {"days": "Sun", "time": "Closed"}], "id": "5602400000", "name": "USPS COLLECTION BOX - BLUE BOX", "address": {"city": "EAGLE LAKE", "state": "MN", "street": "100 LESUEUR AVE", "postcode": "56024"}}},
{"geometry": {"type": "Point", "coordinates": [-93.8797251714, 44.1631288998]}, "type": "Feature", "properties": {"collection_times": [{"days": "Mon-Fri", "time": "2:00pm"}, {"days": "Sat-Sun", "time": "Closed"}], "id": "5602400001", "name": "USPS COLLECTION BOX - PO LOBBY", "address": {"city": "EAGLE LAKE", "state": "MN", "street": "100 LESUEUR AVE", "postcode": "56024"}}},
{"geometry": {"type": "Point", "coordinates": [-93.8983385483, 43.7652148839]}, "type": "Feature", "properties": {"collection_times": [{"days": "Mon-Sat", "time": "2:30pm"}, {"days": "Sun", "time": "Closed"}], "id": "5602500000", "name": "USPS COLLECTION BOX - BLUE BOX", "address": {"city": "EASTON", "state": "MN", "street": "32 CEDAR ST", "postcode": "56025"}}},
{"geometry": {"type": "Point", "coordinates": [-93.9012906246, 43.764187702]}, "type": "Feature", "properties": {"collection_times": [{"days": "Mon-Fri", "time": "12:00pm"}, {"days": "Sat", "time": "9:30am"}, {"days": "Sun", "time": "Closed"}], "id": "5602500001", "name": "USPS COLLECTION BOX - PO LOBBY", "address": {"city": "EASTON", "state": "MN", "street": "51 MAIN ST", "postcode": "56025"}}},
{"geometry": {"type": "Point", "coordinates": [-93.3044407855, 43.8752715514]}, "type": "Feature", "properties": {"collection_times": [{"days": "Mon-Sat", "time": "2:15pm"}, {"days": "Sun", "time": "Closed"}], "id": "5602600000", "name": "USPS COLLECTION BOX - BLUE BOX", "address": {"city": "ELLENDALE", "state": "MN", "street": "514 2ND AVE S", "postcode": "56026"}}},
{"geometry": {"type": "Point", "coordinates": [-93.3044407855, 43.8752715514]}, "type": "Feature", "properties": {"collection_times": [{"days": "Mon-Fri", "time": "2:15pm"}, {"days": "Sat-Sun", "time": "Closed"}], "id": "5602600001", "name": "USPS COLLECTION BOX - PO LOBBY", "address": {"city": "ELLENDALE", "state": "MN", "street": "514 2ND AVE S", "postcode": "56026"}}},
{"geometry": {"type": "Point", "coordinates": [-94.0863789848, 43.5046607356]}, "type": "Feature", "properties": {"collection_times": [{"days": "Mon-Sat", "time": "1:30pm"}, {"days": "Sun", "time": "Closed"}], "id": "5602700000", "name": "USPS COLLECTION BOX - BLUE BOX", "address": {"city": "ELMORE", "state": "MN", "street": "214 E WILLIS ST", "postcode": "56027"}}},
{"geometry": {"type": "Point", "coordinates": [-94.0863789848, 43.5046607356]}, "type": "Feature", "properties": {"collection_times": [{"days": "Mon-Fri", "time": "11:30am"}, {"days": "Sat-Sun", "time": "Closed"}], "id": "5602700001", "name": "USPS COLLECTION BOX - PO LOBBY", "address": {"city": "ELMORE", "state": "MN", "street": "214 E WILLIS ST", "postcode": "56027"}}},
{"geometry": {"type": "Point", "coordinates": [-93.6751558451, 44.1987617303]}, "type": "Feature", "properties": {"collection_times": [{"days": "Mon-Sat", "time": "3:15pm"}, {"days": "Sun", "time": "Closed"}], "id": "5602800000", "name": "USPS COLLECTION BOX - BLUE BOX", "address": {"city": "ELYSIAN", "state": "MN", "street": "120 E MAIN ST", "postcode": "56028"}}},
{"geometry": {"type": "Point", "coordinates": [-93.6751558451, 44.1987617303]}, "type": "Feature", "properties": {"collection_times": [{"days": "Mon-Fri", "time": "3:00pm"}, {"days": "Sat-Sun", "time": "Closed"}], "id": "5602800001", "name": "USPS COLLECTION BOX - PO LOBBY", "address": {"city": "ELYSIAN", "state": "MN", "street": "120 E MAIN ST", "postcode": "56028"}}},
{"geometry": {"type": "Point", "coordinates": [-93.4886878885, 43.5001110145]}, "type": "Feature", "properties": {"collection_times": [{"days": "Mon-Sat", "time": "2:15pm"}, {"days": "Sun", "time": "Closed"}], "id": "5602900000", "name": "USPS COLLECTION BOX - BLUE BOX", "address": {"city": "EMMONS", "state": "MN", "street": "149 MAIN ST", "postcode": "56029"}}},
{"geometry": {"type": "Point", "coordinates": [-93.4886878885, 43.5001110145]}, "type": "Feature", "properties": {"collection_times": [{"days": "Mon-Fri", "time": "12:00pm"}, {"days": "Sat-Sun", "time": "Closed"}], "id": "5602900001", "name": "USPS COLLECTION BOX - PO LOBBY", "address": {"city": "EMMONS", "state": "MN", "street": "149 MAIN ST", "postcode": "56029"}}},
{"geometry": {"type": "Point", "coordinates": [-94.4474417252, 43.6491544386]}, "type": "Feature", "properties": {"collection_times": [{"days": "Mon-Sat", "time": "2:45pm"}, {"days": "Sun", "time": "Closed"}], "id": "5603100002", "name": "USPS COLLECTION BOX - PO LOBBY", "address": {"city": "FAIRMONT", "state": "MN", "street": "490 S STATE ST", "postcode": "56031"}}},
{"geometry": {"type": "Point", "coordinates": [-94.4472492937, 43.645973261]}, "type": "Feature", "properties": {"collection_times": [{"days": "Mon-Sat", "time": "1:15pm"}, {"days": "Sun", "time": "Closed"}], "id": "5603100010", "name": "USPS COLLECTION BOX - BLUE BOX", "address": {"city": "FAIRMONT", "state": "MN", "street": "907 S STATE ST", "postcode": "56031"}}},
{"geometry": {"type": "Point", "coordinates": [-94.4474417252, 43.6491544386]}, "type": "Feature", "properties": {"collection_times": [{"days": "Mon-Sat", "time": "2:45pm"}, {"days": "Sun", "time": "Closed"}], "id": "5603100012", "name": "USPS COLLECTION BOX - BLUE BOX", "address": {"city": "FAIRMONT", "state": "MN", "street": "490 S STATE ST", "postcode": "56031"}}},
{"geometry": {"type": "Point", "coordinates": [-94.4474417252, 43.6491544386]}, "type": "Feature", "properties": {"collection_times": [{"days": "Mon-Sat", "time": "2:45pm"}, {"days": "Sun", "time": "Closed"}], "id": "5603100013", "name": "USPS COLLECTION BOX - BLUE BOX", "address": {"city": "FAIRMONT", "state": "MN", "street": "490 S STATE ST", "postcode": "56031"}}},
{"geometry": {"type": "Point", "coordinates": [-94.4647084789, 43.6535710766]}, "type": "Feature", "properties": {"collection_times": [{"days": "Mon-Sat", "time": "1:00pm"}, {"days": "Sun", "time": "Closed"}], "id": "5603100014", "name": "USPS COLLECTION BOX - BLUE BOX", "address": {"city": "FAIRMONT", "state": "MN", "street": "201 LAKE AVE", "postcode": "56031"}}},
{"geometry": {"type": "Point", "coordinates": [-94.462452193, 43.6520396516]}, "type": "Feature", "properties": {"collection_times": [{"days": "Mon-Sat", "time": "1:00pm"}, {"days": "Sun", "time": "Closed"}], "id": "5603100019", "name": "USPS COLLECTION BOX - BLUE BOX", "address": {"city": "FAIRMONT", "state": "MN", "street": "51 DOWNTOWN PLZ", "postcode": "56031"}}},
{"geometry": {"type": "Point", "coordinates": [-94.4623015215, 43.6540037938]}, "type": "Feature", "properties": {"collection_times": [{"days": "Mon-Sat", "time": "1:00pm"}, {"days": "Sun", "time": "Closed"}], "id": "5603100020", "name": "USPS COLLECTION BOX - BLUE BOX", "address": {"city": "FAIRMONT", "state": "MN", "street": "202 DOWNTOWN PLZ", "postcode": "56031"}}},
{"geometry": {"type": "Point", "coordinates": [-94.4367633567, 43.7372737986]}, "type": "Feature", "properties": {"collection_times": [{"days": "Mon-Sat", "time": "3:15pm"}, {"days": "Sun", "time": "Closed"}], "id": "5603100023", "name": "USPS COLLECTION BOX - BLUE BOX", "address": {"city": "FAIRMONT", "state": "MN", "street": "103 S JUDSON ST", "postcode": "56031"}}},
{"geometry": {"type": "Point", "coordinates": [-94.4474417252, 43.6491544386]}, "type": "Feature", "properties": {"collection_times": [{"days": "Mon-Sat", "time": "2:45pm"}, {"days": "Sun", "time": "Closed"}], "id": "5603100024", "name": "USPS COLLECTION BOX - PO LOBBY", "address": {"city": "FAIRMONT", "state": "MN", "street": "490 S STATE ST", "postcode": "56031"}}},
{"geometry": {"type": "Point", "coordinates": [-94.4516490329, 43.637723944]}, "type": "Feature", "properties": {"collection_times": [{"days": "Mon-Fri", "time": "1:15pm"}, {"days": "Sat-Sun", "time": "Closed"}], "id": "5603100026", "name": "USPS COLLECTION BOX - BLUE BOX", "address": {"city": "FAIRMONT", "state": "MN", "street": "800 CLINIC CIR", "postcode": "56031"}}},
{"geometry": {"type": "Point", "coordinates": [-94.4474417252, 43.6491544386]}, "type": "Feature", "properties": {"collection_times": [{"days": "Mon-Sat", "time": "2:45pm"}, {"days": "Sun", "time": "Closed"}], "id": "5603100030", "name": "USPS COLLECTION BOX - BLUE BOX", "address": {"city": "FAIRMONT", "state": "MN", "street": "490 S STATE ST", "postcode": "56031"}}},
{"geometry": {"type": "Point", "coordinates": [-94.4474417252, 43.6491544386]}, "type": "Feature", "properties": {"collection_times": [{"days": "Mon-Sat", "time": "2:45pm"}, {"days": "Sun", "time": "Closed"}], "id": "5603100032", "name": "USPS COLLECTION BOX - PO LOBBY", "address": {"city": "FAIRMONT", "state": "MN", "street": "490 S STATE ST", "postcode": "56031"}}},
{"geometry": {"type": "Point", "coordinates": [-93.5627790496, 43.7646504886]}, "type": "Feature", "properties": {"collection_times": [{"days": "Mon-Sat", "time": "3:00pm"}, {"days": "Sun", "time": "Closed"}], "id": "5603200000", "name": "USPS COLLECTION BOX - BLUE BOX", "address": {"city": "FREEBORN", "state": "MN", "street": "206 4TH AVE", "postcode": "56032"}}},
{"geometry": {"type": "Point", "coordinates": [-93.5627790496, 43.7646504886]}, "type": "Feature", "properties": {"collection_times": [{"days": "Mon-Fri", "time": "12:00pm"}, {"days": "Sat", "time": "8:45am"}, {"days": "Sun", "time": "Closed"}], "id": "5603200001", "name": "USPS COLLECTION BOX - PO LOBBY", "address": {"city": "FREEBORN", "state": "MN", "street": "206 4TH AVE", "postcode": "56032"}}},
{"geometry": {"type": "Point", "coordinates": [-93.9241129061, 43.5842695852]}, "type": "Feature", "properties": {"collection_times": [{"days": "Mon-Sat", "time": "2:30pm"}, {"days": "Sun", "time": "Closed"}], "id": "5603300000", "name": "USPS COLLECTION BOX - BLUE BOX", "address": {"city": "FROST", "state": "MN", "street": "155 MAIN ST", "postcode": "56033"}}},
{"geometry": {"type": "Point", "coordinates": [-93.9241129061, 43.5842695852]}, "type": "Feature", "properties": {"collection_times": [{"days": "Mon-Fri", "time": "11:30am"}, {"days": "Sat", "time": "9:30am"}, {"days": "Sun", "time": "Closed"}], "id": "5603300001", "name": "USPS COLLECTION BOX - PO LOBBY", "address": {"city": "FROST", "state": "MN", "street": "155 MAIN ST", "postcode": "56033"}}},
{"geometry": {"type": "Point", "coordinates": [-94.1635181925, 44.0470030745]}, "type": "Feature", "properties": {"collection_times": [{"days": "Mon-Sat", "time": "1:45pm"}, {"days": "Sun", "time": "Closed"}], "id": "5603400000", "name": "USPS COLLECTION BOX - BLUE BOX", "address": {"city": "GARDEN CITY", "state": "MN", "street": "108 N MAIN ST", "postcode": "56034"}}},
{"geometry": {"type": "Point", "coordinates": [-94.1635181925, 44.0470030745]}, "type": "Feature", "properties": {"collection_times": [{"days": "Mon-Sat", "time": "1:45pm"}, {"days": "Sun", "time": "Closed"}], "id": "5603400001", "name": "USPS COLLECTION BOX - PO LOBBY", "address": {"city": "GARDEN CITY", "state": "MN", "street": "108 N MAIN ST", "postcode": "56034"}}},
{"geometry": {"type": "Point", "coordinates": [-93.2676256972, 43.8223668145]}, "type": "Feature", "properties": {"collection_times": [{"days": "Mon-Fri", "time": "2:00pm"}, {"days": "Sat", "time": "1:00pm"}, {"days": "Sun", "time": "Closed"}], "id": "5603500000", "name": "USPS COLLECTION BOX - BLUE BOX", "address": {"city": "GENEVA", "state": "MN", "street": "201 CENTRAL AVE S", "postcode": "56035"}}},
{"geometry": {"type": "Point", "coordinates": [-93.2676256972, 43.8223668145]}, "type": "Feature", "properties": {"collection_times": [{"days": "Mon-Fri", "time": "12:45pm"}, {"days": "Sat-Sun", "time": "Closed"}], "id": "5603500001", "name": "USPS COLLECTION BOX - PO LOBBY", "address": {"city": "GENEVA", "state": "MN", "street": "201 CENTRAL AVE S", "postcode": "56035"}}},
{"geometry": {"type": "Point", "coordinates": [-93.2811024407, 43.5734258885]}, "type": "Feature", "properties": {"collection_times": [{"days": "Mon-Sat", "time": "2:30pm"}, {"days": "Sun", "time": "Closed"}], "id": "5603600000", "name": "USPS COLLECTION BOX - BLUE BOX", "address": {"city": "GLENVILLE", "state": "MN", "street": "220 W MAIN ST", "postcode": "56036"}}},
{"geometry": {"type": "Point", "coordinates": [-93.2811024407, 43.5734258885]}, "type": "Feature", "properties": {"collection_times": [{"days": "Mon-Fri", "time": "2:30pm"}, {"days": "Sat", "time": "9:30am"}, {"days": "Sun", "time": "Closed"}], "id": "5603600002", "name": "USPS COLLECTION BOX - PO LOBBY", "address": {"city": "GLENVILLE", "state": "MN", "street": "220 W MAIN ST", "postcode": "56036"}}},
{"geometry": {"type": "Point", "coordinates": [-94.0659259886, 44.0046533276]}, "type": "Feature", "properties": {"collection_times": [{"days": "Mon-Sat", "time": "3:30pm"}, {"days": "Sun", "time": "Closed"}], "id": "5603700000", "name": "USPS COLLECTION BOX - BLUE BOX", "address": {"city": "GOOD THUNDER", "state": "MN", "street": "111 S HOUK ST", "postcode": "56037"}}},
{"geometry": {"type": "Point", "coordinates": [-94.0659259886, 44.0046533276]}, "type": "Feature", "properties": {"collection_times": [{"days": "Mon-Fri", "time": "11:30am"}, {"days": "Sat-Sun", "time": "Closed"}], "id": "5603700001", "name": "USPS COLLECTION BOX - PO LOBBY", "address": {"city": "GOOD THUNDER", "state": "MN", "street": "111 S HOUK ST", "postcode": "56037"}}},
{"geometry": {"type": "Point", "coordinates": [-94.3480507255, 43.695913414]}, "type": "Feature", "properties": {"collection_times": [{"days": "Mon-Sat", "time": "2:30pm"}, {"days": "Sun", "time": "Closed"}], "id": "5603900000", "name": "USPS COLLECTION BOX - BLUE BOX", "address": {"city": "GRANADA", "state": "MN", "street": "109 S MAIN ST", "postcode": "56039"}}},
{"geometry": {"type": "Point", "coordinates": [-94.3480507255, 43.695913414]}, "type": "Feature", "properties": {"collection_times": [{"days": "Mon-Fri", "time": "1:45pm"}, {"days": "Sat", "time": "11:30am"}, {"days": "Sun", "time": "Closed"}], "id": "5603900001", "name": "USPS COLLECTION BOX - PO LOBBY", "address": {"city": "GRANADA", "state": "MN", "street": "109 S MAIN ST", "postcode": "56039"}}},
{"geometry": {"type": "Point", "coordinates": [-94.4943745653, 44.1461655624]}, "type": "Feature", "properties": {"collection_times": [{"days": "Mon-Sat", "time": "3:15pm"}, {"days": "Sun", "time": "Closed"}], "id": "5604100000", "name": "USPS COLLECTION BOX - BLUE BOX", "address": {"city": "HANSKA", "state": "MN", "street": "114 BROADWAY", "postcode": "56041"}}},
{"geometry": {"type": "Point", "coordinates": [-94.4943745653, 44.1461655624]}, "type": "Feature", "properties": {"collection_times": [{"days": "Mon-Fri", "time": "11:15am"}, {"days": "Sat-Sun", "time": "Closed"}], "id": "5604100001", "name": "USPS COLLECTION BOX - PO LOBBY", "address": {"city": "HANSKA", "state": "MN", "street": "114 BROADWAY", "postcode": "56041"}}},
{"geometry": {"type": "Point", "coordinates": [-93.4868231024, 43.8028310729]}, "type": "Feature", "properties": {"collection_times": [{"days": "Mon-Sat", "time": "3:15pm"}, {"days": "Sun", "time": "Closed"}], "id": "5604200000", "name": "USPS COLLECTION BOX - BLUE BOX", "address": {"city": "HARTLAND", "state": "MN", "street": "507 BROADWAY ST", "postcode": "56042"}}},
{"geometry": {"type": "Point", "coordinates": [-93.4868231024, 43.8028310729]}, "type": "Feature", "properties": {"collection_times": [{"days": "Mon-Fri", "time": "11:30am"}, {"days": "Sat-Sun", "time": "Closed"}], "id": "5604200001", "name": "USPS COLLECTION BOX - PO LOBBY", "address": {"city": "HARTLAND", "state": "MN", "street": "507 BROADWAY ST", "postcode": "56042"}}},
{"geometry": {"type": "Point", "coordinates": [-93.2443225336, 43.649342801]}, "type": "Feature", "properties": {"collection_times": [{"days": "Mon-Sat", "time": "2:15pm"}, {"days": "Sun", "time": "Closed"}], "id": "5604300000", "name": "USPS COLLECTION BOX - BLUE BOX", "address": {"city": "HAYWARD MN", "state": "MN", "street": "100 MAIN ST", "postcode": "56043"}}},
{"geometry": {"type": "Point", "coordinates": [-93.2443225336, 43.649342801]}, "type": "Feature", "properties": {"collection_times": [{"days": "Mon-Fri", "time": "1:30pm"}, {"days": "Sat", "time": "11:30am"}, {"days": "Sun", "time": "Closed"}], "id": "5604300001", "name": "USPS COLLECTION BOX - PO LOBBY", "address": {"city": "HAYWARD MN", "state": "MN", "street": "100 MAIN ST", "postcode": "56043"}}},
{"geometry": {"type": "Point", "coordinates": [-93.9070130795, 44.5282922526]}, "type": "Feature", "properties": {"collection_times": [{"days": "Mon-Sat", "time": "3:30pm"}, {"days": "Sun", "time": "Closed"}], "id": "5604400001", "name": "USPS COLLECTION BOX - BLUE BOX", "address": {"city": "HENDERSON", "state": "MN", "street": "500 MAIN ST", "postcode": "56044"}}},
{"geometry": {"type": "Point", "coordinates": [-93.9070130795, 44.5282922526]}, "type": "Feature", "properties": {"collection_times": [{"days": "Mon-Fri", "time": "3:30pm"}, {"days": "Sat", "time": "9:15am"}, {"days": "Sun", "time": "Closed"}], "id": "5604400002", "name": "USPS COLLECTION BOX - PO LOBBY", "address": {"city": "HENDERSON", "state": "MN", "street": "500 MAIN ST", "postcode": "56044"}}},
{"geometry": {"type": "Point", "coordinates": [-93.9070130795, 44.5282922526]}, "type": "Feature", "properties": {"collection_times": [{"days": "Mon-Fri", "time": "3:30pm"}, {"days": "Sat", "time": "9:15am"}, {"days": "Sun", "time": "Closed"}], "id": "5604400003", "name": "USPS COLLECTION BOX - PO LOBBY", "address": {"city": "HENDERSON", "state": "MN", "street": "500 MAIN ST", "postcode": "56044"}}},
{"geometry": {"type": "Point", "coordinates": [-93.2046274805, 43.7608278533]}, "type": "Feature", "properties": {"collection_times": [{"days": "Mon-Sat", "time": "1:45pm"}, {"days": "Sun", "time": "Closed"}], "id": "5604500000", "name": "USPS COLLECTION BOX - BLUE BOX", "address": {"city": "HOLLANDALE", "state": "MN", "street": "108 PARK AVE W", "postcode": "56045"}}},
{"geometry": {"type": "Point", "coordinates": [-93.2046274805, 43.7608278533]}, "type": "Feature", "properties": {"collection_times": [{"days": "Mon-Fri", "time": "11:30am"}, {"days": "Sat", "time": "10:00am"}, {"days": "Sun", "time": "Closed"}], "id": "5604500001", "name": "USPS COLLECTION BOX - PO LOBBY", "address": {"city": "HOLLANDALE", "state": "MN", "street": "108 PARK AVE W", "postcode": "56045"}}},
{"geometry": {"type": "Point", "coordinates": [-93.2809771677, 43.9842325874]}, "type": "Feature", "properties": {"collection_times": [{"days": "Mon-Sat", "time": "2:30pm"}, {"days": "Sun", "time": "Closed"}], "id": "5604600000", "name": "USPS COLLECTION BOX - BLUE BOX", "address": {"city": "HOPE", "state": "MN", "street": "9064 SW 37TH AVE", "postcode": "56046"}}},
{"geometry": {"type": "Point", "coordinates": [-93.2809771677, 43.9842325874]}, "type": "Feature", "properties": {"collection_times": [{"days": "Mon-Fri", "time": "11:30am"}, {"days": "Sat-Sun", "time": "Closed"}], "id": "5604600001", "name": "USPS COLLECTION BOX - PO LOBBY", "address": {"city": "HOPE", "state": "MN", "street": "9064 SW 37TH AVE", "postcode": "56046"}}},
{"geometry": {"type": "Point", "coordinates": [-93.7074990454, 44.1162715149]}, "type": "Feature", "properties": {"collection_times": [{"days": "Mon-Sat", "time": "3:30pm"}, {"days": "Sun", "time": "Closed"}], "id": "5604800000", "name": "USPS COLLECTION BOX - BLUE BOX", "address": {"city": "JANESVILLE", "state": "MN", "street": "101 N MAIN ST", "postcode": "56048"}}},
{"geometry": {"type": "Point", "coordinates": [-93.7074990454, 44.1162715149]}, "type": "Feature", "properties": {"collection_times": [{"days": "Mon-Fri", "time": "3:30pm"}, {"days": "Sat", "time": "9:30am"}, {"days": "Sun", "time": "Closed"}], "id": "5604800001", "name": "USPS COLLECTION BOX - PO LOBBY", "address": {"city": "JANESVILLE", "state": "MN", "street": "101 N MAIN ST", "postcode": "56048"}}},
{"geometry": {"type": "Point", "coordinates": [-93.9475768175, 44.266789786]}, "type": "Feature", "properties": {"collection_times": [{"days": "Mon-Sat", "time": "1:00pm"}, {"days": "Sun", "time": "Closed"}], "id": "5605000000", "name": "USPS COLLECTION BOX - BLUE BOX", "address": {"city": "KASOTA", "state": "MN", "street": "140 W CHERRY ST", "postcode": "56050"}}},
{"geometry": {"type": "Point", "coordinates": [-93.7124032179, 43.5370120926]}, "type": "Feature", "properties": {"collection_times": [{"days": "Mon-Sat", "time": "2:00pm"}, {"days": "Sun", "time": "Closed"}], "id": "5605100000", "name": "USPS COLLECTION BOX - BLUE BOX", "address": {"city": "KIESTER", "state": "MN", "street": "100 N MAIN ST", "postcode": "56051"}}},
{"geometry": {"type": "Point", "coordinates": [-93.7124032179, 43.5370120926]}, "type": "Feature", "properties": {"collection_times": [{"days": "Mon-Fri", "time": "2:00pm"}, {"days": "Sat", "time": "11:45am"}, {"days": "Sun", "time": "Closed"}], "id": "5605100001", "name": "USPS COLLECTION BOX - PO LOBBY", "address": {"city": "KIESTER", "state": "MN", "street": "100 N MAIN ST", "postcode": "56051"}}},
{"geometry": {"type": "Point", "coordinates": [-93.5755306065, 44.3139445089]}, "type": "Feature", "properties": {"collection_times": [{"days": "Mon-Sat", "time": "2:30pm"}, {"days": "Sun", "time": "Closed"}], "id": "5605200000", "name": "USPS COLLECTION BOX - BLUE BOX", "address": {"city": "KILKENNY", "state": "MN", "street": "156 S LAUREL AVE", "postcode": "56052"}}},
{"geometry": {"type": "Point", "coordinates": [-93.5755306065, 44.3139445089]}, "type": "Feature", "properties": {"collection_times": [{"days": "Mon-Fri", "time": "11:45am"}, {"days": "Sat", "time": "9:00am"}, {"days": "Sun", "time": "Closed"}], "id": "5605200001", "name": "USPS COLLECTION BOX - PO LOBBY", "address": {"city": "KILKENNY", "state": "MN", "street": "156 S LAUREL AVE", "postcode": "56052"}}},
{"geometry": {"type": "Point", "coordinates": [-94.3941321339, 44.4466719695]}, "type": "Feature", "properties": {"collection_times": [{"days": "Mon-Sat", "time": "3:00pm"}, {"days": "Sun", "time": "Closed"}], "id": "5605400000", "name": "USPS COLLECTION BOX - BLUE BOX", "address": {"city": "LAFAYETTE", "state": "MN", "street": "790 MAIN AVE", "postcode": "56054"}}},
{"geometry": {"type": "Point", "coordinates": [-94.3941321339, 44.4466719695]}, "type": "Feature", "properties": {"collection_times": [{"days": "Mon-Fri", "time": "11:30am"}, {"days": "Sat", "time": "9:30am"}, {"days": "Sun", "time": "Closed"}], "id": "5605400001", "name": "USPS COLLECTION BOX - PO LOBBY", "address": {"city": "LAFAYETTE", "state": "MN", "street": "790 MAIN AVE", "postcode": "56054"}}},
{"geometry": {"type": "Point", "coordinates": [-94.2186430302, 44.1058727759]}, "type": "Feature", "properties": {"collection_times": [{"days": "Mon-Sat", "time": "3:45pm"}, {"days": "Sun", "time": "Closed"}], "id": "5605500000", "name": "USPS COLLECTION BOX - BLUE BOX", "address": {"city": "LAKE CRYSTAL", "state": "MN", "street": "201 S MAIN ST", "postcode": "56055"}}},
{"geometry": {"type": "Point", "coordinates": [-94.2186430302, 44.1058727759]}, "type": "Feature", "properties": {"collection_times": [{"days": "Mon-Fri", "time": "3:45pm"}, {"days": "Sat", "time": "10:00am"}, {"days": "Sun", "time": "Closed"}], "id": "5605500001", "name": "USPS COLLECTION BOX - PO LOBBY", "address": {"city": "LAKE CRYSTAL", "state": "MN", "street": "201 S MAIN ST", "postcode": "56055"}}},
{"geometry": {"type": "Point", "coordinates": [-94.5696110219, 44.0724064562]}, "type": "Feature", "properties": {"collection_times": [{"days": "Mon-Sat", "time": "3:00pm"}, {"days": "Sun", "time": "Closed"}], "id": "5605600000", "name": "USPS COLLECTION BOX - BLUE BOX", "address": {"city": "LASALLE", "state": "MN", "street": "104 S BROADWAY", "postcode": "56056"}}},
{"geometry": {"type": "Point", "coordinates": [-94.5696110219, 44.0724064562]}, "type": "Feature", "properties": {"collection_times": [{"days": "Mon-Fri", "time": "11:30am"}, {"days": "Sat", "time": "11:00am"}, {"days": "Sun", "time": "Closed"}], "id": "5605600001", "name": "USPS COLLECTION BOX - PO LOBBY", "address": {"city": "LASALLE", "state": "MN", "street": "104 S BROADWAY", "postcode": "56056"}}},
{"geometry": {"type": "Point", "coordinates": [-93.7315865028, 44.390683904]}, "type": "Feature", "properties": {"collection_times": [{"days": "Mon-Sat", "time": "2:00pm"}, {"days": "Sun", "time": "Closed"}], "id": "5605700001", "name": "USPS COLLECTION BOX - BLUE BOX", "address": {"city": "LE CENTER", "state": "MN", "street": "91 N PARK AVE", "postcode": "56057"}}},
{"geometry": {"type": "Point", "coordinates": [-93.7315865028, 44.390683904]}, "type": "Feature", "properties": {"collection_times": [{"days": "Mon-Fri", "time": "2:00pm"}, {"days": "Sat-Sun", "time": "Closed"}], "id": "5605700002", "name": "USPS COLLECTION BOX - PO LOBBY", "address": {"city": "LE CENTER", "state": "MN", "street": "91 N PARK AVE", "postcode": "56057"}}},
{"geometry": {"type": "Point", "coordinates": [-93.7373644088, 44.3843620077]}, "type": "Feature", "properties": {"collection_times": [{"days": "Mon-Sat", "time": "12:00pm"}, {"days": "Sun", "time": "Closed"}], "id": "5605700003", "name": "USPS COLLECTION BOX - BLUE BOX", "address": {"city": "LE CENTER", "state": "MN", "street": "290 W DERRYNANE ST", "postcode": "56057"}}},
{"geometry": {"type": "Point", "coordinates": [-93.913620128, 44.4634618811]}, "type": "Feature", "properties": {"collection_times": [{"days": "Mon-Sat", "time": "3:45pm"}, {"days": "Sun", "time": "Closed"}], "id": "5605800000", "name": "USPS COLLECTION BOX - BLUE BOX", "address": {"city": "LE SUEUR", "state": "MN", "street": "202 N MAIN ST", "postcode": "56058"}}},
{"geometry": {"type": "Point", "coordinates": [-93.913620128, 44.4634618811]}, "type": "Feature", "properties": {"collection_times": [{"days": "Mon-Fri", "time": "3:45pm"}, {"days": "Sat", "time": "2:30pm"}, {"days": "Sun", "time": "Closed"}], "id": "5605800005", "name": "USPS COLLECTION BOX - PO LOBBY", "address": {"city": "LE SUEUR", "state": "MN", "street": "202 N MAIN ST", "postcode": "56058"}}},
{"geometry": {"type": "Point", "coordinates": [-93.913620128, 44.4634618811]}, "type": "Feature", "properties": {"collection_times": [{"days": "Mon-Sat", "time": "3:45pm"}, {"days": "Sun", "time": "Closed"}], "id": "5605800006", "name": "USPS COLLECTION BOX - BLUE BOX", "address": {"city": "LE SUEUR", "state": "MN", "street": "202 N MAIN ST", "postcode": "56058"}}},
{"geometry": {"type": "Point", "coordinates": [-94.4363730723, 43.9236902834]}, "type": "Feature", "properties": {"collection_times": [{"days": "Mon-Sat", "time": "3:30pm"}, {"days": "Sun", "time": "Closed"}], "id": "5606000000", "name": "USPS COLLECTION BOX - BLUE BOX", "address": {"city": "LEWISVILLE", "state": "MN", "street": "225 LEWIS ST W", "postcode": "56060"}}},
{"geometry": {"type": "Point", "coordinates": [-94.4363730723, 43.9236902834]}, "type": "Feature", "properties": {"collection_times": [{"days": "Mon-Fri", "time": "11:45am"}, {"days": "Sat", "time": "10:00am"}, {"days": "Sun", "time": "Closed"}], "id": "5606000001", "name": "USPS COLLECTION BOX - PO LOBBY", "address": {"city": "LEWISVILLE", "state": "MN", "street": "225 LEWIS ST W", "postcode": "56060"}}},
{"geometry": {"type": "Point", "coordinates": [-94.4170202894, 44.0510139772]}, "type": "Feature", "properties": {"collection_times": [{"days": "Mon-Sat", "time": "3:45pm"}, {"days": "Sun", "time": "Closed"}], "id": "5606200001", "name": "USPS COLLECTION BOX - BLUE BOX", "address": {"city": "MADELIA", "state": "MN", "street": "23 CENTER AVE N", "postcode": "56062"}}},
{"geometry": {"type": "Point", "coordinates": [-94.4170202894, 44.0510139772]}, "type": "Feature", "properties": {"collection_times": [{"days": "Mon-Fri", "time": "3:45pm"}, {"days": "Sat", "time": "10:00am"}, {"days": "Sun", "time": "Closed"}], "id": "5606200002", "name": "USPS COLLECTION BOX - PO LOBBY", "address": {"city": "MADELIA", "state": "MN", "street": "23 CENTER AVE N", "postcode": "56062"}}},
{"geometry": {"type": "Point", "coordinates": [-93.8155155043, 44.2046678466]}, "type": "Feature", "properties": {"collection_times": [{"days": "Mon-Sat", "time": "3:30pm"}, {"days": "Sun", "time": "Closed"}], "id": "5606300000", "name": "USPS COLLECTION BOX - BLUE BOX", "address": {"city": "MADISON LAKE", "state": "MN", "street": "413 MAIN ST", "postcode": "56063"}}},
{"geometry": {"type": "Point", "coordinates": [-93.8155155043, 44.2046678466]}, "type": "Feature", "properties": {"collection_times": [{"days": "Mon-Fri", "time": "3:30pm"}, {"days": "Sat-Sun", "time": "Closed"}], "id": "5606300001", "name": "USPS COLLECTION BOX - PO LOBBY", "address": {"city": "MADISON LAKE", "state": "MN", "street": "413 MAIN ST", "postcode": "56063"}}},
{"geometry": {"type": "Point", "coordinates": [-93.9545347117, 43.9287923565]}, "type": "Feature", "properties": {"collection_times": [{"days": "Mon-Sat", "time": "3:30pm"}, {"days": "Sun", "time": "Closed"}], "id": "5606500000", "name": "USPS COLLECTION BOX - BLUE BOX", "address": {"city": "MAPLETON", "state": "MN", "street": "315 MAIN ST E", "postcode": "56065"}}},
{"geometry": {"type": "Point", "coordinates": [-93.9545347117, 43.9287923565]}, "type": "Feature", "properties": {"collection_times": [{"days": "Mon-Fri", "time": "3:30pm"}, {"days": "Sat", "time": "9:30am"}, {"days": "Sun", "time": "Closed"}], "id": "5606500001", "name": "USPS COLLECTION BOX - PO LOBBY", "address": {"city": "MAPLETON", "state": "MN", "street": "315 MAIN ST E", "postcode": "56065"}}},
{"geometry": {"type": "Point", "coordinates": [-93.8326474689, 43.8411945817]}, "type": "Feature", "properties": {"collection_times": [{"days": "Mon-Sat", "time": "2:45pm"}, {"days": "Sun", "time": "Closed"}], "id": "5606800000", "name": "USPS COLLECTION BOX - BLUE BOX", "address": {"city": "MINNESOTA LAKE", "state": "MN", "street": "115 MAIN ST N", "postcode": "56068"}}},
{"geometry": {"type": "Point", "coordinates": [-93.8326474689, 43.8411945817]}, "type": "Feature", "properties": {"collection_times": [{"days": "Mon-Fri", "time": "11:30am"}, {"days": "Sat", "time": "8:45am"}, {"days": "Sun", "time": "Closed"}], "id": "5606800001", "name": "USPS COLLECTION BOX - PO LOBBY", "address": {"city": "MINNESOTA LAKE", "state": "MN", "street": "115 MAIN ST N", "postcode": "56068"}}},
{"geometry": {"type": "Point", "coordinates": [-93.5801699101, 44.436730682]}, "type": "Feature", "properties": {"collection_times": [{"days": "Mon-Sat", "time": "2:30pm"}, {"days": "Sun", "time": "Closed"}], "id": "5606900000", "name": "USPS COLLECTION BOX - BLUE BOX", "address": {"city": "MONTGOMERY", "state": "MN", "street": "156 ELM AVE SE", "postcode": "56069"}}},
{"geometry": {"type": "Point", "coordinates": [-93.5801699101, 44.436730682]}, "type": "Feature", "properties": {"collection_times": [{"days": "Mon-Fri", "time": "2:30pm"}, {"days": "Sat-Sun", "time": "Closed"}], "id": "5606900002", "name": "USPS COLLECTION BOX - PO LOBBY", "address": {"city": "MONTGOMERY", "state": "MN", "street": "156 ELM AVE SE", "postcode": "56069"}}},
{"geometry": {"type": "Point", "coordinates": [-93.5615753688, 44.5446090259]}, "type": "Feature", "properties": {"collection_times": [{"days": "Mon-Sat", "time": "12:00pm"}, {"days": "Sun", "time": "Closed"}], "id": "5607100001", "name": "USPS COLLECTION BOX - BLUE BOX", "address": {"city": "NEW PRAGUE", "state": "MN", "street": "102 CO RD 37", "postcode": "56071"}}},
{"geometry": {"type": "Point", "coordinates": [-93.5775192229, 44.5442357233]}, "type": "Feature", "properties": {"collection_times": [{"days": "Mon-Sat", "time": "1:00pm"}, {"days": "Sun", "time": "Closed"}], "id": "5607100002", "name": "USPS COLLECTION BOX - BLUE BOX", "address": {"city": "NEW PRAGUE", "state": "MN", "street": "116 CENTRAL AVE N", "postcode": "56071"}}},
{"geometry": {"type": "Point", "coordinates": [-93.5768328936, 44.5435301309]}, "type": "Feature", "properties": {"collection_times": [{"days": "Mon-Fri", "time": "2:45pm"}, {"days": "Sat", "time": "11:00am"}, {"days": "Sun", "time": "Closed"}], "id": "5607100007", "name": "USPS COLLECTION BOX - PO LOBBY", "address": {"city": "NEW PRAGUE", "state": "MN", "street": "124 MAIN ST E", "postcode": "56071"}}},
{"geometry": {"type": "Point", "coordinates": [-93.5775192229, 44.5442357233]}, "type": "Feature", "properties": {"collection_times": [{"days": "Mon-Sat", "time": "1:00pm"}, {"days": "Sun", "time": "Closed"}], "id": "5607100008", "name": "USPS COLLECTION BOX - BLUE BOX", "address": {"city": "NEW PRAGUE", "state": "MN", "street": "116 CENTRAL AVE N", "postcode": "56071"}}},
{"geometry": {"type": "Point", "coordinates": [-93.5768328936, 44.5435301309]}, "type": "Feature", "properties": {"collection_times": [{"days": "Mon-Sat", "time": "2:45pm"}, {"days": "Sun", "time": "Closed"}], "id": "5607100009", "name": "USPS COLLECTION BOX - BLUE BOX", "address": {"city": "NEW PRAGUE", "state": "MN", "street": "124 MAIN ST E", "postcode": "56071"}}},
{"geometry": {"type": "Point", "coordinates": [-93.584580126, 44.5436091353]}, "type": "Feature", "properties": {"collection_times": [{"days": "Mon-Sat", "time": "1:00pm"}, {"days": "Sun", "time": "Closed"}], "id": "5607100010", "name": "USPS COLLECTION BOX - BLUE BOX", "address": {"city": "NEW PRAGUE", "state": "MN", "street": "435 MAIN ST W", "postcode": "56071"}}},
{"geometry": {"type": "Point", "coordinates": [-93.4938237771, 43.8943448748]}, "type": "Feature", "properties": {"collection_times": [{"days": "Mon-Fri", "time": "3:30pm"}, {"days": "Sat", "time": "9:30am"}, {"days": "Sun", "time": "Closed"}], "id": "5607200000", "name": "USPS COLLECTION BOX - PO LOBBY", "address": {"city": "NEW RICHLAND", "state": "MN", "street": "141 BROADWAY AVE N", "postcode": "56072"}}},
{"geometry": {"type": "Point", "coordinates": [-93.4938237771, 43.8943448748]}, "type": "Feature", "properties": {"collection_times": [{"days": "Mon-Sat", "time": "3:30pm"}, {"days": "Sun", "time": "Closed"}], "id": "5607200001", "name": "USPS COLLECTION BOX - BLUE BOX", "address": {"city": "NEW RICHLAND", "state": "MN", "street": "141 BROADWAY AVE N", "postcode": "56072"}}},
{"geometry": {"type": "Point", "coordinates": [-94.4572248201, 44.3136751357]}, "type": "Feature", "properties": {"collection_times": [{"days": "Mon-Fri", "time": "3:45pm"}, {"days": "Sat", "time": "3:15pm"}, {"days": "Sun", "time": "Closed"}], "id": "5607300000", "name": "USPS COLLECTION BOX - BLUE BOX", "address": {"city": "NEW ULM", "state": "MN", "street": "27 S GERMAN ST", "postcode": "56073"}}},
{"geometry": {"type": "Point", "coordinates": [-94.4609032665, 44.3153018452]}, "type": "Feature", "properties": {"collection_times": [{"days": "Mon-Sat", "time": "2:00pm"}, {"days": "Sun", "time": "Closed"}], "id": "5607300005", "name": "USPS COLLECTION BOX - BLUE BOX", "address": {"city": "NEW ULM", "state": "MN", "street": "201 N MINNESOTA ST", "postcode": "56073"}}},
{"geometry": {"type": "Point", "coordinates": [-94.4599802761, 44.3143225289]}, "type": "Feature", "properties": {"collection_times": [{"days": "Mon-Sat", "time": "2:00pm"}, {"days": "Sun", "time": "Closed"}], "id": "5607300006", "name": "USPS COLLECTION BOX - BLUE BOX", "address": {"city": "NEW ULM", "state": "MN", "street": "101 N MINNESOTA ST", "postcode": "56073"}}},
{"geometry": {"type": "Point", "coordinates": [-94.4590744402, 44.3133630449]}, "type": "Feature", "properties": {"collection_times": [{"days": "Mon-Sat", "time": "2:00pm"}, {"days": "Sun", "time": "Closed"}], "id": "5607300007", "name": "USPS COLLECTION BOX - BLUE BOX", "address": {"city": "NEW ULM", "state": "MN", "street": "1 N MINNESOTA ST", "postcode": "56073"}}},
{"geometry": {"type": "Point", "coordinates": [-94.4572248201, 44.3136751357]}, "type": "Feature", "properties": {"collection_times": [{"days": "Mon-Fri", "time": "3:45pm"}, {"days": "Sat", "time": "3:15pm"}, {"days": "Sun", "time": "Closed"}], "id": "5607300014", "name": "USPS COLLECTION BOX - PO LOBBY", "address": {"city": "NEW ULM", "state": "MN", "street": "27 S GERMAN ST", "postcode": "56073"}}},
{"geometry": {"type": "Point", "coordinates": [-94.1874834089, 44.2750894335]}, "type": "Feature", "properties": {"collection_times": [{"days": "Mon-Sat", "time": "3:45pm"}, {"days": "Sun", "time": "Closed"}], "id": "5607400000", "name": "USPS COLLECTION BOX - BLUE BOX", "address": {"city": "NICOLLET", "state": "MN", "street": "714 4TH ST", "postcode": "56074"}}},
{"geometry": {"type": "Point", "coordinates": [-94.1874834089, 44.2750894335]}, "type": "Feature", "properties": {"collection_times": [{"days": "Mon-Fri", "time": "3:45pm"}, {"days": "Sat", "time": "7:45am"}, {"days": "Sun", "time": "Closed"}], "id": "5607400001", "name": "USPS COLLECTION BOX - PO LOBBY", "address": {"city": "NICOLLET", "state": "MN", "street": "714 4TH ST", "postcode": "56074"}}},
{"geometry": {"type": "Point", "coordinates": [-93.819669226, 43.9490411635]}, "type": "Feature", "properties": {"collection_times": [{"days": "Mon-Sat", "time": "3:30pm"}, {"days": "Sun", "time": "Closed"}], "id": "5607800000", "name": "USPS COLLECTION BOX - BLUE BOX", "address": {"city": "PEMBERTON", "state": "MN", "street": "216 MAIN ST S", "postcode": "56078"}}},
{"geometry": {"type": "Point", "coordinates": [-93.8555583974, 44.0814732817]}, "type": "Feature", "properties": {"collection_times": [{"days": "Mon-Fri", "time": "3:30pm"}, {"days": "Sat", "time": "9:30am"}, {"days": "Sun", "time": "Closed"}], "id": "5608000001", "name": "USPS COLLECTION BOX - PO LOBBY", "address": {"city": "SAINT CLAIR", "state": "MN", "street": "116 PARK ST N", "postcode": "56080"}}},
{"geometry": {"type": "Point", "coordinates": [-93.8555583974, 44.0814732817]}, "type": "Feature", "properties": {"collection_times": [{"days": "Mon-Sat", "time": "3:30pm"}, {"days": "Sun", "time": "Closed"}], "id": "5608000002", "name": "USPS COLLECTION BOX - BLUE BOX", "address": {"city": "SAINT CLAIR", "state": "MN", "street": "116 PARK ST N", "postcode": "56080"}}},
{"geometry": {"type": "Point", "coordinates": [-94.6295960336, 43.9852717595]}, "type": "Feature", "properties": {"collection_times": [{"days": "Mon-Sat", "time": "11:00am"}, {"days": "Sun", "time": "Closed"}], "id": "5608100001", "name": "USPS COLLECTION BOX - BLUE BOX", "address": {"city": "SAINT JAMES", "state": "MN", "street": "518 ARMSTRONG BLVD N", "postcode": "56081"}}},
{"geometry": {"type": "Point", "coordinates": [-94.6285850834, 43.9823394262]}, "type": "Feature", "properties": {"collection_times": [{"days": "Mon-Sat", "time": "2:45pm"}, {"days": "Sun", "time": "Closed"}], "id": "5608100003", "name": "USPS COLLECTION BOX - BLUE BOX", "address": {"city": "SAINT JAMES", "state": "MN", "street": "6 ARMSTRONG BLVD S", "postcode": "56081"}}},
{"geometry": {"type": "Point", "coordinates": [-94.6285850834, 43.9823394262]}, "type": "Feature", "properties": {"collection_times": [{"days": "Mon-Fri", "time": "2:45pm"}, {"days": "Sat", "time": "11:00am"}, {"days": "Sun", "time": "Closed"}], "id": "5608100005", "name": "USPS COLLECTION BOX - PO LOBBY", "address": {"city": "SAINT JAMES", "state": "MN", "street": "6 ARMSTRONG BLVD S", "postcode": "56081"}}},
{"geometry": {"type": "Point", "coordinates": [-94.6285850834, 43.9823394262]}, "type": "Feature", "properties": {"collection_times": [{"days": "Mon-Sat", "time": "2:45pm"}, {"days": "Sun", "time": "Closed"}], "id": "5608100006", "name": "USPS COLLECTION BOX - BLUE BOX", "address": {"city": "SAINT JAMES", "state": "MN", "street": "6 ARMSTRONG BLVD S", "postcode": "56081"}}},
{"geometry": {"type": "Point", "coordinates": [-94.6285850834, 43.9823394262]}, "type": "Feature", "properties": {"collection_times": [{"days": "Mon-Sat", "time": "2:45pm"}, {"days": "Sun", "time": "Closed"}], "id": "5608100007", "name": "USPS COLLECTION BOX - BLUE BOX", "address": {"city": "SAINT JAMES", "state": "MN", "street": "6 ARMSTRONG BLVD S", "postcode": "56081"}}},
{"geometry": {"type": "Point", "coordinates": [-93.9595164087, 44.3214981039]}, "type": "Feature", "properties": {"collection_times": [{"days": "Mon-Sat", "time": "1:30pm"}, {"days": "Sun", "time": "Closed"}], "id": "5608200000", "name": "USPS COLLECTION BOX - BLUE BOX", "address": {"city": "SAINT PETER", "state": "MN", "street": "612 S MINNESOTA AVE", "postcode": "56082"}}},
{"geometry": {"type": "Point", "coordinates": [-93.9586877355, 44.3247166319]}, "type": "Feature", "properties": {"collection_times": [{"days": "Mon-Sat", "time": "4:00pm"}, {"days": "Sun", "time": "Closed"}], "id": "5608200004", "name": "USPS COLLECTION BOX - BLUE BOX", "address": {"city": "SAINT PETER", "state": "MN", "street": "300 S 3RD ST", "postcode": "56082"}}},
{"geometry": {"type": "Point", "coordinates": [-93.9586877355, 44.3247166319]}, "type": "Feature", "properties": {"collection_times": [{"days": "Mon-Sat", "time": "4:00pm"}, {"days": "Sun", "time": "Closed"}], "id": "5608200007", "name": "USPS COLLECTION BOX - PO LOBBY", "address": {"city": "SAINT PETER", "state": "MN", "street": "300 S 3RD ST", "postcode": "56082"}}},
{"geometry": {"type": "Point", "coordinates": [-93.957615549, 44.3242234356]}, "type": "Feature", "properties": {"collection_times": [{"days": "Mon-Fri", "time": "4:00pm"}, {"days": "Sat", "time": "2:45pm"}, {"days": "Sun", "time": "Closed"}], "id": "5608200009", "name": "USPS COLLECTION BOX - BLUE BOX", "address": {"city": "SAINT PETER", "state": "MN", "street": "226 NASSAU ST", "postcode": "56082"}}},
{"geometry": {"type": "Point", "coordinates": [-93.957615549, 44.3242234356]}, "type": "Feature", "properties": {"collection_times": [{"days": "Mon-Fri", "time": "4:00pm"}, {"days": "Sat", "time": "2:45pm"}, {"days": "Sun", "time": "Closed"}], "id": "5608200011", "name": "USPS COLLECTION BOX - BLUE BOX", "address": {"city": "SAINT PETER", "state": "MN", "street": "226 NASSAU ST", "postcode": "56082"}}},
{"geometry": {"type": "Point", "coordinates": [-93.957615549, 44.3242234356]}, "type": "Feature", "properties": {"collection_times": [{"days": "Mon-Fri", "time": "4:00pm"}, {"days": "Sat", "time": "2:45pm"}, {"days": "Sun", "time": "Closed"}], "id": "5608200012", "name": "USPS COLLECTION BOX - BLUE BOX", "address": {"city": "SAINT PETER", "state": "MN", "street": "226 NASSAU ST", "postcode": "56082"}}},
{"geometry": {"type": "Point", "coordinates": [-95.12864552, 44.2104652509]}, "type": "Feature", "properties": {"collection_times": [{"days": "Mon-Sat", "time": "2:30pm"}, {"days": "Sun", "time": "Closed"}], "id": "5608300000", "name": "USPS COLLECTION BOX - BLUE BOX", "address": {"city": "SANBORN", "state": "MN", "street": "120 N MAIN ST", "postcode": "56083"}}},
{"geometry": {"type": "Point", "coordinates": [-95.12864552, 44.2104652509]}, "type": "Feature", "properties": {"collection_times": [{"days": "Mon-Fri", "time": "12:00pm"}, {"days": "Sat", "time": "9:00am"}, {"days": "Sun", "time": "Closed"}], "id": "5608300001", "name": "USPS COLLECTION BOX - PO LOBBY", "address": {"city": "SANBORN", "state": "MN", "street": "120 N MAIN", "postcode": "56083"}}},
{"geometry": {"type": "Point", "coordinates": [-94.7229237007, 44.2975087695]}, "type": "Feature", "properties": {"collection_times": [{"days": "Mon-Sat", "time": "3:15pm"}, {"days": "Sun", "time": "Closed"}], "id": "5608500002", "name": "USPS COLLECTION BOX - BLUE BOX", "address": {"city": "SLEEPY EYE", "state": "MN", "street": "121 1ST AVE N", "postcode": "56085"}}},
{"geometry": {"type": "Point", "coordinates": [-94.7229276928, 44.2977443035]}, "type": "Feature", "properties": {"collection_times": [{"days": "Mon-Fri", "time": "3:15pm"}, {"days": "Sat", "time": "11:15am"}, {"days": "Sun", "time": "Closed"}], "id": "5608500003", "name": "USPS COLLECTION BOX - PO LOBBY", "address": {"city": "SLEEPY EYE", "state": "MN", "street": "141 1ST AVE N", "postcode": "56085"}}},
{"geometry": {"type": "Point", "coordinates": [-94.7229237007, 44.2975087695]}, "type": "Feature", "properties": {"collection_times": [{"days": "Mon-Sat", "time": "3:15pm"}, {"days": "Sun", "time": "Closed"}], "id": "5608500006", "name": "USPS COLLECTION BOX - BLUE BOX", "address": {"city": "SLEEPY EYE", "state": "MN", "street": "121 1ST AVE N", "postcode": "56085"}}},
{"geometry": {"type": "Point", "coordinates": [-94.9762813529, 44.2390162603]}, "type": "Feature", "properties": {"collection_times": [{"days": "Mon-Sat", "time": "2:45pm"}, {"days": "Sun", "time": "Closed"}], "id": "5608700000", "name": "USPS COLLECTION BOX - BLUE BOX", "address": {"city": "SPRINGFIELD", "state": "MN", "street": "18 W CENTRAL ST", "postcode": "56087"}}},
{"geometry": {"type": "Point", "coordinates": [-94.9762813529, 44.2390162603]}, "type": "Feature", "properties": {"collection_times": [{"days": "Mon-Fri", "time": "2:45pm"}, {"days": "Sat", "time": "11:00am"}, {"days": "Sun", "time": "Closed"}], "id": "5608700001", "name": "USPS COLLECTION BOX - PO LOBBY", "address": {"city": "SPRINGFIELD", "state": "MN", "street": "18 W CENTRAL ST", "postcode": "56087"}}},
{"geometry": {"type": "Point", "coordinates": [-94.4393326742, 43.827730242]}, "type": "Feature", "properties": {"collection_times": [{"days": "Mon-Sat", "time": "3:15pm"}, {"days": "Sun", "time": "Closed"}], "id": "5608800000", "name": "USPS COLLECTION BOX - BLUE BOX", "address": {"city": "TRUMAN", "state": "MN", "street": "310 W CIRO ST", "postcode": "56088"}}},
{"geometry": {"type": "Point", "coordinates": [-94.4278912107, 43.8289556192]}, "type": "Feature", "properties": {"collection_times": [{"days": "Mon-Sat", "time": "3:15pm"}, {"days": "Sun", "time": "Closed"}], "id": "5608800001", "name": "USPS COLLECTION BOX - BLUE BOX", "address": {"city": "TRUMAN", "state": "MN", "street": "302 N 5TH AVE E", "postcode": "56088"}}},
{"geometry": {"type": "Point", "coordinates": [-94.4393326742, 43.827730242]}, "type": "Feature", "properties": {"collection_times": [{"days": "Mon-Fri", "time": "2:45pm"}, {"days": "Sat", "time": "9:30am"}, {"days": "Sun", "time": "Closed"}], "id": "5608800002", "name": "USPS COLLECTION BOX - PO LOBBY", "address": {"city": "TRUMAN", "state": "MN", "street": "310 W CIRO ST", "postcode": "56088"}}},
{"geometry": {"type": "Point", "coordinates": [-93.4259405878, 43.5597660578]}, "type": "Feature", "properties": {"collection_times": [{"days": "Mon-Sat", "time": "2:00pm"}, {"days": "Sun", "time": "Closed"}], "id": "5608900000", "name": "USPS COLLECTION BOX - BLUE BOX", "address": {"city": "TWIN LAKES", "state": "MN", "street": "206 MAIN ST E", "postcode": "56089"}}},
{"geometry": {"type": "Point", "coordinates": [-93.4259405878, 43.5597660578]}, "type": "Feature", "properties": {"collection_times": [{"days": "Mon-Sat", "time": "2:00pm"}, {"days": "Sun", "time": "Closed"}], "id": "5608900001", "name": "USPS COLLECTION BOX - PO LOBBY", "address": {"city": "TWIN LAKES", "state": "MN", "street": "206 MAIN ST E", "postcode": "56089"}}},
{"geometry": {"type": "Point", "coordinates": [-94.1652299541, 43.961807452]}, "type": "Feature", "properties": {"collection_times": [{"days": "Mon-Sat", "time": "3:30pm"}, {"days": "Sun", "time": "Closed"}], "id": "5609000000", "name": "USPS COLLECTION BOX - BLUE BOX", "address": {"city": "VERNON CENTER", "state": "MN", "street": "107 E MAIN ST", "postcode": "56090"}}},
{"geometry": {"type": "Point", "coordinates": [-94.1652299541, 43.961807452]}, "type": "Feature", "properties": {"collection_times": [{"days": "Mon-Fri", "time": "3:30pm"}, {"days": "Sat", "time": "1:45pm"}, {"days": "Sun", "time": "Closed"}], "id": "5609000001", "name": "USPS COLLECTION BOX - PO LOBBY", "address": {"city": "VERNON CENTER", "state": "MN", "street": "107 E MAIN ST", "postcode": "56090"}}},
{"geometry": {"type": "Point", "coordinates": [-93.6975772115, 43.933900585]}, "type": "Feature", "properties": {"collection_times": [{"days": "Mon-Sat", "time": "3:15pm"}, {"days": "Sun", "time": "Closed"}], "id": "5609100000", "name": "USPS COLLECTION BOX - BLUE BOX", "address": {"city": "WALDORF", "state": "MN", "street": "109 S MAIN ST", "postcode": "56091"}}},
{"geometry": {"type": "Point", "coordinates": [-93.6975772115, 43.933900585]}, "type": "Feature", "properties": {"collection_times": [{"days": "Mon-Fri", "time": "12:00pm"}, {"days": "Sat", "time": "9:30am"}, {"days": "Sun", "time": "Closed"}], "id": "5609100001", "name": "USPS COLLECTION BOX - PO LOBBY", "address": {"city": "WALDORF", "state": "MN", "street": "109 S MAIN ST", "postcode": "56091"}}},
{"geometry": {"type": "Point", "coordinates": [-93.5039373363, 44.0768431481]}, "type": "Feature", "properties": {"collection_times": [{"days": "Mon-Sat", "time": "1:00pm"}, {"days": "Sun", "time": "Closed"}], "id": "5609300000", "name": "USPS COLLECTION BOX - BLUE BOX", "address": {"city": "WASECA", "state": "MN", "street": "1230 STATE ST N", "postcode": "56093"}}},
{"geometry": {"type": "Point", "coordinates": [-93.5045977774, 44.0774818174]}, "type": "Feature", "properties": {"collection_times": [{"days": "Mon-Sat", "time": "1:00pm"}, {"days": "Sun", "time": "Closed"}], "id": "5609300003", "name": "USPS COLLECTION BOX - BLUE BOX", "address": {"city": "WASECA", "state": "MN", "street": "508 STATE ST S", "postcode": "56093"}}},
{"geometry": {"type": "Point", "coordinates": [-93.5082359576, 44.0700091188]}, "type": "Feature", "properties": {"collection_times": [{"days": "Mon-Sat", "time": "1:00pm"}, {"days": "Sun", "time": "Closed"}], "id": "5609300005", "name": "USPS COLLECTION BOX - BLUE BOX", "address": {"city": "WASECA", "state": "MN", "street": "100 10TH AVE SE", "postcode": "56093"}}},
{"geometry": {"type": "Point", "coordinates": [-93.5059362126, 44.0776914236]}, "type": "Feature", "properties": {"collection_times": [{"days": "Mon-Sat", "time": "3:15pm"}, {"days": "Sun", "time": "Closed"}], "id": "5609300007", "name": "USPS COLLECTION BOX - BLUE BOX", "address": {"city": "WASECA", "state": "MN", "street": "114 2ND ST NE", "postcode": "56093"}}},
{"geometry": {"type": "Point", "coordinates": [-93.5059362126, 44.0776914236]}, "type": "Feature", "properties": {"collection_times": [{"days": "Mon-Sat", "time": "3:15pm"}, {"days": "Sun", "time": "Closed"}], "id": "5609300008", "name": "USPS COLLECTION BOX - PO LOBBY", "address": {"city": "WASECA", "state": "MN", "street": "114 2ND ST NE", "postcode": "56093"}}},
{"geometry": {"type": "Point", "coordinates": [-93.5059362126, 44.0776914236]}, "type": "Feature", "properties": {"collection_times": [{"days": "Mon-Sat", "time": "3:15pm"}, {"days": "Sun", "time": "Closed"}], "id": "5609300009", "name": "USPS COLLECTION BOX - BLUE BOX", "address": {"city": "WASECA", "state": "MN", "street": "114 2ND ST NE", "postcode": "56093"}}},
{"geometry": {"type": "Point", "coordinates": [-93.5643786703, 44.2188036244]}, "type": "Feature", "properties": {"collection_times": [{"days": "Mon-Fri", "time": "2:30pm"}, {"days": "Sat", "time": "12:30pm"}, {"days": "Sun", "time": "Closed"}], "id": "5609600000", "name": "USPS COLLECTION BOX - BLUE BOX", "address": {"city": "WATERVILLE", "state": "MN", "street": "437 MAIN ST E", "postcode": "56096"}}},
{"geometry": {"type": "Point", "coordinates": [-93.5662793906, 44.2191547071]}, "type": "Feature", "properties": {"collection_times": [{"days": "Mon-Sat", "time": "3:00pm"}, {"days": "Sun", "time": "Closed"}], "id": "5609600001", "name": "USPS COLLECTION BOX - BLUE BOX", "address": {"city": "WATERVILLE", "state": "MN", "street": "125 3RD ST N", "postcode": "56096"}}},
{"geometry": {"type": "Point", "coordinates": [-93.5662793906, 44.2191547071]}, "type": "Feature", "properties": {"collection_times": [{"days": "Mon-Fri", "time": "3:00pm"}, {"days": "Sat", "time": "10:00am"}, {"days": "Sun", "time": "Closed"}], "id": "5609600003", "name": "USPS COLLECTION BOX - PO LOBBY", "address": {"city": "WATERVILLE", "state": "MN", "street": "125 3RD ST N", "postcode": "56096"}}},
{"geometry": {"type": "Point", "coordinates": [-93.725601836, 43.7448176962]}, "type": "Feature", "properties": {"collection_times": [{"days": "Mon-Sat", "time": "3:15pm"}, {"days": "Sun", "time": "Closed"}], "id": "5609700004", "name": "USPS COLLECTION BOX - BLUE BOX", "address": {"city": "WELLS", "state": "MN", "street": "40 S BROADWAY", "postcode": "56097"}}},
{"geometry": {"type": "Point", "coordinates": [-93.725601836, 43.7448176962]}, "type": "Feature", "properties": {"collection_times": [{"days": "Mon-Sat", "time": "3:15pm"}, {"days": "Sun", "time": "Closed"}], "id": "5609700005", "name": "USPS COLLECTION BOX - BLUE BOX", "address": {"city": "WELLS", "state": "MN", "street": "40 S BROADWAY", "postcode": "56097"}}},
{"geometry": {"type": "Point", "coordinates": [-93.725601836, 43.7448176962]}, "type": "Feature", "properties": {"collection_times": [{"days": "Mon-Fri", "time": "3:15pm"}, {"days": "Sat", "time": "9:30am"}, {"days": "Sun", "time": "Closed"}], "id": "5609700006", "name": "USPS COLLECTION BOX - PO LOBBY", "address": {"city": "WELLS", "state": "MN", "street": "40 S BROADWAY", "postcode": "56097"}}},
{"geometry": {"type": "Point", "coordinates": [-94.1656344954, 43.7671513427]}, "type": "Feature", "properties": {"collection_times": [{"days": "Mon-Sat", "time": "3:00pm"}, {"days": "Sun", "time": "Closed"}], "id": "5609800000", "name": "USPS COLLECTION BOX - BLUE BOX", "address": {"city": "HUNTLEY", "state": "MN", "street": "24 MAIN ST S", "postcode": "56098"}}},
{"geometry": {"type": "Point", "coordinates": [-94.1656344954, 43.7671513427]}, "type": "Feature", "properties": {"collection_times": [{"days": "Mon-Fri", "time": "3:00pm"}, {"days": "Sat-Sun", "time": "Closed"}], "id": "5609800001", "name": "USPS COLLECTION BOX - PO LOBBY", "address": {"city": "HUNTLEY", "state": "MN", "street": "24 MAIN ST S", "postcode": "56098"}}},
{"geometry": {"type": "Point", "coordinates": [-94.2371422377, 43.7525658903]}, "type": "Feature", "properties": {"collection_times": [{"days": "Mon-Sat", "time": "2:45pm"}, {"days": "Sun", "time": "Closed"}], "id": "5609800002", "name": "USPS COLLECTION BOX - BLUE BOX", "address": {"city": "HUNTLEY", "state": "MN", "street": "16978 315TH AVE", "postcode": "56098"}}}
]}
