{"type": "FeatureCollection", "features": [
{"geometry": {"type": "Point", "coordinates": [-95.1183691963, 43.8653929693]}, "type": "Feature", "properties": {"collection_times": [{"days": "Mon-Sat", "time": "2:45pm"}, {"days": "Sun", "time": "Closed"}], "id": "5610100000", "name": "USPS COLLECTION BOX - BLUE BOX", "address": {"city": "WINDOM", "state": "MN", "street": "445 9TH ST", "postcode": "56101"}}},
{"geometry": {"type": "Point", "coordinates": [-95.1183691963, 43.8653929693]}, "type": "Feature", "properties": {"collection_times": [{"days": "Mon-Sat", "time": "2:45pm"}, {"days": "Sun", "time": "Closed"}], "id": "5610100001", "name": "USPS COLLECTION BOX - BLUE BOX", "address": {"city": "WINDOM", "state": "MN", "street": "445 9TH ST", "postcode": "56101"}}},
{"geometry": {"type": "Point", "coordinates": [-95.111320706, 43.8776610422]}, "type": "Feature", "properties": {"collection_times": [{"days": "Mon-Sat", "time": "1:00pm"}, {"days": "Sun", "time": "Closed"}], "id": "5610100005", "name": "USPS COLLECTION BOX - BLUE BOX", "address": {"city": "WINDOM", "state": "MN", "street": "1855 1ST AVE N", "postcode": "56101"}}},
{"geometry": {"type": "Point", "coordinates": [-95.1164281058, 43.8653820768]}, "type": "Feature", "properties": {"collection_times": [{"days": "Mon-Sat", "time": "1:00pm"}, {"days": "Sun", "time": "Closed"}], "id": "5610100007", "name": "USPS COLLECTION BOX - BLUE BOX", "address": {"city": "WINDOM", "state": "MN", "street": "303 9TH ST", "postcode": "56101"}}},
{"geometry": {"type": "Point", "coordinates": [-95.113334298, 43.8666328528]}, "type": "Feature", "properties": {"collection_times": [{"days": "Mon-Sat", "time": "1:00pm"}, {"days": "Sun", "time": "Closed"}], "id": "5610100008", "name": "USPS COLLECTION BOX - BLUE BOX", "address": {"city": "WINDOM", "state": "MN", "street": "302 10TH ST", "postcode": "56101"}}},
{"geometry": {"type": "Point", "coordinates": [-95.1183691963, 43.8653929693]}, "type": "Feature", "properties": {"collection_times": [{"days": "Mon-Sat", "time": "2:45pm"}, {"days": "Sun", "time": "Closed"}], "id": "5610100012", "name": "USPS COLLECTION BOX - PO LOBBY", "address": {"city": "WINDOM", "state": "MN", "street": "445 9TH ST", "postcode": "56101"}}},
{"geometry": {"type": "Point", "coordinates": [-95.9332160995, 43.6349592041]}, "type": "Feature", "properties": {"collection_times": [{"days": "Mon-Sat", "time": "12:30pm"}, {"days": "Sun", "time": "Closed"}], "id": "5611000000", "name": "USPS COLLECTION BOX - BLUE BOX", "address": {"city": "ADRIAN", "state": "MN", "street": "209 MAINE AVE", "postcode": "56110"}}},
{"geometry": {"type": "Point", "coordinates": [-95.9332160995, 43.6349592041]}, "type": "Feature", "properties": {"collection_times": [{"days": "Mon-Fri", "time": "12:30pm"}, {"days": "Sat", "time": "8:45am"}, {"days": "Sun", "time": "Closed"}], "id": "5611000002", "name": "USPS COLLECTION BOX - PO LOBBY", "address": {"city": "ADRIAN", "state": "MN", "street": "209 MAINE AVE", "postcode": "56110"}}},
{"geometry": {"type": "Point", "coordinates": [-94.8708665052, 43.637584107]}, "type": "Feature", "properties": {"collection_times": [{"days": "Mon-Sat", "time": "12:15pm"}, {"days": "Sun", "time": "Closed"}], "id": "5611100000", "name": "USPS COLLECTION BOX - BLUE BOX", "address": {"city": "ALPHA", "state": "MN", "street": "115 MAIN ST N", "postcode": "56111"}}},
{"geometry": {"type": "Point", "coordinates": [-94.8708665052, 43.637584107]}, "type": "Feature", "properties": {"collection_times": [{"days": "Mon-Sat", "time": "11:45am"}, {"days": "Sun", "time": "Closed"}], "id": "5611100001", "name": "USPS COLLECTION BOX - PO LOBBY", "address": {"city": "ALPHA", "state": "MN", "street": "115 MAIN ST N", "postcode": "56111"}}},
{"geometry": {"type": "Point", "coordinates": [-96.1887754153, 44.3832812205]}, "type": "Feature", "properties": {"collection_times": [{"days": "Mon-Sat", "time": "10:00am"}, {"days": "Sun", "time": "Closed"}], "id": "5611300000", "name": "USPS COLLECTION BOX - BLUE BOX", "address": {"city": "ARCO", "state": "MN", "street": "110 E LAUREL ST", "postcode": "56113"}}},
{"geometry": {"type": "Point", "coordinates": [-96.1887754153, 44.3832812205]}, "type": "Feature", "properties": {"collection_times": [{"days": "Mon-Sat", "time": "10:00am"}, {"days": "Sun", "time": "Closed"}], "id": "5611300001", "name": "USPS COLLECTION BOX - PO LOBBY", "address": {"city": "ARCO", "state": "MN", "street": "110 E LAUREL ST", "postcode": "56113"}}},
{"geometry": {"type": "Point", "coordinates": [-95.6449302173, 43.9490316692]}, "type": "Feature", "properties": {"collection_times": [{"days": "Mon-Sat", "time": "1:45pm"}, {"days": "Sun", "time": "Closed"}], "id": "5611400000", "name": "USPS COLLECTION BOX - BLUE BOX", "address": {"city": "AVOCA", "state": "MN", "street": "140 SW 2ND ST", "postcode": "56114"}}},
{"geometry": {"type": "Point", "coordinates": [-95.6449302173, 43.9490316692]}, "type": "Feature", "properties": {"collection_times": [{"days": "Mon-Sat", "time": "11:45am"}, {"days": "Sun", "time": "Closed"}], "id": "5611400001", "name": "USPS COLLECTION BOX - PO LOBBY", "address": {"city": "AVOCA", "state": "MN", "street": "140 SW 2ND ST", "postcode": "56114"}}},
{"geometry": {"type": "Point", "coordinates": [-95.8702961268, 44.2348996867]}, "type": "Feature", "properties": {"collection_times": [{"days": "Mon-Sat", "time": "1:00pm"}, {"days": "Sun", "time": "Closed"}], "id": "5611500000", "name": "USPS COLLECTION BOX - BLUE BOX", "address": {"city": "BALATON", "state": "MN", "street": "120 3RD ST", "postcode": "56115"}}},
{"geometry": {"type": "Point", "coordinates": [-95.8702961268, 44.2348996867]}, "type": "Feature", "properties": {"collection_times": [{"days": "Mon-Fri", "time": "1:00pm"}, {"days": "Sat", "time": "9:30am"}, {"days": "Sun", "time": "Closed"}], "id": "5611500002", "name": "USPS COLLECTION BOX - PO LOBBY", "address": {"city": "BALATON", "state": "MN", "street": "120 3RD ST", "postcode": "56115"}}},
{"geometry": {"type": "Point", "coordinates": [-96.3639783042, 43.614194618]}, "type": "Feature", "properties": {"collection_times": [{"days": "Mon-Sat", "time": "11:45am"}, {"days": "Sun", "time": "Closed"}], "id": "5611600000", "name": "USPS COLLECTION BOX - BLUE BOX", "address": {"city": "BEAVER CREEK", "state": "MN", "street": "313 E 1ST AVE", "postcode": "56116"}}},
{"geometry": {"type": "Point", "coordinates": [-96.3639783042, 43.614194618]}, "type": "Feature", "properties": {"collection_times": [{"days": "Mon-Sat", "time": "11:45am"}, {"days": "Sun", "time": "Closed"}], "id": "5611600001", "name": "USPS COLLECTION BOX - PO LOBBY", "address": {"city": "BEAVER CREEK", "state": "MN", "street": "313 E 1ST AVE", "postcode": "56116"}}},
{"geometry": {"type": "Point", "coordinates": [-95.6912426247, 43.5055102441]}, "type": "Feature", "properties": {"collection_times": [{"days": "Mon-Sat", "time": "11:30am"}, {"days": "Sun", "time": "Closed"}], "id": "5611700000", "name": "USPS COLLECTION BOX - BLUE BOX", "address": {"city": "BIGELOW", "state": "MN", "street": "1416 BROADWAY ST", "postcode": "56117"}}},
{"geometry": {"type": "Point", "coordinates": [-95.6912426247, 43.5055102441]}, "type": "Feature", "properties": {"collection_times": [{"days": "Mon-Fri", "time": "11:45am"}, {"days": "Sat", "time": "11:00am"}, {"days": "Sun", "time": "Closed"}], "id": "5611700001", "name": "USPS COLLECTION BOX - PO LOBBY", "address": {"city": "BIGELOW", "state": "MN", "street": "1416 BROADWAY ST", "postcode": "56117"}}},
{"geometry": {"type": "Point", "coordinates": [-95.4687005016, 43.6983837453]}, "type": "Feature", "properties": {"collection_times": [{"days": "Mon-Fri", "time": "11:45am"}, {"days": "Sat", "time": "12:30pm"}, {"days": "Sun", "time": "Closed"}], "id": "5611900000", "name": "USPS COLLECTION BOX - BLUE BOX", "address": {"city": "BREWSTER", "state": "MN", "street": "1005 2ND AVE", "postcode": "56119"}}},
{"geometry": {"type": "Point", "coordinates": [-95.4688867877, 43.6985256118]}, "type": "Feature", "properties": {"collection_times": [{"days": "Mon-Fri", "time": "11:45am"}, {"days": "Sat", "time": "9:15am"}, {"days": "Sun", "time": "Closed"}], "id": "5611900001", "name": "USPS COLLECTION BOX - PO LOBBY", "address": {"city": "BREWSTER", "state": "MN", "street": "1005 2ND AVE", "postcode": "56119"}}},
{"geometry": {"type": "Point", "coordinates": [-95.4688867877, 43.6985256118]}, "type": "Feature", "properties": {"collection_times": [{"days": "Mon-Fri", "time": "11:45am"}, {"days": "Sat", "time": "9:15am"}, {"days": "Sun", "time": "Closed"}], "id": "5611900002", "name": "USPS COLLECTION BOX - PO LOBBY", "address": {"city": "BREWSTER", "state": "MN", "street": "1005 2ND AVE", "postcode": "56119"}}},
{"geometry": {"type": "Point", "coordinates": [-94.7949579068, 43.9585162574]}, "type": "Feature", "properties": {"collection_times": [{"days": "Mon-Sat", "time": "1:15pm"}, {"days": "Sun", "time": "Closed"}], "id": "5612000000", "name": "USPS COLLECTION BOX - BLUE BOX", "address": {"city": "BUTTERFIELD", "state": "MN", "street": "105 2ND ST N", "postcode": "56120"}}},
{"geometry": {"type": "Point", "coordinates": [-94.7949579068, 43.9585162574]}, "type": "Feature", "properties": {"collection_times": [{"days": "Mon-Fri", "time": "11:30am"}, {"days": "Sat", "time": "9:00am"}, {"days": "Sun", "time": "Closed"}], "id": "5612000001", "name": "USPS COLLECTION BOX - PO LOBBY", "address": {"city": "BUTTERFIELD", "state": "MN", "street": "105 2ND ST N", "postcode": "56120"}}},
{"geometry": {"type": "Point", "coordinates": [-94.6318039214, 43.5336002124]}, "type": "Feature", "properties": {"collection_times": [{"days": "Mon-Fri", "time": "11:45am"}, {"days": "Sat", "time": "9:30am"}, {"days": "Sun", "time": "Closed"}], "id": "5612100000", "name": "USPS COLLECTION BOX - BLUE BOX", "address": {"city": "CEYLON", "state": "MN", "street": "111 W MAIN ST", "postcode": "56121"}}},
{"geometry": {"type": "Point", "coordinates": [-94.6318039214, 43.5336002124]}, "type": "Feature", "properties": {"collection_times": [{"days": "Mon-Fri", "time": "11:30am"}, {"days": "Sat", "time": "9:30am"}, {"days": "Sun", "time": "Closed"}], "id": "5612100001", "name": "USPS COLLECTION BOX - PO LOBBY", "address": {"city": "CEYLON", "state": "MN", "street": "111 W MAIN ST", "postcode": "56121"}}},
{"geometry": {"type": "Point", "coordinates": [-95.9478172225, 43.9290227359]}, "type": "Feature", "properties": {"collection_times": [{"days": "Mon-Sat", "time": "12:15pm"}, {"days": "Sun", "time": "Closed"}], "id": "5612200000", "name": "USPS COLLECTION BOX - BLUE BOX", "address": {"city": "CHANDLER", "state": "MN", "street": "211 4TH ST", "postcode": "56122"}}},
{"geometry": {"type": "Point", "coordinates": [-95.9478172225, 43.9290227359]}, "type": "Feature", "properties": {"collection_times": [{"days": "Mon-Fri", "time": "11:15am"}, {"days": "Sat", "time": "9:00am"}, {"days": "Sun", "time": "Closed"}], "id": "5612200001", "name": "USPS COLLECTION BOX - PO LOBBY", "address": {"city": "CHANDLER", "state": "MN", "street": "211 4TH ST", "postcode": "56122"}}},
{"geometry": {"type": "Point", "coordinates": [-95.666129794, 44.065948041]}, "type": "Feature", "properties": {"collection_times": [{"days": "Mon-Sat", "time": "1:00pm"}, {"days": "Sun", "time": "Closed"}], "id": "5612300000", "name": "USPS COLLECTION BOX - BLUE BOX", "address": {"city": "CURRIE", "state": "MN", "street": "121 MILL ST N", "postcode": "56123"}}},
{"geometry": {"type": "Point", "coordinates": [-95.666129794, 44.065948041]}, "type": "Feature", "properties": {"collection_times": [{"days": "Mon-Fri", "time": "11:45am"}, {"days": "Sat", "time": "8:30am"}, {"days": "Sun", "time": "Closed"}], "id": "5612300001", "name": "USPS COLLECTION BOX - PO LOBBY", "address": {"city": "CURRIE", "state": "MN", "street": "121 MILL ST N", "postcode": "56123"}}},
{"geometry": {"type": "Point", "coordinates": [-95.492093734, 44.0539022017]}, "type": "Feature", "properties": {"collection_times": [{"days": "Mon-Sat", "time": "10:15am"}, {"days": "Sun", "time": "Closed"}], "id": "5612500000", "name": "USPS COLLECTION BOX - BLUE BOX", "address": {"city": "DOVRAY", "state": "MN", "street": "305 WOODMAN AVE", "postcode": "56125"}}},
{"geometry": {"type": "Point", "coordinates": [-94.7754229594, 43.5592269077]}, "type": "Feature", "properties": {"collection_times": [{"days": "Mon-Sat", "time": "12:00pm"}, {"days": "Sun", "time": "Closed"}], "id": "5612700000", "name": "USPS COLLECTION BOX - BLUE BOX", "address": {"city": "DUNNELL", "state": "MN", "street": "150 W WENBERG ST", "postcode": "56127"}}},
{"geometry": {"type": "Point", "coordinates": [-94.7754229594, 43.5592269077]}, "type": "Feature", "properties": {"collection_times": [{"days": "Mon-Fri", "time": "11:00am"}, {"days": "Sat", "time": "8:30am"}, {"days": "Sun", "time": "Closed"}], "id": "5612700001", "name": "USPS COLLECTION BOX - PO LOBBY", "address": {"city": "DUNNELL", "state": "MN", "street": "150 W WENBERG ST", "postcode": "56127"}}},
{"geometry": {"type": "Point", "coordinates": [-96.1286592829, 43.8743351112]}, "type": "Feature", "properties": {"collection_times": [{"days": "Mon-Sat", "time": "11:45am"}, {"days": "Sun", "time": "Closed"}], "id": "5612800000", "name": "USPS COLLECTION BOX - BLUE BOX", "address": {"city": "EDGERTON", "state": "MN", "street": "741 MAIN ST", "postcode": "56128"}}},
{"geometry": {"type": "Point", "coordinates": [-96.1286592829, 43.8743351112]}, "type": "Feature", "properties": {"collection_times": [{"days": "Mon-Fri", "time": "11:45am"}, {"days": "Sat", "time": "9:15am"}, {"days": "Sun", "time": "Closed"}], "id": "5612800002", "name": "USPS COLLECTION BOX - PO LOBBY", "address": {"city": "EDGERTON", "state": "MN", "street": "741 MAIN ST", "postcode": "56128"}}},
{"geometry": {"type": "Point", "coordinates": [-96.0180685551, 43.5182190889]}, "type": "Feature", "properties": {"collection_times": [{"days": "Mon-Sat", "time": "11:00am"}, {"days": "Sun", "time": "Closed"}], "id": "5612900000", "name": "USPS COLLECTION BOX - BLUE BOX", "address": {"city": "ELLSWORTH", "state": "MN", "street": "111 E 3RD AVE", "postcode": "56129"}}},
{"geometry": {"type": "Point", "coordinates": [-96.0180685551, 43.5182190889]}, "type": "Feature", "properties": {"collection_times": [{"days": "Mon-Sat", "time": "11:00am"}, {"days": "Sun", "time": "Closed"}], "id": "5612900001", "name": "USPS COLLECTION BOX - PO LOBBY", "address": {"city": "ELLSWORTH", "state": "MN", "street": "111 E 3RD AVE", "postcode": "56129"}}},
{"geometry": {"type": "Point", "coordinates": [-95.5987885533, 43.8698325735]}, "type": "Feature", "properties": {"collection_times": [{"days": "Mon-Sat", "time": "1:00pm"}, {"days": "Sun", "time": "Closed"}], "id": "5613100000", "name": "USPS COLLECTION BOX - BLUE BOX", "address": {"city": "DUNDEE", "state": "MN", "street": "109 N BALTIMORE AVE", "postcode": "56131"}}},
{"geometry": {"type": "Point", "coordinates": [-95.5987885533, 43.8698325735]}, "type": "Feature", "properties": {"collection_times": [{"days": "Mon-Fri", "time": "1:00pm"}, {"days": "Sat", "time": "10:00am"}, {"days": "Sun", "time": "Closed"}], "id": "5613100002", "name": "USPS COLLECTION BOX - PO LOBBY", "address": {"city": "DUNDEE", "state": "MN", "street": "109 N BALTIMORE AVE", "postcode": "56131"}}},
{"geometry": {"type": "Point", "coordinates": [-95.4668839656, 43.8462203744]}, "type": "Feature", "properties": {"collection_times": [{"days": "Mon-Sat", "time": "1:15pm"}, {"days": "Sun", "time": "Closed"}], "id": "5613100003", "name": "USPS COLLECTION BOX - BLUE BOX", "address": {"city": "DUNDEE", "state": "MN", "street": "220 N MAIN ST", "postcode": "56131"}}},
{"geometry": {"type": "Point", "coordinates": [-96.199424638, 43.7747044819]}, "type": "Feature", "properties": {"collection_times": [{"days": "Mon-Sat", "time": "12:00pm"}, {"days": "Sun", "time": "Closed"}], "id": "5613400000", "name": "USPS COLLECTION BOX - BLUE BOX", "address": {"city": "HARDWICK", "state": "MN", "street": "103 E MAIN ST", "postcode": "56134"}}},
{"geometry": {"type": "Point", "coordinates": [-96.199424638, 43.7747044819]}, "type": "Feature", "properties": {"collection_times": [{"days": "Mon-Fri", "time": "12:00pm"}, {"days": "Sat", "time": "9:00am"}, {"days": "Sun", "time": "Closed"}], "id": "5613400001", "name": "USPS COLLECTION BOX - PO LOBBY", "address": {"city": "HARDWICK", "state": "MN", "street": "103 E MAIN ST", "postcode": "56134"}}},
{"geometry": {"type": "Point", "coordinates": [-96.4256745907, 44.5072304391]}, "type": "Feature", "properties": {"collection_times": [{"days": "Mon-Sat", "time": "11:15am"}, {"days": "Sun", "time": "Closed"}], "id": "5613600000", "name": "USPS COLLECTION BOX - BLUE BOX", "address": {"city": "HENDRICKS", "state": "MN", "street": "107 S MAIN ST", "postcode": "56136"}}},
{"geometry": {"type": "Point", "coordinates": [-96.4256745907, 44.5072304391]}, "type": "Feature", "properties": {"collection_times": [{"days": "Mon-Fri", "time": "11:15am"}, {"days": "Sat", "time": "10:00am"}, {"days": "Sun", "time": "Closed"}], "id": "5613600001", "name": "USPS COLLECTION BOX - PO LOBBY", "address": {"city": "HENDRICKS", "state": "MN", "street": "107 S MAIN ST", "postcode": "56136"}}},
{"geometry": {"type": "Point", "coordinates": [-95.3193080418, 43.7941112095]}, "type": "Feature", "properties": {"collection_times": [{"days": "Mon-Sat", "time": "1:45pm"}, {"days": "Sun", "time": "Closed"}], "id": "5613700000", "name": "USPS COLLECTION BOX - BLUE BOX", "address": {"city": "HERON LAKE", "state": "MN", "street": "1006 3RD AVE", "postcode": "56137"}}},
{"geometry": {"type": "Point", "coordinates": [-95.3193080418, 43.7941112095]}, "type": "Feature", "properties": {"collection_times": [{"days": "Mon-Fri", "time": "11:15am"}, {"days": "Sat", "time": "8:15am"}, {"days": "Sun", "time": "Closed"}], "id": "5613700001", "name": "USPS COLLECTION BOX - PO LOBBY", "address": {"city": "HERON LAKE", "state": "MN", "street": "1006 3RD AVE", "postcode": "56137"}}},
{"geometry": {"type": "Point", "coordinates": [-96.358902981, 43.5280920195]}, "type": "Feature", "properties": {"collection_times": [{"days": "Mon-Sat", "time": "11:15am"}, {"days": "Sun", "time": "Closed"}], "id": "5613800000", "name": "USPS COLLECTION BOX - BLUE BOX", "address": {"city": "HILLS", "state": "MN", "street": "205 S MAIN AVE", "postcode": "56138"}}},
{"geometry": {"type": "Point", "coordinates": [-96.358902981, 43.5280920195]}, "type": "Feature", "properties": {"collection_times": [{"days": "Mon-Fri", "time": "11:15am"}, {"days": "Sat", "time": "9:15am"}, {"days": "Sun", "time": "Closed"}], "id": "5613800001", "name": "USPS COLLECTION BOX - PO LOBBY", "address": {"city": "HILLS", "state": "MN", "street": "205 S MAIN AVE", "postcode": "56138"}}},
{"geometry": {"type": "Point", "coordinates": [-96.1894607217, 44.0914822948]}, "type": "Feature", "properties": {"collection_times": [{"days": "Mon-Sat", "time": "9:00am"}, {"days": "Sun", "time": "Closed"}], "id": "5613900000", "name": "USPS COLLECTION BOX - BLUE BOX", "address": {"city": "HOLLAND", "state": "MN", "street": "441 ROCK ST", "postcode": "56139"}}},
{"geometry": {"type": "Point", "coordinates": [-95.7846725839, 43.9156829045]}, "type": "Feature", "properties": {"collection_times": [{"days": "Mon-Sat", "time": "12:30pm"}, {"days": "Sun", "time": "Closed"}], "id": "5614100000", "name": "USPS COLLECTION BOX - BLUE BOX", "address": {"city": "IONA", "state": "MN", "street": "330 GRACE AVE", "postcode": "56141"}}},
{"geometry": {"type": "Point", "coordinates": [-95.7846725839, 43.9156829045]}, "type": "Feature", "properties": {"collection_times": [{"days": "Mon-Sat", "time": "12:30pm"}, {"days": "Sun", "time": "Closed"}], "id": "5614100001", "name": "USPS COLLECTION BOX - PO LOBBY", "address": {"city": "IONA", "state": "MN", "street": "330 GRACE AVE", "postcode": "56141"}}},
{"geometry": {"type": "Point", "coordinates": [-96.2488110949, 44.4625085763]}, "type": "Feature", "properties": {"collection_times": [{"days": "Mon-Sat", "time": "11:45am"}, {"days": "Sun", "time": "Closed"}], "id": "5614200000", "name": "USPS COLLECTION BOX - BLUE BOX", "address": {"city": "IVANHOE", "state": "MN", "street": "321 N SHERWOOD ST", "postcode": "56142"}}},
{"geometry": {"type": "Point", "coordinates": [-96.2488110949, 44.4625085763]}, "type": "Feature", "properties": {"collection_times": [{"days": "Mon-Fri", "time": "11:30am"}, {"days": "Sat", "time": "8:45am"}, {"days": "Sun", "time": "Closed"}], "id": "5614200001", "name": "USPS COLLECTION BOX - PO LOBBY", "address": {"city": "IVANHOE", "state": "MN", "street": "321 N SHERWOOD ST", "postcode": "56142"}}},
{"geometry": {"type": "Point", "coordinates": [-94.9877820861, 43.6194625957]}, "type": "Feature", "properties": {"collection_times": [{"days": "Mon-Sat", "time": "12:45pm"}, {"days": "Sun", "time": "Closed"}], "id": "5614300001", "name": "USPS COLLECTION BOX - BLUE BOX", "address": {"city": "JACKSON", "state": "MN", "street": "211 2ND ST", "postcode": "56143"}}},
{"geometry": {"type": "Point", "coordinates": [-94.9877820861, 43.6194625957]}, "type": "Feature", "properties": {"collection_times": [{"days": "Mon-Fri", "time": "12:45pm"}, {"days": "Sat", "time": "11:00am"}, {"days": "Sun", "time": "Closed"}], "id": "5614300002", "name": "USPS COLLECTION BOX - PO LOBBY", "address": {"city": "JACKSON", "state": "MN", "street": "211 2ND ST", "postcode": "56143"}}},
{"geometry": {"type": "Point", "coordinates": [-96.4070529655, 43.8498522592]}, "type": "Feature", "properties": {"collection_times": [{"days": "Mon-Sat", "time": "11:15am"}, {"days": "Sun", "time": "Closed"}], "id": "5614400000", "name": "USPS COLLECTION BOX - BLUE BOX", "address": {"city": "JASPER", "state": "MN", "street": "216 WALL ST W", "postcode": "56144"}}},
{"geometry": {"type": "Point", "coordinates": [-96.4070529655, 43.8498522592]}, "type": "Feature", "properties": {"collection_times": [{"days": "Mon-Fri", "time": "11:15am"}, {"days": "Sat", "time": "9:15am"}, {"days": "Sun", "time": "Closed"}], "id": "5614400001", "name": "USPS COLLECTION BOX - PO LOBBY", "address": {"city": "JASPER", "state": "MN", "street": "216 WALL ST W", "postcode": "56144"}}},
{"geometry": {"type": "Point", "coordinates": [-95.1962319897, 44.0559772517]}, "type": "Feature", "properties": {"collection_times": [{"days": "Mon-Sat", "time": "2:00pm"}, {"days": "Sun", "time": "Closed"}], "id": "5614500000", "name": "USPS COLLECTION BOX - BLUE BOX", "address": {"city": "JEFFERS", "state": "MN", "street": "120 E WHITED ST", "postcode": "56145"}}},
{"geometry": {"type": "Point", "coordinates": [-95.1962319897, 44.0559772517]}, "type": "Feature", "properties": {"collection_times": [{"days": "Mon-Fri", "time": "11:45am"}, {"days": "Sat", "time": "8:30am"}, {"days": "Sun", "time": "Closed"}], "id": "5614500001", "name": "USPS COLLECTION BOX - PO LOBBY", "address": {"city": "JEFFERS", "state": "MN", "street": "120 E WHITED ST", "postcode": "56145"}}},
{"geometry": {"type": "Point", "coordinates": [-96.0727509641, 43.7542870423]}, "type": "Feature", "properties": {"collection_times": [{"days": "Mon-Sat", "time": "12:00pm"}, {"days": "Sun", "time": "Closed"}], "id": "5614700000", "name": "USPS COLLECTION BOX - BLUE BOX", "address": {"city": "KENNETH", "state": "MN", "street": "351 MAIN ST", "postcode": "56147"}}},
{"geometry": {"type": "Point", "coordinates": [-96.2869941313, 44.260927187]}, "type": "Feature", "properties": {"collection_times": [{"days": "Mon-Sat", "time": "12:15pm"}, {"days": "Sun", "time": "Closed"}], "id": "5614900000", "name": "USPS COLLECTION BOX - BLUE BOX", "address": {"city": "LAKE BENTON", "state": "MN", "street": "126 E BENTON ST", "postcode": "56149"}}},
{"geometry": {"type": "Point", "coordinates": [-96.2869941313, 44.260927187]}, "type": "Feature", "properties": {"collection_times": [{"days": "Mon-Fri", "time": "12:15pm"}, {"days": "Sat", "time": "10:00am"}, {"days": "Sun", "time": "Closed"}], "id": "5614900001", "name": "USPS COLLECTION BOX - PO LOBBY", "address": {"city": "LAKE BENTON", "state": "MN", "street": "126 E BENTON ST", "postcode": "56149"}}},
{"geometry": {"type": "Point", "coordinates": [-95.1722205516, 43.6777560878]}, "type": "Feature", "properties": {"collection_times": [{"days": "Mon-Sat", "time": "1:00pm"}, {"days": "Sun", "time": "Closed"}], "id": "5615000000", "name": "USPS COLLECTION BOX - BLUE BOX", "address": {"city": "LAKEFIELD", "state": "MN", "street": "319 MAIN ST", "postcode": "56150"}}},
{"geometry": {"type": "Point", "coordinates": [-95.1722205516, 43.6777560878]}, "type": "Feature", "properties": {"collection_times": [{"days": "Mon-Fri", "time": "1:00pm"}, {"days": "Sat", "time": "10:15am"}, {"days": "Sun", "time": "Closed"}], "id": "5615000001", "name": "USPS COLLECTION BOX - PO LOBBY", "address": {"city": "LAKEFIELD", "state": "MN", "street": "319 MAIN ST", "postcode": "56150"}}},
{"geometry": {"type": "Point", "coordinates": [-95.9556943695, 44.0001996306]}, "type": "Feature", "properties": {"collection_times": [{"days": "Mon-Sat", "time": "1:00pm"}, {"days": "Sun", "time": "Closed"}], "id": "5615100001", "name": "USPS COLLECTION BOX - BLUE BOX", "address": {"city": "HADLEY", "state": "MN", "street": "137 BROADWAY AVE", "postcode": "56151"}}},
{"geometry": {"type": "Point", "coordinates": [-95.9556943695, 44.0001996306]}, "type": "Feature", "properties": {"collection_times": [{"days": "Mon-Fri", "time": "1:00pm"}, {"days": "Sat", "time": "9:30am"}, {"days": "Sun", "time": "Closed"}], "id": "5615100002", "name": "USPS COLLECTION BOX - PO LOBBY", "address": {"city": "HADLEY", "state": "MN", "street": "137 BROADWAY AVE", "postcode": "56151"}}},
{"geometry": {"type": "Point", "coordinates": [-95.264076202, 44.2311983182]}, "type": "Feature", "properties": {"collection_times": [{"days": "Mon-Sat", "time": "12:45pm"}, {"days": "Sun", "time": "Closed"}], "id": "5615200000", "name": "USPS COLLECTION BOX - BLUE BOX", "address": {"city": "LAMBERTON", "state": "MN", "street": "207 S MAIN ST", "postcode": "56152"}}},
{"geometry": {"type": "Point", "coordinates": [-95.264076202, 44.2311983182]}, "type": "Feature", "properties": {"collection_times": [{"days": "Mon-Fri", "time": "12:45pm"}, {"days": "Sat-Sun", "time": "Closed"}], "id": "5615200001", "name": "USPS COLLECTION BOX - PO LOBBY", "address": {"city": "LAMBERTON", "state": "MN", "street": "207 S MAIN ST", "postcode": "56152"}}},
{"geometry": {"type": "Point", "coordinates": [-96.0168519864, 43.8338937511]}, "type": "Feature", "properties": {"collection_times": [{"days": "Mon-Sat", "time": "11:45am"}, {"days": "Sun", "time": "Closed"}], "id": "5615300000", "name": "USPS COLLECTION BOX - BLUE BOX", "address": {"city": "LEOTA", "state": "MN", "street": "11815 110TH ST", "postcode": "56153"}}},
{"geometry": {"type": "Point", "coordinates": [-96.0168519864, 43.8338937511]}, "type": "Feature", "properties": {"collection_times": [{"days": "Mon-Sat", "time": "11:45am"}, {"days": "Sun", "time": "Closed"}], "id": "5615300001", "name": "USPS COLLECTION BOX - PO LOBBY", "address": {"city": "LEOTA", "state": "MN", "street": "11815 110TH ST", "postcode": "56153"}}},
{"geometry": {"type": "Point", "coordinates": [-95.9474634195, 43.7493596119]}, "type": "Feature", "properties": {"collection_times": [{"days": "Mon-Sat", "time": "12:30pm"}, {"days": "Sun", "time": "Closed"}], "id": "5615500000", "name": "USPS COLLECTION BOX - BLUE BOX", "address": {"city": "LISMORE", "state": "MN", "street": "173 S 3RD AVE", "postcode": "56155"}}},
{"geometry": {"type": "Point", "coordinates": [-95.9474634195, 43.7493596119]}, "type": "Feature", "properties": {"collection_times": [{"days": "Mon-Fri", "time": "11:00am"}, {"days": "Sat", "time": "9:15am"}, {"days": "Sun", "time": "Closed"}], "id": "5615500001", "name": "USPS COLLECTION BOX - PO LOBBY", "address": {"city": "LISMORE", "state": "MN", "street": "173 S 3RD AVE", "postcode": "56155"}}},
{"geometry": {"type": "Point", "coordinates": [-96.2094746014, 43.654194609]}, "type": "Feature", "properties": {"collection_times": [{"days": "Mon-Fri", "time": "11:45am"}, {"days": "Sat-Sun", "time": "Closed"}], "id": "5615600000", "name": "USPS COLLECTION BOX - BLUE BOX", "address": {"city": "LUVERNE", "state": "MN", "street": "101 E MAIN ST", "postcode": "56156"}}},
{"geometry": {"type": "Point", "coordinates": [-96.2091118222, 43.6542982373]}, "type": "Feature", "properties": {"collection_times": [{"days": "Mon-Fri", "time": "11:45am"}, {"days": "Sat-Sun", "time": "Closed"}], "id": "5615600001", "name": "USPS COLLECTION BOX - BLUE BOX", "address": {"city": "LUVERNE", "state": "MN", "street": "130 E MAIN ST", "postcode": "56156"}}},
{"geometry": {"type": "Point", "coordinates": [-96.2054977974, 43.6551362212]}, "type": "Feature", "properties": {"collection_times": [{"days": "Mon-Sat", "time": "12:00pm"}, {"days": "Sun", "time": "Closed"}], "id": "5615600007", "name": "USPS COLLECTION BOX - BLUE BOX", "address": {"city": "LUVERNE", "state": "MN", "street": "407 E LINCOLN ST", "postcode": "56156"}}},
{"geometry": {"type": "Point", "coordinates": [-96.2054977974, 43.6551362212]}, "type": "Feature", "properties": {"collection_times": [{"days": "Mon-Fri", "time": "12:00pm"}, {"days": "Sat", "time": "11:30am"}, {"days": "Sun", "time": "Closed"}], "id": "5615600008", "name": "USPS COLLECTION BOX - PO LOBBY", "address": {"city": "LUVERNE", "state": "MN", "street": "407 E LINCOLN ST", "postcode": "56156"}}},
{"geometry": {"type": "Point", "coordinates": [-95.8908420736, 44.3858808643]}, "type": "Feature", "properties": {"collection_times": [{"days": "Mon-Sat", "time": "11:00am"}, {"days": "Sun", "time": "Closed"}], "id": "5615700000", "name": "USPS COLLECTION BOX - BLUE BOX", "address": {"city": "LYND", "state": "MN", "street": "113 W RAILROAD ST", "postcode": "56157"}}},
{"geometry": {"type": "Point", "coordinates": [-95.8908420736, 44.3858808643]}, "type": "Feature", "properties": {"collection_times": [{"days": "Mon-Fri", "time": "11:00am"}, {"days": "Sat", "time": "8:45am"}, {"days": "Sun", "time": "Closed"}], "id": "5615700001", "name": "USPS COLLECTION BOX - PO LOBBY", "address": {"city": "LYND", "state": "MN", "street": "113 W RAILROAD ST", "postcode": "56157"}}},
{"geometry": {"type": "Point", "coordinates": [-96.0795433482, 43.645375652]}, "type": "Feature", "properties": {"collection_times": [{"days": "Mon-Sat", "time": "12:15pm"}, {"days": "Sun", "time": "Closed"}], "id": "5615800000", "name": "USPS COLLECTION BOX - BLUE BOX", "address": {"city": "MAGNOLIA", "state": "MN", "street": "113 W LUVERNE ST", "postcode": "56158"}}},
{"geometry": {"type": "Point", "coordinates": [-96.0795433482, 43.645375652]}, "type": "Feature", "properties": {"collection_times": [{"days": "Mon-Fri", "time": "12:15pm"}, {"days": "Sat", "time": "11:15am"}, {"days": "Sun", "time": "Closed"}], "id": "5615800001", "name": "USPS COLLECTION BOX - PO LOBBY", "address": {"city": "MAGNOLIA", "state": "MN", "street": "113 W LUVERNE ST", "postcode": "56158"}}},
{"geometry": {"type": "Point", "coordinates": [-94.9295721559, 43.938159844]}, "type": "Feature", "properties": {"collection_times": [{"days": "Mon-Sat", "time": "1:30pm"}, {"days": "Sun", "time": "Closed"}], "id": "5615900000", "name": "USPS COLLECTION BOX - BLUE BOX", "address": {"city": "MOUNTAIN LAKE", "state": "MN", "street": "211 10TH ST N", "postcode": "56159"}}},
{"geometry": {"type": "Point", "coordinates": [-94.9295721559, 43.938159844]}, "type": "Feature", "properties": {"collection_times": [{"days": "Mon-Fri", "time": "1:30pm"}, {"days": "Sat", "time": "10:00am"}, {"days": "Sun", "time": "Closed"}], "id": "5615900001", "name": "USPS COLLECTION BOX - PO LOBBY", "address": {"city": "MOUNTAIN LAKE", "state": "MN", "street": "211 10TH ST N", "postcode": "56159"}}},
{"geometry": {"type": "Point", "coordinates": [-94.8020212954, 43.8843684505]}, "type": "Feature", "properties": {"collection_times": [{"days": "Mon-Sat", "time": "12:45pm"}, {"days": "Sun", "time": "Closed"}], "id": "5616000000", "name": "USPS COLLECTION BOX - BLUE BOX", "address": {"city": "ODIN", "state": "MN", "street": "105 N 1ST ST", "postcode": "56160"}}},
{"geometry": {"type": "Point", "coordinates": [-94.8020212954, 43.8843684505]}, "type": "Feature", "properties": {"collection_times": [{"days": "Mon-Fri", "time": "9:30am"}, {"days": "Sat", "time": "8:30am"}, {"days": "Sun", "time": "Closed"}], "id": "5616000001", "name": "USPS COLLECTION BOX - PO LOBBY", "address": {"city": "ODIN", "state": "MN", "street": "105 N 1ST ST", "postcode": "56160"}}},
{"geometry": {"type": "Point", "coordinates": [-95.316677422, 43.7399624123]}, "type": "Feature", "properties": {"collection_times": [{"days": "Mon-Sat", "time": "1:30pm"}, {"days": "Sun", "time": "Closed"}], "id": "5616100000", "name": "USPS COLLECTION BOX - BLUE BOX", "address": {"city": "OKABENA", "state": "MN", "street": "112 S MINNESOTA AVE", "postcode": "56161"}}},
{"geometry": {"type": "Point", "coordinates": [-95.316677422, 43.7399624123]}, "type": "Feature", "properties": {"collection_times": [{"days": "Mon-Fri", "time": "11:15am"}, {"days": "Sat", "time": "9:30am"}, {"days": "Sun", "time": "Closed"}], "id": "5616100001", "name": "USPS COLLECTION BOX - PO LOBBY", "address": {"city": "OKABENA", "state": "MN", "street": "112 S MINNESOTA AVE", "postcode": "56161"}}},
{"geometry": {"type": "Point", "coordinates": [-94.6613721039, 43.8497084001]}, "type": "Feature", "properties": {"collection_times": [{"days": "Mon-Sat", "time": "12:45pm"}, {"days": "Sun", "time": "Closed"}], "id": "5616200000", "name": "USPS COLLECTION BOX - BLUE BOX", "address": {"city": "ORMSBY", "state": "MN", "street": "506 MAIN ST", "postcode": "56162"}}},
{"geometry": {"type": "Point", "coordinates": [-94.6613721039, 43.8497084001]}, "type": "Feature", "properties": {"collection_times": [{"days": "Mon-Fri", "time": "12:45pm"}, {"days": "Sat", "time": "10:45am"}, {"days": "Sun", "time": "Closed"}], "id": "5616200001", "name": "USPS COLLECTION BOX - PO LOBBY", "address": {"city": "ORMSBY", "state": "MN", "street": "506 MAIN ST", "postcode": "56162"}}},
{"geometry": {"type": "Point", "coordinates": [-96.317696829, 43.9991093454]}, "type": "Feature", "properties": {"collection_times": [{"days": "Mon-Sat", "time": "12:15pm"}, {"days": "Sun", "time": "Closed"}], "id": "5616400000", "name": "USPS COLLECTION BOX - BLUE BOX", "address": {"city": "PIPESTONE", "state": "MN", "street": "202 S HIAWATHA AVE", "postcode": "56164"}}},
{"geometry": {"type": "Point", "coordinates": [-96.3234647284, 43.9942114915]}, "type": "Feature", "properties": {"collection_times": [{"days": "Mon-Sat", "time": "11:45am"}, {"days": "Sun", "time": "Closed"}], "id": "5616400002", "name": "USPS COLLECTION BOX - BLUE BOX", "address": {"city": "PIPESTONE", "state": "MN", "street": "504 7TH ST SW", "postcode": "56164"}}},
{"geometry": {"type": "Point", "coordinates": [-96.3177009004, 44.0007344134]}, "type": "Feature", "properties": {"collection_times": [{"days": "Mon-Sat", "time": "11:45am"}, {"days": "Sun", "time": "Closed"}], "id": "5616400003", "name": "USPS COLLECTION BOX - BLUE BOX", "address": {"city": "PIPESTONE", "state": "MN", "street": "120 N HIAWATHA AVE", "postcode": "56164"}}},
{"geometry": {"type": "Point", "coordinates": [-96.317696829, 43.9991093454]}, "type": "Feature", "properties": {"collection_times": [{"days": "Mon-Sat", "time": "12:15pm"}, {"days": "Sun", "time": "Closed"}], "id": "5616400008", "name": "USPS COLLECTION BOX - PO LOBBY", "address": {"city": "PIPESTONE", "state": "MN", "street": "202 S HIAWATHA AVE", "postcode": "56164"}}},
{"geometry": {"type": "Point", "coordinates": [-96.317696829, 43.9991093454]}, "type": "Feature", "properties": {"collection_times": [{"days": "Mon-Sat", "time": "12:15pm"}, {"days": "Sun", "time": "Closed"}], "id": "5616400010", "name": "USPS COLLECTION BOX - BLUE BOX", "address": {"city": "PIPESTONE", "state": "MN", "street": "202 S HIAWATHA AVE", "postcode": "56164"}}},
{"geometry": {"type": "Point", "coordinates": [-95.3723374966, 44.2102434605]}, "type": "Feature", "properties": {"collection_times": [{"days": "Mon-Sat", "time": "12:15pm"}, {"days": "Sun", "time": "Closed"}], "id": "5616600000", "name": "USPS COLLECTION BOX - BLUE BOX", "address": {"city": "REVERE", "state": "MN", "street": "100 MAIN ST", "postcode": "56166"}}},
{"geometry": {"type": "Point", "coordinates": [-95.4684768833, 43.541310443]}, "type": "Feature", "properties": {"collection_times": [{"days": "Mon-Sat", "time": "12:00pm"}, {"days": "Sun", "time": "Closed"}], "id": "5616700000", "name": "USPS COLLECTION BOX - BLUE BOX", "address": {"city": "ROUND LAKE", "state": "MN", "street": "137 MAIN ST", "postcode": "56167"}}},
{"geometry": {"type": "Point", "coordinates": [-95.4684768833, 43.541310443]}, "type": "Feature", "properties": {"collection_times": [{"days": "Mon-Fri", "time": "12:00pm"}, {"days": "Sat", "time": "9:15am"}, {"days": "Sun", "time": "Closed"}], "id": "5616700001", "name": "USPS COLLECTION BOX - PO LOBBY", "address": {"city": "ROUND LAKE", "state": "MN", "street": "137 MAIN ST", "postcode": "56167"}}},
{"geometry": {"type": "Point", "coordinates": [-95.8010911408, 43.6186383507]}, "type": "Feature", "properties": {"collection_times": [{"days": "Mon-Fri", "time": "11:15am"}, {"days": "Sat", "time": "12:45pm"}, {"days": "Sun", "time": "Closed"}], "id": "5616800000", "name": "USPS COLLECTION BOX - BLUE BOX", "address": {"city": "READING", "state": "MN", "street": "108 N THOMPSON AVE", "postcode": "56168"}}},
{"geometry": {"type": "Point", "coordinates": [-95.8010911408, 43.6186383507]}, "type": "Feature", "properties": {"collection_times": [{"days": "Mon-Fri", "time": "11:15am"}, {"days": "Sat", "time": "8:30am"}, {"days": "Sun", "time": "Closed"}], "id": "5616800001", "name": "USPS COLLECTION BOX - PO LOBBY", "address": {"city": "READING", "state": "MN", "street": "108 N THOMPSON AVE", "postcode": "56168"}}},
{"geometry": {"type": "Point", "coordinates": [-95.9508367738, 44.3195317698]}, "type": "Feature", "properties": {"collection_times": [{"days": "Mon-Sat", "time": "11:15am"}, {"days": "Sun", "time": "Closed"}], "id": "5616900000", "name": "USPS COLLECTION BOX - BLUE BOX", "address": {"city": "RUSSELL", "state": "MN", "street": "310 FRONT ST", "postcode": "56169"}}},
{"geometry": {"type": "Point", "coordinates": [-95.9508367738, 44.3195317698]}, "type": "Feature", "properties": {"collection_times": [{"days": "Mon-Fri", "time": "11:15am"}, {"days": "Sat", "time": "10:00am"}, {"days": "Sun", "time": "Closed"}], "id": "5616900001", "name": "USPS COLLECTION BOX - PO LOBBY", "address": {"city": "RUSSELL", "state": "MN", "street": "310 FRONT ST", "postcode": "56169"}}},
{"geometry": {"type": "Point", "coordinates": [-96.1023880758, 44.176764658]}, "type": "Feature", "properties": {"collection_times": [{"days": "Mon-Sat", "time": "11:45am"}, {"days": "Sun", "time": "Closed"}], "id": "5617000000", "name": "USPS COLLECTION BOX - BLUE BOX", "address": {"city": "RUTHTON", "state": "MN", "street": "420 AETNA ST", "postcode": "56170"}}},
{"geometry": {"type": "Point", "coordinates": [-96.1023880758, 44.176764658]}, "type": "Feature", "properties": {"collection_times": [{"days": "Mon-Fri", "time": "11:00am"}, {"days": "Sat", "time": "8:45am"}, {"days": "Sun", "time": "Closed"}], "id": "5617000001", "name": "USPS COLLECTION BOX - PO LOBBY", "address": {"city": "RUTHTON", "state": "MN", "street": "420 AETNA ST", "postcode": "56170"}}},
{"geometry": {"type": "Point", "coordinates": [-94.7276183099, 43.6534543103]}, "type": "Feature", "properties": {"collection_times": [{"days": "Mon-Fri", "time": "11:45am"}, {"days": "Sat", "time": "12:00pm"}, {"days": "Sun", "time": "Closed"}], "id": "5617100000", "name": "USPS COLLECTION BOX - BLUE BOX", "address": {"city": "SHERBURN", "state": "MN", "street": "127 N MAIN ST", "postcode": "56171"}}},
{"geometry": {"type": "Point", "coordinates": [-94.7276183099, 43.6534543103]}, "type": "Feature", "properties": {"collection_times": [{"days": "Mon-Fri", "time": "11:45am"}, {"days": "Sat", "time": "9:00am"}, {"days": "Sun", "time": "Closed"}], "id": "5617100002", "name": "USPS COLLECTION BOX - PO LOBBY", "address": {"city": "SHERBURN", "state": "MN", "street": "127 N MAIN ST", "postcode": "56171"}}},
{"geometry": {"type": "Point", "coordinates": [-95.7563310697, 43.9883975325]}, "type": "Feature", "properties": {"collection_times": [{"days": "Mon-Sat", "time": "1:30pm"}, {"days": "Sun", "time": "Closed"}], "id": "5617200000", "name": "USPS COLLECTION BOX - BLUE BOX", "address": {"city": "SLAYTON", "state": "MN", "street": "2541 BROADWAY AVE", "postcode": "56172"}}},
{"geometry": {"type": "Point", "coordinates": [-95.7563310697, 43.9883975325]}, "type": "Feature", "properties": {"collection_times": [{"days": "Mon-Fri", "time": "1:30pm"}, {"days": "Sat", "time": "10:15am"}, {"days": "Sun", "time": "Closed"}], "id": "5617200003", "name": "USPS COLLECTION BOX - PO LOBBY", "address": {"city": "SLAYTON", "state": "MN", "street": "2541 BROADWAY AVE", "postcode": "56172"}}},
{"geometry": {"type": "Point", "coordinates": [-95.7563310697, 43.9883975325]}, "type": "Feature", "properties": {"collection_times": [{"days": "Mon-Sat", "time": "1:30pm"}, {"days": "Sun", "time": "Closed"}], "id": "5617200004", "name": "USPS COLLECTION BOX - BLUE BOX", "address": {"city": "SLAYTON", "state": "MN", "street": "2541 BROADWAY AVE", "postcode": "56172"}}},
{"geometry": {"type": "Point", "coordinates": [-95.3209512124, 44.0378214723]}, "type": "Feature", "properties": {"collection_times": [{"days": "Mon-Sat", "time": "1:45pm"}, {"days": "Sun", "time": "Closed"}], "id": "5617400000", "name": "USPS COLLECTION BOX - BLUE BOX", "address": {"city": "STORDEN", "state": "MN", "street": "320 AMERICA ST", "postcode": "56174"}}},
{"geometry": {"type": "Point", "coordinates": [-95.3209512124, 44.0378214723]}, "type": "Feature", "properties": {"collection_times": [{"days": "Mon-Fri", "time": "12:30pm"}, {"days": "Sat", "time": "9:30am"}, {"days": "Sun", "time": "Closed"}], "id": "5617400001", "name": "USPS COLLECTION BOX - PO LOBBY", "address": {"city": "STORDEN", "state": "MN", "street": "320 AMERICA ST", "postcode": "56174"}}},
{"geometry": {"type": "Point", "coordinates": [-95.6199947774, 44.2320881067]}, "type": "Feature", "properties": {"collection_times": [{"days": "Mon-Sat", "time": "12:00pm"}, {"days": "Sun", "time": "Closed"}], "id": "5617500000", "name": "USPS COLLECTION BOX - BLUE BOX", "address": {"city": "GARVIN", "state": "MN", "street": "100 3RD ST", "postcode": "56175"}}},
{"geometry": {"type": "Point", "coordinates": [-95.6199947774, 44.2320881067]}, "type": "Feature", "properties": {"collection_times": [{"days": "Mon-Fri", "time": "12:00pm"}, {"days": "Sat", "time": "11:00am"}, {"days": "Sun", "time": "Closed"}], "id": "5617500006", "name": "USPS COLLECTION BOX - BLUE BOX", "address": {"city": "GARVIN", "state": "MN", "street": "100 3RD ST", "postcode": "56175"}}},
{"geometry": {"type": "Point", "coordinates": [-95.6199947774, 44.2320881067]}, "type": "Feature", "properties": {"collection_times": [{"days": "Mon-Fri", "time": "12:00pm"}, {"days": "Sat", "time": "11:00am"}, {"days": "Sun", "time": "Closed"}], "id": "5617500007", "name": "USPS COLLECTION BOX - PO LOBBY", "address": {"city": "GARVIN", "state": "MN", "street": "100 3RD ST", "postcode": "56175"}}},
{"geometry": {"type": "Point", "coordinates": [-94.7177928686, 43.7620399337]}, "type": "Feature", "properties": {"collection_times": [{"days": "Mon-Sat", "time": "12:00pm"}, {"days": "Sun", "time": "Closed"}], "id": "5617600000", "name": "USPS COLLECTION BOX - BLUE BOX", "address": {"city": "TRIMONT", "state": "MN", "street": "181 MAIN ST W", "postcode": "56176"}}},
{"geometry": {"type": "Point", "coordinates": [-94.7144173021, 43.7620302327]}, "type": "Feature", "properties": {"collection_times": [{"days": "Mon-Fri", "time": "11:45am"}, {"days": "Sat", "time": "9:30am"}, {"days": "Sun", "time": "Closed"}], "id": "5617600001", "name": "USPS COLLECTION BOX - BLUE BOX", "address": {"city": "TRIMONT", "state": "MN", "street": "11 MAIN ST E", "postcode": "56176"}}},
{"geometry": {"type": "Point", "coordinates": [-94.7144173021, 43.7620302327]}, "type": "Feature", "properties": {"collection_times": [{"days": "Mon-Fri", "time": "11:45am"}, {"days": "Sat", "time": "9:30am"}, {"days": "Sun", "time": "Closed"}], "id": "5617600002", "name": "USPS COLLECTION BOX - PO LOBBY", "address": {"city": "TRIMONT", "state": "MN", "street": "11 MAIN ST E", "postcode": "56176"}}},
{"geometry": {"type": "Point", "coordinates": [-96.134633493, 44.279254182]}, "type": "Feature", "properties": {"collection_times": [{"days": "Mon-Sat", "time": "11:45am"}, {"days": "Sun", "time": "Closed"}], "id": "5617800000", "name": "USPS COLLECTION BOX - BLUE BOX", "address": {"city": "TYLER", "state": "MN", "street": "263 N TYLER ST", "postcode": "56178"}}},
{"geometry": {"type": "Point", "coordinates": [-96.134633493, 44.279254182]}, "type": "Feature", "properties": {"collection_times": [{"days": "Mon-Fri", "time": "11:45am"}, {"days": "Sat", "time": "9:30am"}, {"days": "Sun", "time": "Closed"}], "id": "5617800001", "name": "USPS COLLECTION BOX - PO LOBBY", "address": {"city": "TYLER", "state": "MN", "street": "263 N TYLER ST", "postcode": "56178"}}},
{"geometry": {"type": "Point", "coordinates": [-95.4699031504, 44.2231414531]}, "type": "Feature", "properties": {"collection_times": [{"days": "Mon-Sat", "time": "12:15pm"}, {"days": "Sun", "time": "Closed"}], "id": "5618000000", "name": "USPS COLLECTION BOX - BLUE BOX", "address": {"city": "WALNUT GROVE", "state": "MN", "street": "610 MAIN ST", "postcode": "56180"}}},
{"geometry": {"type": "Point", "coordinates": [-95.4699031504, 44.2231414531]}, "type": "Feature", "properties": {"collection_times": [{"days": "Mon-Fri", "time": "12:15pm"}, {"days": "Sat", "time": "9:30am"}, {"days": "Sun", "time": "Closed"}], "id": "5618000001", "name": "USPS COLLECTION BOX - PO LOBBY", "address": {"city": "WALNUT GROVE", "state": "MN", "street": "610 MAIN ST", "postcode": "56180"}}},
{"geometry": {"type": "Point", "coordinates": [-94.6196433985, 43.6672254017]}, "type": "Feature", "properties": {"collection_times": [{"days": "Mon-Sat", "time": "11:45am"}, {"days": "Sun", "time": "Closed"}], "id": "5618100000", "name": "USPS COLLECTION BOX - BLUE BOX", "address": {"city": "WELCOME", "state": "MN", "street": "113 DUGAN ST N", "postcode": "56181"}}},
{"geometry": {"type": "Point", "coordinates": [-94.6196433985, 43.6672254017]}, "type": "Feature", "properties": {"collection_times": [{"days": "Mon-Fri", "time": "11:45am"}, {"days": "Sat", "time": "9:30am"}, {"days": "Sun", "time": "Closed"}], "id": "5618100001", "name": "USPS COLLECTION BOX - PO LOBBY", "address": {"city": "WELCOME", "state": "MN", "street": "113 DUGAN ST N", "postcode": "56181"}}},
{"geometry": {"type": "Point", "coordinates": [-95.4341197273, 44.0420710157]}, "type": "Feature", "properties": {"collection_times": [{"days": "Mon-Sat", "time": "1:30pm"}, {"days": "Sun", "time": "Closed"}], "id": "5618300000", "name": "USPS COLLECTION BOX - BLUE BOX", "address": {"city": "WESTBROOK", "state": "MN", "street": "734 6TH ST", "postcode": "56183"}}},
{"geometry": {"type": "Point", "coordinates": [-95.4341197273, 44.0420710157]}, "type": "Feature", "properties": {"collection_times": [{"days": "Mon-Fri", "time": "1:30pm"}, {"days": "Sat", "time": "9:15am"}, {"days": "Sun", "time": "Closed"}], "id": "5618300002", "name": "USPS COLLECTION BOX - PO LOBBY", "address": {"city": "WESTBROOK", "state": "MN", "street": "734 6TH ST", "postcode": "56183"}}},
{"geometry": {"type": "Point", "coordinates": [-95.8277911563, 43.7655397494]}, "type": "Feature", "properties": {"collection_times": [{"days": "Mon-Sat", "time": "12:45pm"}, {"days": "Sun", "time": "Closed"}], "id": "5618500000", "name": "USPS COLLECTION BOX - BLUE BOX", "address": {"city": "WILMONT", "state": "MN", "street": "315 N 4TH AVE", "postcode": "56185"}}},
{"geometry": {"type": "Point", "coordinates": [-95.8277911563, 43.7655397494]}, "type": "Feature", "properties": {"collection_times": [{"days": "Mon-Fri", "time": "11:45am"}, {"days": "Sat", "time": "8:45am"}, {"days": "Sun", "time": "Closed"}], "id": "5618500001", "name": "USPS COLLECTION BOX - PO LOBBY", "address": {"city": "WILMONT", "state": "MN", "street": "315 N 4TH AVE", "postcode": "56185"}}},
{"geometry": {"type": "Point", "coordinates": [-96.1009850411, 44.0093373496]}, "type": "Feature", "properties": {"collection_times": [{"days": "Mon-Sat", "time": "12:30pm"}, {"days": "Sun", "time": "Closed"}], "id": "5618600000", "name": "USPS COLLECTION BOX - BLUE BOX", "address": {"city": "WOODSTOCK", "state": "MN", "street": "209 MAIN ST N", "postcode": "56186"}}},
{"geometry": {"type": "Point", "coordinates": [-96.1009850411, 44.0093373496]}, "type": "Feature", "properties": {"collection_times": [{"days": "Mon-Fri", "time": "12:30pm"}, {"days": "Sat", "time": "11:15am"}, {"days": "Sun", "time": "Closed"}], "id": "5618600001", "name": "USPS COLLECTION BOX - PO LOBBY", "address": {"city": "WOODSTOCK", "state": "MN", "street": "209 MAIN ST N", "postcode": "56186"}}},
{"geometry": {"type": "Point", "coordinates": [-95.6020810978, 43.624188461]}, "type": "Feature", "properties": {"collection_times": [{"days": "Mon-Sat", "time": "2:00pm"}, {"days": "Sun", "time": "Closed"}], "id": "5618700000", "name": "USPS COLLECTION BOX - BLUE BOX", "address": {"city": "WORTHINGTON", "state": "MN", "street": "850 10TH ST", "postcode": "56187"}}},
{"geometry": {"type": "Point", "coordinates": [-95.6020810978, 43.624188461]}, "type": "Feature", "properties": {"collection_times": [{"days": "Mon-Sat", "time": "2:00pm"}, {"days": "Sun", "time": "Closed"}], "id": "5618700001", "name": "USPS COLLECTION BOX - BLUE BOX", "address": {"city": "WORTHINGTON", "state": "MN", "street": "850 10TH ST", "postcode": "56187"}}},
{"geometry": {"type": "Point", "coordinates": [-95.6020810978, 43.624188461]}, "type": "Feature", "properties": {"collection_times": [{"days": "Mon-Sat", "time": "2:00pm"}, {"days": "Sun", "time": "Closed"}], "id": "5618700002", "name": "USPS COLLECTION BOX - BLUE BOX", "address": {"city": "WORTHINGTON", "state": "MN", "street": "850 10TH ST", "postcode": "56187"}}},
{"geometry": {"type": "Point", "coordinates": [-95.5940891456, 43.6356154567]}, "type": "Feature", "properties": {"collection_times": [{"days": "Mon-Sat", "time": "12:45pm"}, {"days": "Sun", "time": "Closed"}], "id": "5618700006", "name": "USPS COLLECTION BOX - BLUE BOX", "address": {"city": "WORTHINGTON", "state": "MN", "street": "1755 N HUMISTON AVE", "postcode": "56187"}}},
{"geometry": {"type": "Point", "coordinates": [-95.5935345612, 43.6313130824]}, "type": "Feature", "properties": {"collection_times": [{"days": "Mon-Sat", "time": "12:45pm"}, {"days": "Sun", "time": "Closed"}], "id": "5618700008", "name": "USPS COLLECTION BOX - BLUE BOX", "address": {"city": "WORTHINGTON", "state": "MN", "street": "1401 OXFORD ST", "postcode": "56187"}}},
{"geometry": {"type": "Point", "coordinates": [-95.5861312259, 43.6312109135]}, "type": "Feature", "properties": {"collection_times": [{"days": "Mon-Sat", "time": "1:00pm"}, {"days": "Sun", "time": "Closed"}], "id": "5618700012", "name": "USPS COLLECTION BOX - BLUE BOX", "address": {"city": "WORTHINGTON", "state": "MN", "street": "1235 OXFORD ST", "postcode": "56187"}}},
{"geometry": {"type": "Point", "coordinates": [-95.6020810978, 43.624188461]}, "type": "Feature", "properties": {"collection_times": [{"days": "Mon-Sat", "time": "2:00pm"}, {"days": "Sun", "time": "Closed"}], "id": "5618700014", "name": "USPS COLLECTION BOX - PO LOBBY", "address": {"city": "WORTHINGTON", "state": "MN", "street": "850 10TH ST", "postcode": "56187"}}},
{"geometry": {"type": "Point", "coordinates": [-95.6020810978, 43.624188461]}, "type": "Feature", "properties": {"collection_times": [{"days": "Mon-Sat", "time": "2:00pm"}, {"days": "Sun", "time": "Closed"}], "id": "5618700016", "name": "USPS COLLECTION BOX - PO LOBBY", "address": {"city": "WORTHINGTON", "state": "MN", "street": "850 10TH ST", "postcode": "56187"}}},
{"geometry": {"type": "Point", "coordinates": [-95.6020810978, 43.624188461]}, "type": "Feature", "properties": {"collection_times": [{"days": "Mon-Sat", "time": "2:00pm"}, {"days": "Sun", "time": "Closed"}], "id": "5618700020", "name": "USPS COLLECTION BOX - BLUE BOX", "address": {"city": "WORTHINGTON", "state": "MN", "street": "850 10TH ST", "postcode": "56187"}}},
{"geometry": {"type": "Point", "coordinates": [-95.6020810978, 43.624188461]}, "type": "Feature", "properties": {"collection_times": [{"days": "Mon-Sat", "time": "2:00pm"}, {"days": "Sun", "time": "Closed"}], "id": "5618700023", "name": "USPS COLLECTION BOX - BLUE BOX", "address": {"city": "WORTHINGTON", "state": "MN", "street": "850 10TH ST", "postcode": "56187"}}},
{"geometry": {"type": "Point", "coordinates": [-95.5972853053, 43.6349093196]}, "type": "Feature", "properties": {"collection_times": [{"days": "Mon-Sat", "time": "12:45pm"}, {"days": "Sun", "time": "Closed"}], "id": "5618700024", "name": "USPS COLLECTION BOX - BLUE BOX", "address": {"city": "WORTHINGTON", "state": "MN", "street": "1055 RYANS RD", "postcode": "56187"}}}
]}
