{"type": "FeatureCollection", "features": [
{"geometry": {"type": "Point", "coordinates": [-95.0493435238, 45.1200686877]}, "type": "Feature", "properties": {"collection_times": [{"days": "Mon-Sat", "time": "3:30pm"}, {"days": "Sun", "time": "Closed"}], "id": "5620100004", "name": "USPS COLLECTION BOX - BLUE BOX", "address": {"city": "WILLMAR", "state": "MN", "street": "505 BECKER AVE SW", "postcode": "56201"}}},
{"geometry": {"type": "Point", "coordinates": [-95.0429134558, 45.1063601829]}, "type": "Feature", "properties": {"collection_times": [{"days": "Mon-Sat", "time": "3:45pm"}, {"days": "Sun", "time": "Closed"}], "id": "5620100012", "name": "USPS COLLECTION BOX - BLUE BOX", "address": {"city": "WILLMAR", "state": "MN", "street": "1604 1ST ST S", "postcode": "56201"}}},
{"geometry": {"type": "Point", "coordinates": [-95.0424960789, 45.0980085958]}, "type": "Feature", "properties": {"collection_times": [{"days": "Mon-Sat", "time": "3:45pm"}, {"days": "Sun", "time": "Closed"}], "id": "5620100013", "name": "USPS COLLECTION BOX - BLUE BOX", "address": {"city": "WILLMAR", "state": "MN", "street": "2505 1ST ST S", "postcode": "56201"}}},
{"geometry": {"type": "Point", "coordinates": [-95.0426102747, 45.1063719391]}, "type": "Feature", "properties": {"collection_times": [{"days": "Mon-Sat", "time": "4:00pm"}, {"days": "Sun", "time": "Closed"}], "id": "5620100014", "name": "USPS COLLECTION BOX - BLUE BOX", "address": {"city": "WILLMAR", "state": "MN", "street": "1605 1ST ST S", "postcode": "56201"}}},
{"geometry": {"type": "Point", "coordinates": [-95.047556379, 45.1191256622]}, "type": "Feature", "properties": {"collection_times": [{"days": "Mon-Sat", "time": "4:45pm"}, {"days": "Sun", "time": "Closed"}], "id": "5620100019", "name": "USPS COLLECTION BOX - BLUE BOX", "address": {"city": "WILLMAR", "state": "MN", "street": "401 TROTT AVE SW", "postcode": "56201"}}},
{"geometry": {"type": "Point", "coordinates": [-95.0150841793, 45.1248365289]}, "type": "Feature", "properties": {"collection_times": [{"days": "Mon-Sat", "time": "3:30pm"}, {"days": "Sun", "time": "Closed"}], "id": "5620100021", "name": "USPS COLLECTION BOX - BLUE BOX", "address": {"city": "WILLMAR", "state": "MN", "street": "2100 HIGHWAY 12 E", "postcode": "56201"}}},
{"geometry": {"type": "Point", "coordinates": [-95.047556379, 45.1191256622]}, "type": "Feature", "properties": {"collection_times": [{"days": "Mon-Sat", "time": "4:45pm"}, {"days": "Sun", "time": "Closed"}], "id": "5620100026", "name": "USPS COLLECTION BOX - PO LOBBY", "address": {"city": "WILLMAR", "state": "MN", "street": "401 TROTT AVE SW", "postcode": "56201"}}},
{"geometry": {"type": "Point", "coordinates": [-95.047556379, 45.1191256622]}, "type": "Feature", "properties": {"collection_times": [{"days": "Mon-Sat", "time": "4:45pm"}, {"days": "Sun", "time": "Closed"}], "id": "5620100027", "name": "USPS COLLECTION BOX - PO LOBBY", "address": {"city": "WILLMAR", "state": "MN", "street": "401 TROTT AVE SW", "postcode": "56201"}}},
{"geometry": {"type": "Point", "coordinates": [-95.0483156533, 45.1220867009]}, "type": "Feature", "properties": {"collection_times": [{"days": "Mon-Sat", "time": "3:30pm"}, {"days": "Sun", "time": "Closed"}], "id": "5620100028", "name": "USPS COLLECTION BOX - BLUE BOX", "address": {"city": "WILLMAR", "state": "MN", "street": "400 BENSON AVE SW", "postcode": "56201"}}},
{"geometry": {"type": "Point", "coordinates": [-95.0375214231, 45.1276448745]}, "type": "Feature", "properties": {"collection_times": [{"days": "Mon-Sat", "time": "3:15pm"}, {"days": "Sun", "time": "Closed"}], "id": "5620100029", "name": "USPS COLLECTION BOX - BLUE BOX", "address": {"city": "WILLMAR", "state": "MN", "street": "618 HIGHWAY 71 NE", "postcode": "56201"}}},
{"geometry": {"type": "Point", "coordinates": [-95.0497468884, 45.1217491222]}, "type": "Feature", "properties": {"collection_times": [{"days": "Mon-Sat", "time": "3:30pm"}, {"days": "Sun", "time": "Closed"}], "id": "5620100033", "name": "USPS COLLECTION BOX - BLUE BOX", "address": {"city": "WILLMAR", "state": "MN", "street": "212 5TH ST SW", "postcode": "56201"}}},
{"geometry": {"type": "Point", "coordinates": [-95.0425355969, 45.1008471897]}, "type": "Feature", "properties": {"collection_times": [{"days": "Mon-Sat", "time": "3:45pm"}, {"days": "Sun", "time": "Closed"}], "id": "5620100034", "name": "USPS COLLECTION BOX - BLUE BOX", "address": {"city": "WILLMAR", "state": "MN", "street": "2201 1ST ST S", "postcode": "56201"}}},
{"geometry": {"type": "Point", "coordinates": [-95.0093777128, 45.1410266018]}, "type": "Feature", "properties": {"collection_times": [{"days": "Mon-Fri", "time": "3:15pm"}, {"days": "Sat-Sun", "time": "Closed"}], "id": "5620100036", "name": "USPS COLLECTION BOX - BLUE BOX", "address": {"city": "WILLMAR", "state": "MN", "street": "2200 23RD ST NE", "postcode": "56201"}}},
{"geometry": {"type": "Point", "coordinates": [-95.0164181616, 45.1430183712]}, "type": "Feature", "properties": {"collection_times": [{"days": "Mon-Fri", "time": "3:15pm"}, {"days": "Sat-Sun", "time": "Closed"}], "id": "5620100041", "name": "USPS COLLECTION BOX - BLUE BOX", "address": {"city": "WILLMAR", "state": "MN", "street": "1800 TECHNOLOGY DR NE", "postcode": "56201"}}},
{"geometry": {"type": "Point", "coordinates": [-95.0094723201, 45.1409396]}, "type": "Feature", "properties": {"collection_times": [{"days": "Mon-Fri", "time": "3:15pm"}, {"days": "Sat-Sun", "time": "Closed"}], "id": "5620100044", "name": "USPS COLLECTION BOX - BLUE BOX", "address": {"city": "WILLMAR", "state": "MN", "street": "2201 23RD ST NE", "postcode": "56201"}}},
{"geometry": {"type": "Point", "coordinates": [-95.0350673988, 45.1032636447]}, "type": "Feature", "properties": {"collection_times": [{"days": "Mon-Sat", "time": "3:45pm"}, {"days": "Sun", "time": "Closed"}], "id": "5620100045", "name": "USPS COLLECTION BOX - BLUE BOX", "address": {"city": "WILLMAR", "state": "MN", "street": "700 19TH AVE SE", "postcode": "56201"}}},
{"geometry": {"type": "Point", "coordinates": [-95.070067884, 45.117917228]}, "type": "Feature", "properties": {"collection_times": [{"days": "Mon-Fri", "time": "4:00pm"}, {"days": "Sat", "time": "3:15pm"}, {"days": "Sun", "time": "Closed"}], "id": "5620100046", "name": "USPS COLLECTION BOX - BLUE BOX", "address": {"city": "WILLMAR", "state": "MN", "street": "1901 TROTT AVE SW", "postcode": "56201"}}},
{"geometry": {"type": "Point", "coordinates": [-96.0476045065, 45.5732468503]}, "type": "Feature", "properties": {"collection_times": [{"days": "Mon-Sat", "time": "2:15pm"}, {"days": "Sun", "time": "Closed"}], "id": "5620700000", "name": "USPS COLLECTION BOX - BLUE BOX", "address": {"city": "ALBERTA", "state": "MN", "street": "303 MAIN ST", "postcode": "56207"}}},
{"geometry": {"type": "Point", "coordinates": [-96.0476045065, 45.5732468503]}, "type": "Feature", "properties": {"collection_times": [{"days": "Mon-Fri", "time": "2:15pm"}, {"days": "Sat", "time": "1:15pm"}, {"days": "Sun", "time": "Closed"}], "id": "5620700001", "name": "USPS COLLECTION BOX - PO LOBBY", "address": {"city": "ALBERTA", "state": "MN", "street": "303 MAIN ST", "postcode": "56207"}}},
{"geometry": {"type": "Point", "coordinates": [-96.0180769542, 45.2018941283]}, "type": "Feature", "properties": {"collection_times": [{"days": "Mon-Fri", "time": "1:45pm"}, {"days": "Sat", "time": "10:30am"}, {"days": "Sun", "time": "Closed"}], "id": "5620800000", "name": "USPS COLLECTION BOX - BLUE BOX", "address": {"city": "APPLETON", "state": "MN", "street": "42 W SORENSON AVE", "postcode": "56208"}}},
{"geometry": {"type": "Point", "coordinates": [-96.0180769542, 45.2018941283]}, "type": "Feature", "properties": {"collection_times": [{"days": "Mon-Fri", "time": "1:45pm"}, {"days": "Sat", "time": "10:30am"}, {"days": "Sun", "time": "Closed"}], "id": "5620800004", "name": "USPS COLLECTION BOX - PO LOBBY", "address": {"city": "APPLETON", "state": "MN", "street": "42 W SORENSON AVE", "postcode": "56208"}}},
{"geometry": {"type": "Point", "coordinates": [-94.7808159329, 45.1372125499]}, "type": "Feature", "properties": {"collection_times": [{"days": "Mon-Sat", "time": "2:45pm"}, {"days": "Sun", "time": "Closed"}], "id": "5620900000", "name": "USPS COLLECTION BOX - BLUE BOX", "address": {"city": "ATWATER", "state": "MN", "street": "107 3RD ST N", "postcode": "56209"}}},
{"geometry": {"type": "Point", "coordinates": [-94.7808159329, 45.1372125499]}, "type": "Feature", "properties": {"collection_times": [{"days": "Mon-Fri", "time": "2:45pm"}, {"days": "Sat", "time": "9:00am"}, {"days": "Sun", "time": "Closed"}], "id": "5620900001", "name": "USPS COLLECTION BOX - PO LOBBY", "address": {"city": "ATWATER", "state": "MN", "street": "107 3RD ST N", "postcode": "56209"}}},
{"geometry": {"type": "Point", "coordinates": [-96.7123639049, 45.5583490928]}, "type": "Feature", "properties": {"collection_times": [{"days": "Mon-Sat", "time": "1:30pm"}, {"days": "Sun", "time": "Closed"}], "id": "5621100000", "name": "USPS COLLECTION BOX - BLUE BOX", "address": {"city": "BEARDSLEY", "state": "MN", "street": "116 MAIN ST N", "postcode": "56211"}}},
{"geometry": {"type": "Point", "coordinates": [-96.7123639049, 45.5583490928]}, "type": "Feature", "properties": {"collection_times": [{"days": "Mon-Fri", "time": "11:30am"}, {"days": "Sat-Sun", "time": "Closed"}], "id": "5621100001", "name": "USPS COLLECTION BOX - PO LOBBY", "address": {"city": "BEARDSLEY", "state": "MN", "street": "116 MAIN ST N", "postcode": "56211"}}},
{"geometry": {"type": "Point", "coordinates": [-96.3383914311, 45.1801797925]}, "type": "Feature", "properties": {"collection_times": [{"days": "Mon-Sat", "time": "12:45pm"}, {"days": "Sun", "time": "Closed"}], "id": "5621200000", "name": "USPS COLLECTION BOX - BLUE BOX", "address": {"city": "BELLINGHAM", "state": "MN", "street": "305 2ND ST S", "postcode": "56212"}}},
{"geometry": {"type": "Point", "coordinates": [-96.3383914311, 45.1801797925]}, "type": "Feature", "properties": {"collection_times": [{"days": "Mon-Fri", "time": "12:45pm"}, {"days": "Sat", "time": "11:30am"}, {"days": "Sun", "time": "Closed"}], "id": "5621200001", "name": "USPS COLLECTION BOX - PO LOBBY", "address": {"city": "BELLINGHAM", "state": "MN", "street": "305 2ND ST S", "postcode": "56212"}}},
{"geometry": {"type": "Point", "coordinates": [-95.3296335365, 44.6054162228]}, "type": "Feature", "properties": {"collection_times": [{"days": "Mon-Sat", "time": "1:30pm"}, {"days": "Sun", "time": "Closed"}], "id": "5621400001", "name": "USPS COLLECTION BOX - BLUE BOX", "address": {"city": "BELVIEW", "state": "MN", "street": "101 N MAIN ST", "postcode": "56214"}}},
{"geometry": {"type": "Point", "coordinates": [-95.3296335365, 44.6054162228]}, "type": "Feature", "properties": {"collection_times": [{"days": "Mon-Fri", "time": "11:30am"}, {"days": "Sat", "time": "9:15am"}, {"days": "Sun", "time": "Closed"}], "id": "5621400002", "name": "USPS COLLECTION BOX - PO LOBBY", "address": {"city": "BELVIEW", "state": "MN", "street": "101 N MAIN ST", "postcode": "56214"}}},
{"geometry": {"type": "Point", "coordinates": [-95.602015066, 45.3144542942]}, "type": "Feature", "properties": {"collection_times": [{"days": "Mon-Sat", "time": "12:15pm"}, {"days": "Sun", "time": "Closed"}], "id": "5621500000", "name": "USPS COLLECTION BOX - BLUE BOX", "address": {"city": "BENSON", "state": "MN", "street": "1317 PACIFIC AVE", "postcode": "56215"}}},
{"geometry": {"type": "Point", "coordinates": [-95.6001860519, 45.3122478475]}, "type": "Feature", "properties": {"collection_times": [{"days": "Mon-Sat", "time": "12:00pm"}, {"days": "Sun", "time": "Closed"}], "id": "5621500001", "name": "USPS COLLECTION BOX - BLUE BOX", "address": {"city": "BENSON", "state": "MN", "street": "200 12TH ST S", "postcode": "56215"}}},
{"geometry": {"type": "Point", "coordinates": [-95.6137152941, 45.3108806285]}, "type": "Feature", "properties": {"collection_times": [{"days": "Mon-Sat", "time": "12:00pm"}, {"days": "Sun", "time": "Closed"}], "id": "5621500003", "name": "USPS COLLECTION BOX - BLUE BOX", "address": {"city": "BENSON", "state": "MN", "street": "2002 MINNESOTA AVE", "postcode": "56215"}}},
{"geometry": {"type": "Point", "coordinates": [-95.6009663695, 45.3162469438]}, "type": "Feature", "properties": {"collection_times": [{"days": "Mon-Fri", "time": "2:45pm"}, {"days": "Sat", "time": "10:00am"}, {"days": "Sun", "time": "Closed"}], "id": "5621500004", "name": "USPS COLLECTION BOX - BLUE BOX", "address": {"city": "BENSON", "state": "MN", "street": "220 14TH ST N", "postcode": "56215"}}},
{"geometry": {"type": "Point", "coordinates": [-95.6009663695, 45.3162469438]}, "type": "Feature", "properties": {"collection_times": [{"days": "Mon-Fri", "time": "2:45pm"}, {"days": "Sat", "time": "10:00am"}, {"days": "Sun", "time": "Closed"}], "id": "5621500006", "name": "USPS COLLECTION BOX - PO LOBBY", "address": {"city": "BENSON", "state": "MN", "street": "220 14TH ST N", "postcode": "56215"}}},
{"geometry": {"type": "Point", "coordinates": [-95.0235632768, 44.9426647987]}, "type": "Feature", "properties": {"collection_times": [{"days": "Mon-Sat", "time": "1:15pm"}, {"days": "Sun", "time": "Closed"}], "id": "5621600000", "name": "USPS COLLECTION BOX - BLUE BOX", "address": {"city": "BLOMKEST", "state": "MN", "street": "2 NW MAIN ST", "postcode": "56216"}}},
{"geometry": {"type": "Point", "coordinates": [-95.0235632768, 44.9426647987]}, "type": "Feature", "properties": {"collection_times": [{"days": "Mon-Fri", "time": "1:15pm"}, {"days": "Sat", "time": "9:00am"}, {"days": "Sun", "time": "Closed"}], "id": "5621600001", "name": "USPS COLLECTION BOX - PO LOBBY", "address": {"city": "BLOMKEST", "state": "MN", "street": "2 NW MAIN ST", "postcode": "56216"}}},
{"geometry": {"type": "Point", "coordinates": [-95.903092319, 44.8470275304]}, "type": "Feature", "properties": {"collection_times": [{"days": "Mon-Sat", "time": "1:30pm"}, {"days": "Sun", "time": "Closed"}], "id": "5621800000", "name": "USPS COLLECTION BOX - BLUE BOX", "address": {"city": "BOYD MN", "state": "MN", "street": "112 3RD ST", "postcode": "56218"}}},
{"geometry": {"type": "Point", "coordinates": [-95.903092319, 44.8470275304]}, "type": "Feature", "properties": {"collection_times": [{"days": "Mon-Fri", "time": "11:30am"}, {"days": "Sat-Sun", "time": "Closed"}], "id": "5621800001", "name": "USPS COLLECTION BOX - PO LOBBY", "address": {"city": "BOYD MN", "state": "MN", "street": "112 3RD ST", "postcode": "56218"}}},
{"geometry": {"type": "Point", "coordinates": [-96.8327333373, 45.5953504214]}, "type": "Feature", "properties": {"collection_times": [{"days": "Mon-Sat", "time": "1:00pm"}, {"days": "Sun", "time": "Closed"}], "id": "5621900000", "name": "USPS COLLECTION BOX - BLUE BOX", "address": {"city": "BROWNS VALLEY", "state": "MN", "street": "314 W BROADWAY", "postcode": "56219"}}},
{"geometry": {"type": "Point", "coordinates": [-96.8327333373, 45.5953504214]}, "type": "Feature", "properties": {"collection_times": [{"days": "Mon-Fri", "time": "1:00pm"}, {"days": "Sat", "time": "10:15am"}, {"days": "Sun", "time": "Closed"}], "id": "5621900001", "name": "USPS COLLECTION BOX - PO LOBBY", "address": {"city": "BROWNS VALLEY", "state": "MN", "street": "314 W BROADWAY", "postcode": "56219"}}},
{"geometry": {"type": "Point", "coordinates": [-96.2750336101, 44.7097932032]}, "type": "Feature", "properties": {"collection_times": [{"days": "Mon-Fri", "time": "1:00pm"}, {"days": "Sat", "time": "10:00am"}, {"days": "Sun", "time": "Closed"}], "id": "5622000003", "name": "USPS COLLECTION BOX - BLUE BOX", "address": {"city": "CANBY", "state": "MN", "street": "220 SAINT OLAF AVE N", "postcode": "56220"}}},
{"geometry": {"type": "Point", "coordinates": [-96.2750336101, 44.7097932032]}, "type": "Feature", "properties": {"collection_times": [{"days": "Mon-Fri", "time": "1:00pm"}, {"days": "Sat-Sun", "time": "Closed"}], "id": "5622000004", "name": "USPS COLLECTION BOX - PO LOBBY", "address": {"city": "CANBY", "state": "MN", "street": "220 SAINT OLAF AVE N", "postcode": "56220"}}},
{"geometry": {"type": "Point", "coordinates": [-96.1739377003, 45.5755804026]}, "type": "Feature", "properties": {"collection_times": [{"days": "Mon-Sat", "time": "2:00pm"}, {"days": "Sun", "time": "Closed"}], "id": "5622100000", "name": "USPS COLLECTION BOX - BLUE BOX", "address": {"city": "CHOKIO", "state": "MN", "street": "122 MAIN ST", "postcode": "56221"}}},
{"geometry": {"type": "Point", "coordinates": [-96.1739377003, 45.5755804026]}, "type": "Feature", "properties": {"collection_times": [{"days": "Mon-Fri", "time": "2:00pm"}, {"days": "Sat", "time": "10:00am"}, {"days": "Sun", "time": "Closed"}], "id": "5622100001", "name": "USPS COLLECTION BOX - PO LOBBY", "address": {"city": "CHOKIO", "state": "MN", "street": "122 MAIN ST", "postcode": "56221"}}},
{"geometry": {"type": "Point", "coordinates": [-95.3697258866, 44.9545970407]}, "type": "Feature", "properties": {"collection_times": [{"days": "Mon-Sat", "time": "3:00pm"}, {"days": "Sun", "time": "Closed"}], "id": "5622200000", "name": "USPS COLLECTION BOX - BLUE BOX", "address": {"city": "CLARA CITY", "state": "MN", "street": "218 CENTER AVE NW", "postcode": "56222"}}},
{"geometry": {"type": "Point", "coordinates": [-95.3697258866, 44.9545970407]}, "type": "Feature", "properties": {"collection_times": [{"days": "Mon-Fri", "time": "3:00pm"}, {"days": "Sat", "time": "9:30am"}, {"days": "Sun", "time": "Closed"}], "id": "5622200001", "name": "USPS COLLECTION BOX - PO LOBBY", "address": {"city": "CLARA CITY", "state": "MN", "street": "218 CENTER AVE NW", "postcode": "56222"}}},
{"geometry": {"type": "Point", "coordinates": [-95.8049918179, 44.7906647443]}, "type": "Feature", "properties": {"collection_times": [{"days": "Mon-Sat", "time": "2:00pm"}, {"days": "Sun", "time": "Closed"}], "id": "5622300000", "name": "USPS COLLECTION BOX - BLUE BOX", "address": {"city": "CLARKFIELD", "state": "MN", "street": "1043 10TH AVE", "postcode": "56223"}}},
{"geometry": {"type": "Point", "coordinates": [-95.8049918179, 44.7906647443]}, "type": "Feature", "properties": {"collection_times": [{"days": "Mon-Fri", "time": "1:45pm"}, {"days": "Sat", "time": "10:00am"}, {"days": "Sun", "time": "Closed"}], "id": "5622300002", "name": "USPS COLLECTION BOX - PO LOBBY", "address": {"city": "CLARKFIELD", "state": "MN", "street": "1043 10TH AVE", "postcode": "56223"}}},
{"geometry": {"type": "Point", "coordinates": [-95.0530345719, 44.3794747156]}, "type": "Feature", "properties": {"collection_times": [{"days": "Mon-Sat", "time": "1:45pm"}, {"days": "Sun", "time": "Closed"}], "id": "5622400000", "name": "USPS COLLECTION BOX - BLUE BOX", "address": {"city": "CLEMENTS", "state": "MN", "street": "10 PINE ST", "postcode": "56224"}}},
{"geometry": {"type": "Point", "coordinates": [-96.4352074907, 45.460115882]}, "type": "Feature", "properties": {"collection_times": [{"days": "Mon-Sat", "time": "12:45pm"}, {"days": "Sun", "time": "Closed"}], "id": "5622500000", "name": "USPS COLLECTION BOX - BLUE BOX", "address": {"city": "CLINTON", "state": "MN", "street": "200 MAIN ST", "postcode": "56225"}}},
{"geometry": {"type": "Point", "coordinates": [-96.4352074907, 45.460115882]}, "type": "Feature", "properties": {"collection_times": [{"days": "Mon-Fri", "time": "12:45pm"}, {"days": "Sat", "time": "9:30am"}, {"days": "Sun", "time": "Closed"}], "id": "5622500001", "name": "USPS COLLECTION BOX - PO LOBBY", "address": {"city": "CLINTON", "state": "MN", "street": "200 MAIN ST", "postcode": "56225"}}},
{"geometry": {"type": "Point", "coordinates": [-95.6778392313, 45.3762725003]}, "type": "Feature", "properties": {"collection_times": [{"days": "Mon-Sat", "time": "3:00pm"}, {"days": "Sun", "time": "Closed"}], "id": "5622600000", "name": "USPS COLLECTION BOX - BLUE BOX", "address": {"city": "CLONTARF", "state": "MN", "street": "121 GRACE AVE", "postcode": "56226"}}},
{"geometry": {"type": "Point", "coordinates": [-95.6778392313, 45.3762725003]}, "type": "Feature", "properties": {"collection_times": [{"days": "Mon-Fri", "time": "1:30pm"}, {"days": "Sat", "time": "11:30am"}, {"days": "Sun", "time": "Closed"}], "id": "5622600001", "name": "USPS COLLECTION BOX - PO LOBBY", "address": {"city": "CLONTARF", "state": "MN", "street": "121 GRACE AVE", "postcode": "56226"}}},
{"geometry": {"type": "Point", "coordinates": [-96.1760866344, 45.3055399165]}, "type": "Feature", "properties": {"collection_times": [{"days": "Mon-Sat", "time": "1:45pm"}, {"days": "Sun", "time": "Closed"}], "id": "5622700000", "name": "USPS COLLECTION BOX - BLUE BOX", "address": {"city": "CORRELL", "state": "MN", "street": "110 COUNTY ROAD 25 N", "postcode": "56227"}}},
{"geometry": {"type": "Point", "coordinates": [-96.1760866344, 45.3055399165]}, "type": "Feature", "properties": {"collection_times": [{"days": "Mon-Fri", "time": "10:30am"}, {"days": "Sat", "time": "9:45am"}, {"days": "Sun", "time": "Closed"}], "id": "5622700001", "name": "USPS COLLECTION BOX - PO LOBBY", "address": {"city": "CORRELL", "state": "MN", "street": "110 COUNTY ROAD 25 N", "postcode": "56227"}}},
{"geometry": {"type": "Point", "coordinates": [-94.6965351901, 44.9350670014]}, "type": "Feature", "properties": {"collection_times": [{"days": "Mon-Sat", "time": "2:00pm"}, {"days": "Sun", "time": "Closed"}], "id": "5622800000", "name": "USPS COLLECTION BOX - BLUE BOX", "address": {"city": "COSMOS", "state": "MN", "street": "235 MILKYWAY ST S", "postcode": "56228"}}},
{"geometry": {"type": "Point", "coordinates": [-94.6965351901, 44.9350670014]}, "type": "Feature", "properties": {"collection_times": [{"days": "Mon-Fri", "time": "1:30pm"}, {"days": "Sat", "time": "9:30am"}, {"days": "Sun", "time": "Closed"}], "id": "5622800001", "name": "USPS COLLECTION BOX - PO LOBBY", "address": {"city": "COSMOS", "state": "MN", "street": "235 MILKYWAY ST S", "postcode": "56228"}}},
{"geometry": {"type": "Point", "coordinates": [-95.6738558472, 44.6088784946]}, "type": "Feature", "properties": {"collection_times": [{"days": "Mon-Sat", "time": "2:30pm"}, {"days": "Sun", "time": "Closed"}], "id": "5622900000", "name": "USPS COLLECTION BOX - BLUE BOX", "address": {"city": "COTTONWOOD", "state": "MN", "street": "106 W MAIN ST", "postcode": "56229"}}},
{"geometry": {"type": "Point", "coordinates": [-95.6738558472, 44.6088784946]}, "type": "Feature", "properties": {"collection_times": [{"days": "Mon-Fri", "time": "2:30pm"}, {"days": "Sat", "time": "9:30am"}, {"days": "Sun", "time": "Closed"}], "id": "5622900001", "name": "USPS COLLECTION BOX - PO LOBBY", "address": {"city": "COTTONWOOD", "state": "MN", "street": "106 W MAIN ST", "postcode": "56229"}}},
{"geometry": {"type": "Point", "coordinates": [-95.0870861796, 44.8018219021]}, "type": "Feature", "properties": {"collection_times": [{"days": "Mon-Sat", "time": "3:15pm"}, {"days": "Sun", "time": "Closed"}], "id": "5623000000", "name": "USPS COLLECTION BOX - BLUE BOX", "address": {"city": "DANUBE", "state": "MN", "street": "406 N MAIN ST", "postcode": "56230"}}},
{"geometry": {"type": "Point", "coordinates": [-95.0870861796, 44.8018219021]}, "type": "Feature", "properties": {"collection_times": [{"days": "Mon-Fri", "time": "11:30am"}, {"days": "Sat", "time": "9:30am"}, {"days": "Sun", "time": "Closed"}], "id": "5623000001", "name": "USPS COLLECTION BOX - PO LOBBY", "address": {"city": "DANUBE", "state": "MN", "street": "406 N MAIN ST", "postcode": "56230"}}},
{"geometry": {"type": "Point", "coordinates": [-95.7523756755, 45.2809624526]}, "type": "Feature", "properties": {"collection_times": [{"days": "Mon-Sat", "time": "2:30pm"}, {"days": "Sun", "time": "Closed"}], "id": "5623100000", "name": "USPS COLLECTION BOX - BLUE BOX", "address": {"city": "DANVERS", "state": "MN", "street": "408 MINNESOTA AVE", "postcode": "56231"}}},
{"geometry": {"type": "Point", "coordinates": [-95.7523756755, 45.2809624526]}, "type": "Feature", "properties": {"collection_times": [{"days": "Mon-Fri", "time": "12:00pm"}, {"days": "Sat", "time": "10:00am"}, {"days": "Sun", "time": "Closed"}], "id": "5623100001", "name": "USPS COLLECTION BOX - PO LOBBY", "address": {"city": "DANVERS", "state": "MN", "street": "408 MINNESOTA AVE", "postcode": "56231"}}},
{"geometry": {"type": "Point", "coordinates": [-95.9396197016, 44.9320624226]}, "type": "Feature", "properties": {"collection_times": [{"days": "Mon-Sat", "time": "1:15pm"}, {"days": "Sun", "time": "Closed"}], "id": "5623200000", "name": "USPS COLLECTION BOX - BLUE BOX", "address": {"city": "DAWSON", "state": "MN", "street": "640 6TH ST", "postcode": "56232"}}},
{"geometry": {"type": "Point", "coordinates": [-95.9396197016, 44.9320624226]}, "type": "Feature", "properties": {"collection_times": [{"days": "Mon-Fri", "time": "1:15pm"}, {"days": "Sat", "time": "10:00am"}, {"days": "Sun", "time": "Closed"}], "id": "5623200001", "name": "USPS COLLECTION BOX - PO LOBBY", "address": {"city": "DAWSON", "state": "MN", "street": "640 6TH ST", "postcode": "56232"}}},
{"geometry": {"type": "Point", "coordinates": [-96.0149549499, 45.689265949]}, "type": "Feature", "properties": {"collection_times": [{"days": "Mon-Sat", "time": "2:00pm"}, {"days": "Sun", "time": "Closed"}], "id": "5623500000", "name": "USPS COLLECTION BOX - BLUE BOX", "address": {"city": "DONNELLY", "state": "MN", "street": "107 4TH ST", "postcode": "56235"}}},
{"geometry": {"type": "Point", "coordinates": [-96.0149549499, 45.689265949]}, "type": "Feature", "properties": {"collection_times": [{"days": "Mon-Fri", "time": "12:00pm"}, {"days": "Sat", "time": "10:00am"}, {"days": "Sun", "time": "Closed"}], "id": "5623500001", "name": "USPS COLLECTION BOX - PO LOBBY", "address": {"city": "DONNELLY", "state": "MN", "street": "107 4TH ST", "postcode": "56235"}}},
{"geometry": {"type": "Point", "coordinates": [-96.4244561346, 45.7177572651]}, "type": "Feature", "properties": {"collection_times": [{"days": "Mon-Sat", "time": "12:30pm"}, {"days": "Sun", "time": "Closed"}], "id": "5623600000", "name": "USPS COLLECTION BOX - BLUE BOX", "address": {"city": "DUMONT", "state": "MN", "street": "101 MAIN ST E", "postcode": "56236"}}},
{"geometry": {"type": "Point", "coordinates": [-96.4244561346, 45.7177572651]}, "type": "Feature", "properties": {"collection_times": [{"days": "Mon-Fri", "time": "11:45am"}, {"days": "Sat", "time": "9:45am"}, {"days": "Sun", "time": "Closed"}], "id": "5623600001", "name": "USPS COLLECTION BOX - PO LOBBY", "address": {"city": "DUMONT", "state": "MN", "street": "101 MAIN ST E", "postcode": "56236"}}},
{"geometry": {"type": "Point", "coordinates": [-96.4101538613, 45.6517610707]}, "type": "Feature", "properties": {"collection_times": [{"days": "Mon-Sat", "time": "2:00pm"}, {"days": "Sun", "time": "Closed"}], "id": "5623600002", "name": "USPS COLLECTION BOX - BLUE BOX", "address": {"city": "DUMONT", "state": "MN", "street": "106 2ND ST-JOHNSON MN 56236", "postcode": "56236"}}},
{"geometry": {"type": "Point", "coordinates": [-95.4171596222, 44.6175879681]}, "type": "Feature", "properties": {"collection_times": [{"days": "Mon-Sat", "time": "1:45pm"}, {"days": "Sun", "time": "Closed"}], "id": "5623700000", "name": "USPS COLLECTION BOX - BLUE BOX", "address": {"city": "ECHO", "state": "MN", "street": "281 4TH ST", "postcode": "56237"}}},
{"geometry": {"type": "Point", "coordinates": [-95.4171596222, 44.6175879681]}, "type": "Feature", "properties": {"collection_times": [{"days": "Mon-Fri", "time": "11:30am"}, {"days": "Sat", "time": "9:15am"}, {"days": "Sun", "time": "Closed"}], "id": "5623700001", "name": "USPS COLLECTION BOX - PO LOBBY", "address": {"city": "ECHO", "state": "MN", "street": "281 4TH ST", "postcode": "56237"}}},
{"geometry": {"type": "Point", "coordinates": [-95.8927144018, 44.5134891794]}, "type": "Feature", "properties": {"collection_times": [{"days": "Mon-Sat", "time": "2:00pm"}, {"days": "Sun", "time": "Closed"}], "id": "5623900000", "name": "USPS COLLECTION BOX - BLUE BOX", "address": {"city": "GHENT", "state": "MN", "street": "104 W BURLINGAME ST", "postcode": "56239"}}},
{"geometry": {"type": "Point", "coordinates": [-95.8927144018, 44.5134891794]}, "type": "Feature", "properties": {"collection_times": [{"days": "Mon-Fri", "time": "2:00pm"}, {"days": "Sat", "time": "10:30am"}, {"days": "Sun", "time": "Closed"}], "id": "5623900001", "name": "USPS COLLECTION BOX - PO LOBBY", "address": {"city": "GHENT", "state": "MN", "street": "104 W BURLINGAME ST", "postcode": "56239"}}},
{"geometry": {"type": "Point", "coordinates": [-96.4351610076, 45.5679078086]}, "type": "Feature", "properties": {"collection_times": [{"days": "Mon-Sat", "time": "1:45pm"}, {"days": "Sun", "time": "Closed"}], "id": "5624000000", "name": "USPS COLLECTION BOX - BLUE BOX", "address": {"city": "GRACEVILLE", "state": "MN", "street": "327 STUDDART AVE", "postcode": "56240"}}},
{"geometry": {"type": "Point", "coordinates": [-96.4351610076, 45.5679078086]}, "type": "Feature", "properties": {"collection_times": [{"days": "Mon-Fri", "time": "1:15pm"}, {"days": "Sat", "time": "10:00am"}, {"days": "Sun", "time": "Closed"}], "id": "5624000001", "name": "USPS COLLECTION BOX - PO LOBBY", "address": {"city": "GRACEVILLE", "state": "MN", "street": "327 STUDDART AVE", "postcode": "56240"}}},
{"geometry": {"type": "Point", "coordinates": [-96.3702894754, 45.5409455229]}, "type": "Feature", "properties": {"collection_times": [{"days": "Mon-Sat", "time": "1:30pm"}, {"days": "Sun", "time": "Closed"}], "id": "5624000002", "name": "USPS COLLECTION BOX - BLUE BOX", "address": {"city": "GRACEVILLE", "state": "MN", "street": "204 PARNELL AVE", "postcode": "56240"}}},
{"geometry": {"type": "Point", "coordinates": [-96.4351610076, 45.5679078086]}, "type": "Feature", "properties": {"collection_times": [{"days": "Mon-Fri", "time": "1:15pm"}, {"days": "Sat", "time": "10:00am"}, {"days": "Sun", "time": "Closed"}], "id": "5624000003", "name": "USPS COLLECTION BOX - PO LOBBY", "address": {"city": "GRACEVILLE", "state": "MN", "street": "327 STUDDART AVE", "postcode": "56240"}}},
{"geometry": {"type": "Point", "coordinates": [-95.5383512344, 44.8113150511]}, "type": "Feature", "properties": {"collection_times": [{"days": "Mon-Fri", "time": "2:15pm"}, {"days": "Sat", "time": "8:30am"}, {"days": "Sun", "time": "Closed"}], "id": "5624100000", "name": "USPS COLLECTION BOX - BLUE BOX", "address": {"city": "GRANITE FALLS", "state": "MN", "street": "120 7TH AVE", "postcode": "56241"}}},
{"geometry": {"type": "Point", "coordinates": [-95.5445606392, 44.8099651216]}, "type": "Feature", "properties": {"collection_times": [{"days": "Mon-Sat", "time": "12:30pm"}, {"days": "Sun", "time": "Closed"}], "id": "5624100002", "name": "USPS COLLECTION BOX - BLUE BOX", "address": {"city": "GRANITE FALLS", "state": "MN", "street": "415 9TH AVE", "postcode": "56241"}}},
{"geometry": {"type": "Point", "coordinates": [-95.5393933503, 44.8091569794]}, "type": "Feature", "properties": {"collection_times": [{"days": "Mon-Sat", "time": "12:30pm"}, {"days": "Sun", "time": "Closed"}], "id": "5624100005", "name": "USPS COLLECTION BOX - BLUE BOX", "address": {"city": "GRANITE FALLS", "state": "MN", "street": "918 PRENTICE ST", "postcode": "56241"}}},
{"geometry": {"type": "Point", "coordinates": [-95.5509758014, 44.8101004152]}, "type": "Feature", "properties": {"collection_times": [{"days": "Mon-Sat", "time": "11:30am"}, {"days": "Sun", "time": "Closed"}], "id": "5624100007", "name": "USPS COLLECTION BOX - BLUE BOX", "address": {"city": "GRANITE FALLS", "state": "MN", "street": "860 9TH AVE", "postcode": "56241"}}},
{"geometry": {"type": "Point", "coordinates": [-95.5430854565, 44.8086011841]}, "type": "Feature", "properties": {"collection_times": [{"days": "Mon-Sat", "time": "9:00am"}, {"days": "Sun", "time": "Closed"}], "id": "5624100010", "name": "USPS COLLECTION BOX - BLUE BOX", "address": {"city": "GRANITE FALLS", "state": "MN", "street": "1082 3RD ST", "postcode": "56241"}}},
{"geometry": {"type": "Point", "coordinates": [-95.5383512344, 44.8113150511]}, "type": "Feature", "properties": {"collection_times": [{"days": "Mon-Fri", "time": "2:15pm"}, {"days": "Sat", "time": "8:30am"}, {"days": "Sun", "time": "Closed"}], "id": "5624100011", "name": "USPS COLLECTION BOX - PO LOBBY", "address": {"city": "GRANITE FALLS", "state": "MN", "street": "120 7TH AVE", "postcode": "56241"}}},
{"geometry": {"type": "Point", "coordinates": [-94.6807996959, 45.1514073092]}, "type": "Feature", "properties": {"collection_times": [{"days": "Mon-Sat", "time": "2:30pm"}, {"days": "Sun", "time": "Closed"}], "id": "5624300000", "name": "USPS COLLECTION BOX - BLUE BOX", "address": {"city": "GROVE CITY", "state": "MN", "street": "214 ATLANTIC AVE W", "postcode": "56243"}}},
{"geometry": {"type": "Point", "coordinates": [-94.6807996959, 45.1514073092]}, "type": "Feature", "properties": {"collection_times": [{"days": "Mon-Fri", "time": "1:00pm"}, {"days": "Sat-Sun", "time": "Closed"}], "id": "5624300001", "name": "USPS COLLECTION BOX - PO LOBBY", "address": {"city": "GROVE CITY", "state": "MN", "street": "214 ATLANTIC AVE W", "postcode": "56243"}}},
{"geometry": {"type": "Point", "coordinates": [-95.7942958167, 45.4986131029]}, "type": "Feature", "properties": {"collection_times": [{"days": "Mon-Sat", "time": "2:45pm"}, {"days": "Sun", "time": "Closed"}], "id": "5624400000", "name": "USPS COLLECTION BOX - BLUE BOX", "address": {"city": "HANCOCK", "state": "MN", "street": "660 6TH ST", "postcode": "56244"}}},
{"geometry": {"type": "Point", "coordinates": [-95.7942958167, 45.4986131029]}, "type": "Feature", "properties": {"collection_times": [{"days": "Mon-Fri", "time": "1:30pm"}, {"days": "Sat", "time": "9:30am"}, {"days": "Sun", "time": "Closed"}], "id": "5624400002", "name": "USPS COLLECTION BOX - PO LOBBY", "address": {"city": "HANCOCK", "state": "MN", "street": "660 6TH ST", "postcode": "56244"}}},
{"geometry": {"type": "Point", "coordinates": [-95.7149552299, 44.6711111017]}, "type": "Feature", "properties": {"collection_times": [{"days": "Mon-Sat", "time": "3:00pm"}, {"days": "Sun", "time": "Closed"}], "id": "5624500000", "name": "USPS COLLECTION BOX - BLUE BOX", "address": {"city": "HANLEY FALLS", "state": "MN", "street": "123 N 3RD ST", "postcode": "56245"}}},
{"geometry": {"type": "Point", "coordinates": [-95.7149552299, 44.6711111017]}, "type": "Feature", "properties": {"collection_times": [{"days": "Mon-Fri", "time": "3:00pm"}, {"days": "Sat", "time": "10:45am"}, {"days": "Sun", "time": "Closed"}], "id": "5624500001", "name": "USPS COLLECTION BOX - PO LOBBY", "address": {"city": "HANLEY FALLS", "state": "MN", "street": "123 N 3RD ST", "postcode": "56245"}}},
{"geometry": {"type": "Point", "coordinates": [-96.0681012903, 45.8031940205]}, "type": "Feature", "properties": {"collection_times": [{"days": "Mon-Sat", "time": "1:30pm"}, {"days": "Sun", "time": "Closed"}], "id": "5624800000", "name": "USPS COLLECTION BOX - BLUE BOX", "address": {"city": "HERMAN", "state": "MN", "street": "410 ATLANTIC AVE", "postcode": "56248"}}},
{"geometry": {"type": "Point", "coordinates": [-96.0681012903, 45.8031940205]}, "type": "Feature", "properties": {"collection_times": [{"days": "Mon-Fri", "time": "1:30pm"}, {"days": "Sat", "time": "9:30am"}, {"days": "Sun", "time": "Closed"}], "id": "5624800001", "name": "USPS COLLECTION BOX - PO LOBBY", "address": {"city": "HERMAN", "state": "MN", "street": "410 ATLANTIC AVE", "postcode": "56248"}}},
{"geometry": {"type": "Point", "coordinates": [-95.9097210855, 45.2508953921]}, "type": "Feature", "properties": {"collection_times": [{"days": "Mon-Sat", "time": "2:00pm"}, {"days": "Sun", "time": "Closed"}], "id": "5624900000", "name": "USPS COLLECTION BOX - BLUE BOX", "address": {"city": "HOLLOWAY", "state": "MN", "street": "121 RAND ST", "postcode": "56249"}}},
{"geometry": {"type": "Point", "coordinates": [-95.9097210855, 45.2508953921]}, "type": "Feature", "properties": {"collection_times": [{"days": "Mon-Fri", "time": "2:00pm"}, {"days": "Sat", "time": "11:00am"}, {"days": "Sun", "time": "Closed"}], "id": "5624900001", "name": "USPS COLLECTION BOX - PO LOBBY", "address": {"city": "HOLLOWAY", "state": "MN", "street": "121 RAND ST", "postcode": "56249"}}},
{"geometry": {"type": "Point", "coordinates": [-94.9281518859, 45.1324977663]}, "type": "Feature", "properties": {"collection_times": [{"days": "Mon-Sat", "time": "3:00pm"}, {"days": "Sun", "time": "Closed"}], "id": "5625100000", "name": "USPS COLLECTION BOX - BLUE BOX", "address": {"city": "KANDIYOHI", "state": "MN", "street": "224 ATLANTIC AVE", "postcode": "56251"}}},
{"geometry": {"type": "Point", "coordinates": [-94.9281518859, 45.1324977663]}, "type": "Feature", "properties": {"collection_times": [{"days": "Mon-Fri", "time": "11:30am"}, {"days": "Sat", "time": "9:15am"}, {"days": "Sun", "time": "Closed"}], "id": "5625100001", "name": "USPS COLLECTION BOX - PO LOBBY", "address": {"city": "KANDIYOHI", "state": "MN", "street": "224 ATLANTIC AVE", "postcode": "56251"}}},
{"geometry": {"type": "Point", "coordinates": [-95.3149900587, 45.1905020986]}, "type": "Feature", "properties": {"collection_times": [{"days": "Mon-Sat", "time": "3:15pm"}, {"days": "Sun", "time": "Closed"}], "id": "5625200000", "name": "USPS COLLECTION BOX - BLUE BOX", "address": {"city": "KERKHOVEN", "state": "MN", "street": "903 ATLANTIC AVE", "postcode": "56252"}}},
{"geometry": {"type": "Point", "coordinates": [-95.3149900587, 45.1905020986]}, "type": "Feature", "properties": {"collection_times": [{"days": "Mon-Fri", "time": "2:00pm"}, {"days": "Sat", "time": "10:00am"}, {"days": "Sun", "time": "Closed"}], "id": "5625200001", "name": "USPS COLLECTION BOX - PO LOBBY", "address": {"city": "KERKHOVEN", "state": "MN", "street": "903 ATLANTIC AVE", "postcode": "56252"}}},
{"geometry": {"type": "Point", "coordinates": [-94.880167725, 44.9445202614]}, "type": "Feature", "properties": {"collection_times": [{"days": "Mon-Sat", "time": "1:30pm"}, {"days": "Sun", "time": "Closed"}], "id": "5625300000", "name": "USPS COLLECTION BOX - BLUE BOX", "address": {"city": "LAKE LILLIAN", "state": "MN", "street": "454 LAKEVIEW ST", "postcode": "56253"}}},
{"geometry": {"type": "Point", "coordinates": [-94.880167725, 44.9445202614]}, "type": "Feature", "properties": {"collection_times": [{"days": "Mon-Fri", "time": "1:15pm"}, {"days": "Sat-Sun", "time": "Closed"}], "id": "5625300001", "name": "USPS COLLECTION BOX - PO LOBBY", "address": {"city": "LAKE LILLIAN", "state": "MN", "street": "454 LAKEVIEW ST", "postcode": "56253"}}},
{"geometry": {"type": "Point", "coordinates": [-95.410852475, 44.4105589126]}, "type": "Feature", "properties": {"collection_times": [{"days": "Mon-Sat", "time": "12:45pm"}, {"days": "Sun", "time": "Closed"}], "id": "5625500000", "name": "USPS COLLECTION BOX - BLUE BOX", "address": {"city": "LUCAN", "state": "MN", "street": "108 MAIN ST", "postcode": "56255"}}},
{"geometry": {"type": "Point", "coordinates": [-95.410852475, 44.4105589126]}, "type": "Feature", "properties": {"collection_times": [{"days": "Mon-Fri", "time": "12:00pm"}, {"days": "Sat", "time": "9:45am"}, {"days": "Sun", "time": "Closed"}], "id": "5625500001", "name": "USPS COLLECTION BOX - PO LOBBY", "address": {"city": "LUCAN", "state": "MN", "street": "108 MAIN ST", "postcode": "56255"}}},
{"geometry": {"type": "Point", "coordinates": [-96.194863222, 45.0097074775]}, "type": "Feature", "properties": {"collection_times": [{"days": "Mon-Fri", "time": "1:00pm"}, {"days": "Sat", "time": "9:30am"}, {"days": "Sun", "time": "Closed"}], "id": "5625600000", "name": "USPS COLLECTION BOX - BLUE BOX", "address": {"city": "MADISON", "state": "MN", "street": "711 1ST ST W", "postcode": "56256"}}},
{"geometry": {"type": "Point", "coordinates": [-96.194863222, 45.0097074775]}, "type": "Feature", "properties": {"collection_times": [{"days": "Mon-Fri", "time": "1:00pm"}, {"days": "Sat", "time": "9:30am"}, {"days": "Sun", "time": "Closed"}], "id": "5625600005", "name": "USPS COLLECTION BOX - PO LOBBY", "address": {"city": "MADISON", "state": "MN", "street": "711 1ST ST W", "postcode": "56256"}}},
{"geometry": {"type": "Point", "coordinates": [-96.194863222, 45.0097074775]}, "type": "Feature", "properties": {"collection_times": [{"days": "Mon-Fri", "time": "1:00pm"}, {"days": "Sat", "time": "9:30am"}, {"days": "Sun", "time": "Closed"}], "id": "5625600009", "name": "USPS COLLECTION BOX - BLUE BOX", "address": {"city": "MADISON", "state": "MN", "street": "711 1ST ST W", "postcode": "56256"}}},
{"geometry": {"type": "Point", "coordinates": [-96.4005735079, 44.9749431351]}, "type": "Feature", "properties": {"collection_times": [{"days": "Mon-Sat", "time": "12:00pm"}, {"days": "Sun", "time": "Closed"}], "id": "5625700000", "name": "USPS COLLECTION BOX - BLUE BOX", "address": {"city": "NASSAU", "state": "MN", "street": "200 3RD AVE N", "postcode": "56257"}}},
{"geometry": {"type": "Point", "coordinates": [-96.4005735079, 44.9749431351]}, "type": "Feature", "properties": {"collection_times": [{"days": "Mon-Fri", "time": "12:00pm"}, {"days": "Sat", "time": "10:45am"}, {"days": "Sun", "time": "Closed"}], "id": "5625700001", "name": "USPS COLLECTION BOX - PO LOBBY", "address": {"city": "NASSAU", "state": "MN", "street": "200 3RD AVE N", "postcode": "56257"}}},
{"geometry": {"type": "Point", "coordinates": [-96.4162484678, 45.0126472368]}, "type": "Feature", "properties": {"collection_times": [{"days": "Mon-Sat", "time": "12:30pm"}, {"days": "Sun", "time": "Closed"}], "id": "5625700002", "name": "USPS COLLECTION BOX - BLUE BOX", "address": {"city": "NASSAU", "state": "MN", "street": "202 4TH ST", "postcode": "56257"}}},
{"geometry": {"type": "Point", "coordinates": [-95.7888569301, 44.4485208458]}, "type": "Feature", "properties": {"collection_times": [{"days": "Mon-Sat", "time": "2:15pm"}, {"days": "Sun", "time": "Closed"}], "id": "5625800001", "name": "USPS COLLECTION BOX - BLUE BOX", "address": {"city": "MARSHALL", "state": "MN", "street": "302 W LYON ST", "postcode": "56258"}}},
{"geometry": {"type": "Point", "coordinates": [-95.761048806, 44.4503789777]}, "type": "Feature", "properties": {"collection_times": [{"days": "Mon-Fri", "time": "1:00pm"}, {"days": "Sat", "time": "10:00am"}, {"days": "Sun", "time": "Closed"}], "id": "5625800006", "name": "USPS COLLECTION BOX - BLUE BOX", "address": {"city": "MARSHALL", "state": "MN", "street": "1420 E COLLEGE DR", "postcode": "56258"}}},
{"geometry": {"type": "Point", "coordinates": [-95.7888569301, 44.4485208458]}, "type": "Feature", "properties": {"collection_times": [{"days": "Mon-Sat", "time": "2:15pm"}, {"days": "Sun", "time": "Closed"}], "id": "5625800024", "name": "USPS COLLECTION BOX - PO LOBBY", "address": {"city": "MARSHALL", "state": "MN", "street": "302 W LYON ST", "postcode": "56258"}}},
{"geometry": {"type": "Point", "coordinates": [-95.7766557495, 44.438567458]}, "type": "Feature", "properties": {"collection_times": [{"days": "Mon-Sat", "time": "8:45am"}, {"days": "Sun", "time": "Closed"}], "id": "5625800026", "name": "USPS COLLECTION BOX - BLUE BOX", "address": {"city": "MARSHALL", "state": "MN", "street": "1221 E MAIN ST", "postcode": "56258"}}},
{"geometry": {"type": "Point", "coordinates": [-95.7888569301, 44.4485208458]}, "type": "Feature", "properties": {"collection_times": [{"days": "Mon-Sat", "time": "2:15pm"}, {"days": "Sun", "time": "Closed"}], "id": "5625800028", "name": "USPS COLLECTION BOX - BLUE BOX", "address": {"city": "MARSHALL", "state": "MN", "street": "302 W LYON ST", "postcode": "56258"}}},
{"geometry": {"type": "Point", "coordinates": [-95.7888569301, 44.4485208458]}, "type": "Feature", "properties": {"collection_times": [{"days": "Mon-Sat", "time": "2:15pm"}, {"days": "Sun", "time": "Closed"}], "id": "5625800029", "name": "USPS COLLECTION BOX - BLUE BOX", "address": {"city": "MARSHALL", "state": "MN", "street": "302 W LYON ST", "postcode": "56258"}}},
{"geometry": {"type": "Point", "coordinates": [-95.4694620414, 44.9067483657]}, "type": "Feature", "properties": {"collection_times": [{"days": "Mon-Sat", "time": "2:45pm"}, {"days": "Sun", "time": "Closed"}], "id": "5626000000", "name": "USPS COLLECTION BOX - BLUE BOX", "address": {"city": "MAYNARD", "state": "MN", "street": "350 SPICER AVE", "postcode": "56260"}}},
{"geometry": {"type": "Point", "coordinates": [-95.4694620414, 44.9067483657]}, "type": "Feature", "properties": {"collection_times": [{"days": "Mon-Fri", "time": "11:00am"}, {"days": "Sat", "time": "8:30am"}, {"days": "Sun", "time": "Closed"}], "id": "5626000001", "name": "USPS COLLECTION BOX - PO LOBBY", "address": {"city": "MAYNARD", "state": "MN", "street": "350 SPICER AVE", "postcode": "56260"}}},
{"geometry": {"type": "Point", "coordinates": [-95.911325436, 45.1091274186]}, "type": "Feature", "properties": {"collection_times": [{"days": "Mon-Sat", "time": "1:30pm"}, {"days": "Sun", "time": "Closed"}], "id": "5626200000", "name": "USPS COLLECTION BOX - BLUE BOX", "address": {"city": "MILAN", "state": "MN", "street": "222 N 2ND ST", "postcode": "56262"}}},
{"geometry": {"type": "Point", "coordinates": [-95.911325436, 45.1091274186]}, "type": "Feature", "properties": {"collection_times": [{"days": "Mon-Fri", "time": "11:15am"}, {"days": "Sat", "time": "9:15am"}, {"days": "Sun", "time": "Closed"}], "id": "5626200001", "name": "USPS COLLECTION BOX - PO LOBBY", "address": {"city": "MILAN", "state": "MN", "street": "222 N 2ND ST", "postcode": "56262"}}},
{"geometry": {"type": "Point", "coordinates": [-95.5533930218, 44.417769775]}, "type": "Feature", "properties": {"collection_times": [{"days": "Mon-Sat", "time": "12:15pm"}, {"days": "Sun", "time": "Closed"}], "id": "5626300000", "name": "USPS COLLECTION BOX - BLUE BOX", "address": {"city": "MILROY", "state": "MN", "street": "404 EUCLID AVE", "postcode": "56263"}}},
{"geometry": {"type": "Point", "coordinates": [-95.5533930218, 44.417769775]}, "type": "Feature", "properties": {"collection_times": [{"days": "Mon-Fri", "time": "12:15pm"}, {"days": "Sat", "time": "9:15am"}, {"days": "Sun", "time": "Closed"}], "id": "5626300001", "name": "USPS COLLECTION BOX - PO LOBBY", "address": {"city": "MILROY", "state": "MN", "street": "404 EUCLID AVE", "postcode": "56263"}}},
{"geometry": {"type": "Point", "coordinates": [-95.9882865093, 44.5600781669]}, "type": "Feature", "properties": {"collection_times": [{"days": "Mon-Fri", "time": "1:45pm"}, {"days": "Sat", "time": "9:30am"}, {"days": "Sun", "time": "Closed"}], "id": "5626400002", "name": "USPS COLLECTION BOX - BLUE BOX", "address": {"city": "MINNEOTA", "state": "MN", "street": "114 E 1ST ST", "postcode": "56264"}}},
{"geometry": {"type": "Point", "coordinates": [-95.9882865093, 44.5600781669]}, "type": "Feature", "properties": {"collection_times": [{"days": "Mon-Fri", "time": "1:45pm"}, {"days": "Sat-Sun", "time": "Closed"}], "id": "5626400003", "name": "USPS COLLECTION BOX - PO LOBBY", "address": {"city": "MINNEOTA", "state": "MN", "street": "114 E 1ST ST", "postcode": "56264"}}},
{"geometry": {"type": "Point", "coordinates": [-95.7235586292, 44.943321708]}, "type": "Feature", "properties": {"collection_times": [{"days": "Mon-Fri", "time": "2:15pm"}, {"days": "Sat", "time": "11:00am"}, {"days": "Sun", "time": "Closed"}], "id": "5626500000", "name": "USPS COLLECTION BOX - BLUE BOX", "address": {"city": "MONTEVIDEO", "state": "MN", "street": "316 S 1ST ST", "postcode": "56265"}}},
{"geometry": {"type": "Point", "coordinates": [-95.7243848728, 44.9455249791]}, "type": "Feature", "properties": {"collection_times": [{"days": "Mon-Sat", "time": "12:00pm"}, {"days": "Sun", "time": "Closed"}], "id": "5626500004", "name": "USPS COLLECTION BOX - BLUE BOX", "address": {"city": "MONTEVIDEO", "state": "MN", "street": "107 N 1ST ST", "postcode": "56265"}}},
{"geometry": {"type": "Point", "coordinates": [-95.710013615, 44.9492555559]}, "type": "Feature", "properties": {"collection_times": [{"days": "Mon-Sat", "time": "12:00pm"}, {"days": "Sun", "time": "Closed"}], "id": "5626500005", "name": "USPS COLLECTION BOX - BLUE BOX", "address": {"city": "MONTEVIDEO", "state": "MN", "street": "612 LEGION DR", "postcode": "56265"}}},
{"geometry": {"type": "Point", "coordinates": [-95.7136048184, 44.9503868258]}, "type": "Feature", "properties": {"collection_times": [{"days": "Mon-Sat", "time": "12:30pm"}, {"days": "Sun", "time": "Closed"}], "id": "5626500006", "name": "USPS COLLECTION BOX - BLUE BOX", "address": {"city": "MONTEVIDEO", "state": "MN", "street": "629 N 11TH ST", "postcode": "56265"}}},
{"geometry": {"type": "Point", "coordinates": [-95.7235586292, 44.943321708]}, "type": "Feature", "properties": {"collection_times": [{"days": "Mon-Fri", "time": "2:15pm"}, {"days": "Sat", "time": "11:00am"}, {"days": "Sun", "time": "Closed"}], "id": "5626500012", "name": "USPS COLLECTION BOX - PO LOBBY", "address": {"city": "MONTEVIDEO", "state": "MN", "street": "316 S 1ST ST", "postcode": "56265"}}},
{"geometry": {"type": "Point", "coordinates": [-95.7235586292, 44.943321708]}, "type": "Feature", "properties": {"collection_times": [{"days": "Mon-Fri", "time": "2:15pm"}, {"days": "Sat", "time": "11:00am"}, {"days": "Sun", "time": "Closed"}], "id": "5626500013", "name": "USPS COLLECTION BOX - PO LOBBY", "address": {"city": "MONTEVIDEO", "state": "MN", "street": "316 S 1ST ST", "postcode": "56265"}}},
{"geometry": {"type": "Point", "coordinates": [-95.7134358886, 44.9513755598]}, "type": "Feature", "properties": {"collection_times": [{"days": "Mon-Sat", "time": "10:30am"}, {"days": "Sun", "time": "Closed"}], "id": "5626500014", "name": "USPS COLLECTION BOX - BLUE BOX", "address": {"city": "MONTEVIDEO", "state": "MN", "street": "1109 E HIGHWAY 7", "postcode": "56265"}}},
{"geometry": {"type": "Point", "coordinates": [-94.9269125357, 44.4164259451]}, "type": "Feature", "properties": {"collection_times": [{"days": "Mon-Sat", "time": "2:00pm"}, {"days": "Sun", "time": "Closed"}], "id": "5626600000", "name": "USPS COLLECTION BOX - BLUE BOX", "address": {"city": "MORGAN", "state": "MN", "street": "207 VERNON AVE", "postcode": "56266"}}},
{"geometry": {"type": "Point", "coordinates": [-94.9269125357, 44.4164259451]}, "type": "Feature", "properties": {"collection_times": [{"days": "Mon-Fri", "time": "2:00pm"}, {"days": "Sat", "time": "9:00am"}, {"days": "Sun", "time": "Closed"}], "id": "5626600001", "name": "USPS COLLECTION BOX - PO LOBBY", "address": {"city": "MORGAN", "state": "MN", "street": "207 VERNON AVE", "postcode": "56266"}}},
{"geometry": {"type": "Point", "coordinates": [-95.9132111875, 45.5876092141]}, "type": "Feature", "properties": {"collection_times": [{"days": "Mon-Sat", "time": "1:15pm"}, {"days": "Sun", "time": "Closed"}], "id": "5626700000", "name": "USPS COLLECTION BOX - BLUE BOX", "address": {"city": "MORRIS", "state": "MN", "street": "102 E 6TH ST", "postcode": "56267"}}},
{"geometry": {"type": "Point", "coordinates": [-95.9132767418, 45.5877106964]}, "type": "Feature", "properties": {"collection_times": [{"days": "Mon-Sat", "time": "2:15pm"}, {"days": "Sun", "time": "Closed"}], "id": "5626700002", "name": "USPS COLLECTION BOX - BLUE BOX", "address": {"city": "MORRIS", "state": "MN", "street": "105 E 6TH ST", "postcode": "56267"}}},
{"geometry": {"type": "Point", "coordinates": [-95.9106146066, 45.5825904217]}, "type": "Feature", "properties": {"collection_times": [{"days": "Mon-Sat", "time": "1:00pm"}, {"days": "Sun", "time": "Closed"}], "id": "5626700007", "name": "USPS COLLECTION BOX - BLUE BOX", "address": {"city": "MORRIS", "state": "MN", "street": "103 ATLANTIC AVE", "postcode": "56267"}}},
{"geometry": {"type": "Point", "coordinates": [-95.912436806, 45.5842894602]}, "type": "Feature", "properties": {"collection_times": [{"days": "Mon-Sat", "time": "11:00am"}, {"days": "Sun", "time": "Closed"}], "id": "5626700008", "name": "USPS COLLECTION BOX - BLUE BOX", "address": {"city": "MORRIS", "state": "MN", "street": "300 ATLANTIC AVE", "postcode": "56267"}}},
{"geometry": {"type": "Point", "coordinates": [-95.9115651046, 45.5835972878]}, "type": "Feature", "properties": {"collection_times": [{"days": "Mon-Sat", "time": "1:00pm"}, {"days": "Sun", "time": "Closed"}], "id": "5626700009", "name": "USPS COLLECTION BOX - BLUE BOX", "address": {"city": "MORRIS", "state": "MN", "street": "211 S HIGHWAY 9", "postcode": "56267"}}},
{"geometry": {"type": "Point", "coordinates": [-95.9056582831, 45.5888002506]}, "type": "Feature", "properties": {"collection_times": [{"days": "Mon-Sat", "time": "12:30pm"}, {"days": "Sun", "time": "Closed"}], "id": "5626700011", "name": "USPS COLLECTION BOX - BLUE BOX", "address": {"city": "MORRIS", "state": "MN", "street": "600 E 4TH ST", "postcode": "56267"}}},
{"geometry": {"type": "Point", "coordinates": [-95.9132767418, 45.5877106964]}, "type": "Feature", "properties": {"collection_times": [{"days": "Mon-Fri", "time": "2:15pm"}, {"days": "Sat", "time": "11:30am"}, {"days": "Sun", "time": "Closed"}], "id": "5626700012", "name": "USPS COLLECTION BOX - PO LOBBY", "address": {"city": "MORRIS", "state": "MN", "street": "105 E 6TH ST", "postcode": "56267"}}},
{"geometry": {"type": "Point", "coordinates": [-95.9153757118, 45.5879077638]}, "type": "Feature", "properties": {"collection_times": [{"days": "Mon-Sat", "time": "1:00pm"}, {"days": "Sun", "time": "Closed"}], "id": "5626700013", "name": "USPS COLLECTION BOX - BLUE BOX", "address": {"city": "MORRIS", "state": "MN", "street": "23 E 7TH ST", "postcode": "56267"}}},
{"geometry": {"type": "Point", "coordinates": [-94.9839895983, 44.5511601522]}, "type": "Feature", "properties": {"collection_times": [{"days": "Mon-Sat", "time": "3:00pm"}, {"days": "Sun", "time": "Closed"}], "id": "5627000000", "name": "USPS COLLECTION BOX - BLUE BOX", "address": {"city": "MORTON", "state": "MN", "street": "165 N MAIN ST", "postcode": "56270"}}},
{"geometry": {"type": "Point", "coordinates": [-94.9839895983, 44.5511601522]}, "type": "Feature", "properties": {"collection_times": [{"days": "Mon-Fri", "time": "1:30pm"}, {"days": "Sat", "time": "9:15am"}, {"days": "Sun", "time": "Closed"}], "id": "5627000001", "name": "USPS COLLECTION BOX - PO LOBBY", "address": {"city": "MORTON", "state": "MN", "street": "165 N MAIN ST", "postcode": "56270"}}},
{"geometry": {"type": "Point", "coordinates": [-95.394516723, 45.2244531164]}, "type": "Feature", "properties": {"collection_times": [{"days": "Mon-Sat", "time": "3:00pm"}, {"days": "Sun", "time": "Closed"}], "id": "5627100000", "name": "USPS COLLECTION BOX - BLUE BOX", "address": {"city": "MURDOCK", "state": "MN", "street": "412 MAIN AVE", "postcode": "56271"}}},
{"geometry": {"type": "Point", "coordinates": [-95.394516723, 45.2244531164]}, "type": "Feature", "properties": {"collection_times": [{"days": "Mon-Fri", "time": "12:00pm"}, {"days": "Sat", "time": "1:00pm"}, {"days": "Sun", "time": "Closed"}], "id": "5627100001", "name": "USPS COLLECTION BOX - PO LOBBY", "address": {"city": "MURDOCK", "state": "MN", "street": "412 MAIN AVE", "postcode": "56271"}}},
{"geometry": {"type": "Point", "coordinates": [-95.4683230008, 45.2625538259]}, "type": "Feature", "properties": {"collection_times": [{"days": "Mon-Sat", "time": "12:30pm"}, {"days": "Sun", "time": "Closed"}], "id": "5627100002", "name": "USPS COLLECTION BOX - BLUE BOX", "address": {"city": "MURDOCK", "state": "MN", "street": "100 4TH ST S - DEGRAFF, MN", "postcode": "56271"}}},
{"geometry": {"type": "Point", "coordinates": [-94.9434309847, 45.3013597717]}, "type": "Feature", "properties": {"collection_times": [{"days": "Mon-Fri", "time": "3:00pm"}, {"days": "Sat", "time": "9:45am"}, {"days": "Sun", "time": "Closed"}], "id": "5627300001", "name": "USPS COLLECTION BOX - BLUE BOX", "address": {"city": "NEW LONDON", "state": "MN", "street": "31 CENTRAL AVE E", "postcode": "56273"}}},
{"geometry": {"type": "Point", "coordinates": [-94.9434309847, 45.3013597717]}, "type": "Feature", "properties": {"collection_times": [{"days": "Mon-Fri", "time": "3:00pm"}, {"days": "Sat", "time": "9:45am"}, {"days": "Sun", "time": "Closed"}], "id": "5627300004", "name": "USPS COLLECTION BOX - PO LOBBY", "address": {"city": "NEW LONDON", "state": "MN", "street": "31 CENTRAL AVE E", "postcode": "56273"}}},
{"geometry": {"type": "Point", "coordinates": [-96.2013829883, 45.8629087454]}, "type": "Feature", "properties": {"collection_times": [{"days": "Mon-Fri", "time": "1:15pm"}, {"days": "Sat", "time": "10:15am"}, {"days": "Sun", "time": "Closed"}], "id": "5627400000", "name": "USPS COLLECTION BOX - BLUE BOX", "address": {"city": "NORCROSS", "state": "MN", "street": "17557 GRISWOLD AVE", "postcode": "56274"}}},
{"geometry": {"type": "Point", "coordinates": [-96.2013829883, 45.8629087454]}, "type": "Feature", "properties": {"collection_times": [{"days": "Mon-Fri", "time": "11:15am"}, {"days": "Sat", "time": "10:15am"}, {"days": "Sun", "time": "Closed"}], "id": "5627400001", "name": "USPS COLLECTION BOX - PO LOBBY", "address": {"city": "NORCROSS", "state": "MN", "street": "17557 GRISWOLD AVE", "postcode": "56274"}}},
{"geometry": {"type": "Point", "coordinates": [-96.3014723325, 45.3255090499]}, "type": "Feature", "properties": {"collection_times": [{"days": "Mon-Sat", "time": "1:15pm"}, {"days": "Sun", "time": "Closed"}], "id": "5627600000", "name": "USPS COLLECTION BOX - BLUE BOX", "address": {"city": "ODESSA", "state": "MN", "street": "106 COUNTY ROAD 28 W", "postcode": "56276"}}},
{"geometry": {"type": "Point", "coordinates": [-96.3014723325, 45.3255090499]}, "type": "Feature", "properties": {"collection_times": [{"days": "Mon-Fri", "time": "1:15pm"}, {"days": "Sat", "time": "12:00pm"}, {"days": "Sun", "time": "Closed"}], "id": "5627600001", "name": "USPS COLLECTION BOX - PO LOBBY", "address": {"city": "ODESSA", "state": "MN", "street": "106 COUNTY ROAD 28 W", "postcode": "56276"}}},
{"geometry": {"type": "Point", "coordinates": [-94.988054844, 44.7744843901]}, "type": "Feature", "properties": {"collection_times": [{"days": "Mon-Fri", "time": "3:00pm"}, {"days": "Sat", "time": "10:00am"}, {"days": "Sun", "time": "Closed"}], "id": "5627700001", "name": "USPS COLLECTION BOX - BLUE BOX", "address": {"city": "OLIVIA", "state": "MN", "street": "802 E FAIRVIEW AVE", "postcode": "56277"}}},
{"geometry": {"type": "Point", "coordinates": [-94.988054844, 44.7744843901]}, "type": "Feature", "properties": {"collection_times": [{"days": "Mon-Fri", "time": "3:00pm"}, {"days": "Sat", "time": "10:00am"}, {"days": "Sun", "time": "Closed"}], "id": "5627700002", "name": "USPS COLLECTION BOX - BLUE BOX", "address": {"city": "OLIVIA", "state": "MN", "street": "802 E FAIRVIEW AVE", "postcode": "56277"}}},
{"geometry": {"type": "Point", "coordinates": [-94.9866557495, 44.775542144]}, "type": "Feature", "properties": {"collection_times": [{"days": "Mon-Fri", "time": "3:15pm"}, {"days": "Sat", "time": "10:00am"}, {"days": "Sun", "time": "Closed"}], "id": "5627700007", "name": "USPS COLLECTION BOX - BLUE BOX", "address": {"city": "OLIVIA", "state": "MN", "street": "806 E DEPUE AVE", "postcode": "56277"}}},
{"geometry": {"type": "Point", "coordinates": [-94.9866557495, 44.775542144]}, "type": "Feature", "properties": {"collection_times": [{"days": "Mon-Fri", "time": "3:15pm"}, {"days": "Sat", "time": "10:00am"}, {"days": "Sun", "time": "Closed"}], "id": "5627700009", "name": "USPS COLLECTION BOX - PO LOBBY", "address": {"city": "OLIVIA", "state": "MN", "street": "806 E DEPUE AVE", "postcode": "56277"}}},
{"geometry": {"type": "Point", "coordinates": [-96.4457765814, 45.304355565]}, "type": "Feature", "properties": {"collection_times": [{"days": "Mon-Fri", "time": "1:00pm"}, {"days": "Sat", "time": "10:00am"}, {"days": "Sun", "time": "Closed"}], "id": "5627800001", "name": "USPS COLLECTION BOX - BLUE BOX", "address": {"city": "ORTONVILLE", "state": "MN", "street": "104 JACKSON AVE", "postcode": "56278"}}},
{"geometry": {"type": "Point", "coordinates": [-96.4457630989, 45.3057213506]}, "type": "Feature", "properties": {"collection_times": [{"days": "Mon-Sat", "time": "12:00pm"}, {"days": "Sun", "time": "Closed"}], "id": "5627800003", "name": "USPS COLLECTION BOX - BLUE BOX", "address": {"city": "ORTONVILLE", "state": "MN", "street": "147 2ND ST NW", "postcode": "56278"}}},
{"geometry": {"type": "Point", "coordinates": [-96.4457765814, 45.304355565]}, "type": "Feature", "properties": {"collection_times": [{"days": "Mon-Fri", "time": "1:00pm"}, {"days": "Sat", "time": "10:00am"}, {"days": "Sun", "time": "Closed"}], "id": "5627800005", "name": "USPS COLLECTION BOX - PO LOBBY", "address": {"city": "ORTONVILLE", "state": "MN", "street": "104 JACKSON AVE", "postcode": "56278"}}},
{"geometry": {"type": "Point", "coordinates": [-95.1768766677, 45.1487179767]}, "type": "Feature", "properties": {"collection_times": [{"days": "Mon-Sat", "time": "3:30pm"}, {"days": "Sun", "time": "Closed"}], "id": "5627900000", "name": "USPS COLLECTION BOX - BLUE BOX", "address": {"city": "PENNOCK", "state": "MN", "street": "101 ATLANTIC AVE NW", "postcode": "56279"}}},
{"geometry": {"type": "Point", "coordinates": [-95.1768766677, 45.1487179767]}, "type": "Feature", "properties": {"collection_times": [{"days": "Mon-Fri", "time": "2:00pm"}, {"days": "Sat", "time": "9:00am"}, {"days": "Sun", "time": "Closed"}], "id": "5627900001", "name": "USPS COLLECTION BOX - PO LOBBY", "address": {"city": "PENNOCK", "state": "MN", "street": "101 ATLANTIC AVE NW", "postcode": "56279"}}},
{"geometry": {"type": "Point", "coordinates": [-96.1654715996, 44.6343759316]}, "type": "Feature", "properties": {"collection_times": [{"days": "Mon-Sat", "time": "1:15pm"}, {"days": "Sun", "time": "Closed"}], "id": "5628000000", "name": "USPS COLLECTION BOX - BLUE BOX", "address": {"city": "PORTER", "state": "MN", "street": "400 LONE TREE ST", "postcode": "56280"}}},
{"geometry": {"type": "Point", "coordinates": [-96.1654715996, 44.6343759316]}, "type": "Feature", "properties": {"collection_times": [{"days": "Mon-Fri", "time": "1:00pm"}, {"days": "Sat", "time": "11:00am"}, {"days": "Sun", "time": "Closed"}], "id": "5628000001", "name": "USPS COLLECTION BOX - PO LOBBY", "address": {"city": "PORTER", "state": "MN", "street": "400 LONE TREE ST", "postcode": "56280"}}},
{"geometry": {"type": "Point", "coordinates": [-95.1919424216, 44.9407452864]}, "type": "Feature", "properties": {"collection_times": [{"days": "Mon-Sat", "time": "1:00pm"}, {"days": "Sun", "time": "Closed"}], "id": "5628100000", "name": "USPS COLLECTION BOX - BLUE BOX", "address": {"city": "PRINSBURG", "state": "MN", "street": "613 3RD ST", "postcode": "56281"}}},
{"geometry": {"type": "Point", "coordinates": [-95.1919424216, 44.9407452864]}, "type": "Feature", "properties": {"collection_times": [{"days": "Mon-Fri", "time": "12:00pm"}, {"days": "Sat", "time": "9:15am"}, {"days": "Sun", "time": "Closed"}], "id": "5628100001", "name": "USPS COLLECTION BOX - PO LOBBY", "address": {"city": "PRINSBURG", "state": "MN", "street": "613 3RD ST", "postcode": "56281"}}},
{"geometry": {"type": "Point", "coordinates": [-95.2385182721, 45.0172964158]}, "type": "Feature", "properties": {"collection_times": [{"days": "Mon-Sat", "time": "3:15pm"}, {"days": "Sun", "time": "Closed"}], "id": "5628200001", "name": "USPS COLLECTION BOX - BLUE BOX", "address": {"city": "RAYMOND", "state": "MN", "street": "210 SPICER AVE", "postcode": "56282"}}},
{"geometry": {"type": "Point", "coordinates": [-95.2385182721, 45.0172964158]}, "type": "Feature", "properties": {"collection_times": [{"days": "Mon-Fri", "time": "1:00pm"}, {"days": "Sat", "time": "9:15am"}, {"days": "Sun", "time": "Closed"}], "id": "5628200002", "name": "USPS COLLECTION BOX - PO LOBBY", "address": {"city": "RAYMOND", "state": "MN", "street": "210 SPICER AVE", "postcode": "56282"}}},
{"geometry": {"type": "Point", "coordinates": [-95.2385182721, 45.0172964158]}, "type": "Feature", "properties": {"collection_times": [{"days": "Mon-Fri", "time": "1:00pm"}, {"days": "Sat", "time": "9:15am"}, {"days": "Sun", "time": "Closed"}], "id": "5628200003", "name": "USPS COLLECTION BOX - PO LOBBY", "address": {"city": "RAYMOND", "state": "MN", "street": "210 SPICER AVE", "postcode": "56282"}}},
{"geometry": {"type": "Point", "coordinates": [-95.1177913232, 44.5386602339]}, "type": "Feature", "properties": {"collection_times": [{"days": "Mon-Sat", "time": "2:30pm"}, {"days": "Sun", "time": "Closed"}], "id": "5628300001", "name": "USPS COLLECTION BOX - BLUE BOX", "address": {"city": "REDWOOD FALLS", "state": "MN", "street": "204 E 4TH ST", "postcode": "56283"}}},
{"geometry": {"type": "Point", "coordinates": [-95.1161946415, 44.5405389813]}, "type": "Feature", "properties": {"collection_times": [{"days": "Mon-Fri", "time": "1:45pm"}, {"days": "Sat", "time": "10:30am"}, {"days": "Sun", "time": "Closed"}], "id": "5628300002", "name": "USPS COLLECTION BOX - BLUE BOX", "address": {"city": "REDWOOD FALLS", "state": "MN", "street": "303 E 2ND ST", "postcode": "56283"}}},
{"geometry": {"type": "Point", "coordinates": [-95.1196029098, 44.5404650213]}, "type": "Feature", "properties": {"collection_times": [{"days": "Mon-Fri", "time": "1:45pm"}, {"days": "Sat", "time": "10:30am"}, {"days": "Sun", "time": "Closed"}], "id": "5628300003", "name": "USPS COLLECTION BOX - BLUE BOX", "address": {"city": "REDWOOD FALLS", "state": "MN", "street": "205 S MILL ST", "postcode": "56283"}}},
{"geometry": {"type": "Point", "coordinates": [-95.1008504528, 44.5414442117]}, "type": "Feature", "properties": {"collection_times": [{"days": "Mon-Fri", "time": "1:45pm"}, {"days": "Sat", "time": "10:30am"}, {"days": "Sun", "time": "Closed"}], "id": "5628300005", "name": "USPS COLLECTION BOX - BLUE BOX", "address": {"city": "REDWOOD FALLS", "state": "MN", "street": "1111 E BRIDGE ST", "postcode": "56283"}}},
{"geometry": {"type": "Point", "coordinates": [-95.1177913232, 44.5386602339]}, "type": "Feature", "properties": {"collection_times": [{"days": "Mon-Fri", "time": "2:30pm"}, {"days": "Sat", "time": "10:30am"}, {"days": "Sun", "time": "Closed"}], "id": "5628300009", "name": "USPS COLLECTION BOX - PO LOBBY", "address": {"city": "REDWOOD FALLS", "state": "MN", "street": "204 E 4TH ST", "postcode": "56283"}}},
{"geometry": {"type": "Point", "coordinates": [-95.0933126745, 44.5413265433]}, "type": "Feature", "properties": {"collection_times": [{"days": "Mon-Fri", "time": "1:45pm"}, {"days": "Sat", "time": "10:30am"}, {"days": "Sun", "time": "Closed"}], "id": "5628300010", "name": "USPS COLLECTION BOX - BLUE BOX", "address": {"city": "REDWOOD FALLS", "state": "MN", "street": "1410 E BRIDGE ST", "postcode": "56283"}}},
{"geometry": {"type": "Point", "coordinates": [-95.1177913232, 44.5386602339]}, "type": "Feature", "properties": {"collection_times": [{"days": "Mon-Sat", "time": "2:30pm"}, {"days": "Sun", "time": "Closed"}], "id": "5628300011", "name": "USPS COLLECTION BOX - BLUE BOX", "address": {"city": "REDWOOD FALLS", "state": "MN", "street": "204 E 4TH ST", "postcode": "56283"}}},
{"geometry": {"type": "Point", "coordinates": [-95.1177913232, 44.5386602339]}, "type": "Feature", "properties": {"collection_times": [{"days": "Mon-Sat", "time": "2:30pm"}, {"days": "Sun", "time": "Closed"}], "id": "5628300012", "name": "USPS COLLECTION BOX - BLUE BOX", "address": {"city": "REDWOOD FALLS", "state": "MN", "street": "204 E 4TH ST", "postcode": "56283"}}},
{"geometry": {"type": "Point", "coordinates": [-95.2121744919, 44.7916813146]}, "type": "Feature", "properties": {"collection_times": [{"days": "Mon-Sat", "time": "3:00pm"}, {"days": "Sun", "time": "Closed"}], "id": "5628400000", "name": "USPS COLLECTION BOX - BLUE BOX", "address": {"city": "RENVILLE", "state": "MN", "street": "334 N MAIN ST", "postcode": "56284"}}},
{"geometry": {"type": "Point", "coordinates": [-95.2121744919, 44.7916813146]}, "type": "Feature", "properties": {"collection_times": [{"days": "Mon-Fri", "time": "3:00pm"}, {"days": "Sat", "time": "9:00am"}, {"days": "Sun", "time": "Closed"}], "id": "5628400001", "name": "USPS COLLECTION BOX - PO LOBBY", "address": {"city": "RENVILLE", "state": "MN", "street": "334 N MAIN ST", "postcode": "56284"}}},
{"geometry": {"type": "Point", "coordinates": [-95.2121744919, 44.7916813146]}, "type": "Feature", "properties": {"collection_times": [{"days": "Mon-Fri", "time": "3:00pm"}, {"days": "Sat", "time": "9:00am"}, {"days": "Sun", "time": "Closed"}], "id": "5628400002", "name": "USPS COLLECTION BOX - PO LOBBY", "address": {"city": "RENVILLE", "state": "MN", "street": "334 N MAIN ST", "postcode": "56284"}}},
{"geometry": {"type": "Point", "coordinates": [-95.3515465115, 44.7877592684]}, "type": "Feature", "properties": {"collection_times": [{"days": "Mon-Sat", "time": "2:45pm"}, {"days": "Sun", "time": "Closed"}], "id": "5628500000", "name": "USPS COLLECTION BOX - BLUE BOX", "address": {"city": "SACRED HEART", "state": "MN", "street": "213 2ND AVE", "postcode": "56285"}}},
{"geometry": {"type": "Point", "coordinates": [-95.3515465115, 44.7877592684]}, "type": "Feature", "properties": {"collection_times": [{"days": "Mon-Fri", "time": "1:00pm"}, {"days": "Sat", "time": "9:15am"}, {"days": "Sun", "time": "Closed"}], "id": "5628500002", "name": "USPS COLLECTION BOX - PO LOBBY", "address": {"city": "SACRED HEART", "state": "MN", "street": "213 2ND AVE", "postcode": "56285"}}},
{"geometry": {"type": "Point", "coordinates": [-94.9378114022, 45.2463514337]}, "type": "Feature", "properties": {"collection_times": [{"days": "Mon-Sat", "time": "12:00pm"}, {"days": "Sun", "time": "Closed"}], "id": "5628800001", "name": "USPS COLLECTION BOX - BLUE BOX", "address": {"city": "SPICER", "state": "MN", "street": "301 HIGHWAY 23", "postcode": "56288"}}},
{"geometry": {"type": "Point", "coordinates": [-94.9387709919, 45.2350831443]}, "type": "Feature", "properties": {"collection_times": [{"days": "Mon-Sat", "time": "12:00pm"}, {"days": "Sun", "time": "Closed"}], "id": "5628800002", "name": "USPS COLLECTION BOX - BLUE BOX", "address": {"city": "SPICER", "state": "MN", "street": "152 LAKE AVE N", "postcode": "56288"}}},
{"geometry": {"type": "Point", "coordinates": [-94.9412312229, 45.228829324]}, "type": "Feature", "properties": {"collection_times": [{"days": "Mon-Fri", "time": "3:30pm"}, {"days": "Sat", "time": "9:30am"}, {"days": "Sun", "time": "Closed"}], "id": "5628800003", "name": "USPS COLLECTION BOX - BLUE BOX", "address": {"city": "SPICER", "state": "MN", "street": "186 PROGRESS WAY", "postcode": "56288"}}},
{"geometry": {"type": "Point", "coordinates": [-94.9412312229, 45.228829324]}, "type": "Feature", "properties": {"collection_times": [{"days": "Mon-Fri", "time": "3:30pm"}, {"days": "Sat", "time": "9:30am"}, {"days": "Sun", "time": "Closed"}], "id": "5628800004", "name": "USPS COLLECTION BOX - PO LOBBY", "address": {"city": "SPICER", "state": "MN", "street": "186 PROGRESS WAY", "postcode": "56288"}}},
{"geometry": {"type": "Point", "coordinates": [-95.2383491946, 45.3479048182]}, "type": "Feature", "properties": {"collection_times": [{"days": "Mon-Sat", "time": "2:30pm"}, {"days": "Sun", "time": "Closed"}], "id": "5628900000", "name": "USPS COLLECTION BOX - BLUE BOX", "address": {"city": "SUNBURG", "state": "MN", "street": "316 CENTRAL AVE", "postcode": "56289"}}},
{"geometry": {"type": "Point", "coordinates": [-95.2383491946, 45.3479048182]}, "type": "Feature", "properties": {"collection_times": [{"days": "Mon-Fri", "time": "11:30am"}, {"days": "Sat", "time": "9:00am"}, {"days": "Sun", "time": "Closed"}], "id": "5628900001", "name": "USPS COLLECTION BOX - PO LOBBY", "address": {"city": "SUNBURG", "state": "MN", "street": "316 CENTRAL AVE", "postcode": "56289"}}},
{"geometry": {"type": "Point", "coordinates": [-96.0658462036, 44.5934272972]}, "type": "Feature", "properties": {"collection_times": [{"days": "Mon-Fri", "time": "1:30pm"}, {"days": "Sat", "time": "11:30am"}, {"days": "Sun", "time": "Closed"}], "id": "5629100000", "name": "USPS COLLECTION BOX - BLUE BOX", "address": {"city": "TAUNTON", "state": "MN", "street": "104 N MAIN ST", "postcode": "56291"}}},
{"geometry": {"type": "Point", "coordinates": [-96.0658462036, 44.5934272972]}, "type": "Feature", "properties": {"collection_times": [{"days": "Mon-Fri", "time": "1:30pm"}, {"days": "Sat", "time": "11:30am"}, {"days": "Sun", "time": "Closed"}], "id": "5629100001", "name": "USPS COLLECTION BOX - PO LOBBY", "address": {"city": "TAUNTON", "state": "MN", "street": "104 N MAIN ST", "postcode": "56291"}}},
{"geometry": {"type": "Point", "coordinates": [-95.4167131454, 44.5067106802]}, "type": "Feature", "properties": {"collection_times": [{"days": "Mon-Sat", "time": "1:15pm"}, {"days": "Sun", "time": "Closed"}], "id": "5629200000", "name": "USPS COLLECTION BOX - BLUE BOX", "address": {"city": "VESTA", "state": "MN", "street": "109 S FRONT ST", "postcode": "56292"}}},
{"geometry": {"type": "Point", "coordinates": [-95.4167131454, 44.5067106802]}, "type": "Feature", "properties": {"collection_times": [{"days": "Mon-Fri", "time": "11:30am"}, {"days": "Sat", "time": "10:00am"}, {"days": "Sun", "time": "Closed"}], "id": "5629200002", "name": "USPS COLLECTION BOX - PO LOBBY", "address": {"city": "VESTA", "state": "MN", "street": "109 S FRONT ST", "postcode": "56292"}}},
{"geometry": {"type": "Point", "coordinates": [-95.2554102137, 44.4020269401]}, "type": "Feature", "properties": {"collection_times": [{"days": "Mon-Sat", "time": "1:15pm"}, {"days": "Sun", "time": "Closed"}], "id": "5629300000", "name": "USPS COLLECTION BOX - BLUE BOX", "address": {"city": "WABASSO", "state": "MN", "street": "733 MAIN ST", "postcode": "56293"}}},
{"geometry": {"type": "Point", "coordinates": [-95.2554102137, 44.4020269401]}, "type": "Feature", "properties": {"collection_times": [{"days": "Mon-Fri", "time": "1:15pm"}, {"days": "Sat", "time": "9:15am"}, {"days": "Sun", "time": "Closed"}], "id": "5629300001", "name": "USPS COLLECTION BOX - PO LOBBY", "address": {"city": "WABASSO", "state": "MN", "street": "733 MAIN ST", "postcode": "56293"}}},
{"geometry": {"type": "Point", "coordinates": [-95.2118916418, 44.3162575781]}, "type": "Feature", "properties": {"collection_times": [{"days": "Mon-Sat", "time": "1:00pm"}, {"days": "Sun", "time": "Closed"}], "id": "5629400000", "name": "USPS COLLECTION BOX - BLUE BOX", "address": {"city": "WANDA", "state": "MN", "street": "201 W MAIN ST", "postcode": "56294"}}},
{"geometry": {"type": "Point", "coordinates": [-95.2118916418, 44.3162575781]}, "type": "Feature", "properties": {"collection_times": [{"days": "Mon-Fri", "time": "1:00pm"}, {"days": "Sat", "time": "9:45am"}, {"days": "Sun", "time": "Closed"}], "id": "5629400001", "name": "USPS COLLECTION BOX - PO LOBBY", "address": {"city": "WANDA", "state": "MN", "street": "201 W MAIN ST", "postcode": "56294"}}},
{"geometry": {"type": "Point", "coordinates": [-95.7960090382, 45.0283665699]}, "type": "Feature", "properties": {"collection_times": [{"days": "Mon-Sat", "time": "2:00pm"}, {"days": "Sun", "time": "Closed"}], "id": "5629500000", "name": "USPS COLLECTION BOX - BLUE BOX", "address": {"city": "WATSON", "state": "MN", "street": "501 CO RD 9", "postcode": "56295"}}},
{"geometry": {"type": "Point", "coordinates": [-95.7960090382, 45.0283665699]}, "type": "Feature", "properties": {"collection_times": [{"days": "Mon-Fri", "time": "2:00pm"}, {"days": "Sat", "time": "12:30pm"}, {"days": "Sun", "time": "Closed"}], "id": "5629500001", "name": "USPS COLLECTION BOX - PO LOBBY", "address": {"city": "WATSON", "state": "MN", "street": "501 CO RD 9", "postcode": "56295"}}},
{"geometry": {"type": "Point", "coordinates": [-96.4902246686, 45.8042561037]}, "type": "Feature", "properties": {"collection_times": [{"days": "Mon-Sat", "time": "9:30am"}, {"days": "Sun", "time": "Closed"}], "id": "5629600000", "name": "USPS COLLECTION BOX - BLUE BOX", "address": {"city": "WHEATON", "state": "MN", "street": "501 BROADWAY", "postcode": "56296"}}},
{"geometry": {"type": "Point", "coordinates": [-96.4985717067, 45.8043190585]}, "type": "Feature", "properties": {"collection_times": [{"days": "Mon-Fri", "time": "12:45pm"}, {"days": "Sat", "time": "9:30am"}, {"days": "Sun", "time": "Closed"}], "id": "5629600003", "name": "USPS COLLECTION BOX - BLUE BOX", "address": {"city": "WHEATON", "state": "MN", "street": "1107 BROADWAY", "postcode": "56296"}}},
{"geometry": {"type": "Point", "coordinates": [-96.4985717067, 45.8043190585]}, "type": "Feature", "properties": {"collection_times": [{"days": "Mon-Fri", "time": "12:45pm"}, {"days": "Sat", "time": "9:30am"}, {"days": "Sun", "time": "Closed"}], "id": "5629600009", "name": "USPS COLLECTION BOX - PO LOBBY", "address": {"city": "WHEATON", "state": "MN", "street": "1107 BROADWAY", "postcode": "56296"}}},
{"geometry": {"type": "Point", "coordinates": [-96.4955371709, 45.805268085]}, "type": "Feature", "properties": {"collection_times": [{"days": "Mon-Sat", "time": "11:30am"}, {"days": "Sun", "time": "Closed"}], "id": "5629600010", "name": "USPS COLLECTION BOX - BLUE BOX", "address": {"city": "WHEATON", "state": "MN", "street": "901 1ST AVE N", "postcode": "56296"}}},
{"geometry": {"type": "Point", "coordinates": [-96.5020232438, 45.8081598407]}, "type": "Feature", "properties": {"collection_times": [{"days": "Mon-Fri", "time": "11:45am"}, {"days": "Sat", "time": "9:30am"}, {"days": "Sun", "time": "Closed"}], "id": "5629600011", "name": "USPS COLLECTION BOX - BLUE BOX", "address": {"city": "WHEATON", "state": "MN", "street": "407 13TH ST N", "postcode": "56296"}}},
{"geometry": {"type": "Point", "coordinates": [-96.4984708933, 45.8093995748]}, "type": "Feature", "properties": {"collection_times": [{"days": "Mon-Fri", "time": "11:45am"}, {"days": "Sat", "time": "9:30am"}, {"days": "Sun", "time": "Closed"}], "id": "5629600012", "name": "USPS COLLECTION BOX - BLUE BOX", "address": {"city": "WHEATON", "state": "MN", "street": "1105 5TH AVE N", "postcode": "56296"}}},
{"geometry": {"type": "Point", "coordinates": [-96.4941181426, 45.8080594958]}, "type": "Feature", "properties": {"collection_times": [{"days": "Mon-Fri", "time": "11:30am"}, {"days": "Sat", "time": "9:30am"}, {"days": "Sun", "time": "Closed"}], "id": "5629600013", "name": "USPS COLLECTION BOX - BLUE BOX", "address": {"city": "WHEATON", "state": "MN", "street": "403 8TH ST N", "postcode": "56296"}}},
{"geometry": {"type": "Point", "coordinates": [-96.4982854643, 45.8062225198]}, "type": "Feature", "properties": {"collection_times": [{"days": "Mon-Fri", "time": "12:00pm"}, {"days": "Sat", "time": "9:30am"}, {"days": "Sun", "time": "Closed"}], "id": "5629600014", "name": "USPS COLLECTION BOX - BLUE BOX", "address": {"city": "WHEATON", "state": "MN", "street": "204 11TH ST N", "postcode": "56296"}}},
{"geometry": {"type": "Point", "coordinates": [-95.5446215771, 44.626434517]}, "type": "Feature", "properties": {"collection_times": [{"days": "Mon-Sat", "time": "2:15pm"}, {"days": "Sun", "time": "Closed"}], "id": "5629700000", "name": "USPS COLLECTION BOX - BLUE BOX", "address": {"city": "WOOD LAKE", "state": "MN", "street": "1 2ND AVE", "postcode": "56297"}}},
{"geometry": {"type": "Point", "coordinates": [-95.5446215771, 44.626434517]}, "type": "Feature", "properties": {"collection_times": [{"days": "Mon-Sat", "time": "2:15pm"}, {"days": "Sun", "time": "Closed"}], "id": "5629700001", "name": "USPS COLLECTION BOX - BLUE BOX", "address": {"city": "WOOD LAKE", "state": "MN", "street": "1 2ND AVE", "postcode": "56297"}}},
{"geometry": {"type": "Point", "coordinates": [-95.5446215771, 44.626434517]}, "type": "Feature", "properties": {"collection_times": [{"days": "Mon-Fri", "time": "1:45pm"}, {"days": "Sat", "time": "9:00am"}, {"days": "Sun", "time": "Closed"}], "id": "5629700002", "name": "USPS COLLECTION BOX - PO LOBBY", "address": {"city": "WOOD LAKE", "state": "MN", "street": "1 2ND AVE", "postcode": "56297"}}}
]}
