{"type": "FeatureCollection", "features": [
{"geometry": {"type": "Point", "coordinates": [-94.165011815, 45.5581425434]}, "type": "Feature", "properties": {"collection_times": [{"days": "Mon-Fri", "time": "3:15pm"}, {"days": "Sat-Sun", "time": "Closed"}], "id": "5630100001", "name": "USPS COLLECTION BOX - BLUE BOX", "address": {"city": "SAINT CLOUD", "state": "MN", "street": "1100 W SAINT GERMAIN ST", "postcode": "56301"}}},
{"geometry": {"type": "Point", "coordinates": [-94.165011815, 45.5581425434]}, "type": "Feature", "properties": {"collection_times": [{"days": "Mon-Fri", "time": "3:15pm"}, {"days": "Sat-Sun", "time": "Closed"}], "id": "5630100002", "name": "USPS COLLECTION BOX - BLUE BOX", "address": {"city": "SAINT CLOUD", "state": "MN", "street": "1100 W SAINT GERMAIN ST", "postcode": "56301"}}},
{"geometry": {"type": "Point", "coordinates": [-94.1606247106, 45.5600183586]}, "type": "Feature", "properties": {"collection_times": [{"days": "Mon-Sat", "time": "4:00pm"}, {"days": "Sun", "time": "Closed"}], "id": "5630100006", "name": "USPS COLLECTION BOX - BLUE BOX", "address": {"city": "SAINT CLOUD", "state": "MN", "street": "720 W SAINT GERMAIN ST", "postcode": "56301"}}},
{"geometry": {"type": "Point", "coordinates": [-94.1606247106, 45.5600183586]}, "type": "Feature", "properties": {"collection_times": [{"days": "Mon-Sat", "time": "4:00pm"}, {"days": "Sun", "time": "Closed"}], "id": "5630100008", "name": "USPS COLLECTION BOX - BLUE BOX", "address": {"city": "SAINT CLOUD", "state": "MN", "street": "720 W SAINT GERMAIN ST", "postcode": "56301"}}},
{"geometry": {"type": "Point", "coordinates": [-94.1606247106, 45.5600183586]}, "type": "Feature", "properties": {"collection_times": [{"days": "Mon-Sat", "time": "4:00pm"}, {"days": "Sun", "time": "Closed"}], "id": "5630100010", "name": "USPS COLLECTION BOX - BLUE BOX", "address": {"city": "SAINT CLOUD", "state": "MN", "street": "720 W SAINT GERMAIN ST", "postcode": "56301"}}},
{"geometry": {"type": "Point", "coordinates": [-94.1614070582, 45.5596045718]}, "type": "Feature", "properties": {"collection_times": [{"days": "Mon-Sat", "time": "4:00pm"}, {"days": "Sun", "time": "Closed"}], "id": "5630100011", "name": "USPS COLLECTION BOX - BLUE BOX", "address": {"city": "SAINT CLOUD", "state": "MN", "street": "10 8TH AVE S", "postcode": "56301"}}},
{"geometry": {"type": "Point", "coordinates": [-94.1561793458, 45.5606183421]}, "type": "Feature", "properties": {"collection_times": [{"days": "Mon-Fri", "time": "3:30pm"}, {"days": "Sat-Sun", "time": "Closed"}], "id": "5630100016", "name": "USPS COLLECTION BOX - BLUE BOX", "address": {"city": "SAINT CLOUD", "state": "MN", "street": "400 1ST ST S", "postcode": "56301"}}},
{"geometry": {"type": "Point", "coordinates": [-94.1561793458, 45.5606183421]}, "type": "Feature", "properties": {"collection_times": [{"days": "Mon-Fri", "time": "3:30pm"}, {"days": "Sat-Sun", "time": "Closed"}], "id": "5630100017", "name": "USPS COLLECTION BOX - BLUE BOX", "address": {"city": "SAINT CLOUD", "state": "MN", "street": "400 1ST ST S", "postcode": "56301"}}},
{"geometry": {"type": "Point", "coordinates": [-94.1987801793, 45.5534050447]}, "type": "Feature", "properties": {"collection_times": [{"days": "Mon-Fri", "time": "3:30pm"}, {"days": "Sat", "time": "2:30pm"}, {"days": "Sun", "time": "Closed"}], "id": "5630100024", "name": "USPS COLLECTION BOX - BLUE BOX", "address": {"city": "SAINT CLOUD", "state": "MN", "street": "3333 W DIVISION ST", "postcode": "56301"}}},
{"geometry": {"type": "Point", "coordinates": [-94.187874529, 45.5473889209]}, "type": "Feature", "properties": {"collection_times": [{"days": "Mon-Fri", "time": "3:30pm"}, {"days": "Sat-Sun", "time": "Closed"}], "id": "5630100038", "name": "USPS COLLECTION BOX - BLUE BOX", "address": {"city": "SAINT CLOUD", "state": "MN", "street": "600 25TH AVE S", "postcode": "56301"}}},
{"geometry": {"type": "Point", "coordinates": [-94.187874529, 45.5473889209]}, "type": "Feature", "properties": {"collection_times": [{"days": "Mon-Fri", "time": "3:30pm"}, {"days": "Sat-Sun", "time": "Closed"}], "id": "5630100039", "name": "USPS COLLECTION BOX - BLUE BOX", "address": {"city": "SAINT CLOUD", "state": "MN", "street": "600 25TH AVE S", "postcode": "56301"}}},
{"geometry": {"type": "Point", "coordinates": [-94.1880861197, 45.5530708146]}, "type": "Feature", "properties": {"collection_times": [{"days": "Mon-Fri", "time": "3:30pm"}, {"days": "Sat", "time": "2:15pm"}, {"days": "Sun", "time": "Closed"}], "id": "5630100041", "name": "USPS COLLECTION BOX - BLUE BOX", "address": {"city": "SAINT CLOUD", "state": "MN", "street": "2510 W DIVISION ST", "postcode": "56301"}}},
{"geometry": {"type": "Point", "coordinates": [-94.1880861197, 45.5530708146]}, "type": "Feature", "properties": {"collection_times": [{"days": "Mon-Fri", "time": "3:30pm"}, {"days": "Sat", "time": "2:15pm"}, {"days": "Sun", "time": "Closed"}], "id": "5630100042", "name": "USPS COLLECTION BOX - BLUE BOX", "address": {"city": "SAINT CLOUD", "state": "MN", "street": "2510 W DIVISION ST", "postcode": "56301"}}},
{"geometry": {"type": "Point", "coordinates": [-94.1614070582, 45.5596045718]}, "type": "Feature", "properties": {"collection_times": [{"days": "Mon-Sat", "time": "4:00pm"}, {"days": "Sun", "time": "Closed"}], "id": "5630100053", "name": "USPS COLLECTION BOX - BLUE BOX", "address": {"city": "SAINT CLOUD", "state": "MN", "street": "10 8TH AVE S", "postcode": "56301"}}},
{"geometry": {"type": "Point", "coordinates": [-94.1614070582, 45.5596045718]}, "type": "Feature", "properties": {"collection_times": [{"days": "Mon-Sat", "time": "4:00pm"}, {"days": "Sun", "time": "Closed"}], "id": "5630100054", "name": "USPS COLLECTION BOX - BLUE BOX", "address": {"city": "SAINT CLOUD", "state": "MN", "street": "10 8TH AVE S", "postcode": "56301"}}},
{"geometry": {"type": "Point", "coordinates": [-94.1773970749, 45.5500663455]}, "type": "Feature", "properties": {"collection_times": [{"days": "Mon-Sat", "time": "1:45pm"}, {"days": "Sun", "time": "Closed"}], "id": "5630100071", "name": "USPS COLLECTION BOX - BLUE BOX", "address": {"city": "SAINT CLOUD", "state": "MN", "street": "900 COOPER AVE S", "postcode": "56301"}}},
{"geometry": {"type": "Point", "coordinates": [-94.1645374463, 45.5610599704]}, "type": "Feature", "properties": {"collection_times": [{"days": "Mon-Sat", "time": "4:15pm"}, {"days": "Sun", "time": "Closed"}], "id": "5630100101", "name": "USPS COLLECTION BOX - PO LOBBY", "address": {"city": "SAINT CLOUD", "state": "MN", "street": "915 2ND ST N", "postcode": "56301"}}},
{"geometry": {"type": "Point", "coordinates": [-94.1645374463, 45.5610599704]}, "type": "Feature", "properties": {"collection_times": [{"days": "Mon-Sat", "time": "4:15pm"}, {"days": "Sun", "time": "Closed"}], "id": "5630100102", "name": "USPS COLLECTION BOX - APC", "address": {"city": "SAINT CLOUD", "state": "MN", "street": "915 2ND ST N", "postcode": "56301"}}},
{"geometry": {"type": "Point", "coordinates": [-94.2102388962, 45.5532208333]}, "type": "Feature", "properties": {"collection_times": [{"days": "Mon-Sat", "time": "5:00pm"}, {"days": "Sun", "time": "Closed"}], "id": "5630100116", "name": "USPS COLLECTION BOX - BLUE BOX", "address": {"city": "SAINT CLOUD", "state": "MN", "street": "4170 W DIVISION ST", "postcode": "56301"}}},
{"geometry": {"type": "Point", "coordinates": [-94.2102388962, 45.5532208333]}, "type": "Feature", "properties": {"collection_times": [{"days": "Mon-Sat", "time": "5:00pm"}, {"days": "Sun", "time": "Closed"}], "id": "5630100117", "name": "USPS COLLECTION BOX - BLUE BOX", "address": {"city": "SAINT CLOUD", "state": "MN", "street": "4170 W DIVISION ST", "postcode": "56301"}}},
{"geometry": {"type": "Point", "coordinates": [-94.2102388962, 45.5532208333]}, "type": "Feature", "properties": {"collection_times": [{"days": "Mon-Sat", "time": "5:00pm"}, {"days": "Sun", "time": "Closed"}], "id": "5630100118", "name": "USPS COLLECTION BOX - BLUE BOX", "address": {"city": "SAINT CLOUD", "state": "MN", "street": "4170 W DIVISION ST", "postcode": "56301"}}},
{"geometry": {"type": "Point", "coordinates": [-94.2102388962, 45.5532208333]}, "type": "Feature", "properties": {"collection_times": [{"days": "Mon-Sat", "time": "5:00pm"}, {"days": "Sun", "time": "Closed"}], "id": "5630100119", "name": "USPS COLLECTION BOX - PO LOBBY", "address": {"city": "SAINT CLOUD", "state": "MN", "street": "4170 W DIVISION ST", "postcode": "56301"}}},
{"geometry": {"type": "Point", "coordinates": [-94.1614070582, 45.5596045718]}, "type": "Feature", "properties": {"collection_times": [{"days": "Mon-Sat", "time": "4:00pm"}, {"days": "Sun", "time": "Closed"}], "id": "5630100122", "name": "USPS COLLECTION BOX - BLUE BOX", "address": {"city": "SAINT CLOUD", "state": "MN", "street": "10 8TH AVE S", "postcode": "56301"}}},
{"geometry": {"type": "Point", "coordinates": [-94.1614070582, 45.5596045718]}, "type": "Feature", "properties": {"collection_times": [{"days": "Mon-Sat", "time": "4:00pm"}, {"days": "Sun", "time": "Closed"}], "id": "5630100123", "name": "USPS COLLECTION BOX - BLUE BOX", "address": {"city": "SAINT CLOUD", "state": "MN", "street": "10 8TH AVE S", "postcode": "56301"}}},
{"geometry": {"type": "Point", "coordinates": [-94.2102388962, 45.5532208333]}, "type": "Feature", "properties": {"collection_times": [{"days": "Mon-Sat", "time": "5:00pm"}, {"days": "Sun", "time": "Closed"}], "id": "5630100124", "name": "USPS COLLECTION BOX - APC", "address": {"city": "SAINT CLOUD", "state": "MN", "street": "4170 W DIVISION ST", "postcode": "56301"}}},
{"geometry": {"type": "Point", "coordinates": [-94.1905048069, 45.5549300332]}, "type": "Feature", "properties": {"collection_times": [{"days": "Mon-Fri", "time": "3:15pm"}, {"days": "Sat-Sun", "time": "Closed"}], "id": "5630300001", "name": "USPS COLLECTION BOX - BLUE BOX", "address": {"city": "SAINT CLOUD", "state": "MN", "street": "2700 1ST ST N", "postcode": "56303"}}},
{"geometry": {"type": "Point", "coordinates": [-94.1982971589, 45.5588115173]}, "type": "Feature", "properties": {"collection_times": [{"days": "Mon-Fri", "time": "3:45pm"}, {"days": "Sat", "time": "2:45pm"}, {"days": "Sun", "time": "Closed"}], "id": "5630300003", "name": "USPS COLLECTION BOX - BLUE BOX", "address": {"city": "SAINT CLOUD", "state": "MN", "street": "305 33RD AVE N", "postcode": "56303"}}},
{"geometry": {"type": "Point", "coordinates": [-94.1827469076, 45.5652965923]}, "type": "Feature", "properties": {"collection_times": [{"days": "Mon-Sat", "time": "2:15pm"}, {"days": "Sun", "time": "Closed"}], "id": "5630300006", "name": "USPS COLLECTION BOX - BLUE BOX", "address": {"city": "SAINT CLOUD", "state": "MN", "street": "2118 8TH ST N", "postcode": "56303"}}},
{"geometry": {"type": "Point", "coordinates": [-94.2255534689, 45.5689748889]}, "type": "Feature", "properties": {"collection_times": [{"days": "Mon-Sat", "time": "2:30pm"}, {"days": "Sun", "time": "Closed"}], "id": "5630300009", "name": "USPS COLLECTION BOX - BLUE BOX", "address": {"city": "SAINT CLOUD", "state": "MN", "street": "905 COUNTY ROAD 4", "postcode": "56303"}}},
{"geometry": {"type": "Point", "coordinates": [-94.1768744051, 45.5802986783]}, "type": "Feature", "properties": {"collection_times": [{"days": "Mon-Fri", "time": "2:15pm"}, {"days": "Sat-Sun", "time": "Closed"}], "id": "5630300011", "name": "USPS COLLECTION BOX - BLUE BOX", "address": {"city": "SAINT CLOUD", "state": "MN", "street": "1540 NORTHWAY DR", "postcode": "56303"}}},
{"geometry": {"type": "Point", "coordinates": [-94.1643680014, 45.5610281627]}, "type": "Feature", "properties": {"collection_times": [{"days": "Mon-Sat", "time": "4:00pm"}, {"days": "Sun", "time": "Closed"}], "id": "5630300016", "name": "USPS COLLECTION BOX - BLUE BOX", "address": {"city": "SAINT CLOUD", "state": "MN", "street": "199 9TH AVE N", "postcode": "56303"}}},
{"geometry": {"type": "Point", "coordinates": [-94.2047632118, 45.5660099408]}, "type": "Feature", "properties": {"collection_times": [{"days": "Mon-Fri", "time": "1:45pm"}, {"days": "Sat-Sun", "time": "Closed"}], "id": "5630300017", "name": "USPS COLLECTION BOX - BLUE BOX", "address": {"city": "SAINT CLOUD", "state": "MN", "street": "3800 8TH ST N", "postcode": "56303"}}},
{"geometry": {"type": "Point", "coordinates": [-94.2054178962, 45.5852479629]}, "type": "Feature", "properties": {"collection_times": [{"days": "Mon-Fri", "time": "2:45pm"}, {"days": "Sat-Sun", "time": "Closed"}], "id": "5630300018", "name": "USPS COLLECTION BOX - BLUE BOX", "address": {"city": "SAINT CLOUD", "state": "MN", "street": "1900 CENTRA CARE CIR", "postcode": "56303"}}},
{"geometry": {"type": "Point", "coordinates": [-94.1643680014, 45.5610281627]}, "type": "Feature", "properties": {"collection_times": [{"days": "Mon-Sat", "time": "4:00pm"}, {"days": "Sun", "time": "Closed"}], "id": "5630300019", "name": "USPS COLLECTION BOX - BLUE BOX", "address": {"city": "SAINT CLOUD", "state": "MN", "street": "199 9TH AVE N", "postcode": "56303"}}},
{"geometry": {"type": "Point", "coordinates": [-94.2177181071, 45.5674606942]}, "type": "Feature", "properties": {"collection_times": [{"days": "Mon-Fri", "time": "1:45pm"}, {"days": "Sat-Sun", "time": "Closed"}], "id": "5630300020", "name": "USPS COLLECTION BOX - BLUE BOX", "address": {"city": "SAINT CLOUD", "state": "MN", "street": "4801 VETERANS DR", "postcode": "56303"}}},
{"geometry": {"type": "Point", "coordinates": [-94.151427307, 45.5656386064]}, "type": "Feature", "properties": {"collection_times": [{"days": "Mon-Fri", "time": "2:45pm"}, {"days": "Sat", "time": "1:00pm"}, {"days": "Sun", "time": "Closed"}], "id": "5630400001", "name": "USPS COLLECTION BOX - BLUE BOX", "address": {"city": "SAINT CLOUD", "state": "MN", "street": "22 WILSON AVE NE", "postcode": "56304"}}},
{"geometry": {"type": "Point", "coordinates": [-94.1471449834, 45.5619491063]}, "type": "Feature", "properties": {"collection_times": [{"days": "Mon-Fri", "time": "2:45pm"}, {"days": "Sat", "time": "12:45pm"}, {"days": "Sun", "time": "Closed"}], "id": "5630400003", "name": "USPS COLLECTION BOX - BLUE BOX", "address": {"city": "SAINT CLOUD", "state": "MN", "street": "1001 4TH ST SE", "postcode": "56304"}}},
{"geometry": {"type": "Point", "coordinates": [-94.151427307, 45.5656386064]}, "type": "Feature", "properties": {"collection_times": [{"days": "Mon-Fri", "time": "2:45pm"}, {"days": "Sat", "time": "1:00pm"}, {"days": "Sun", "time": "Closed"}], "id": "5630400005", "name": "USPS COLLECTION BOX - BLUE BOX", "address": {"city": "SAINT CLOUD", "state": "MN", "street": "22 WILSON AVE NE", "postcode": "56304"}}},
{"geometry": {"type": "Point", "coordinates": [-94.5646262041, 45.6295167171]}, "type": "Feature", "properties": {"collection_times": [{"days": "Mon-Fri", "time": "4:00pm"}, {"days": "Sat", "time": "10:00am"}, {"days": "Sun", "time": "Closed"}], "id": "5630700000", "name": "USPS COLLECTION BOX - BLUE BOX", "address": {"city": "ALBANY", "state": "MN", "street": "141 RAILROAD AVE", "postcode": "56307"}}},
{"geometry": {"type": "Point", "coordinates": [-94.5646262041, 45.6295167171]}, "type": "Feature", "properties": {"collection_times": [{"days": "Mon-Fri", "time": "4:00pm"}, {"days": "Sat", "time": "10:00am"}, {"days": "Sun", "time": "Closed"}], "id": "5630700001", "name": "USPS COLLECTION BOX - PO LOBBY", "address": {"city": "ALBANY", "state": "MN", "street": "141 RAILROAD AVE", "postcode": "56307"}}},
{"geometry": {"type": "Point", "coordinates": [-95.37759796, 45.8798733161]}, "type": "Feature", "properties": {"collection_times": [{"days": "Mon-Sat", "time": "1:00pm"}, {"days": "Sun", "time": "Closed"}], "id": "5630800005", "name": "USPS COLLECTION BOX - BLUE BOX", "address": {"city": "ALEXANDRIA", "state": "MN", "street": "1121 BROADWAY ST", "postcode": "56308"}}},
{"geometry": {"type": "Point", "coordinates": [-95.3772670167, 45.8727052158]}, "type": "Feature", "properties": {"collection_times": [{"days": "Mon-Sat", "time": "10:30am"}, {"days": "Sun", "time": "Closed"}], "id": "5630800006", "name": "USPS COLLECTION BOX - BLUE BOX", "address": {"city": "ALEXANDRIA", "state": "MN", "street": "111 17TH AVE E", "postcode": "56308"}}},
{"geometry": {"type": "Point", "coordinates": [-95.368385739, 45.8894786483]}, "type": "Feature", "properties": {"collection_times": [{"days": "Mon-Sat", "time": "9:30am"}, {"days": "Sun", "time": "Closed"}], "id": "5630800008", "name": "USPS COLLECTION BOX - BLUE BOX", "address": {"city": "ALEXANDRIA", "state": "MN", "street": "707 3RD AVE E", "postcode": "56308"}}},
{"geometry": {"type": "Point", "coordinates": [-95.3779389742, 45.8651718345]}, "type": "Feature", "properties": {"collection_times": [{"days": "Mon-Sat", "time": "1:00pm"}, {"days": "Sun", "time": "Closed"}], "id": "5630800010", "name": "USPS COLLECTION BOX - BLUE BOX", "address": {"city": "ALEXANDRIA", "state": "MN", "street": "2612 S BROADWAY ST", "postcode": "56308"}}},
{"geometry": {"type": "Point", "coordinates": [-95.3619897415, 45.8894274868]}, "type": "Feature", "properties": {"collection_times": [{"days": "Mon-Sat", "time": "12:45pm"}, {"days": "Sun", "time": "Closed"}], "id": "5630800012", "name": "USPS COLLECTION BOX - BLUE BOX", "address": {"city": "ALEXANDRIA", "state": "MN", "street": "1109 3RD AVE E", "postcode": "56308"}}},
{"geometry": {"type": "Point", "coordinates": [-95.3805695699, 45.8869238131]}, "type": "Feature", "properties": {"collection_times": [{"days": "Mon-Fri", "time": "3:15pm"}, {"days": "Sat", "time": "2:45pm"}, {"days": "Sun", "time": "Closed"}], "id": "5630800017", "name": "USPS COLLECTION BOX - PO LOBBY", "address": {"city": "ALEXANDRIA", "state": "MN", "street": "519 ELM ST", "postcode": "56308"}}},
{"geometry": {"type": "Point", "coordinates": [-95.3827613207, 45.8626447638]}, "type": "Feature", "properties": {"collection_times": [{"days": "Mon-Sat", "time": "12:45pm"}, {"days": "Sun", "time": "Closed"}], "id": "5630800018", "name": "USPS COLLECTION BOX - BLUE BOX", "address": {"city": "ALEXANDRIA", "state": "MN", "street": "3015 HIGHWAY 29 S", "postcode": "56308"}}},
{"geometry": {"type": "Point", "coordinates": [-95.3805695699, 45.8869238131]}, "type": "Feature", "properties": {"collection_times": [{"days": "Mon-Fri", "time": "3:15pm"}, {"days": "Sat", "time": "2:45pm"}, {"days": "Sun", "time": "Closed"}], "id": "5630800020", "name": "USPS COLLECTION BOX - BLUE BOX", "address": {"city": "ALEXANDRIA", "state": "MN", "street": "519 ELM ST", "postcode": "56308"}}},
{"geometry": {"type": "Point", "coordinates": [-95.3805695699, 45.8869238131]}, "type": "Feature", "properties": {"collection_times": [{"days": "Mon-Fri", "time": "3:15pm"}, {"days": "Sat", "time": "2:45pm"}, {"days": "Sun", "time": "Closed"}], "id": "5630800025", "name": "USPS COLLECTION BOX - APC", "address": {"city": "ALEXANDRIA", "state": "MN", "street": "519 ELM ST", "postcode": "56308"}}},
{"geometry": {"type": "Point", "coordinates": [-95.3877977479, 45.8492728824]}, "type": "Feature", "properties": {"collection_times": [{"days": "Mon-Sat", "time": "10:30am"}, {"days": "Sun", "time": "Closed"}], "id": "5630800026", "name": "USPS COLLECTION BOX - BLUE BOX", "address": {"city": "ALEXANDRIA", "state": "MN", "street": "4611 HIGHWAY 29 S", "postcode": "56308"}}},
{"geometry": {"type": "Point", "coordinates": [-95.81166125, 46.0932443606]}, "type": "Feature", "properties": {"collection_times": [{"days": "Mon-Fri", "time": "2:00pm"}, {"days": "Sat", "time": "9:30am"}, {"days": "Sun", "time": "Closed"}], "id": "5630900000", "name": "USPS COLLECTION BOX - BLUE BOX", "address": {"city": "ASHBY", "state": "MN", "street": "111 MAIN ST", "postcode": "56309"}}},
{"geometry": {"type": "Point", "coordinates": [-95.81166125, 46.0932443606]}, "type": "Feature", "properties": {"collection_times": [{"days": "Mon-Fri", "time": "1:30pm"}, {"days": "Sat", "time": "9:30am"}, {"days": "Sun", "time": "Closed"}], "id": "5630900001", "name": "USPS COLLECTION BOX - PO LOBBY", "address": {"city": "ASHBY", "state": "MN", "street": "111 MAIN ST", "postcode": "56309"}}},
{"geometry": {"type": "Point", "coordinates": [-94.449945027, 45.6056497085]}, "type": "Feature", "properties": {"collection_times": [{"days": "Mon-Fri", "time": "4:15pm"}, {"days": "Sat", "time": "9:30am"}, {"days": "Sun", "time": "Closed"}], "id": "5631000000", "name": "USPS COLLECTION BOX - BLUE BOX", "address": {"city": "AVON", "state": "MN", "street": "317 BLATTNER DR", "postcode": "56310"}}},
{"geometry": {"type": "Point", "coordinates": [-94.449945027, 45.6056497085]}, "type": "Feature", "properties": {"collection_times": [{"days": "Mon-Fri", "time": "4:15pm"}, {"days": "Sat", "time": "9:15am"}, {"days": "Sun", "time": "Closed"}], "id": "5631000001", "name": "USPS COLLECTION BOX - PO LOBBY", "address": {"city": "AVON", "state": "MN", "street": "317 BLATTNER DR", "postcode": "56310"}}},
{"geometry": {"type": "Point", "coordinates": [-95.8908457855, 45.9104526463]}, "type": "Feature", "properties": {"collection_times": [{"days": "Mon-Fri", "time": "1:30pm"}, {"days": "Sat", "time": "10:00am"}, {"days": "Sun", "time": "Closed"}], "id": "5631100000", "name": "USPS COLLECTION BOX - BLUE BOX", "address": {"city": "BARRETT", "state": "MN", "street": "103 HAWKINS AVE", "postcode": "56311"}}},
{"geometry": {"type": "Point", "coordinates": [-95.8908457855, 45.9104526463]}, "type": "Feature", "properties": {"collection_times": [{"days": "Mon-Fri", "time": "12:15pm"}, {"days": "Sat", "time": "10:00am"}, {"days": "Sun", "time": "Closed"}], "id": "5631100001", "name": "USPS COLLECTION BOX - PO LOBBY", "address": {"city": "BARRETT", "state": "MN", "street": "103 HAWKINS AVE", "postcode": "56311"}}},
{"geometry": {"type": "Point", "coordinates": [-95.00423134, 45.4523799986]}, "type": "Feature", "properties": {"collection_times": [{"days": "Mon-Fri", "time": "3:15pm"}, {"days": "Sat", "time": "9:30am"}, {"days": "Sun", "time": "Closed"}], "id": "5631200000", "name": "USPS COLLECTION BOX - BLUE BOX", "address": {"city": "BELGRADE", "state": "MN", "street": "421 WASHBURN AVE", "postcode": "56312"}}},
{"geometry": {"type": "Point", "coordinates": [-95.00423134, 45.4523799986]}, "type": "Feature", "properties": {"collection_times": [{"days": "Mon-Fri", "time": "3:15pm"}, {"days": "Sat", "time": "9:30am"}, {"days": "Sun", "time": "Closed"}], "id": "5631200001", "name": "USPS COLLECTION BOX - PO LOBBY", "address": {"city": "BELGRADE", "state": "MN", "street": "421 WASHBURN AVE", "postcode": "56312"}}},
{"geometry": {"type": "Point", "coordinates": [-93.5527342549, 45.7855781775]}, "type": "Feature", "properties": {"collection_times": [{"days": "Mon-Fri", "time": "3:00pm"}, {"days": "Sat", "time": "12:30pm"}, {"days": "Sun", "time": "Closed"}], "id": "5631300000", "name": "USPS COLLECTION BOX - BLUE BOX", "address": {"city": "BOCK", "state": "MN", "street": "1661 WALL AVE", "postcode": "56313"}}},
{"geometry": {"type": "Point", "coordinates": [-93.5527342549, 45.7855781775]}, "type": "Feature", "properties": {"collection_times": [{"days": "Mon-Fri", "time": "2:15pm"}, {"days": "Sat", "time": "12:30pm"}, {"days": "Sun", "time": "Closed"}], "id": "5631300001", "name": "USPS COLLECTION BOX - PO LOBBY", "address": {"city": "BOCK", "state": "MN", "street": "1661 WALL AVE", "postcode": "56313"}}},
{"geometry": {"type": "Point", "coordinates": [-94.4052553339, 45.821974879]}, "type": "Feature", "properties": {"collection_times": [{"days": "Mon-Fri", "time": "1:30pm"}, {"days": "Sat", "time": "9:30am"}, {"days": "Sun", "time": "Closed"}], "id": "5631400000", "name": "USPS COLLECTION BOX - BLUE BOX", "address": {"city": "BOWLUS", "state": "MN", "street": "172 MAIN ST", "postcode": "56314"}}},
{"geometry": {"type": "Point", "coordinates": [-94.4052553339, 45.821974879]}, "type": "Feature", "properties": {"collection_times": [{"days": "Mon-Fri", "time": "11:15am"}, {"days": "Sat", "time": "9:30am"}, {"days": "Sun", "time": "Closed"}], "id": "5631400001", "name": "USPS COLLECTION BOX - PO LOBBY", "address": {"city": "BOWLUS", "state": "MN", "street": "172 MAIN ST", "postcode": "56314"}}},
{"geometry": {"type": "Point", "coordinates": [-95.5937548974, 45.9635971276]}, "type": "Feature", "properties": {"collection_times": [{"days": "Mon-Fri", "time": "2:30pm"}, {"days": "Sat", "time": "10:00am"}, {"days": "Sun", "time": "Closed"}], "id": "5631500000", "name": "USPS COLLECTION BOX - BLUE BOX", "address": {"city": "BRANDON", "state": "MN", "street": "101 E FRONT ST", "postcode": "56315"}}},
{"geometry": {"type": "Point", "coordinates": [-95.5937548974, 45.9635971276]}, "type": "Feature", "properties": {"collection_times": [{"days": "Mon-Fri", "time": "1:30pm"}, {"days": "Sat", "time": "10:00am"}, {"days": "Sun", "time": "Closed"}], "id": "5631500001", "name": "USPS COLLECTION BOX - PO LOBBY", "address": {"city": "BRANDON", "state": "MN", "street": "101 E FRONT ST", "postcode": "56315"}}},
{"geometry": {"type": "Point", "coordinates": [-95.1244630595, 45.5013243755]}, "type": "Feature", "properties": {"collection_times": [{"days": "Mon-Fri", "time": "3:00pm"}, {"days": "Sat", "time": "9:00am"}, {"days": "Sun", "time": "Closed"}], "id": "5631600000", "name": "USPS COLLECTION BOX - BLUE BOX", "address": {"city": "BROOTEN", "state": "MN", "street": "149 CENTRAL AVE N", "postcode": "56316"}}},
{"geometry": {"type": "Point", "coordinates": [-95.1244630595, 45.5013243755]}, "type": "Feature", "properties": {"collection_times": [{"days": "Mon-Fri", "time": "3:00pm"}, {"days": "Sat", "time": "9:00am"}, {"days": "Sun", "time": "Closed"}], "id": "5631600001", "name": "USPS COLLECTION BOX - PO LOBBY", "address": {"city": "BROOTEN", "state": "MN", "street": "149 CENTRAL AVE N", "postcode": "56316"}}},
{"geometry": {"type": "Point", "coordinates": [-94.6863394975, 45.8663400944]}, "type": "Feature", "properties": {"collection_times": [{"days": "Mon-Fri", "time": "2:30pm"}, {"days": "Sat", "time": "8:30am"}, {"days": "Sun", "time": "Closed"}], "id": "5631800000", "name": "USPS COLLECTION BOX - BLUE BOX", "address": {"city": "BURTRUM", "state": "MN", "street": "111 MAIN ST W", "postcode": "56318"}}},
{"geometry": {"type": "Point", "coordinates": [-94.6863394975, 45.8663400944]}, "type": "Feature", "properties": {"collection_times": [{"days": "Mon-Fri", "time": "11:15am"}, {"days": "Sat", "time": "8:30am"}, {"days": "Sun", "time": "Closed"}], "id": "5631800001", "name": "USPS COLLECTION BOX - PO LOBBY", "address": {"city": "BURTRUM", "state": "MN", "street": "111 MAIN ST W", "postcode": "56318"}}},
{"geometry": {"type": "Point", "coordinates": [-95.2930947926, 45.9733106728]}, "type": "Feature", "properties": {"collection_times": [{"days": "Mon-Fri", "time": "2:45pm"}, {"days": "Sat", "time": "9:30am"}, {"days": "Sun", "time": "Closed"}], "id": "5631900000", "name": "USPS COLLECTION BOX - BLUE BOX", "address": {"city": "CARLOS", "state": "MN", "street": "104 MAIN AVE", "postcode": "56319"}}},
{"geometry": {"type": "Point", "coordinates": [-95.2930947926, 45.9733106728]}, "type": "Feature", "properties": {"collection_times": [{"days": "Mon-Fri", "time": "11:30am"}, {"days": "Sat", "time": "9:30am"}, {"days": "Sun", "time": "Closed"}], "id": "5631900001", "name": "USPS COLLECTION BOX - PO LOBBY", "address": {"city": "CARLOS", "state": "MN", "street": "104 MAIN AVE", "postcode": "56319"}}},
{"geometry": {"type": "Point", "coordinates": [-94.4289070136, 45.4559653057]}, "type": "Feature", "properties": {"collection_times": [{"days": "Mon-Fri", "time": "4:15pm"}, {"days": "Sat", "time": "10:00am"}, {"days": "Sun", "time": "Closed"}], "id": "5632000001", "name": "USPS COLLECTION BOX - BLUE BOX", "address": {"city": "COLD SPRING", "state": "MN", "street": "14 RED RIVER AVE N", "postcode": "56320"}}},
{"geometry": {"type": "Point", "coordinates": [-94.4289070136, 45.4559653057]}, "type": "Feature", "properties": {"collection_times": [{"days": "Mon-Fri", "time": "4:15pm"}, {"days": "Sat", "time": "10:00am"}, {"days": "Sun", "time": "Closed"}], "id": "5632000002", "name": "USPS COLLECTION BOX - BLUE BOX", "address": {"city": "COLD SPRING", "state": "MN", "street": "14 RED RIVER AVE N", "postcode": "56320"}}},
{"geometry": {"type": "Point", "coordinates": [-94.4289070136, 45.4559653057]}, "type": "Feature", "properties": {"collection_times": [{"days": "Mon-Fri", "time": "4:15pm"}, {"days": "Sat", "time": "9:30am"}, {"days": "Sun", "time": "Closed"}], "id": "5632000003", "name": "USPS COLLECTION BOX - PO LOBBY", "address": {"city": "COLD SPRING", "state": "MN", "street": "14 RED RIVER AVE N", "postcode": "56320"}}},
{"geometry": {"type": "Point", "coordinates": [-94.3408089062, 45.593702112]}, "type": "Feature", "properties": {"collection_times": [{"days": "Mon-Fri", "time": "3:45pm"}, {"days": "Sat", "time": "8:30am"}, {"days": "Sun", "time": "Closed"}], "id": "5632100000", "name": "USPS COLLECTION BOX - BLUE BOX", "address": {"city": "COLLEGEVILLE", "state": "MN", "street": "110 E POWERHOUSE RD", "postcode": "56321"}}},
{"geometry": {"type": "Point", "coordinates": [-95.7376505142, 45.6145543229]}, "type": "Feature", "properties": {"collection_times": [{"days": "Mon-Fri", "time": "2:00pm"}, {"days": "Sat", "time": "9:00am"}, {"days": "Sun", "time": "Closed"}], "id": "5632300000", "name": "USPS COLLECTION BOX - BLUE BOX", "address": {"city": "CYRUS", "state": "MN", "street": "125 E MAIN ST", "postcode": "56323"}}},
{"geometry": {"type": "Point", "coordinates": [-95.7376505142, 45.6145543229]}, "type": "Feature", "properties": {"collection_times": [{"days": "Mon-Fri", "time": "12:00pm"}, {"days": "Sat", "time": "9:00am"}, {"days": "Sun", "time": "Closed"}], "id": "5632300001", "name": "USPS COLLECTION BOX - PO LOBBY", "address": {"city": "CYRUS", "state": "MN", "street": "125 E MAIN ST", "postcode": "56323"}}},
{"geometry": {"type": "Point", "coordinates": [-95.9155208771, 46.1736643326]}, "type": "Feature", "properties": {"collection_times": [{"days": "Mon-Fri", "time": "1:45pm"}, {"days": "Sat", "time": "10:00am"}, {"days": "Sun", "time": "Closed"}], "id": "5632400000", "name": "USPS COLLECTION BOX - BLUE BOX", "address": {"city": "DALTON", "state": "MN", "street": "103 W MAIN ST", "postcode": "56324"}}},
{"geometry": {"type": "Point", "coordinates": [-95.9155208771, 46.1736643326]}, "type": "Feature", "properties": {"collection_times": [{"days": "Mon-Fri", "time": "1:15pm"}, {"days": "Sat", "time": "10:00am"}, {"days": "Sun", "time": "Closed"}], "id": "5632400001", "name": "USPS COLLECTION BOX - PO LOBBY", "address": {"city": "DALTON", "state": "MN", "street": "103 W MAIN ST", "postcode": "56324"}}},
{"geometry": {"type": "Point", "coordinates": [-94.9483882418, 45.5637519797]}, "type": "Feature", "properties": {"collection_times": [{"days": "Mon-Fri", "time": "2:15pm"}, {"days": "Sat", "time": "9:45am"}, {"days": "Sun", "time": "Closed"}], "id": "5632500000", "name": "USPS COLLECTION BOX - BLUE BOX", "address": {"city": "ELROSA", "state": "MN", "street": "116 MAIN ST", "postcode": "56325"}}},
{"geometry": {"type": "Point", "coordinates": [-94.9483882418, 45.5637519797]}, "type": "Feature", "properties": {"collection_times": [{"days": "Mon-Fri", "time": "2:15pm"}, {"days": "Sat", "time": "9:45am"}, {"days": "Sun", "time": "Closed"}], "id": "5632500001", "name": "USPS COLLECTION BOX - PO LOBBY", "address": {"city": "ELROSA", "state": "MN", "street": "116 MAIN ST", "postcode": "56325"}}},
{"geometry": {"type": "Point", "coordinates": [-95.6906205251, 46.0074265564]}, "type": "Feature", "properties": {"collection_times": [{"days": "Mon-Fri", "time": "2:15pm"}, {"days": "Sat", "time": "10:00am"}, {"days": "Sun", "time": "Closed"}], "id": "5632600000", "name": "USPS COLLECTION BOX - BLUE BOX", "address": {"city": "EVANSVILLE", "state": "MN", "street": "113 STATE ST NW", "postcode": "56326"}}},
{"geometry": {"type": "Point", "coordinates": [-95.6906205251, 46.0074265564]}, "type": "Feature", "properties": {"collection_times": [{"days": "Mon-Fri", "time": "1:30pm"}, {"days": "Sat", "time": "10:00am"}, {"days": "Sun", "time": "Closed"}], "id": "5632600001", "name": "USPS COLLECTION BOX - PO LOBBY", "address": {"city": "EVANSVILLE", "state": "MN", "street": "113 STATE ST NW", "postcode": "56326"}}},
{"geometry": {"type": "Point", "coordinates": [-94.5312990554, 45.954257158]}, "type": "Feature", "properties": {"collection_times": [{"days": "Mon-Fri", "time": "1:45pm"}, {"days": "Sat", "time": "9:15am"}, {"days": "Sun", "time": "Closed"}], "id": "5632800000", "name": "USPS COLLECTION BOX - BLUE BOX", "address": {"city": "FLENSBURG", "state": "MN", "street": "38 1ST ST N", "postcode": "56328"}}},
{"geometry": {"type": "Point", "coordinates": [-94.5312990554, 45.954257158]}, "type": "Feature", "properties": {"collection_times": [{"days": "Mon-Fri", "time": "10:00am"}, {"days": "Sat", "time": "9:15am"}, {"days": "Sun", "time": "Closed"}], "id": "5632800001", "name": "USPS COLLECTION BOX - PO LOBBY", "address": {"city": "FLENSBURG", "state": "MN", "street": "38 1ST ST N", "postcode": "56328"}}},
{"geometry": {"type": "Point", "coordinates": [-93.9095708159, 45.6648740647]}, "type": "Feature", "properties": {"collection_times": [{"days": "Mon-Fri", "time": "3:45pm"}, {"days": "Sat", "time": "10:00am"}, {"days": "Sun", "time": "Closed"}], "id": "5632900000", "name": "USPS COLLECTION BOX - BLUE BOX", "address": {"city": "FOLEY", "state": "MN", "street": "450 DEWEY ST", "postcode": "56329"}}},
{"geometry": {"type": "Point", "coordinates": [-93.9765935099, 45.7324105112]}, "type": "Feature", "properties": {"collection_times": [{"days": "Mon-Fri", "time": "3:45pm"}, {"days": "Sat", "time": "12:00pm"}, {"days": "Sun", "time": "Closed"}], "id": "5632900002", "name": "USPS COLLECTION BOX - BLUE BOX", "address": {"city": "FOLEY", "state": "MN", "street": "16623 IRONWOOD ROAD NE", "postcode": "56329"}}},
{"geometry": {"type": "Point", "coordinates": [-93.9095708159, 45.6648740647]}, "type": "Feature", "properties": {"collection_times": [{"days": "Mon-Fri", "time": "3:45pm"}, {"days": "Sat", "time": "10:00am"}, {"days": "Sun", "time": "Closed"}], "id": "5632900003", "name": "USPS COLLECTION BOX - PO LOBBY", "address": {"city": "FOLEY", "state": "MN", "street": "450 DEWEY ST", "postcode": "56329"}}},
{"geometry": {"type": "Point", "coordinates": [-93.9196748559, 45.6622580448]}, "type": "Feature", "properties": {"collection_times": [{"days": "Mon-Sat", "time": "2:00pm"}, {"days": "Sun", "time": "Closed"}], "id": "5632900004", "name": "USPS COLLECTION BOX - BLUE BOX", "address": {"city": "FOLEY", "state": "MN", "street": "171 GLEN ST", "postcode": "56329"}}},
{"geometry": {"type": "Point", "coordinates": [-93.71107442, 45.7342060001]}, "type": "Feature", "properties": {"collection_times": [{"days": "Mon-Fri", "time": "3:45pm"}, {"days": "Sat", "time": "9:45am"}, {"days": "Sun", "time": "Closed"}], "id": "5633000000", "name": "USPS COLLECTION BOX - BLUE BOX", "address": {"city": "FORESTON", "state": "MN", "street": "192 WASHINGTON AVE", "postcode": "56330"}}},
{"geometry": {"type": "Point", "coordinates": [-93.71107442, 45.7342060001]}, "type": "Feature", "properties": {"collection_times": [{"days": "Mon-Fri", "time": "11:00am"}, {"days": "Sat", "time": "9:45am"}, {"days": "Sun", "time": "Closed"}], "id": "5633000001", "name": "USPS COLLECTION BOX - PO LOBBY", "address": {"city": "FORESTON", "state": "MN", "street": "192 WASHINGTON AVE", "postcode": "56330"}}},
{"geometry": {"type": "Point", "coordinates": [-94.689678266, 45.6633082574]}, "type": "Feature", "properties": {"collection_times": [{"days": "Mon-Fri", "time": "4:00pm"}, {"days": "Sat", "time": "9:30am"}, {"days": "Sun", "time": "Closed"}], "id": "5633100000", "name": "USPS COLLECTION BOX - BLUE BOX", "address": {"city": "FREEPORT", "state": "MN", "street": "119 MAIN ST E", "postcode": "56331"}}},
{"geometry": {"type": "Point", "coordinates": [-94.689678266, 45.6633082574]}, "type": "Feature", "properties": {"collection_times": [{"days": "Mon-Fri", "time": "2:00pm"}, {"days": "Sat", "time": "9:30am"}, {"days": "Sun", "time": "Closed"}], "id": "5633100001", "name": "USPS COLLECTION BOX - PO LOBBY", "address": {"city": "FREEPORT", "state": "MN", "street": "119 MAIN ST E", "postcode": "56331"}}},
{"geometry": {"type": "Point", "coordinates": [-95.4920947364, 45.9442450124]}, "type": "Feature", "properties": {"collection_times": [{"days": "Mon-Fri", "time": "2:45pm"}, {"days": "Sat", "time": "9:30am"}, {"days": "Sun", "time": "Closed"}], "id": "5633200000", "name": "USPS COLLECTION BOX - BLUE BOX", "address": {"city": "GARFIELD", "state": "MN", "street": "104 STATE ST", "postcode": "56332"}}},
{"geometry": {"type": "Point", "coordinates": [-95.4920947364, 45.9442450124]}, "type": "Feature", "properties": {"collection_times": [{"days": "Mon-Fri", "time": "11:00am"}, {"days": "Sat", "time": "9:30am"}, {"days": "Sun", "time": "Closed"}], "id": "5633200001", "name": "USPS COLLECTION BOX - PO LOBBY", "address": {"city": "GARFIELD", "state": "MN", "street": "104 STATE ST", "postcode": "56332"}}},
{"geometry": {"type": "Point", "coordinates": [-93.9482529096, 45.735533435]}, "type": "Feature", "properties": {"collection_times": [{"days": "Mon-Fri", "time": "4:00pm"}, {"days": "Sat", "time": "10:30am"}, {"days": "Sun", "time": "Closed"}], "id": "5633300000", "name": "USPS COLLECTION BOX - BLUE BOX", "address": {"city": "GILMAN", "state": "MN", "street": "10321 115TH ST NE", "postcode": "56333"}}},
{"geometry": {"type": "Point", "coordinates": [-93.9482529096, 45.735533435]}, "type": "Feature", "properties": {"collection_times": [{"days": "Mon-Fri", "time": "12:00pm"}, {"days": "Sat", "time": "10:30am"}, {"days": "Sun", "time": "Closed"}], "id": "5633300001", "name": "USPS COLLECTION BOX - PO LOBBY", "address": {"city": "GILMAN", "state": "MN", "street": "10321 115TH ST NE", "postcode": "56333"}}},
{"geometry": {"type": "Point", "coordinates": [-95.3899940758, 45.6561667552]}, "type": "Feature", "properties": {"collection_times": [{"days": "Mon-Fri", "time": "2:45pm"}, {"days": "Sat", "time": "11:30am"}, {"days": "Sun", "time": "Closed"}], "id": "5633400002", "name": "USPS COLLECTION BOX - BLUE BOX", "address": {"city": "GLENWOOD", "state": "MN", "street": "590 FRANKLIN ST N", "postcode": "56334"}}},
{"geometry": {"type": "Point", "coordinates": [-95.3867146919, 45.6502934802]}, "type": "Feature", "properties": {"collection_times": [{"days": "Mon-Sat", "time": "2:00pm"}, {"days": "Sun", "time": "Closed"}], "id": "5633400003", "name": "USPS COLLECTION BOX - BLUE BOX", "address": {"city": "GLENWOOD", "state": "MN", "street": "211 MINNESOTA AVE E", "postcode": "56334"}}},
{"geometry": {"type": "Point", "coordinates": [-95.3899940758, 45.6561667552]}, "type": "Feature", "properties": {"collection_times": [{"days": "Mon-Fri", "time": "2:45pm"}, {"days": "Sat", "time": "11:30am"}, {"days": "Sun", "time": "Closed"}], "id": "5633400004", "name": "USPS COLLECTION BOX - PO LOBBY", "address": {"city": "GLENWOOD", "state": "MN", "street": "590 FRANKLIN ST N", "postcode": "56334"}}},
{"geometry": {"type": "Point", "coordinates": [-95.3903701174, 45.6501855869]}, "type": "Feature", "properties": {"collection_times": [{"days": "Mon-Sat", "time": "2:00pm"}, {"days": "Sun", "time": "Closed"}], "id": "5633400005", "name": "USPS COLLECTION BOX - BLUE BOX", "address": {"city": "GLENWOOD", "state": "MN", "street": "19 MINNESOTA AVE W", "postcode": "56334"}}},
{"geometry": {"type": "Point", "coordinates": [-95.3899940758, 45.6561667552]}, "type": "Feature", "properties": {"collection_times": [{"days": "Mon-Fri", "time": "2:45pm"}, {"days": "Sat", "time": "11:30am"}, {"days": "Sun", "time": "Closed"}], "id": "5633400006", "name": "USPS COLLECTION BOX - BLUE BOX", "address": {"city": "GLENWOOD", "state": "MN", "street": "590 FRANKLIN ST N", "postcode": "56334"}}},
{"geometry": {"type": "Point", "coordinates": [-95.3899940758, 45.6561667552]}, "type": "Feature", "properties": {"collection_times": [{"days": "Mon-Fri", "time": "2:45pm"}, {"days": "Sat", "time": "11:30am"}, {"days": "Sun", "time": "Closed"}], "id": "5633400007", "name": "USPS COLLECTION BOX - PO LOBBY", "address": {"city": "GLENWOOD", "state": "MN", "street": "590 FRANKLIN ST N", "postcode": "56334"}}},
{"geometry": {"type": "Point", "coordinates": [-94.8604801222, 45.6017180193]}, "type": "Feature", "properties": {"collection_times": [{"days": "Mon-Fri", "time": "2:30pm"}, {"days": "Sat", "time": "9:45am"}, {"days": "Sun", "time": "Closed"}], "id": "5633500000", "name": "USPS COLLECTION BOX - BLUE BOX", "address": {"city": "GREENWALD", "state": "MN", "street": "339 1ST AVE N", "postcode": "56335"}}},
{"geometry": {"type": "Point", "coordinates": [-94.8604801222, 45.6017180193]}, "type": "Feature", "properties": {"collection_times": [{"days": "Mon-Fri", "time": "11:30am"}, {"days": "Sat", "time": "9:45am"}, {"days": "Sun", "time": "Closed"}], "id": "5633500001", "name": "USPS COLLECTION BOX - PO LOBBY", "address": {"city": "GREENWALD", "state": "MN", "street": "339 1ST AVE N", "postcode": "56335"}}},
{"geometry": {"type": "Point", "coordinates": [-94.7510981263, 45.8244585172]}, "type": "Feature", "properties": {"collection_times": [{"days": "Mon-Fri", "time": "2:45pm"}, {"days": "Sat", "time": "8:30am"}, {"days": "Sun", "time": "Closed"}], "id": "5633600000", "name": "USPS COLLECTION BOX - BLUE BOX", "address": {"city": "GREY EAGLE", "state": "MN", "street": "210 E STATE ST", "postcode": "56336"}}},
{"geometry": {"type": "Point", "coordinates": [-94.7510981263, 45.8244585172]}, "type": "Feature", "properties": {"collection_times": [{"days": "Mon-Fri", "time": "1:00pm"}, {"days": "Sat", "time": "8:30am"}, {"days": "Sun", "time": "Closed"}], "id": "5633600001", "name": "USPS COLLECTION BOX - PO LOBBY", "address": {"city": "GREY EAGLE", "state": "MN", "street": "210 E STATE ST", "postcode": "56336"}}},
{"geometry": {"type": "Point", "coordinates": [-95.7914129054, 45.8298283347]}, "type": "Feature", "properties": {"collection_times": [{"days": "Mon-Fri", "time": "1:45pm"}, {"days": "Sat", "time": "10:15am"}, {"days": "Sun", "time": "Closed"}], "id": "5633900000", "name": "USPS COLLECTION BOX - BLUE BOX", "address": {"city": "HOFFMAN", "state": "MN", "street": "128 MAIN AVE", "postcode": "56339"}}},
{"geometry": {"type": "Point", "coordinates": [-95.7914129054, 45.8298283347]}, "type": "Feature", "properties": {"collection_times": [{"days": "Mon-Fri", "time": "12:30pm"}, {"days": "Sat", "time": "10:15am"}, {"days": "Sun", "time": "Closed"}], "id": "5633900001", "name": "USPS COLLECTION BOX - PO LOBBY", "address": {"city": "HOFFMAN", "state": "MN", "street": "128 MAIN AVE", "postcode": "56339"}}},
{"geometry": {"type": "Point", "coordinates": [-94.4754681278, 45.7304026105]}, "type": "Feature", "properties": {"collection_times": [{"days": "Mon-Fri", "time": "3:30pm"}, {"days": "Sat", "time": "9:15am"}, {"days": "Sun", "time": "Closed"}], "id": "5634000000", "name": "USPS COLLECTION BOX - BLUE BOX", "address": {"city": "HOLDINGFORD", "state": "MN", "street": "105 PLYMOUTH ST", "postcode": "56340"}}},
{"geometry": {"type": "Point", "coordinates": [-94.4754681278, 45.7304026105]}, "type": "Feature", "properties": {"collection_times": [{"days": "Mon-Fri", "time": "1:30pm"}, {"days": "Sat", "time": "9:15am"}, {"days": "Sun", "time": "Closed"}], "id": "5634000001", "name": "USPS COLLECTION BOX - PO LOBBY", "address": {"city": "HOLDINGFORD", "state": "MN", "street": "105 PLYMOUTH ST", "postcode": "56340"}}},
{"geometry": {"type": "Point", "coordinates": [-95.5454797313, 45.8366478244]}, "type": "Feature", "properties": {"collection_times": [{"days": "Mon-Sat", "time": "12:00pm"}, {"days": "Sun", "time": "Closed"}], "id": "5634100000", "name": "USPS COLLECTION BOX - BLUE BOX", "address": {"city": "HOLMES CITY", "state": "MN", "street": "11142 CO ROAD 94 SW", "postcode": "56341"}}},
{"geometry": {"type": "Point", "coordinates": [-95.5454797313, 45.8366478244]}, "type": "Feature", "properties": {"collection_times": [{"days": "Mon-Sat", "time": "12:00pm"}, {"days": "Sun", "time": "Closed"}], "id": "5634100001", "name": "USPS COLLECTION BOX - PO LOBBY", "address": {"city": "HOLMES CITY", "state": "MN", "street": "11142 CO ROAD 94 SW", "postcode": "56341"}}},
{"geometry": {"type": "Point", "coordinates": [-93.4693093554, 46.1384304213]}, "type": "Feature", "properties": {"collection_times": [{"days": "Mon-Fri", "time": "2:15pm"}, {"days": "Sat", "time": "11:00am"}, {"days": "Sun", "time": "Closed"}], "id": "5634200000", "name": "USPS COLLECTION BOX - BLUE BOX", "address": {"city": "ISLE", "state": "MN", "street": "250 2ND AVE S", "postcode": "56342"}}},
{"geometry": {"type": "Point", "coordinates": [-93.4693093554, 46.1384304213]}, "type": "Feature", "properties": {"collection_times": [{"days": "Mon-Fri", "time": "2:15pm"}, {"days": "Sat", "time": "11:00am"}, {"days": "Sun", "time": "Closed"}], "id": "5634200002", "name": "USPS COLLECTION BOX - PO LOBBY", "address": {"city": "ISLE", "state": "MN", "street": "250 2ND AVE S", "postcode": "56342"}}},
{"geometry": {"type": "Point", "coordinates": [-95.6947373626, 45.7780352827]}, "type": "Feature", "properties": {"collection_times": [{"days": "Mon-Fri", "time": "2:00pm"}, {"days": "Sat", "time": "9:00am"}, {"days": "Sun", "time": "Closed"}], "id": "5634300000", "name": "USPS COLLECTION BOX - BLUE BOX", "address": {"city": "KENSINGTON", "state": "MN", "street": "17 CENTRAL AVE N", "postcode": "56343"}}},
{"geometry": {"type": "Point", "coordinates": [-95.6947373626, 45.7780352827]}, "type": "Feature", "properties": {"collection_times": [{"days": "Mon-Fri", "time": "12:15pm"}, {"days": "Sat", "time": "9:00am"}, {"days": "Sun", "time": "Closed"}], "id": "5634300001", "name": "USPS COLLECTION BOX - PO LOBBY", "address": {"city": "KENSINGTON", "state": "MN", "street": "17 CENTRAL AVE N", "postcode": "56343"}}},
{"geometry": {"type": "Point", "coordinates": [-94.3658430301, 45.9770140311]}, "type": "Feature", "properties": {"collection_times": [{"days": "Mon-Sat", "time": "3:15pm"}, {"days": "Sun", "time": "Closed"}], "id": "5634500001", "name": "USPS COLLECTION BOX - BLUE BOX", "address": {"city": "LITTLE FALLS", "state": "MN", "street": "27 E BROADWAY", "postcode": "56345"}}},
{"geometry": {"type": "Point", "coordinates": [-94.3624532148, 45.9762583044]}, "type": "Feature", "properties": {"collection_times": [{"days": "Mon-Sat", "time": "2:00pm"}, {"days": "Sun", "time": "Closed"}], "id": "5634500016", "name": "USPS COLLECTION BOX - BLUE BOX", "address": {"city": "LITTLE FALLS", "state": "MN", "street": "209 1ST ST SE", "postcode": "56345"}}},
{"geometry": {"type": "Point", "coordinates": [-94.3625998016, 45.976643238]}, "type": "Feature", "properties": {"collection_times": [{"days": "Mon-Sat", "time": "2:00pm"}, {"days": "Sun", "time": "Closed"}], "id": "5634500018", "name": "USPS COLLECTION BOX - BLUE BOX", "address": {"city": "LITTLE FALLS", "state": "MN", "street": "111 1ST ST NE", "postcode": "56345"}}},
{"geometry": {"type": "Point", "coordinates": [-94.3658430301, 45.9770140311]}, "type": "Feature", "properties": {"collection_times": [{"days": "Mon-Sat", "time": "3:15pm"}, {"days": "Sun", "time": "Closed"}], "id": "5634500020", "name": "USPS COLLECTION BOX - PO LOBBY", "address": {"city": "LITTLE FALLS", "state": "MN", "street": "27 E BROADWAY", "postcode": "56345"}}},
{"geometry": {"type": "Point", "coordinates": [-94.362578067, 45.9679914855]}, "type": "Feature", "properties": {"collection_times": [{"days": "Mon-Fri", "time": "2:00pm"}, {"days": "Sat", "time": "1:00pm"}, {"days": "Sun", "time": "Closed"}], "id": "5634500025", "name": "USPS COLLECTION BOX - BLUE BOX", "address": {"city": "LITTLE FALLS", "state": "MN", "street": "815 2ND ST SE", "postcode": "56345"}}},
{"geometry": {"type": "Point", "coordinates": [-94.3609931912, 45.9752555677]}, "type": "Feature", "properties": {"collection_times": [{"days": "Mon-Fri", "time": "2:00pm"}, {"days": "Sat-Sun", "time": "Closed"}], "id": "5634500026", "name": "USPS COLLECTION BOX - BLUE BOX", "address": {"city": "LITTLE FALLS", "state": "MN", "street": "213 1ST AVE SE", "postcode": "56345"}}},
{"geometry": {"type": "Point", "coordinates": [-94.3745957439, 45.9772364215]}, "type": "Feature", "properties": {"collection_times": [{"days": "Mon-Sat", "time": "2:00pm"}, {"days": "Sun", "time": "Closed"}], "id": "5634500027", "name": "USPS COLLECTION BOX - BLUE BOX", "address": {"city": "LITTLE FALLS", "state": "MN", "street": "402 W BROADWAY", "postcode": "56345"}}},
{"geometry": {"type": "Point", "coordinates": [-94.8618118699, 45.973103494]}, "type": "Feature", "properties": {"collection_times": [{"days": "Mon-Fri", "time": "1:00pm"}, {"days": "Sat", "time": "12:00pm"}, {"days": "Sun", "time": "Closed"}], "id": "5634700001", "name": "USPS COLLECTION BOX - BLUE BOX", "address": {"city": "LONG PRAIRIE", "state": "MN", "street": "221 1ST AVE S", "postcode": "56347"}}},
{"geometry": {"type": "Point", "coordinates": [-94.8654571116, 45.9691810582]}, "type": "Feature", "properties": {"collection_times": [{"days": "Mon-Sat", "time": "9:00am"}, {"days": "Sun", "time": "Closed"}], "id": "5634700003", "name": "USPS COLLECTION BOX - BLUE BOX", "address": {"city": "LONG PRAIRIE", "state": "MN", "street": "100 BANTA RD", "postcode": "56347"}}},
{"geometry": {"type": "Point", "coordinates": [-94.8618036229, 45.9742306935]}, "type": "Feature", "properties": {"collection_times": [{"days": "Mon-Fri", "time": "1:00pm"}, {"days": "Sat", "time": "12:00pm"}, {"days": "Sun", "time": "Closed"}], "id": "5634700004", "name": "USPS COLLECTION BOX - BLUE BOX", "address": {"city": "LONG PRAIRIE", "state": "MN", "street": "221 CENTRAL AVE", "postcode": "56347"}}},
{"geometry": {"type": "Point", "coordinates": [-94.8597247812, 45.9740979713]}, "type": "Feature", "properties": {"collection_times": [{"days": "Mon-Sat", "time": "2:45pm"}, {"days": "Sun", "time": "Closed"}], "id": "5634700005", "name": "USPS COLLECTION BOX - BLUE BOX", "address": {"city": "LONG PRAIRIE", "state": "MN", "street": "350 CENTRAL AVE", "postcode": "56347"}}},
{"geometry": {"type": "Point", "coordinates": [-94.8597247812, 45.9740979713]}, "type": "Feature", "properties": {"collection_times": [{"days": "Mon-Sat", "time": "2:45pm"}, {"days": "Sun", "time": "Closed"}], "id": "5634700006", "name": "USPS COLLECTION BOX - BLUE BOX", "address": {"city": "LONG PRAIRIE", "state": "MN", "street": "350 CENTRAL AVE", "postcode": "56347"}}},
{"geometry": {"type": "Point", "coordinates": [-94.8655755783, 45.9640887318]}, "type": "Feature", "properties": {"collection_times": [{"days": "Mon-Sat", "time": "9:00am"}, {"days": "Sun", "time": "Closed"}], "id": "5634700008", "name": "USPS COLLECTION BOX - BLUE BOX", "address": {"city": "LONG PRAIRIE", "state": "MN", "street": "645 LAKE ST S", "postcode": "56347"}}},
{"geometry": {"type": "Point", "coordinates": [-94.8597247812, 45.9740979713]}, "type": "Feature", "properties": {"collection_times": [{"days": "Mon-Fri", "time": "2:45pm"}, {"days": "Sat", "time": "10:00am"}, {"days": "Sun", "time": "Closed"}], "id": "5634700009", "name": "USPS COLLECTION BOX - PO LOBBY", "address": {"city": "LONG PRAIRIE", "state": "MN", "street": "350 CENTRAL AVE", "postcode": "56347"}}},
{"geometry": {"type": "Point", "coordinates": [-95.518172703, 45.7051522426]}, "type": "Feature", "properties": {"collection_times": [{"days": "Mon-Fri", "time": "2:30pm"}, {"days": "Sat", "time": "8:00am"}, {"days": "Sun", "time": "Closed"}], "id": "5634900000", "name": "USPS COLLECTION BOX - BLUE BOX", "address": {"city": "FARWELL", "state": "MN", "street": "421 FLORENCE AVE", "postcode": "56349"}}},
{"geometry": {"type": "Point", "coordinates": [-95.518172703, 45.7051522426]}, "type": "Feature", "properties": {"collection_times": [{"days": "Mon-Fri", "time": "2:00pm"}, {"days": "Sat", "time": "8:00am"}, {"days": "Sun", "time": "Closed"}], "id": "5634900001", "name": "USPS COLLECTION BOX - PO LOBBY", "address": {"city": "FARWELL", "state": "MN", "street": "421 FLORENCE AVE", "postcode": "56349"}}},
{"geometry": {"type": "Point", "coordinates": [-95.6173957974, 45.7537922419]}, "type": "Feature", "properties": {"collection_times": [{"days": "Mon-Fri", "time": "2:15pm"}, {"days": "Sat", "time": "1:00pm"}, {"days": "Sun", "time": "Closed"}], "id": "5634900002", "name": "USPS COLLECTION BOX - BLUE BOX", "address": {"city": "FARWELL", "state": "MN", "street": "30 STANLEY AVE N", "postcode": "56349"}}},
{"geometry": {"type": "Point", "coordinates": [-93.278571071, 46.2428559408]}, "type": "Feature", "properties": {"collection_times": [{"days": "Mon-Fri", "time": "2:00pm"}, {"days": "Sat", "time": "9:15am"}, {"days": "Sun", "time": "Closed"}], "id": "5635000000", "name": "USPS COLLECTION BOX - BLUE BOX", "address": {"city": "MCGRATH", "state": "MN", "street": "300 MAIN ST W", "postcode": "56350"}}},
{"geometry": {"type": "Point", "coordinates": [-93.278571071, 46.2428559408]}, "type": "Feature", "properties": {"collection_times": [{"days": "Mon-Fri", "time": "11:45am"}, {"days": "Sat", "time": "9:15am"}, {"days": "Sun", "time": "Closed"}], "id": "5635000001", "name": "USPS COLLECTION BOX - PO LOBBY", "address": {"city": "MCGRATH", "state": "MN", "street": "300 MAIN ST W", "postcode": "56350"}}},
{"geometry": {"type": "Point", "coordinates": [-94.810119199, 45.6741998668]}, "type": "Feature", "properties": {"collection_times": [{"days": "Mon-Fri", "time": "3:30pm"}, {"days": "Sat", "time": "12:00pm"}, {"days": "Sun", "time": "Closed"}], "id": "5635200002", "name": "USPS COLLECTION BOX - BLUE BOX", "address": {"city": "MELROSE", "state": "MN", "street": "304 E 1ST ST", "postcode": "56352"}}},
{"geometry": {"type": "Point", "coordinates": [-94.810119199, 45.6741998668]}, "type": "Feature", "properties": {"collection_times": [{"days": "Mon-Fri", "time": "3:30pm"}, {"days": "Sat", "time": "12:00pm"}, {"days": "Sun", "time": "Closed"}], "id": "5635200003", "name": "USPS COLLECTION BOX - PO LOBBY", "address": {"city": "MELROSE", "state": "MN", "street": "304 E 1ST ST", "postcode": "56352"}}},
{"geometry": {"type": "Point", "coordinates": [-94.810119199, 45.6741998668]}, "type": "Feature", "properties": {"collection_times": [{"days": "Mon-Fri", "time": "3:30pm"}, {"days": "Sat", "time": "12:00pm"}, {"days": "Sun", "time": "Closed"}], "id": "5635200004", "name": "USPS COLLECTION BOX - BLUE BOX", "address": {"city": "MELROSE", "state": "MN", "street": "304 E 1ST ST", "postcode": "56352"}}},
{"geometry": {"type": "Point", "coordinates": [-94.810119199, 45.6741998668]}, "type": "Feature", "properties": {"collection_times": [{"days": "Mon-Fri", "time": "3:30pm"}, {"days": "Sat", "time": "12:00pm"}, {"days": "Sun", "time": "Closed"}], "id": "5635200005", "name": "USPS COLLECTION BOX - PO LOBBY", "address": {"city": "MELROSE", "state": "MN", "street": "304 E 1ST ST", "postcode": "56352"}}},
{"geometry": {"type": "Point", "coordinates": [-93.652531284, 45.7531811328]}, "type": "Feature", "properties": {"collection_times": [{"days": "Mon-Fri", "time": "3:30pm"}, {"days": "Sat", "time": "10:00am"}, {"days": "Sun", "time": "Closed"}], "id": "5635300000", "name": "USPS COLLECTION BOX - BLUE BOX", "address": {"city": "MILACA", "state": "MN", "street": "230 2ND AVE SW", "postcode": "56353"}}},
{"geometry": {"type": "Point", "coordinates": [-93.652531284, 45.7531811328]}, "type": "Feature", "properties": {"collection_times": [{"days": "Mon-Fri", "time": "3:30pm"}, {"days": "Sat", "time": "10:00am"}, {"days": "Sun", "time": "Closed"}], "id": "5635300001", "name": "USPS COLLECTION BOX - BLUE BOX", "address": {"city": "MILACA", "state": "MN", "street": "230 2ND AVE SW", "postcode": "56353"}}},
{"geometry": {"type": "Point", "coordinates": [-93.6512673181, 45.7536332126]}, "type": "Feature", "properties": {"collection_times": [{"days": "Mon-Fri", "time": "3:15pm"}, {"days": "Sat", "time": "1:00pm"}, {"days": "Sun", "time": "Closed"}], "id": "5635300009", "name": "USPS COLLECTION BOX - BLUE BOX", "address": {"city": "MILACA", "state": "MN", "street": "207 CENTRAL AVE", "postcode": "56353"}}},
{"geometry": {"type": "Point", "coordinates": [-93.652531284, 45.7531811328]}, "type": "Feature", "properties": {"collection_times": [{"days": "Mon-Fri", "time": "3:30pm"}, {"days": "Sat", "time": "10:00am"}, {"days": "Sun", "time": "Closed"}], "id": "5635300011", "name": "USPS COLLECTION BOX - PO LOBBY", "address": {"city": "MILACA", "state": "MN", "street": "230 2ND AVE SW", "postcode": "56353"}}},
{"geometry": {"type": "Point", "coordinates": [-95.2916287878, 46.0450546426]}, "type": "Feature", "properties": {"collection_times": [{"days": "Mon-Fri", "time": "2:15pm"}, {"days": "Sat", "time": "9:30am"}, {"days": "Sun", "time": "Closed"}], "id": "5635400000", "name": "USPS COLLECTION BOX - BLUE BOX", "address": {"city": "MILTONA", "state": "MN", "street": "127 MAIN ST", "postcode": "56354"}}},
{"geometry": {"type": "Point", "coordinates": [-95.2916287878, 46.0450546426]}, "type": "Feature", "properties": {"collection_times": [{"days": "Mon-Fri", "time": "12:00pm"}, {"days": "Sat", "time": "9:30am"}, {"days": "Sun", "time": "Closed"}], "id": "5635400001", "name": "USPS COLLECTION BOX - PO LOBBY", "address": {"city": "MILTONA", "state": "MN", "street": "127 MAIN ST", "postcode": "56354"}}},
{"geometry": {"type": "Point", "coordinates": [-95.2636948837, 45.8885369195]}, "type": "Feature", "properties": {"collection_times": [{"days": "Mon-Fri", "time": "3:00pm"}, {"days": "Sat", "time": "8:30am"}, {"days": "Sun", "time": "Closed"}], "id": "5635500000", "name": "USPS COLLECTION BOX - BLUE BOX", "address": {"city": "NELSON MN", "state": "MN", "street": "261 NELSON ST N", "postcode": "56355"}}},
{"geometry": {"type": "Point", "coordinates": [-95.2636948837, 45.8885369195]}, "type": "Feature", "properties": {"collection_times": [{"days": "Mon-Fri", "time": "11:30am"}, {"days": "Sat", "time": "8:30am"}, {"days": "Sun", "time": "Closed"}], "id": "5635500001", "name": "USPS COLLECTION BOX - PO LOBBY", "address": {"city": "NELSON MN", "state": "MN", "street": "261 NELSON ST N", "postcode": "56355"}}},
{"geometry": {"type": "Point", "coordinates": [-94.7538205896, 45.6288396643]}, "type": "Feature", "properties": {"collection_times": [{"days": "Mon-Fri", "time": "2:45pm"}, {"days": "Sat", "time": "9:30am"}, {"days": "Sun", "time": "Closed"}], "id": "5635600000", "name": "USPS COLLECTION BOX - BLUE BOX", "address": {"city": "NEW MUNICH", "state": "MN", "street": "450 MAIN ST", "postcode": "56356"}}},
{"geometry": {"type": "Point", "coordinates": [-94.7538205896, 45.6288396643]}, "type": "Feature", "properties": {"collection_times": [{"days": "Mon-Fri", "time": "2:45pm"}, {"days": "Sat", "time": "9:30am"}, {"days": "Sun", "time": "Closed"}], "id": "5635600001", "name": "USPS COLLECTION BOX - PO LOBBY", "address": {"city": "NEW MUNICH", "state": "MN", "street": "450 MAIN ST", "postcode": "56356"}}},
{"geometry": {"type": "Point", "coordinates": [-93.4257307773, 45.8299197279]}, "type": "Feature", "properties": {"collection_times": [{"days": "Mon-Fri", "time": "2:45pm"}, {"days": "Sat", "time": "9:45am"}, {"days": "Sun", "time": "Closed"}], "id": "5635800000", "name": "USPS COLLECTION BOX - BLUE BOX", "address": {"city": "OGILVIE", "state": "MN", "street": "200 N HILL AVE", "postcode": "56358"}}},
{"geometry": {"type": "Point", "coordinates": [-93.4257307773, 45.8299197279]}, "type": "Feature", "properties": {"collection_times": [{"days": "Mon-Fri", "time": "1:00pm"}, {"days": "Sat", "time": "9:45am"}, {"days": "Sun", "time": "Closed"}], "id": "5635800001", "name": "USPS COLLECTION BOX - PO LOBBY", "address": {"city": "OGILVIE", "state": "MN", "street": "200 N HILL AVE", "postcode": "56358"}}},
{"geometry": {"type": "Point", "coordinates": [-93.6677432958, 46.0706680714]}, "type": "Feature", "properties": {"collection_times": [{"days": "Mon-Fri", "time": "2:45pm"}, {"days": "Sat", "time": "10:30am"}, {"days": "Sun", "time": "Closed"}], "id": "5635900001", "name": "USPS COLLECTION BOX - BLUE BOX", "address": {"city": "ONAMIA", "state": "MN", "street": "600 MAIN ST", "postcode": "56359"}}},
{"geometry": {"type": "Point", "coordinates": [-93.6677432958, 46.0706680714]}, "type": "Feature", "properties": {"collection_times": [{"days": "Mon-Fri", "time": "2:45pm"}, {"days": "Sat", "time": "10:30am"}, {"days": "Sun", "time": "Closed"}], "id": "5635900002", "name": "USPS COLLECTION BOX - BLUE BOX", "address": {"city": "ONAMIA", "state": "MN", "street": "600 MAIN ST", "postcode": "56359"}}},
{"geometry": {"type": "Point", "coordinates": [-93.6677432958, 46.0706680714]}, "type": "Feature", "properties": {"collection_times": [{"days": "Mon-Fri", "time": "2:45pm"}, {"days": "Sat", "time": "10:30am"}, {"days": "Sun", "time": "Closed"}], "id": "5635900004", "name": "USPS COLLECTION BOX - PO LOBBY", "address": {"city": "ONAMIA", "state": "MN", "street": "600 MAIN ST", "postcode": "56359"}}},
{"geometry": {"type": "Point", "coordinates": [-93.662243292, 46.0562145813]}, "type": "Feature", "properties": {"collection_times": [{"days": "Mon-Sat", "time": "10:00am"}, {"days": "Sun", "time": "Closed"}], "id": "5635900005", "name": "USPS COLLECTION BOX - BLUE BOX", "address": {"city": "ONAMIA", "state": "MN", "street": "34952 US HIGHWAY 169", "postcode": "56359"}}},
{"geometry": {"type": "Point", "coordinates": [-93.6620673458, 46.066704936]}, "type": "Feature", "properties": {"collection_times": [{"days": "Mon-Sat", "time": "10:00am"}, {"days": "Sun", "time": "Closed"}], "id": "5635900006", "name": "USPS COLLECTION BOX - BLUE BOX", "address": {"city": "ONAMIA", "state": "MN", "street": "205 LINDQUIST ST", "postcode": "56359"}}},
{"geometry": {"type": "Point", "coordinates": [-93.7570990448, 46.1835564359]}, "type": "Feature", "properties": {"collection_times": [{"days": "Mon-Sat", "time": "10:30am"}, {"days": "Sun", "time": "Closed"}], "id": "5635900007", "name": "USPS COLLECTION BOX - BLUE BOX", "address": {"city": "ONAMIA", "state": "MN", "street": "16600 ATAAGE DR", "postcode": "56359"}}},
{"geometry": {"type": "Point", "coordinates": [-95.1532346515, 45.8681864506]}, "type": "Feature", "properties": {"collection_times": [{"days": "Mon-Fri", "time": "3:15pm"}, {"days": "Sat", "time": "10:30am"}, {"days": "Sun", "time": "Closed"}], "id": "5636000000", "name": "USPS COLLECTION BOX - BLUE BOX", "address": {"city": "OSAKIS", "state": "MN", "street": "60 W MAIN ST", "postcode": "56360"}}},
{"geometry": {"type": "Point", "coordinates": [-95.1532346515, 45.8681864506]}, "type": "Feature", "properties": {"collection_times": [{"days": "Mon-Fri", "time": "3:15pm"}, {"days": "Sat", "time": "10:30am"}, {"days": "Sun", "time": "Closed"}], "id": "5636000001", "name": "USPS COLLECTION BOX - PO LOBBY", "address": {"city": "OSAKIS", "state": "MN", "street": "60 W MAIN ST", "postcode": "56360"}}},
{"geometry": {"type": "Point", "coordinates": [-95.1502595196, 45.8689519691]}, "type": "Feature", "properties": {"collection_times": [{"days": "Mon-Fri", "time": "3:30pm"}, {"days": "Sat", "time": "11:30am"}, {"days": "Sun", "time": "Closed"}], "id": "5636000002", "name": "USPS COLLECTION BOX - BLUE BOX", "address": {"city": "OSAKIS", "state": "MN", "street": "121 E 1ST AVE", "postcode": "56360"}}},
{"geometry": {"type": "Point", "coordinates": [-95.3293182757, 46.1532912697]}, "type": "Feature", "properties": {"collection_times": [{"days": "Mon-Fri", "time": "2:00pm"}, {"days": "Sat", "time": "10:30am"}, {"days": "Sun", "time": "Closed"}], "id": "5636100000", "name": "USPS COLLECTION BOX - BLUE BOX", "address": {"city": "PARKERS PRAIRIE", "state": "MN", "street": "119 W SOO ST", "postcode": "56361"}}},
{"geometry": {"type": "Point", "coordinates": [-95.3293182757, 46.1532912697]}, "type": "Feature", "properties": {"collection_times": [{"days": "Mon-Fri", "time": "2:00pm"}, {"days": "Sat", "time": "10:30am"}, {"days": "Sun", "time": "Closed"}], "id": "5636100002", "name": "USPS COLLECTION BOX - PO LOBBY", "address": {"city": "PARKERS PRAIRIE", "state": "MN", "street": "119 W SOO ST", "postcode": "56361"}}},
{"geometry": {"type": "Point", "coordinates": [-94.7152534735, 45.3819628963]}, "type": "Feature", "properties": {"collection_times": [{"days": "Mon-Fri", "time": "3:30pm"}, {"days": "Sat", "time": "11:00am"}, {"days": "Sun", "time": "Closed"}], "id": "5636200000", "name": "USPS COLLECTION BOX - BLUE BOX", "address": {"city": "PAYNESVILLE", "state": "MN", "street": "211 W JAMES ST", "postcode": "56362"}}},
{"geometry": {"type": "Point", "coordinates": [-94.7152534735, 45.3819628963]}, "type": "Feature", "properties": {"collection_times": [{"days": "Mon-Fri", "time": "3:30pm"}, {"days": "Sat", "time": "11:00am"}, {"days": "Sun", "time": "Closed"}], "id": "5636200003", "name": "USPS COLLECTION BOX - PO LOBBY", "address": {"city": "PAYNESVILLE", "state": "MN", "street": "211 W JAMES ST", "postcode": "56362"}}},
{"geometry": {"type": "Point", "coordinates": [-94.7292255563, 45.3721521067]}, "type": "Feature", "properties": {"collection_times": [{"days": "Mon-Sat", "time": "10:00am"}, {"days": "Sun", "time": "Closed"}], "id": "5636200004", "name": "USPS COLLECTION BOX - BLUE BOX", "address": {"city": "PAYNESVILLE", "state": "MN", "street": "970 W HWY 23", "postcode": "56362"}}},
{"geometry": {"type": "Point", "coordinates": [-94.1038942507, 45.9786117931]}, "type": "Feature", "properties": {"collection_times": [{"days": "Mon-Fri", "time": "3:00pm"}, {"days": "Sat", "time": "9:30am"}, {"days": "Sun", "time": "Closed"}], "id": "5636400000", "name": "USPS COLLECTION BOX - BLUE BOX", "address": {"city": "PIERZ", "state": "MN", "street": "118 MAIN ST S", "postcode": "56364"}}},
{"geometry": {"type": "Point", "coordinates": [-94.1051030574, 45.9823345977]}, "type": "Feature", "properties": {"collection_times": [{"days": "Mon-Fri", "time": "11:30am"}, {"days": "Sat", "time": "9:30am"}, {"days": "Sun", "time": "Closed"}], "id": "5636400001", "name": "USPS COLLECTION BOX - BLUE BOX", "address": {"city": "PIERZ", "state": "MN", "street": "237 MAIN ST N", "postcode": "56364"}}},
{"geometry": {"type": "Point", "coordinates": [-94.0622430093, 46.0407520953]}, "type": "Feature", "properties": {"collection_times": [{"days": "Mon-Fri", "time": "10:00am"}, {"days": "Sat-Sun", "time": "Closed"}], "id": "5636400002", "name": "USPS COLLECTION BOX - BLUE BOX", "address": {"city": "PIERZ", "state": "MN", "street": "19291 285TH AVE - LASTRUP MN", "postcode": "56364"}}},
{"geometry": {"type": "Point", "coordinates": [-94.0939513403, 45.900944946]}, "type": "Feature", "properties": {"collection_times": [{"days": "Mon-Fri", "time": "2:45pm"}, {"days": "Sat-Sun", "time": "Closed"}], "id": "5636400003", "name": "USPS COLLECTION BOX - BLUE BOX", "address": {"city": "PIERZ", "state": "MN", "street": "9438 HIGHWAY 25", "postcode": "56364"}}},
{"geometry": {"type": "Point", "coordinates": [-94.0628905707, 46.0073153617]}, "type": "Feature", "properties": {"collection_times": [{"days": "Mon-Fri", "time": "10:00am"}, {"days": "Sat-Sun", "time": "Closed"}], "id": "5636400004", "name": "USPS COLLECTION BOX - BLUE BOX", "address": {"city": "PIERZ", "state": "MN", "street": "36929 HWY 27 - HILLMAN MN", "postcode": "56364"}}},
{"geometry": {"type": "Point", "coordinates": [-94.1038942507, 45.9786117931]}, "type": "Feature", "properties": {"collection_times": [{"days": "Mon-Fri", "time": "3:00pm"}, {"days": "Sat", "time": "8:15am"}, {"days": "Sun", "time": "Closed"}], "id": "5636400005", "name": "USPS COLLECTION BOX - PO LOBBY", "address": {"city": "PIERZ", "state": "MN", "street": "118 MAIN ST S", "postcode": "56364"}}},
{"geometry": {"type": "Point", "coordinates": [-94.2180266859, 45.7530799475]}, "type": "Feature", "properties": {"collection_times": [{"days": "Mon-Fri", "time": "4:00pm"}, {"days": "Sat", "time": "9:00am"}, {"days": "Sun", "time": "Closed"}], "id": "5636700000", "name": "USPS COLLECTION BOX - BLUE BOX", "address": {"city": "RICE", "state": "MN", "street": "135 MAIN ST E", "postcode": "56367"}}},
{"geometry": {"type": "Point", "coordinates": [-94.2180266859, 45.7530799475]}, "type": "Feature", "properties": {"collection_times": [{"days": "Mon-Fri", "time": "4:00pm"}, {"days": "Sat", "time": "9:00am"}, {"days": "Sun", "time": "Closed"}], "id": "5636700001", "name": "USPS COLLECTION BOX - PO LOBBY", "address": {"city": "RICE", "state": "MN", "street": "135 MAIN ST E", "postcode": "56367"}}},
{"geometry": {"type": "Point", "coordinates": [-94.5180765257, 45.4475612497]}, "type": "Feature", "properties": {"collection_times": [{"days": "Mon-Fri", "time": "4:00pm"}, {"days": "Sat", "time": "10:00am"}, {"days": "Sun", "time": "Closed"}], "id": "5636800000", "name": "USPS COLLECTION BOX - BLUE BOX", "address": {"city": "RICHMOND", "state": "MN", "street": "312 CENTRAL AVE S", "postcode": "56368"}}},
{"geometry": {"type": "Point", "coordinates": [-94.5180765257, 45.4475612497]}, "type": "Feature", "properties": {"collection_times": [{"days": "Mon-Fri", "time": "4:00pm"}, {"days": "Sat", "time": "10:00am"}, {"days": "Sun", "time": "Closed"}], "id": "5636800001", "name": "USPS COLLECTION BOX - PO LOBBY", "address": {"city": "RICHMOND", "state": "MN", "street": "312 CENTRAL AVE S", "postcode": "56368"}}},
{"geometry": {"type": "Point", "coordinates": [-94.1611747948, 45.5574507824]}, "type": "Feature", "properties": {"collection_times": [{"days": "Mon-Fri", "time": "4:00pm"}, {"days": "Sat", "time": "9:30am"}, {"days": "Sun", "time": "Closed"}], "id": "5636900000", "name": "USPS COLLECTION BOX - BLUE BOX", "address": {"city": "ROCKVILLE", "state": "MN", "street": "315 W BROADWAY ST", "postcode": "56369"}}},
{"geometry": {"type": "Point", "coordinates": [-94.1611747948, 45.5574507824]}, "type": "Feature", "properties": {"collection_times": [{"days": "Mon-Fri", "time": "2:30pm"}, {"days": "Sat", "time": "9:30am"}, {"days": "Sun", "time": "Closed"}], "id": "5636900001", "name": "USPS COLLECTION BOX - PO LOBBY", "address": {"city": "ROCKVILLE", "state": "MN", "street": "315 W BROADWAY ST", "postcode": "56369"}}},
{"geometry": {"type": "Point", "coordinates": [-94.293137396, 45.8300748147]}, "type": "Feature", "properties": {"collection_times": [{"days": "Mon-Fri", "time": "3:45pm"}, {"days": "Sat", "time": "10:00am"}, {"days": "Sun", "time": "Closed"}], "id": "5637300000", "name": "USPS COLLECTION BOX - BLUE BOX", "address": {"city": "ROYALTON", "state": "MN", "street": "208 E CENTRE ST", "postcode": "56373"}}},
{"geometry": {"type": "Point", "coordinates": [-94.293137396, 45.8300748147]}, "type": "Feature", "properties": {"collection_times": [{"days": "Mon-Fri", "time": "3:45pm"}, {"days": "Sat", "time": "10:00am"}, {"days": "Sun", "time": "Closed"}], "id": "5637300002", "name": "USPS COLLECTION BOX - PO LOBBY", "address": {"city": "ROYALTON", "state": "MN", "street": "208 E CENTRE ST", "postcode": "56373"}}},
{"geometry": {"type": "Point", "coordinates": [-94.320528815, 45.5656608843]}, "type": "Feature", "properties": {"collection_times": [{"days": "Mon-Fri", "time": "4:30pm"}, {"days": "Sat", "time": "9:30am"}, {"days": "Sun", "time": "Closed"}], "id": "5637400000", "name": "USPS COLLECTION BOX - BLUE BOX", "address": {"city": "SAINT STEPHEN", "state": "MN", "street": "117 W ASH ST", "postcode": "56374"}}},
{"geometry": {"type": "Point", "coordinates": [-94.320528815, 45.5656608843]}, "type": "Feature", "properties": {"collection_times": [{"days": "Mon-Fri", "time": "4:30pm"}, {"days": "Sat", "time": "9:30am"}, {"days": "Sun", "time": "Closed"}], "id": "5637400001", "name": "USPS COLLECTION BOX - PO LOBBY", "address": {"city": "SAINT STEPHEN", "state": "MN", "street": "117 W ASH ST", "postcode": "56374"}}},
{"geometry": {"type": "Point", "coordinates": [-94.2744167991, 45.7029041321]}, "type": "Feature", "properties": {"collection_times": [{"days": "Mon-Fri", "time": "10:30am"}, {"days": "Sat-Sun", "time": "Closed"}], "id": "5637400002", "name": "USPS COLLECTION BOX - BLUE BOX", "address": {"city": "SAINT STEPHEN", "state": "MN", "street": "2 CENTRAL AVE S", "postcode": "56374"}}},
{"geometry": {"type": "Point", "coordinates": [-94.6679110793, 45.5011494872]}, "type": "Feature", "properties": {"collection_times": [{"days": "Mon-Fri", "time": "4:00pm"}, {"days": "Sat", "time": "9:30am"}, {"days": "Sun", "time": "Closed"}], "id": "5637600000", "name": "USPS COLLECTION BOX - BLUE BOX", "address": {"city": "SAINT MARTIN", "state": "MN", "street": "135 MAINE ST", "postcode": "56376"}}},
{"geometry": {"type": "Point", "coordinates": [-94.6679110793, 45.5011494872]}, "type": "Feature", "properties": {"collection_times": [{"days": "Mon-Fri", "time": "12:00pm"}, {"days": "Sat", "time": "9:30am"}, {"days": "Sun", "time": "Closed"}], "id": "5637600001", "name": "USPS COLLECTION BOX - PO LOBBY", "address": {"city": "SAINT MARTIN", "state": "MN", "street": "135 MAINE ST", "postcode": "56376"}}},
{"geometry": {"type": "Point", "coordinates": [-94.2065267593, 45.6301141575]}, "type": "Feature", "properties": {"collection_times": [{"days": "Mon-Sat", "time": "11:30am"}, {"days": "Sun", "time": "Closed"}], "id": "5637700003", "name": "USPS COLLECTION BOX - BLUE BOX", "address": {"city": "SARTELL", "state": "MN", "street": "707 1ST AVE N", "postcode": "56377"}}},
{"geometry": {"type": "Point", "coordinates": [-94.2051338361, 45.6152828574]}, "type": "Feature", "properties": {"collection_times": [{"days": "Mon-Fri", "time": "4:15pm"}, {"days": "Sat", "time": "10:00am"}, {"days": "Sun", "time": "Closed"}], "id": "5637700005", "name": "USPS COLLECTION BOX - BLUE BOX", "address": {"city": "SARTELL", "state": "MN", "street": "113 2ND ST S", "postcode": "56377"}}},
{"geometry": {"type": "Point", "coordinates": [-94.2051338361, 45.6152828574]}, "type": "Feature", "properties": {"collection_times": [{"days": "Mon-Fri", "time": "4:15pm"}, {"days": "Sat", "time": "10:00am"}, {"days": "Sun", "time": "Closed"}], "id": "5637700006", "name": "USPS COLLECTION BOX - PO LOBBY", "address": {"city": "SARTELL", "state": "MN", "street": "113 2ND ST S", "postcode": "56377"}}},
{"geometry": {"type": "Point", "coordinates": [-94.191373419, 45.6170872781]}, "type": "Feature", "properties": {"collection_times": [{"days": "Mon-Sat", "time": "10:30am"}, {"days": "Sun", "time": "Closed"}], "id": "5637700007", "name": "USPS COLLECTION BOX - BLUE BOX", "address": {"city": "SARTELL", "state": "MN", "street": "520 1ST ST NE", "postcode": "56377"}}},
{"geometry": {"type": "Point", "coordinates": [-94.9518408389, 45.7358497299]}, "type": "Feature", "properties": {"collection_times": [{"days": "Mon-Fri", "time": "3:45pm"}, {"days": "Sat", "time": "10:00am"}, {"days": "Sun", "time": "Closed"}], "id": "5637800006", "name": "USPS COLLECTION BOX - BLUE BOX", "address": {"city": "SAUK CENTRE", "state": "MN", "street": "400 MAIN ST S", "postcode": "56378"}}},
{"geometry": {"type": "Point", "coordinates": [-94.9518408389, 45.7358497299]}, "type": "Feature", "properties": {"collection_times": [{"days": "Mon-Fri", "time": "3:45pm"}, {"days": "Sat", "time": "10:00am"}, {"days": "Sun", "time": "Closed"}], "id": "5637800007", "name": "USPS COLLECTION BOX - BLUE BOX", "address": {"city": "SAUK CENTRE", "state": "MN", "street": "400 MAIN ST S", "postcode": "56378"}}},
{"geometry": {"type": "Point", "coordinates": [-94.9518408389, 45.7358497299]}, "type": "Feature", "properties": {"collection_times": [{"days": "Mon-Fri", "time": "3:45pm"}, {"days": "Sat", "time": "10:00am"}, {"days": "Sun", "time": "Closed"}], "id": "5637800009", "name": "USPS COLLECTION BOX - PO LOBBY", "address": {"city": "SAUK CENTRE", "state": "MN", "street": "400 MAIN ST S", "postcode": "56378"}}},
{"geometry": {"type": "Point", "coordinates": [-94.9449695689, 45.7235677511]}, "type": "Feature", "properties": {"collection_times": [{"days": "Mon-Sat", "time": "1:00pm"}, {"days": "Sun", "time": "Closed"}], "id": "5637800010", "name": "USPS COLLECTION BOX - BLUE BOX", "address": {"city": "SAUK CENTRE", "state": "MN", "street": "214 12TH ST S", "postcode": "56378"}}},
{"geometry": {"type": "Point", "coordinates": [-94.1646259742, 45.5885682235]}, "type": "Feature", "properties": {"collection_times": [{"days": "Mon-Fri", "time": "3:00pm"}, {"days": "Sat", "time": "1:15pm"}, {"days": "Sun", "time": "Closed"}], "id": "5637900000", "name": "USPS COLLECTION BOX - BLUE BOX", "address": {"city": "SAINT CLOUD", "state": "MN", "street": "110 1ST STREET S - SAUK RPDS", "postcode": "56379"}}},
{"geometry": {"type": "Point", "coordinates": [-94.1561792314, 45.5813305137]}, "type": "Feature", "properties": {"collection_times": [{"days": "Mon-Fri", "time": "3:00pm"}, {"days": "Sat-Sun", "time": "Closed"}], "id": "5637900004", "name": "USPS COLLECTION BOX - BLUE BOX", "address": {"city": "SAINT CLOUD", "state": "MN", "street": "806 S BENTON DR - SAUK RPDS", "postcode": "56379"}}},
{"geometry": {"type": "Point", "coordinates": [-94.15696, 45.598]}, "type": "Feature", "properties": {"collection_times": [{"days": "Mon-Fri", "time": "3:15pm"}, {"days": "Sat", "time": "1:30pm"}, {"days": "Sun", "time": "Closed"}], "id": "5637900005", "name": "USPS COLLECTION BOX - BLUE BOX", "address": {"city": "SAINT CLOUD", "state": "MN", "street": "1239 2ND ST N", "postcode": "56379"}}},
{"geometry": {"type": "Point", "coordinates": [-94.15696, 45.598]}, "type": "Feature", "properties": {"collection_times": [{"days": "Mon-Fri", "time": "3:15pm"}, {"days": "Sat", "time": "1:30pm"}, {"days": "Sun", "time": "Closed"}], "id": "5637900006", "name": "USPS COLLECTION BOX - BLUE BOX", "address": {"city": "SAINT CLOUD", "state": "MN", "street": "1239 2ND ST N", "postcode": "56379"}}},
{"geometry": {"type": "Point", "coordinates": [-94.15696, 45.598]}, "type": "Feature", "properties": {"collection_times": [{"days": "Mon-Fri", "time": "3:15pm"}, {"days": "Sat", "time": "1:30pm"}, {"days": "Sun", "time": "Closed"}], "id": "5637900007", "name": "USPS COLLECTION BOX - BLUE BOX", "address": {"city": "SAINT CLOUD", "state": "MN", "street": "1239 2ND ST N", "postcode": "56379"}}},
{"geometry": {"type": "Point", "coordinates": [-94.155885779, 45.5982820933]}, "type": "Feature", "properties": {"collection_times": [{"days": "Mon-Fri", "time": "3:15pm"}, {"days": "Sat", "time": "1:30pm"}, {"days": "Sun", "time": "Closed"}], "id": "5637900008", "name": "USPS COLLECTION BOX - PO LOBBY", "address": {"city": "SAINT CLOUD", "state": "MN", "street": "1239 2ND ST N", "postcode": "56379"}}},
{"geometry": {"type": "Point", "coordinates": [-94.155885779, 45.5982820933]}, "type": "Feature", "properties": {"collection_times": [{"days": "Mon-Fri", "time": "3:15pm"}, {"days": "Sat", "time": "1:30pm"}, {"days": "Sun", "time": "Closed"}], "id": "5637900009", "name": "USPS COLLECTION BOX - PO LOBBY", "address": {"city": "SAINT CLOUD", "state": "MN", "street": "1239 2ND ST N", "postcode": "56379"}}},
{"geometry": {"type": "Point", "coordinates": [-94.1646259742, 45.5885682235]}, "type": "Feature", "properties": {"collection_times": [{"days": "Mon-Fri", "time": "3:00pm"}, {"days": "Sat", "time": "1:15pm"}, {"days": "Sun", "time": "Closed"}], "id": "5637900010", "name": "USPS COLLECTION BOX - BLUE BOX", "address": {"city": "SAINT CLOUD", "state": "MN", "street": "110 1ST ST S - SAUK RPDS", "postcode": "56379"}}},
{"geometry": {"type": "Point", "coordinates": [-94.15696, 45.598]}, "type": "Feature", "properties": {"collection_times": [{"days": "Mon-Fri", "time": "3:15pm"}, {"days": "Sat", "time": "1:30pm"}, {"days": "Sun", "time": "Closed"}], "id": "5637900011", "name": "USPS COLLECTION BOX - BLUE BOX", "address": {"city": "SAINT CLOUD", "state": "MN", "street": "1239 2ND ST N", "postcode": "56379"}}},
{"geometry": {"type": "Point", "coordinates": [-95.5310170748, 45.6134028831]}, "type": "Feature", "properties": {"collection_times": [{"days": "Mon-Fri", "time": "2:15pm"}, {"days": "Sat", "time": "9:00am"}, {"days": "Sun", "time": "Closed"}], "id": "5638100000", "name": "USPS COLLECTION BOX - BLUE BOX", "address": {"city": "STARBUCK", "state": "MN", "street": "109 E 6TH ST", "postcode": "56381"}}},
{"geometry": {"type": "Point", "coordinates": [-95.5310170748, 45.6134028831]}, "type": "Feature", "properties": {"collection_times": [{"days": "Mon-Fri", "time": "2:15pm"}, {"days": "Sat", "time": "9:00am"}, {"days": "Sun", "time": "Closed"}], "id": "5638100001", "name": "USPS COLLECTION BOX - PO LOBBY", "address": {"city": "STARBUCK", "state": "MN", "street": "109 E 6TH ST", "postcode": "56381"}}},
{"geometry": {"type": "Point", "coordinates": [-94.6406015464, 45.9128362204]}, "type": "Feature", "properties": {"collection_times": [{"days": "Mon-Fri", "time": "2:15pm"}, {"days": "Sat", "time": "9:30am"}, {"days": "Sun", "time": "Closed"}], "id": "5638200000", "name": "USPS COLLECTION BOX - BLUE BOX", "address": {"city": "SWANVILLE", "state": "MN", "street": "310 DEGRAFF AVE", "postcode": "56382"}}},
{"geometry": {"type": "Point", "coordinates": [-94.6406015464, 45.9128362204]}, "type": "Feature", "properties": {"collection_times": [{"days": "Mon-Fri", "time": "1:30pm"}, {"days": "Sat", "time": "9:30am"}, {"days": "Sun", "time": "Closed"}], "id": "5638200001", "name": "USPS COLLECTION BOX - PO LOBBY", "address": {"city": "SWANVILLE", "state": "MN", "street": "310 DEGRAFF AVE", "postcode": "56382"}}},
{"geometry": {"type": "Point", "coordinates": [-94.5714712165, 45.8082107494]}, "type": "Feature", "properties": {"collection_times": [{"days": "Mon-Fri", "time": "3:15pm"}, {"days": "Sat", "time": "10:00am"}, {"days": "Sun", "time": "Closed"}], "id": "5638400000", "name": "USPS COLLECTION BOX - BLUE BOX", "address": {"city": "UPSALA", "state": "MN", "street": "109 S MAIN ST", "postcode": "56384"}}},
{"geometry": {"type": "Point", "coordinates": [-94.5714712165, 45.8082107494]}, "type": "Feature", "properties": {"collection_times": [{"days": "Mon-Fri", "time": "11:30am"}, {"days": "Sat", "time": "10:00am"}, {"days": "Sun", "time": "Closed"}], "id": "5638400001", "name": "USPS COLLECTION BOX - PO LOBBY", "address": {"city": "UPSALA", "state": "MN", "street": "109 S MAIN ST", "postcode": "56384"}}},
{"geometry": {"type": "Point", "coordinates": [-95.2167342327, 45.710186592]}, "type": "Feature", "properties": {"collection_times": [{"days": "Mon-Fri", "time": "3:15pm"}, {"days": "Sat", "time": "9:30am"}, {"days": "Sun", "time": "Closed"}], "id": "5638500000", "name": "USPS COLLECTION BOX - BLUE BOX", "address": {"city": "VILLARD", "state": "MN", "street": "602 LAKE ST", "postcode": "56385"}}},
{"geometry": {"type": "Point", "coordinates": [-95.2167342327, 45.710186592]}, "type": "Feature", "properties": {"collection_times": [{"days": "Mon-Fri", "time": "11:30am"}, {"days": "Sat", "time": "9:30am"}, {"days": "Sun", "time": "Closed"}], "id": "5638500001", "name": "USPS COLLECTION BOX - PO LOBBY", "address": {"city": "VILLARD", "state": "MN", "street": "602 LAKE ST", "postcode": "56385"}}},
{"geometry": {"type": "Point", "coordinates": [-93.5209219796, 46.1177979352]}, "type": "Feature", "properties": {"collection_times": [{"days": "Mon-Fri", "time": "2:30pm"}, {"days": "Sat", "time": "8:00am"}, {"days": "Sun", "time": "Closed"}], "id": "5638600000", "name": "USPS COLLECTION BOX - BLUE BOX", "address": {"city": "WAHKON", "state": "MN", "street": "140 N MAIN ST", "postcode": "56386"}}},
{"geometry": {"type": "Point", "coordinates": [-93.5209219796, 46.1177979352]}, "type": "Feature", "properties": {"collection_times": [{"days": "Mon-Fri", "time": "11:30am"}, {"days": "Sat", "time": "8:00am"}, {"days": "Sun", "time": "Closed"}], "id": "5638600001", "name": "USPS COLLECTION BOX - PO LOBBY", "address": {"city": "WAHKON", "state": "MN", "street": "140 N MAIN ST", "postcode": "56386"}}},
{"geometry": {"type": "Point", "coordinates": [-94.2138742086, 45.5513902939]}, "type": "Feature", "properties": {"collection_times": [{"days": "Mon-Fri", "time": "4:00pm"}, {"days": "Sat", "time": "3:30pm"}, {"days": "Sun", "time": "Closed"}], "id": "5638700000", "name": "USPS COLLECTION BOX - BLUE BOX", "address": {"city": "WAITE PARK", "state": "MN", "street": "113 WAITE AVE S - WAITE PARK", "postcode": "56387"}}},
{"geometry": {"type": "Point", "coordinates": [-94.218956, 45.54884]}, "type": "Feature", "properties": {"collection_times": [{"days": "Mon-Fri", "time": "4:15pm"}, {"days": "Sat", "time": "3:45pm"}, {"days": "Sun", "time": "Closed"}], "id": "5638700001", "name": "USPS COLLECTION BOX - BLUE BOX", "address": {"city": "WAITE PARK", "state": "MN", "street": "254 2ND AVE S", "postcode": "56387"}}},
{"geometry": {"type": "Point", "coordinates": [-94.218956, 45.54884]}, "type": "Feature", "properties": {"collection_times": [{"days": "Mon-Fri", "time": "4:15pm"}, {"days": "Sat", "time": "3:45pm"}, {"days": "Sun", "time": "Closed"}], "id": "5638700002", "name": "USPS COLLECTION BOX - BLUE BOX", "address": {"city": "WAITE PARK", "state": "MN", "street": "254 2ND AVE S", "postcode": "56387"}}},
{"geometry": {"type": "Point", "coordinates": [-94.218956, 45.54884]}, "type": "Feature", "properties": {"collection_times": [{"days": "Mon-Fri", "time": "4:15pm"}, {"days": "Sat", "time": "3:45pm"}, {"days": "Sun", "time": "Closed"}], "id": "5638700003", "name": "USPS COLLECTION BOX - BLUE BOX", "address": {"city": "WAITE PARK", "state": "MN", "street": "254 2ND AVE S", "postcode": "56387"}}},
{"geometry": {"type": "Point", "coordinates": [-94.2189219944, 45.5488244059]}, "type": "Feature", "properties": {"collection_times": [{"days": "Mon-Fri", "time": "4:15pm"}, {"days": "Sat", "time": "3:45pm"}, {"days": "Sun", "time": "Closed"}], "id": "5638700004", "name": "USPS COLLECTION BOX - PO LOBBY", "address": {"city": "WAITE PARK", "state": "MN", "street": "254 2ND AVE S", "postcode": "56387"}}},
{"geometry": {"type": "Point", "coordinates": [-94.2189219944, 45.5488244059]}, "type": "Feature", "properties": {"collection_times": [{"days": "Mon-Fri", "time": "4:15pm"}, {"days": "Sat", "time": "3:45pm"}, {"days": "Sun", "time": "Closed"}], "id": "5638700005", "name": "USPS COLLECTION BOX - PO LOBBY", "address": {"city": "WAITE PARK", "state": "MN", "street": "254 2ND AVE S", "postcode": "56387"}}},
{"geometry": {"type": "Point", "coordinates": [-94.2253164323, 45.553608213]}, "type": "Feature", "properties": {"collection_times": [{"days": "Mon-Sat", "time": "5:15pm"}, {"days": "Sun", "time": "Closed"}], "id": "5638700007", "name": "USPS COLLECTION BOX - BLUE BOX", "address": {"city": "WAITE PARK", "state": "MN", "street": "517 10TH AVE S", "postcode": "56387"}}},
{"geometry": {"type": "Point", "coordinates": [-94.2261771857, 45.5480272039]}, "type": "Feature", "properties": {"collection_times": [{"days": "Mon-Sat", "time": "5:15pm"}, {"days": "Sun", "time": "Closed"}], "id": "5638700010", "name": "USPS COLLECTION BOX - EXPRESS", "address": {"city": "WAITE PARK", "state": "MN", "street": "517 10TH AVE S", "postcode": "56387"}}},
{"geometry": {"type": "Point", "coordinates": [-94.2189219944, 45.5488244059]}, "type": "Feature", "properties": {"collection_times": [{"days": "Mon-Fri", "time": "4:15pm"}, {"days": "Sat", "time": "3:45pm"}, {"days": "Sun", "time": "Closed"}], "id": "5638700011", "name": "USPS COLLECTION BOX - BLUE BOX", "address": {"city": "WAITE PARK", "state": "MN", "street": "254 2ND AVE S", "postcode": "56387"}}}
]}
