{"type": "FeatureCollection", "features": [
{"geometry": {"type": "Point", "coordinates": [-94.2032979134, 46.3557006046]}, "type": "Feature", "properties": {"collection_times": [{"days": "Mon-Sat", "time": "4:00pm"}, {"days": "Sun", "time": "Closed"}], "id": "5640100001", "name": "USPS COLLECTION BOX - BLUE BOX", "address": {"city": "BRAINERD", "state": "MN", "street": "422 LAUREL ST", "postcode": "56401"}}},
{"geometry": {"type": "Point", "coordinates": [-94.1785391704, 46.3743278789]}, "type": "Feature", "properties": {"collection_times": [{"days": "Mon-Sat", "time": "1:30pm"}, {"days": "Sun", "time": "Closed"}], "id": "5640100002", "name": "USPS COLLECTION BOX - BLUE BOX", "address": {"city": "BRAINERD", "state": "MN", "street": "1500 MILL AVE", "postcode": "56401"}}},
{"geometry": {"type": "Point", "coordinates": [-94.1773614443, 46.3632645268]}, "type": "Feature", "properties": {"collection_times": [{"days": "Mon-Sat", "time": "1:45pm"}, {"days": "Sun", "time": "Closed"}], "id": "5640100004", "name": "USPS COLLECTION BOX - BLUE BOX", "address": {"city": "BRAINERD", "state": "MN", "street": "415 8TH AVE NE", "postcode": "56401"}}},
{"geometry": {"type": "Point", "coordinates": [-94.2052230714, 46.3614821502]}, "type": "Feature", "properties": {"collection_times": [{"days": "Mon-Fri", "time": "1:45pm"}, {"days": "Sat", "time": "1:00pm"}, {"days": "Sun", "time": "Closed"}], "id": "5640100007", "name": "USPS COLLECTION BOX - BLUE BOX", "address": {"city": "BRAINERD", "state": "MN", "street": "523 N 3RD ST", "postcode": "56401"}}},
{"geometry": {"type": "Point", "coordinates": [-94.2139587596, 46.3580997737]}, "type": "Feature", "properties": {"collection_times": [{"days": "Mon-Fri", "time": "2:00pm"}, {"days": "Sat", "time": "10:00am"}, {"days": "Sun", "time": "Closed"}], "id": "5640100009", "name": "USPS COLLECTION BOX - BLUE BOX", "address": {"city": "BRAINERD", "state": "MN", "street": "224 W WASHINGTON ST", "postcode": "56401"}}},
{"geometry": {"type": "Point", "coordinates": [-94.1059488813, 46.3175736056]}, "type": "Feature", "properties": {"collection_times": [{"days": "Mon-Fri", "time": "2:00pm"}, {"days": "Sat", "time": "10:00am"}, {"days": "Sun", "time": "Closed"}], "id": "5640100015", "name": "USPS COLLECTION BOX - BLUE BOX", "address": {"city": "BRAINERD", "state": "MN", "street": "14136 BAXTER", "postcode": "56401"}}},
{"geometry": {"type": "Point", "coordinates": [-94.1059488813, 46.3175736056]}, "type": "Feature", "properties": {"collection_times": [{"days": "Mon-Fri", "time": "2:00pm"}, {"days": "Sat", "time": "10:00am"}, {"days": "Sun", "time": "Closed"}], "id": "5640100016", "name": "USPS COLLECTION BOX - BLUE BOX", "address": {"city": "BRAINERD", "state": "MN", "street": "14091 BAXTER DR", "postcode": "56401"}}},
{"geometry": {"type": "Point", "coordinates": [-94.1059488813, 46.3175736056]}, "type": "Feature", "properties": {"collection_times": [{"days": "Mon-Fri", "time": "2:15pm"}, {"days": "Sat", "time": "11:00am"}, {"days": "Sun", "time": "Closed"}], "id": "5640100017", "name": "USPS COLLECTION BOX - BLUE BOX", "address": {"city": "BRAINERD", "state": "MN", "street": "14398 DELLWOOD DR", "postcode": "56401"}}},
{"geometry": {"type": "Point", "coordinates": [-94.2005302162, 46.3461191705]}, "type": "Feature", "properties": {"collection_times": [{"days": "Mon-Sat", "time": "1:30pm"}, {"days": "Sun", "time": "Closed"}], "id": "5640100021", "name": "USPS COLLECTION BOX - BLUE BOX", "address": {"city": "BRAINERD", "state": "MN", "street": "1223 S 6TH ST", "postcode": "56401"}}},
{"geometry": {"type": "Point", "coordinates": [-94.2006238774, 46.3352030115]}, "type": "Feature", "properties": {"collection_times": [{"days": "Mon-Fri", "time": "1:30pm"}, {"days": "Sat", "time": "10:00am"}, {"days": "Sun", "time": "Closed"}], "id": "5640100022", "name": "USPS COLLECTION BOX - BLUE BOX", "address": {"city": "BRAINERD", "state": "MN", "street": "1903 S 6TH ST", "postcode": "56401"}}},
{"geometry": {"type": "Point", "coordinates": [-94.1059488813, 46.3175736056]}, "type": "Feature", "properties": {"collection_times": [{"days": "Mon-Sat", "time": "12:00pm"}, {"days": "Sun", "time": "Closed"}], "id": "5640100025", "name": "USPS COLLECTION BOX - BLUE BOX", "address": {"city": "BRAINERD", "state": "MN", "street": "3325 OAK STY 18", "postcode": "56401"}}},
{"geometry": {"type": "Point", "coordinates": [-94.2032979134, 46.3557006046]}, "type": "Feature", "properties": {"collection_times": [{"days": "Mon-Sat", "time": "4:00pm"}, {"days": "Sun", "time": "Closed"}], "id": "5640100026", "name": "USPS COLLECTION BOX - BLUE BOX", "address": {"city": "BRAINERD", "state": "MN", "street": "422 LAUREL ST", "postcode": "56401"}}},
{"geometry": {"type": "Point", "coordinates": [-94.1773614443, 46.3632645268]}, "type": "Feature", "properties": {"collection_times": [{"days": "Mon-Sat", "time": "1:45pm"}, {"days": "Sun", "time": "Closed"}], "id": "5640100027", "name": "USPS COLLECTION BOX - BLUE BOX", "address": {"city": "BRAINERD", "state": "MN", "street": "415 8TH AVE NE", "postcode": "56401"}}},
{"geometry": {"type": "Point", "coordinates": [-94.1974902982, 46.3556927603]}, "type": "Feature", "properties": {"collection_times": [{"days": "Mon-Fri", "time": "1:30pm"}, {"days": "Sat", "time": "1:00pm"}, {"days": "Sun", "time": "Closed"}], "id": "5640100029", "name": "USPS COLLECTION BOX - BLUE BOX", "address": {"city": "BRAINERD", "state": "MN", "street": "804 LAUREL ST", "postcode": "56401"}}},
{"geometry": {"type": "Point", "coordinates": [-94.1059488813, 46.3175736056]}, "type": "Feature", "properties": {"collection_times": [{"days": "Mon-Fri", "time": "2:15pm"}, {"days": "Sat", "time": "11:00am"}, {"days": "Sun", "time": "Closed"}], "id": "5640100030", "name": "USPS COLLECTION BOX - BLUE BOX", "address": {"city": "BRAINERD", "state": "MN", "street": "14398 DELLWOOD DR", "postcode": "56401"}}},
{"geometry": {"type": "Point", "coordinates": [-94.1059488813, 46.3175736056]}, "type": "Feature", "properties": {"collection_times": [{"days": "Mon-Fri", "time": "2:15pm"}, {"days": "Sat", "time": "10:00am"}, {"days": "Sun", "time": "Closed"}], "id": "5640100031", "name": "USPS COLLECTION BOX - BLUE BOX", "address": {"city": "BRAINERD", "state": "MN", "street": "14133 EDGEWOOD DR", "postcode": "56401"}}},
{"geometry": {"type": "Point", "coordinates": [-94.1059488813, 46.3175736056]}, "type": "Feature", "properties": {"collection_times": [{"days": "Mon-Fri", "time": "3:00pm"}, {"days": "Sat", "time": "10:00am"}, {"days": "Sun", "time": "Closed"}], "id": "5640100032", "name": "USPS COLLECTION BOX - BLUE BOX", "address": {"city": "BRAINERD", "state": "MN", "street": "7842 COLLEGE RD", "postcode": "56401"}}},
{"geometry": {"type": "Point", "coordinates": [-94.1059488813, 46.3175736056]}, "type": "Feature", "properties": {"collection_times": [{"days": "Mon-Fri", "time": "2:30pm"}, {"days": "Sat", "time": "12:00pm"}, {"days": "Sun", "time": "Closed"}], "id": "5640100039", "name": "USPS COLLECTION BOX - BLUE BOX", "address": {"city": "BRAINERD", "state": "MN", "street": "7295 GLORY RD", "postcode": "56401"}}},
{"geometry": {"type": "Point", "coordinates": [-94.1059488813, 46.3175736056]}, "type": "Feature", "properties": {"collection_times": [{"days": "Mon-Fri", "time": "2:30pm"}, {"days": "Sat", "time": "12:00pm"}, {"days": "Sun", "time": "Closed"}], "id": "5640100041", "name": "USPS COLLECTION BOX - BLUE BOX", "address": {"city": "BRAINERD", "state": "MN", "street": "7295 GLORY RD", "postcode": "56401"}}},
{"geometry": {"type": "Point", "coordinates": [-93.7067876805, 46.5322813626]}, "type": "Feature", "properties": {"collection_times": [{"days": "Mon-Fri", "time": "1:45pm"}, {"days": "Sat", "time": "12:30pm"}, {"days": "Sun", "time": "Closed"}], "id": "5643100001", "name": "USPS COLLECTION BOX - BLUE BOX", "address": {"city": "AITKIN", "state": "MN", "street": "12 1ST ST NW", "postcode": "56431"}}},
{"geometry": {"type": "Point", "coordinates": [-93.6228564029, 46.4303540991]}, "type": "Feature", "properties": {"collection_times": [{"days": "Mon-Sat", "time": "10:00am"}, {"days": "Sun", "time": "Closed"}], "id": "5643100006", "name": "USPS COLLECTION BOX - BLUE BOX", "address": {"city": "AITKIN", "state": "MN", "street": "171 RED OAK DR", "postcode": "56431"}}},
{"geometry": {"type": "Point", "coordinates": [-93.7066869502, 46.5316914065]}, "type": "Feature", "properties": {"collection_times": [{"days": "Mon-Fri", "time": "1:45pm"}, {"days": "Sat", "time": "10:30am"}, {"days": "Sun", "time": "Closed"}], "id": "5643100008", "name": "USPS COLLECTION BOX - PO LOBBY", "address": {"city": "AITKIN", "state": "MN", "street": "15 MINNESOTA AVE N", "postcode": "56431"}}},
{"geometry": {"type": "Point", "coordinates": [-93.7067876805, 46.5322813626]}, "type": "Feature", "properties": {"collection_times": [{"days": "Mon-Fri", "time": "1:45pm"}, {"days": "Sat", "time": "12:30pm"}, {"days": "Sun", "time": "Closed"}], "id": "5643100009", "name": "USPS COLLECTION BOX - BLUE BOX", "address": {"city": "AITKIN", "state": "MN", "street": "12 1ST ST NW", "postcode": "56431"}}},
{"geometry": {"type": "Point", "coordinates": [-93.7065570201, 46.534588485]}, "type": "Feature", "properties": {"collection_times": [{"days": "Mon-Sat", "time": "12:00pm"}, {"days": "Sun", "time": "Closed"}], "id": "5643100010", "name": "USPS COLLECTION BOX - BLUE BOX", "address": {"city": "AITKIN", "state": "MN", "street": "312 MINNESOTA AVE N", "postcode": "56431"}}},
{"geometry": {"type": "Point", "coordinates": [-93.7065570201, 46.534588485]}, "type": "Feature", "properties": {"collection_times": [{"days": "Mon-Sat", "time": "12:00pm"}, {"days": "Sun", "time": "Closed"}], "id": "5643100011", "name": "USPS COLLECTION BOX - BLUE BOX", "address": {"city": "AITKIN", "state": "MN", "street": "312 MINNESOTA AVE N", "postcode": "56431"}}},
{"geometry": {"type": "Point", "coordinates": [-94.7292461672, 47.0035128649]}, "type": "Feature", "properties": {"collection_times": [{"days": "Mon-Sat", "time": "12:00pm"}, {"days": "Sun", "time": "Closed"}], "id": "5643300000", "name": "USPS COLLECTION BOX - BLUE BOX", "address": {"city": "AKELEY", "state": "MN", "street": "10 BROADWAY ST W", "postcode": "56433"}}},
{"geometry": {"type": "Point", "coordinates": [-94.7292461672, 47.0035128649]}, "type": "Feature", "properties": {"collection_times": [{"days": "Mon-Fri", "time": "11:30am"}, {"days": "Sat", "time": "9:30am"}, {"days": "Sun", "time": "Closed"}], "id": "5643300001", "name": "USPS COLLECTION BOX - PO LOBBY", "address": {"city": "AKELEY", "state": "MN", "street": "10 BROADWAY ST W", "postcode": "56433"}}},
{"geometry": {"type": "Point", "coordinates": [-94.9363547418, 46.3768244814]}, "type": "Feature", "properties": {"collection_times": [{"days": "Mon-Sat", "time": "2:00pm"}, {"days": "Sun", "time": "Closed"}], "id": "5643400000", "name": "USPS COLLECTION BOX - BLUE BOX", "address": {"city": "ALDRICH", "state": "MN", "street": "175 CENTRAL AVE N", "postcode": "56434"}}},
{"geometry": {"type": "Point", "coordinates": [-94.9363547418, 46.3768244814]}, "type": "Feature", "properties": {"collection_times": [{"days": "Mon-Fri", "time": "2:00pm"}, {"days": "Sat", "time": "12:30pm"}, {"days": "Sun", "time": "Closed"}], "id": "5643400001", "name": "USPS COLLECTION BOX - PO LOBBY", "address": {"city": "ALDRICH", "state": "MN", "street": "175 CENTRAL AVE N", "postcode": "56434"}}},
{"geometry": {"type": "Point", "coordinates": [-94.5168692509, 46.8201405396]}, "type": "Feature", "properties": {"collection_times": [{"days": "Mon-Sat", "time": "2:30pm"}, {"days": "Sun", "time": "Closed"}], "id": "5643500000", "name": "USPS COLLECTION BOX - BLUE BOX", "address": {"city": "BACKUS", "state": "MN", "street": "114 WASHBURN AVE E", "postcode": "56435"}}},
{"geometry": {"type": "Point", "coordinates": [-94.5168692509, 46.8201405396]}, "type": "Feature", "properties": {"collection_times": [{"days": "Mon-Fri", "time": "1:00pm"}, {"days": "Sat", "time": "9:00am"}, {"days": "Sun", "time": "Closed"}], "id": "5643500001", "name": "USPS COLLECTION BOX - PO LOBBY", "address": {"city": "BACKUS", "state": "MN", "street": "114 WASHBURN AVE E", "postcode": "56435"}}},
{"geometry": {"type": "Point", "coordinates": [-95.0597834044, 46.2666617375]}, "type": "Feature", "properties": {"collection_times": [{"days": "Mon-Sat", "time": "12:45pm"}, {"days": "Sun", "time": "Closed"}], "id": "5643700000", "name": "USPS COLLECTION BOX - BLUE BOX", "address": {"city": "BERTHA", "state": "MN", "street": "304 MAIN ST", "postcode": "56437"}}},
{"geometry": {"type": "Point", "coordinates": [-95.0597834044, 46.2666617375]}, "type": "Feature", "properties": {"collection_times": [{"days": "Mon-Fri", "time": "11:30am"}, {"days": "Sat", "time": "9:30am"}, {"days": "Sun", "time": "Closed"}], "id": "5643700001", "name": "USPS COLLECTION BOX - PO LOBBY", "address": {"city": "BERTHA", "state": "MN", "street": "304 MAIN ST", "postcode": "56437"}}},
{"geometry": {"type": "Point", "coordinates": [-94.8671875445, 46.0844393059]}, "type": "Feature", "properties": {"collection_times": [{"days": "Mon-Sat", "time": "1:30pm"}, {"days": "Sun", "time": "Closed"}], "id": "5643800000", "name": "USPS COLLECTION BOX - BLUE BOX", "address": {"city": "BROWERVILLE", "state": "MN", "street": "517 MAIN ST S", "postcode": "56438"}}},
{"geometry": {"type": "Point", "coordinates": [-94.8671875445, 46.0844393059]}, "type": "Feature", "properties": {"collection_times": [{"days": "Mon-Fri", "time": "1:30pm"}, {"days": "Sat", "time": "9:45am"}, {"days": "Sun", "time": "Closed"}], "id": "5643800001", "name": "USPS COLLECTION BOX - PO LOBBY", "address": {"city": "BROWERVILLE", "state": "MN", "street": "517 MAIN ST S", "postcode": "56438"}}},
{"geometry": {"type": "Point", "coordinates": [-94.9503148791, 46.1298075624]}, "type": "Feature", "properties": {"collection_times": [{"days": "Mon-Sat", "time": "1:15pm"}, {"days": "Sun", "time": "Closed"}], "id": "5644000000", "name": "USPS COLLECTION BOX - BLUE BOX", "address": {"city": "CLARISSA", "state": "MN", "street": "204 MAIN ST W", "postcode": "56440"}}},
{"geometry": {"type": "Point", "coordinates": [-94.9503148791, 46.1298075624]}, "type": "Feature", "properties": {"collection_times": [{"days": "Mon-Fri", "time": "1:15pm"}, {"days": "Sat", "time": "9:00am"}, {"days": "Sun", "time": "Closed"}], "id": "5644000001", "name": "USPS COLLECTION BOX - PO LOBBY", "address": {"city": "CLARISSA", "state": "MN", "street": "204 MAIN ST W", "postcode": "56440"}}},
{"geometry": {"type": "Point", "coordinates": [-93.9484184876, 46.4824673821]}, "type": "Feature", "properties": {"collection_times": [{"days": "Mon-Sat", "time": "2:30pm"}, {"days": "Sun", "time": "Closed"}], "id": "5644100002", "name": "USPS COLLECTION BOX - BLUE BOX", "address": {"city": "CROSBY", "state": "MN", "street": "207 W MAIN ST", "postcode": "56441"}}},
{"geometry": {"type": "Point", "coordinates": [-93.9484184876, 46.4824673821]}, "type": "Feature", "properties": {"collection_times": [{"days": "Mon-Fri", "time": "2:30pm"}, {"days": "Sat", "time": "10:00am"}, {"days": "Sun", "time": "Closed"}], "id": "5644100004", "name": "USPS COLLECTION BOX - PO LOBBY", "address": {"city": "CROSBY", "state": "MN", "street": "207 W MAIN ST", "postcode": "56441"}}},
{"geometry": {"type": "Point", "coordinates": [-94.1029922277, 46.6833163459]}, "type": "Feature", "properties": {"collection_times": [{"days": "Mon-Fri", "time": "1:30pm"}, {"days": "Sat", "time": "10:30am"}, {"days": "Sun", "time": "Closed"}], "id": "5644200000", "name": "USPS COLLECTION BOX - BLUE BOX", "address": {"city": "CROSSLAKE", "state": "MN", "street": "35860 COUNTY ROAD 66", "postcode": "56442"}}},
{"geometry": {"type": "Point", "coordinates": [-94.1029922277, 46.6833163459]}, "type": "Feature", "properties": {"collection_times": [{"days": "Mon-Fri", "time": "1:30pm"}, {"days": "Sat", "time": "10:30am"}, {"days": "Sun", "time": "Closed"}], "id": "5644200001", "name": "USPS COLLECTION BOX - PO LOBBY", "address": {"city": "CROSSLAKE", "state": "MN", "street": "35860 COUNTY ROAD 66", "postcode": "56442"}}},
{"geometry": {"type": "Point", "coordinates": [-94.0987209299, 46.672270707]}, "type": "Feature", "properties": {"collection_times": [{"days": "Mon-Sat", "time": "12:45pm"}, {"days": "Sun", "time": "Closed"}], "id": "5644200002", "name": "USPS COLLECTION BOX - BLUE BOX", "address": {"city": "CROSSLAKE", "state": "MN", "street": "35561 COUNTY ROAD 3", "postcode": "56442"}}},
{"geometry": {"type": "Point", "coordinates": [-94.1029922277, 46.6833163459]}, "type": "Feature", "properties": {"collection_times": [{"days": "Mon-Fri", "time": "1:30pm"}, {"days": "Sat", "time": "10:30am"}, {"days": "Sun", "time": "Closed"}], "id": "5644200003", "name": "USPS COLLECTION BOX - BLUE BOX", "address": {"city": "CROSSLAKE", "state": "MN", "street": "35860 COUNTY ROAD 66", "postcode": "56442"}}},
{"geometry": {"type": "Point", "coordinates": [-94.5772699168, 46.1393614735]}, "type": "Feature", "properties": {"collection_times": [{"days": "Mon-Sat", "time": "2:00pm"}, {"days": "Sun", "time": "Closed"}], "id": "5644300000", "name": "USPS COLLECTION BOX - BLUE BOX", "address": {"city": "CUSHING", "state": "MN", "street": "26113 BEAR RD", "postcode": "56443"}}},
{"geometry": {"type": "Point", "coordinates": [-94.5772699168, 46.1393614735]}, "type": "Feature", "properties": {"collection_times": [{"days": "Mon-Fri", "time": "11:30am"}, {"days": "Sat", "time": "9:45am"}, {"days": "Sun", "time": "Closed"}], "id": "5644300001", "name": "USPS COLLECTION BOX - PO LOBBY", "address": {"city": "CUSHING", "state": "MN", "street": "26113 BEAR RD", "postcode": "56443"}}},
{"geometry": {"type": "Point", "coordinates": [-94.6405219234, 46.2240626314]}, "type": "Feature", "properties": {"collection_times": [{"days": "Mon-Sat", "time": "10:30am"}, {"days": "Sun", "time": "Closed"}], "id": "5644300002", "name": "USPS COLLECTION BOX - BLUE BOX", "address": {"city": "CUSHING", "state": "MN", "street": "1042 320TH ST", "postcode": "56443"}}},
{"geometry": {"type": "Point", "coordinates": [-93.8753043255, 46.4186198357]}, "type": "Feature", "properties": {"collection_times": [{"days": "Mon-Fri", "time": "2:15pm"}, {"days": "Sat", "time": "2:00pm"}, {"days": "Sun", "time": "Closed"}], "id": "5644400000", "name": "USPS COLLECTION BOX - BLUE BOX", "address": {"city": "DEERWOOD", "state": "MN", "street": "23809 FOREST RD", "postcode": "56444"}}},
{"geometry": {"type": "Point", "coordinates": [-93.8753043255, 46.4186198357]}, "type": "Feature", "properties": {"collection_times": [{"days": "Mon-Fri", "time": "2:15pm"}, {"days": "Sat", "time": "10:00am"}, {"days": "Sun", "time": "Closed"}], "id": "5644400001", "name": "USPS COLLECTION BOX - PO LOBBY", "address": {"city": "DEERWOOD", "state": "MN", "street": "23809 FOREST RD", "postcode": "56444"}}},
{"geometry": {"type": "Point", "coordinates": [-95.036492052, 46.1649138478]}, "type": "Feature", "properties": {"collection_times": [{"days": "Mon-Sat", "time": "1:00pm"}, {"days": "Sun", "time": "Closed"}], "id": "5644600000", "name": "USPS COLLECTION BOX - BLUE BOX", "address": {"city": "EAGLE BEND", "state": "MN", "street": "103 MAIN ST W", "postcode": "56446"}}},
{"geometry": {"type": "Point", "coordinates": [-95.036492052, 46.1649138478]}, "type": "Feature", "properties": {"collection_times": [{"days": "Mon-Fri", "time": "1:00pm"}, {"days": "Sat", "time": "10:00am"}, {"days": "Sun", "time": "Closed"}], "id": "5644600001", "name": "USPS COLLECTION BOX - PO LOBBY", "address": {"city": "EAGLE BEND", "state": "MN", "street": "103 MAIN ST W", "postcode": "56446"}}},
{"geometry": {"type": "Point", "coordinates": [-93.9589158508, 46.7310064655]}, "type": "Feature", "properties": {"collection_times": [{"days": "Mon-Sat", "time": "1:00pm"}, {"days": "Sun", "time": "Closed"}], "id": "5644700000", "name": "USPS COLLECTION BOX - BLUE BOX", "address": {"city": "EMILY", "state": "MN", "street": "20984 CTY RD 1", "postcode": "56447"}}},
{"geometry": {"type": "Point", "coordinates": [-93.9589158508, 46.7310064655]}, "type": "Feature", "properties": {"collection_times": [{"days": "Mon-Fri", "time": "1:00pm"}, {"days": "Sat-Sun", "time": "Closed"}], "id": "5644700001", "name": "USPS COLLECTION BOX - PO LOBBY", "address": {"city": "EMILY", "state": "MN", "street": "20984 CTY RD 1", "postcode": "56447"}}},
{"geometry": {"type": "Point", "coordinates": [-94.0506461862, 46.7346067355]}, "type": "Feature", "properties": {"collection_times": [{"days": "Mon-Sat", "time": "1:15pm"}, {"days": "Sun", "time": "Closed"}], "id": "5644800000", "name": "USPS COLLECTION BOX - BLUE BOX", "address": {"city": "FIFTY LAKES", "state": "MN", "street": "40430 COUNTY ROAD 3", "postcode": "56448"}}},
{"geometry": {"type": "Point", "coordinates": [-94.2758662441, 46.1756499699]}, "type": "Feature", "properties": {"collection_times": [{"days": "Mon-Fri", "time": "1:45pm"}, {"days": "Sat", "time": "12:30pm"}, {"days": "Sun", "time": "Closed"}], "id": "5644900000", "name": "USPS COLLECTION BOX - BLUE BOX", "address": {"city": "FORT RIPLEY", "state": "MN", "street": "617 FRONT ST", "postcode": "56449"}}},
{"geometry": {"type": "Point", "coordinates": [-94.2758662441, 46.1756499699]}, "type": "Feature", "properties": {"collection_times": [{"days": "Mon-Fri", "time": "12:15pm"}, {"days": "Sat", "time": "12:30pm"}, {"days": "Sun", "time": "Closed"}], "id": "5644900001", "name": "USPS COLLECTION BOX - PO LOBBY", "address": {"city": "FORT RIPLEY", "state": "MN", "street": "617 FRONT ST", "postcode": "56449"}}},
{"geometry": {"type": "Point", "coordinates": [-93.8269688165, 46.2951195375]}, "type": "Feature", "properties": {"collection_times": [{"days": "Mon-Fri", "time": "1:00pm"}, {"days": "Sat", "time": "12:00pm"}, {"days": "Sun", "time": "Closed"}], "id": "5645000000", "name": "USPS COLLECTION BOX - BLUE BOX", "address": {"city": "GARRISON", "state": "MN", "street": "9424 JEFFERSON ST", "postcode": "56450"}}},
{"geometry": {"type": "Point", "coordinates": [-93.8269688165, 46.2951195375]}, "type": "Feature", "properties": {"collection_times": [{"days": "Mon-Fri", "time": "1:00pm"}, {"days": "Sat", "time": "10:00am"}, {"days": "Sun", "time": "Closed"}], "id": "5645000001", "name": "USPS COLLECTION BOX - PO LOBBY", "address": {"city": "GARRISON", "state": "MN", "street": "9424 JEFFERSON ST", "postcode": "56450"}}},
{"geometry": {"type": "Point", "coordinates": [-94.5228385041, 46.9284723178]}, "type": "Feature", "properties": {"collection_times": [{"days": "Mon-Fri", "time": "2:30pm"}, {"days": "Sat", "time": "2:15pm"}, {"days": "Sun", "time": "Closed"}], "id": "5645200000", "name": "USPS COLLECTION BOX - BLUE BOX", "address": {"city": "HACKENSACK", "state": "MN", "street": "201 1ST ST S", "postcode": "56452"}}},
{"geometry": {"type": "Point", "coordinates": [-94.5228385041, 46.9284723178]}, "type": "Feature", "properties": {"collection_times": [{"days": "Mon-Fri", "time": "2:30pm"}, {"days": "Sat", "time": "9:45am"}, {"days": "Sun", "time": "Closed"}], "id": "5645200002", "name": "USPS COLLECTION BOX - PO LOBBY", "address": {"city": "HACKENSACK", "state": "MN", "street": "201 1ST ST S", "postcode": "56452"}}},
{"geometry": {"type": "Point", "coordinates": [-95.0867879819, 46.3257390275]}, "type": "Feature", "properties": {"collection_times": [{"days": "Mon-Sat", "time": "12:30pm"}, {"days": "Sun", "time": "Closed"}], "id": "5645300000", "name": "USPS COLLECTION BOX - BLUE BOX", "address": {"city": "HEWITT", "state": "MN", "street": "410 N FRONT ST", "postcode": "56453"}}},
{"geometry": {"type": "Point", "coordinates": [-95.0867879819, 46.3257390275]}, "type": "Feature", "properties": {"collection_times": [{"days": "Mon-Fri", "time": "12:00pm"}, {"days": "Sat", "time": "9:15am"}, {"days": "Sun", "time": "Closed"}], "id": "5645300001", "name": "USPS COLLECTION BOX - PO LOBBY", "address": {"city": "HEWITT", "state": "MN", "street": "410 N FRONT ST", "postcode": "56453"}}},
{"geometry": {"type": "Point", "coordinates": [-93.9736678958, 46.4774241488]}, "type": "Feature", "properties": {"collection_times": [{"days": "Mon-Sat", "time": "2:30pm"}, {"days": "Sun", "time": "Closed"}], "id": "5645500000", "name": "USPS COLLECTION BOX - BLUE BOX", "address": {"city": "IRONTON", "state": "MN", "street": "115 4TH ST", "postcode": "56455"}}},
{"geometry": {"type": "Point", "coordinates": [-93.9736678958, 46.4774241488]}, "type": "Feature", "properties": {"collection_times": [{"days": "Mon-Fri", "time": "1:30pm"}, {"days": "Sat", "time": "9:30am"}, {"days": "Sun", "time": "Closed"}], "id": "5645500001", "name": "USPS COLLECTION BOX - PO LOBBY", "address": {"city": "IRONTON", "state": "MN", "street": "115 4TH ST", "postcode": "56455"}}},
{"geometry": {"type": "Point", "coordinates": [-94.9063296479, 47.1809534005]}, "type": "Feature", "properties": {"collection_times": [{"days": "Mon-Sat", "time": "11:00am"}, {"days": "Sun", "time": "Closed"}], "id": "5645800000", "name": "USPS COLLECTION BOX - BLUE BOX", "address": {"city": "LAKE GEORGE", "state": "MN", "street": "37307 COUNTY 4", "postcode": "56458"}}},
{"geometry": {"type": "Point", "coordinates": [-94.9063296479, 47.1809534005]}, "type": "Feature", "properties": {"collection_times": [{"days": "Mon-Sat", "time": "12:15pm"}, {"days": "Sun", "time": "Closed"}], "id": "5645800001", "name": "USPS COLLECTION BOX - PO LOBBY", "address": {"city": "LAKE GEORGE", "state": "MN", "street": "37307 COUNTY 4", "postcode": "56458"}}},
{"geometry": {"type": "Point", "coordinates": [-94.7522200411, 47.2144726425]}, "type": "Feature", "properties": {"collection_times": [{"days": "Mon-Fri", "time": "1:15pm"}, {"days": "Sat", "time": "10:00am"}, {"days": "Sun", "time": "Closed"}], "id": "5646100000", "name": "USPS COLLECTION BOX - BLUE BOX", "address": {"city": "LAPORTE", "state": "MN", "street": "80 MAIN ST E", "postcode": "56461"}}},
{"geometry": {"type": "Point", "coordinates": [-94.7522200411, 47.2144726425]}, "type": "Feature", "properties": {"collection_times": [{"days": "Mon-Fri", "time": "1:15pm"}, {"days": "Sat", "time": "10:00am"}, {"days": "Sun", "time": "Closed"}], "id": "5646100001", "name": "USPS COLLECTION BOX - PO LOBBY", "address": {"city": "LAPORTE", "state": "MN", "street": "80 MAIN ST E", "postcode": "56461"}}},
{"geometry": {"type": "Point", "coordinates": [-95.0976909418, 46.7540146207]}, "type": "Feature", "properties": {"collection_times": [{"days": "Mon-Fri", "time": "1:15pm"}, {"days": "Sat", "time": "1:00pm"}, {"days": "Sun", "time": "Closed"}], "id": "5646400000", "name": "USPS COLLECTION BOX - BLUE BOX", "address": {"city": "MENAHGA", "state": "MN", "street": "22 MAIN ST SE", "postcode": "56464"}}},
{"geometry": {"type": "Point", "coordinates": [-95.0976909418, 46.7540146207]}, "type": "Feature", "properties": {"collection_times": [{"days": "Mon-Fri", "time": "1:15pm"}, {"days": "Sat", "time": "10:00am"}, {"days": "Sun", "time": "Closed"}], "id": "5646400001", "name": "USPS COLLECTION BOX - PO LOBBY", "address": {"city": "MENAHGA", "state": "MN", "street": "22 MAIN ST SE", "postcode": "56464"}}},
{"geometry": {"type": "Point", "coordinates": [-94.1109813018, 46.5451165877]}, "type": "Feature", "properties": {"collection_times": [{"days": "Mon-Sat", "time": "2:45pm"}, {"days": "Sun", "time": "Closed"}], "id": "5646500000", "name": "USPS COLLECTION BOX - BLUE BOX", "address": {"city": "MERRIFIELD", "state": "MN", "street": "11029 CRYSTAL LAKE RD", "postcode": "56465"}}},
{"geometry": {"type": "Point", "coordinates": [-94.1109813018, 46.5451165877]}, "type": "Feature", "properties": {"collection_times": [{"days": "Mon-Fri", "time": "2:45pm"}, {"days": "Sat", "time": "9:00am"}, {"days": "Sun", "time": "Closed"}], "id": "5646500001", "name": "USPS COLLECTION BOX - PO LOBBY", "address": {"city": "MERRIFIELD", "state": "MN", "street": "11029 CRYSTAL LAKE RD", "postcode": "56465"}}},
{"geometry": {"type": "Point", "coordinates": [-94.6475085456, 46.3368992622]}, "type": "Feature", "properties": {"collection_times": [{"days": "Mon-Sat", "time": "2:45pm"}, {"days": "Sun", "time": "Closed"}], "id": "5646600000", "name": "USPS COLLECTION BOX - BLUE BOX", "address": {"city": "MOTLEY", "state": "MN", "street": "97 BEAULIEU ST W", "postcode": "56466"}}},
{"geometry": {"type": "Point", "coordinates": [-94.6447021957, 46.3365637723]}, "type": "Feature", "properties": {"collection_times": [{"days": "Mon-Fri", "time": "2:45pm"}, {"days": "Sat-Sun", "time": "Closed"}], "id": "5646600002", "name": "USPS COLLECTION BOX - PO LOBBY", "address": {"city": "MOTLEY", "state": "MN", "street": "97 BEAULIEU ST", "postcode": "56466"}}},
{"geometry": {"type": "Point", "coordinates": [-94.8423947576, 46.9645657794]}, "type": "Feature", "properties": {"collection_times": [{"days": "Mon-Sat", "time": "12:15pm"}, {"days": "Sun", "time": "Closed"}], "id": "5646700000", "name": "USPS COLLECTION BOX - BLUE BOX", "address": {"city": "NEVIS", "state": "MN", "street": "107 MAIN ST", "postcode": "56467"}}},
{"geometry": {"type": "Point", "coordinates": [-94.8423947576, 46.9645657794]}, "type": "Feature", "properties": {"collection_times": [{"days": "Mon-Fri", "time": "12:15pm"}, {"days": "Sat", "time": "10:00am"}, {"days": "Sun", "time": "Closed"}], "id": "5646700002", "name": "USPS COLLECTION BOX - PO LOBBY", "address": {"city": "NEVIS", "state": "MN", "street": "107 MAIN ST", "postcode": "56467"}}},
{"geometry": {"type": "Point", "coordinates": [-94.2877610562, 46.5072768205]}, "type": "Feature", "properties": {"collection_times": [{"days": "Mon-Fri", "time": "2:15pm"}, {"days": "Sat", "time": "10:30am"}, {"days": "Sun", "time": "Closed"}], "id": "5646800000", "name": "USPS COLLECTION BOX - BLUE BOX", "address": {"city": "NISSWA", "state": "MN", "street": "25551 MAIN ST", "postcode": "56468"}}},
{"geometry": {"type": "Point", "coordinates": [-94.2868430627, 46.5179679064]}, "type": "Feature", "properties": {"collection_times": [{"days": "Mon-Sat", "time": "12:00pm"}, {"days": "Sun", "time": "Closed"}], "id": "5646800002", "name": "USPS COLLECTION BOX - BLUE BOX", "address": {"city": "NISSWA", "state": "MN", "street": "23962 SMILEY RD", "postcode": "56468"}}},
{"geometry": {"type": "Point", "coordinates": [-94.2877610562, 46.5072768205]}, "type": "Feature", "properties": {"collection_times": [{"days": "Mon-Fri", "time": "2:15pm"}, {"days": "Sat", "time": "10:30am"}, {"days": "Sun", "time": "Closed"}], "id": "5646800003", "name": "USPS COLLECTION BOX - PO LOBBY", "address": {"city": "NISSWA", "state": "MN", "street": "25551 MAIN ST", "postcode": "56468"}}},
{"geometry": {"type": "Point", "coordinates": [-93.4899924254, 46.7133066223]}, "type": "Feature", "properties": {"collection_times": [{"days": "Mon-Fri", "time": "1:30pm"}, {"days": "Sat", "time": "1:15pm"}, {"days": "Sun", "time": "Closed"}], "id": "5646900000", "name": "USPS COLLECTION BOX - BLUE BOX", "address": {"city": "PALISADE", "state": "MN", "street": "301 MAIN ST", "postcode": "56469"}}},
{"geometry": {"type": "Point", "coordinates": [-93.4899924254, 46.7133066223]}, "type": "Feature", "properties": {"collection_times": [{"days": "Mon-Fri", "time": "11:30am"}, {"days": "Sat-Sun", "time": "Closed"}], "id": "5646900001", "name": "USPS COLLECTION BOX - PO LOBBY", "address": {"city": "PALISADE", "state": "MN", "street": "301 MAIN ST", "postcode": "56469"}}},
{"geometry": {"type": "Point", "coordinates": [-95.060220249, 46.9221893314]}, "type": "Feature", "properties": {"collection_times": [{"days": "Mon-Fri", "time": "11:00am"}, {"days": "Sat", "time": "10:00am"}, {"days": "Sun", "time": "Closed"}], "id": "5647000001", "name": "USPS COLLECTION BOX - BLUE BOX", "address": {"city": "PARK RAPIDS", "state": "MN", "street": "209 1ST ST W", "postcode": "56470"}}},
{"geometry": {"type": "Point", "coordinates": [-95.0583349771, 46.9199970709]}, "type": "Feature", "properties": {"collection_times": [{"days": "Mon-Sat", "time": "12:45pm"}, {"days": "Sun", "time": "Closed"}], "id": "5647000003", "name": "USPS COLLECTION BOX - BLUE BOX", "address": {"city": "PARK RAPIDS", "state": "MN", "street": "301 PARK AVE S", "postcode": "56470"}}},
{"geometry": {"type": "Point", "coordinates": [-95.0583349771, 46.9199970709]}, "type": "Feature", "properties": {"collection_times": [{"days": "Mon-Sat", "time": "12:45pm"}, {"days": "Sun", "time": "Closed"}], "id": "5647000006", "name": "USPS COLLECTION BOX - PO LOBBY", "address": {"city": "PARK RAPIDS", "state": "MN", "street": "301 PARK AVE S", "postcode": "56470"}}},
{"geometry": {"type": "Point", "coordinates": [-95.0583349771, 46.9199970709]}, "type": "Feature", "properties": {"collection_times": [{"days": "Mon-Sat", "time": "12:45pm"}, {"days": "Sun", "time": "Closed"}], "id": "5647000010", "name": "USPS COLLECTION BOX - BLUE BOX", "address": {"city": "PARK RAPIDS", "state": "MN", "street": "301 PARK AVE S", "postcode": "56470"}}},
{"geometry": {"type": "Point", "coordinates": [-94.3402050726, 46.5877131432]}, "type": "Feature", "properties": {"collection_times": [{"days": "Mon-Fri", "time": "2:00pm"}, {"days": "Sat", "time": "11:00am"}, {"days": "Sun", "time": "Closed"}], "id": "5647200000", "name": "USPS COLLECTION BOX - BLUE BOX", "address": {"city": "PEQUOT LAKES", "state": "MN", "street": "4294 MAIN ST", "postcode": "56472"}}},
{"geometry": {"type": "Point", "coordinates": [-94.2193987929, 46.5899961673]}, "type": "Feature", "properties": {"collection_times": [{"days": "Mon-Sat", "time": "12:00pm"}, {"days": "Sun", "time": "Closed"}], "id": "5647200001", "name": "USPS COLLECTION BOX - BLUE BOX", "address": {"city": "PEQUOT LAKES", "state": "MN", "street": "30211 COUNTY ROAD 4", "postcode": "56472"}}},
{"geometry": {"type": "Point", "coordinates": [-94.3402050726, 46.5877131432]}, "type": "Feature", "properties": {"collection_times": [{"days": "Mon-Fri", "time": "2:00pm"}, {"days": "Sat", "time": "11:00am"}, {"days": "Sun", "time": "Closed"}], "id": "5647200002", "name": "USPS COLLECTION BOX - PO LOBBY", "address": {"city": "PEQUOT LAKES", "state": "MN", "street": "4294 MAIN ST", "postcode": "56472"}}},
{"geometry": {"type": "Point", "coordinates": [-94.3402050726, 46.5877131432]}, "type": "Feature", "properties": {"collection_times": [{"days": "Mon-Fri", "time": "2:00pm"}, {"days": "Sat", "time": "11:00am"}, {"days": "Sun", "time": "Closed"}], "id": "5647200003", "name": "USPS COLLECTION BOX - BLUE BOX", "address": {"city": "PEQUOT LAKES", "state": "MN", "street": "4294 MAIN ST", "postcode": "56472"}}},
{"geometry": {"type": "Point", "coordinates": [-94.476842242, 46.329328982]}, "type": "Feature", "properties": {"collection_times": [{"days": "Mon-Fri", "time": "3:00pm"}, {"days": "Sat", "time": "2:45pm"}, {"days": "Sun", "time": "Closed"}], "id": "5647300000", "name": "USPS COLLECTION BOX - BLUE BOX", "address": {"city": "PILLAGER", "state": "MN", "street": "123 CEDAR AVE E", "postcode": "56473"}}},
{"geometry": {"type": "Point", "coordinates": [-94.476842242, 46.329328982]}, "type": "Feature", "properties": {"collection_times": [{"days": "Mon-Fri", "time": "3:00pm"}, {"days": "Sat", "time": "9:00am"}, {"days": "Sun", "time": "Closed"}], "id": "5647300001", "name": "USPS COLLECTION BOX - PO LOBBY", "address": {"city": "PILLAGER", "state": "MN", "street": "123 CEDAR AVE E", "postcode": "56473"}}},
{"geometry": {"type": "Point", "coordinates": [-94.4644683506, 46.3418676086]}, "type": "Feature", "properties": {"collection_times": [{"days": "Mon-Sat", "time": "9:30am"}, {"days": "Sun", "time": "Closed"}], "id": "5647300002", "name": "USPS COLLECTION BOX - BLUE BOX", "address": {"city": "PILLAGER", "state": "MN", "street": "746 PILLSBURY ST N", "postcode": "56473"}}},
{"geometry": {"type": "Point", "coordinates": [-94.4024870431, 46.719430916]}, "type": "Feature", "properties": {"collection_times": [{"days": "Mon-Fri", "time": "2:45pm"}, {"days": "Sat", "time": "10:00am"}, {"days": "Sun", "time": "Closed"}], "id": "5647400000", "name": "USPS COLLECTION BOX - BLUE BOX", "address": {"city": "PINE RIVER", "state": "MN", "street": "330 BARCLAY AVE W", "postcode": "56474"}}},
{"geometry": {"type": "Point", "coordinates": [-94.4024870431, 46.719430916]}, "type": "Feature", "properties": {"collection_times": [{"days": "Mon-Fri", "time": "2:45pm"}, {"days": "Sat", "time": "10:00am"}, {"days": "Sun", "time": "Closed"}], "id": "5647400002", "name": "USPS COLLECTION BOX - PO LOBBY", "address": {"city": "PINE RIVER", "state": "MN", "street": "330 BARCLAY AVE W", "postcode": "56474"}}},
{"geometry": {"type": "Point", "coordinates": [-94.5362080482, 46.0784299139]}, "type": "Feature", "properties": {"collection_times": [{"days": "Mon-Sat", "time": "2:00pm"}, {"days": "Sun", "time": "Closed"}], "id": "5647500000", "name": "USPS COLLECTION BOX - BLUE BOX", "address": {"city": "RANDALL", "state": "MN", "street": "303 PACIFIC AVE", "postcode": "56475"}}},
{"geometry": {"type": "Point", "coordinates": [-94.5362080482, 46.0784299139]}, "type": "Feature", "properties": {"collection_times": [{"days": "Mon-Fri", "time": "1:15pm"}, {"days": "Sat", "time": "9:30am"}, {"days": "Sun", "time": "Closed"}], "id": "5647500001", "name": "USPS COLLECTION BOX - PO LOBBY", "address": {"city": "RANDALL", "state": "MN", "street": "303 PACIFIC AVE", "postcode": "56475"}}},
{"geometry": {"type": "Point", "coordinates": [-95.0895012115, 46.6298721177]}, "type": "Feature", "properties": {"collection_times": [{"days": "Mon-Sat", "time": "1:30pm"}, {"days": "Sun", "time": "Closed"}], "id": "5647700000", "name": "USPS COLLECTION BOX - BLUE BOX", "address": {"city": "SEBEKA", "state": "MN", "street": "107 MINNESOTA AVE W", "postcode": "56477"}}},
{"geometry": {"type": "Point", "coordinates": [-95.0895012115, 46.6298721177]}, "type": "Feature", "properties": {"collection_times": [{"days": "Mon-Fri", "time": "1:30pm"}, {"days": "Sat", "time": "10:00am"}, {"days": "Sun", "time": "Closed"}], "id": "5647700001", "name": "USPS COLLECTION BOX - PO LOBBY", "address": {"city": "SEBEKA", "state": "MN", "street": "107 MINNESOTA AVE W", "postcode": "56477"}}},
{"geometry": {"type": "Point", "coordinates": [-94.8845907465, 46.6310409696]}, "type": "Feature", "properties": {"collection_times": [{"days": "Mon-Sat", "time": "1:45pm"}, {"days": "Sun", "time": "Closed"}], "id": "5647700002", "name": "USPS COLLECTION BOX - BLUE BOX", "address": {"city": "SEBEKA", "state": "MN", "street": "23314 NIMROD AVE", "postcode": "56477"}}},
{"geometry": {"type": "Point", "coordinates": [-94.7949982501, 46.3559753495]}, "type": "Feature", "properties": {"collection_times": [{"days": "Mon-Fri", "time": "2:30pm"}, {"days": "Sat", "time": "2:15pm"}, {"days": "Sun", "time": "Closed"}], "id": "5647900001", "name": "USPS COLLECTION BOX - BLUE BOX", "address": {"city": "STAPLES", "state": "MN", "street": "229 4TH ST NE", "postcode": "56479"}}},
{"geometry": {"type": "Point", "coordinates": [-94.7950663567, 46.3548593146]}, "type": "Feature", "properties": {"collection_times": [{"days": "Mon-Sat", "time": "10:45am"}, {"days": "Sun", "time": "Closed"}], "id": "5647900003", "name": "USPS COLLECTION BOX - BLUE BOX", "address": {"city": "STAPLES", "state": "MN", "street": "111 4TH ST NE", "postcode": "56479"}}},
{"geometry": {"type": "Point", "coordinates": [-94.7921986924, 46.3533894723]}, "type": "Feature", "properties": {"collection_times": [{"days": "Mon-Sat", "time": "10:45am"}, {"days": "Sun", "time": "Closed"}], "id": "5647900005", "name": "USPS COLLECTION BOX - BLUE BOX", "address": {"city": "STAPLES", "state": "MN", "street": "223 6TH ST SE", "postcode": "56479"}}},
{"geometry": {"type": "Point", "coordinates": [-94.7949982501, 46.3559753495]}, "type": "Feature", "properties": {"collection_times": [{"days": "Mon-Fri", "time": "2:30pm"}, {"days": "Sat", "time": "1:30pm"}, {"days": "Sun", "time": "Closed"}], "id": "5647900006", "name": "USPS COLLECTION BOX - PO LOBBY", "address": {"city": "STAPLES", "state": "MN", "street": "229 4TH ST NE", "postcode": "56479"}}},
{"geometry": {"type": "Point", "coordinates": [-95.0138174856, 46.3967396013]}, "type": "Feature", "properties": {"collection_times": [{"days": "Mon-Sat", "time": "2:00pm"}, {"days": "Sun", "time": "Closed"}], "id": "5648100000", "name": "USPS COLLECTION BOX - BLUE BOX", "address": {"city": "VERNDALE", "state": "MN", "street": "122 S FARWELL ST", "postcode": "56481"}}},
{"geometry": {"type": "Point", "coordinates": [-95.0138174856, 46.3967396013]}, "type": "Feature", "properties": {"collection_times": [{"days": "Mon-Fri", "time": "1:00pm"}, {"days": "Sat", "time": "9:15am"}, {"days": "Sun", "time": "Closed"}], "id": "5648100001", "name": "USPS COLLECTION BOX - PO LOBBY", "address": {"city": "VERNDALE", "state": "MN", "street": "122 S FARWELL ST", "postcode": "56481"}}},
{"geometry": {"type": "Point", "coordinates": [-95.1372691537, 46.4400868848]}, "type": "Feature", "properties": {"collection_times": [{"days": "Mon-Fri", "time": "1:30pm"}, {"days": "Sat", "time": "10:00am"}, {"days": "Sun", "time": "Closed"}], "id": "5648200000", "name": "USPS COLLECTION BOX - BLUE BOX", "address": {"city": "WADENA", "state": "MN", "street": "23 BRYANT AVE SE", "postcode": "56482"}}},
{"geometry": {"type": "Point", "coordinates": [-95.1372691537, 46.4400868848]}, "type": "Feature", "properties": {"collection_times": [{"days": "Mon-Fri", "time": "1:30pm"}, {"days": "Sat", "time": "10:00am"}, {"days": "Sun", "time": "Closed"}], "id": "5648200002", "name": "USPS COLLECTION BOX - BLUE BOX", "address": {"city": "WADENA", "state": "MN", "street": "23 BRYANT AVE SE", "postcode": "56482"}}},
{"geometry": {"type": "Point", "coordinates": [-95.1379049693, 46.4403147419]}, "type": "Feature", "properties": {"collection_times": [{"days": "Mon-Fri", "time": "1:30pm"}, {"days": "Sat", "time": "10:00am"}, {"days": "Sun", "time": "Closed"}], "id": "5648200008", "name": "USPS COLLECTION BOX - PO LOBBY", "address": {"city": "WADENA", "state": "MN", "street": "23 BRYANT AVE S", "postcode": "56482"}}},
{"geometry": {"type": "Point", "coordinates": [-94.5822885515, 47.1007128995]}, "type": "Feature", "properties": {"collection_times": [{"days": "Mon-Fri", "time": "2:00pm"}, {"days": "Sat", "time": "11:00am"}, {"days": "Sun", "time": "Closed"}], "id": "5648400000", "name": "USPS COLLECTION BOX - BLUE BOX", "address": {"city": "WALKER", "state": "MN", "street": "515 MICHIGAN AVE W", "postcode": "56484"}}},
{"geometry": {"type": "Point", "coordinates": [-94.5807972993, 47.1017648435]}, "type": "Feature", "properties": {"collection_times": [{"days": "Mon-Fri", "time": "12:00pm"}, {"days": "Sat-Sun", "time": "Closed"}], "id": "5648400001", "name": "USPS COLLECTION BOX - BLUE BOX", "address": {"city": "WALKER", "state": "MN", "street": "411 MINNESOTA AVE W", "postcode": "56484"}}},
{"geometry": {"type": "Point", "coordinates": [-94.4739464074, 47.1041741784]}, "type": "Feature", "properties": {"collection_times": [{"days": "Mon-Fri", "time": "12:00pm"}, {"days": "Sat-Sun", "time": "Closed"}], "id": "5648400002", "name": "USPS COLLECTION BOX - BLUE BOX", "address": {"city": "WALKER", "state": "MN", "street": "701 MICHIGAN AVE W", "postcode": "56484"}}},
{"geometry": {"type": "Point", "coordinates": [-94.5822885515, 47.1007128995]}, "type": "Feature", "properties": {"collection_times": [{"days": "Mon-Fri", "time": "2:00pm"}, {"days": "Sat", "time": "11:00am"}, {"days": "Sun", "time": "Closed"}], "id": "5648400003", "name": "USPS COLLECTION BOX - PO LOBBY", "address": {"city": "WALKER", "state": "MN", "street": "515 MICHIGAN AVE W", "postcode": "56484"}}},
{"geometry": {"type": "Point", "coordinates": [-94.4739464074, 47.1041741784]}, "type": "Feature", "properties": {"collection_times": [{"days": "Mon-Sat", "time": "1:30pm"}, {"days": "Sun", "time": "Closed"}], "id": "5648400005", "name": "USPS COLLECTION BOX - BLUE BOX", "address": {"city": "WALKER", "state": "MN", "street": "34365 CTY RD 38", "postcode": "56484"}}},
{"geometry": {"type": "Point", "coordinates": [-94.5822885515, 47.1007128995]}, "type": "Feature", "properties": {"collection_times": [{"days": "Mon-Fri", "time": "2:00pm"}, {"days": "Sat", "time": "11:00am"}, {"days": "Sun", "time": "Closed"}], "id": "5648400007", "name": "USPS COLLECTION BOX - BLUE BOX", "address": {"city": "WALKER", "state": "MN", "street": "515 MICHIGAN AVE W", "postcode": "56484"}}},
{"geometry": {"type": "Point", "coordinates": [-94.5797192844, 47.101806068]}, "type": "Feature", "properties": {"collection_times": [{"days": "Mon-Fri", "time": "12:00pm"}, {"days": "Sat-Sun", "time": "Closed"}], "id": "5648400008", "name": "USPS COLLECTION BOX - BLUE BOX", "address": {"city": "WALKER", "state": "MN", "street": "303 MINNESOTA AVE W", "postcode": "56484"}}}
]}
