{"type": "FeatureCollection", "features": [
{"geometry": {"type": "Point", "coordinates": [-95.8453105184, 46.8171358784]}, "type": "Feature", "properties": {"collection_times": [{"days": "Mon-Sat", "time": "2:00pm"}, {"days": "Sun", "time": "Closed"}], "id": "5650100005", "name": "USPS COLLECTION BOX - BLUE BOX", "address": {"city": "DETROIT LAKES", "state": "MN", "street": "901 WASHINGTON AVE", "postcode": "56501"}}},
{"geometry": {"type": "Point", "coordinates": [-95.8455701213, 46.8111713471]}, "type": "Feature", "properties": {"collection_times": [{"days": "Mon-Sat", "time": "2:00pm"}, {"days": "Sun", "time": "Closed"}], "id": "5650100006", "name": "USPS COLLECTION BOX - BLUE BOX", "address": {"city": "DETROIT LAKES", "state": "MN", "street": "1204 WASHINGTON AVE", "postcode": "56501"}}},
{"geometry": {"type": "Point", "coordinates": [-95.8449909606, 46.8171976172]}, "type": "Feature", "properties": {"collection_times": [{"days": "Mon-Sat", "time": "2:15pm"}, {"days": "Sun", "time": "Closed"}], "id": "5650100010", "name": "USPS COLLECTION BOX - BLUE BOX", "address": {"city": "DETROIT LAKES", "state": "MN", "street": "115 HOLMES ST E", "postcode": "56501"}}},
{"geometry": {"type": "Point", "coordinates": [-95.8474386075, 46.8193719775]}, "type": "Feature", "properties": {"collection_times": [{"days": "Mon-Sat", "time": "6:00pm"}, {"days": "Sun", "time": "Closed"}], "id": "5650100021", "name": "USPS COLLECTION BOX - PO LOBBY", "address": {"city": "DETROIT LAKES", "state": "MN", "street": "250 STATE ST W", "postcode": "56501"}}},
{"geometry": {"type": "Point", "coordinates": [-95.8474386075, 46.8193719775]}, "type": "Feature", "properties": {"collection_times": [{"days": "Mon-Sat", "time": "6:00pm"}, {"days": "Sun", "time": "Closed"}], "id": "5650100022", "name": "USPS COLLECTION BOX - PO LOBBY", "address": {"city": "DETROIT LAKES", "state": "MN", "street": "250 STATE ST W", "postcode": "56501"}}},
{"geometry": {"type": "Point", "coordinates": [-95.8365400311, 46.8887071512]}, "type": "Feature", "properties": {"collection_times": [{"days": "Mon-Sat", "time": "10:30am"}, {"days": "Sun", "time": "Closed"}], "id": "5650100034", "name": "USPS COLLECTION BOX - BLUE BOX", "address": {"city": "DETROIT LAKES", "state": "MN", "street": "27625 COUNTY HIGHWAY 21", "postcode": "56501"}}},
{"geometry": {"type": "Point", "coordinates": [-95.8408317299, 46.8158672764]}, "type": "Feature", "properties": {"collection_times": [{"days": "Mon-Sat", "time": "2:15pm"}, {"days": "Sun", "time": "Closed"}], "id": "5650100039", "name": "USPS COLLECTION BOX - BLUE BOX", "address": {"city": "DETROIT LAKES", "state": "MN", "street": "310 FRAZEE ST E", "postcode": "56501"}}},
{"geometry": {"type": "Point", "coordinates": [-95.8474386075, 46.8193719775]}, "type": "Feature", "properties": {"collection_times": [{"days": "Mon-Sat", "time": "6:00pm"}, {"days": "Sun", "time": "Closed"}], "id": "5650100040", "name": "USPS COLLECTION BOX - BLUE BOX", "address": {"city": "DETROIT LAKES", "state": "MN", "street": "250 STATE ST W", "postcode": "56501"}}},
{"geometry": {"type": "Point", "coordinates": [-95.878748451, 46.8286128191]}, "type": "Feature", "properties": {"collection_times": [{"days": "Mon-Sat", "time": "9:00am"}, {"days": "Sun", "time": "Closed"}], "id": "5650100041", "name": "USPS COLLECTION BOX - BLUE BOX", "address": {"city": "DETROIT LAKES", "state": "MN", "street": "1583 HIGHWAY 10 W", "postcode": "56501"}}},
{"geometry": {"type": "Point", "coordinates": [-96.5169485019, 47.2995994751]}, "type": "Feature", "properties": {"collection_times": [{"days": "Mon-Sat", "time": "2:15pm"}, {"days": "Sun", "time": "Closed"}], "id": "5651000004", "name": "USPS COLLECTION BOX - BLUE BOX", "address": {"city": "ADA", "state": "MN", "street": "114 4TH AVE W", "postcode": "56510"}}},
{"geometry": {"type": "Point", "coordinates": [-96.5169485019, 47.2995994751]}, "type": "Feature", "properties": {"collection_times": [{"days": "Mon-Fri", "time": "2:15pm"}, {"days": "Sat-Sun", "time": "Closed"}], "id": "5651000008", "name": "USPS COLLECTION BOX - PO LOBBY", "address": {"city": "ADA", "state": "MN", "street": "114 4TH AVE W", "postcode": "56510"}}},
{"geometry": {"type": "Point", "coordinates": [-95.981857889, 46.8614991382]}, "type": "Feature", "properties": {"collection_times": [{"days": "Mon-Sat", "time": "5:45pm"}, {"days": "Sun", "time": "Closed"}], "id": "5651100001", "name": "USPS COLLECTION BOX - BLUE BOX", "address": {"city": "AUDUBON", "state": "MN", "street": "215 4TH ST", "postcode": "56511"}}},
{"geometry": {"type": "Point", "coordinates": [-95.981857889, 46.8614991382]}, "type": "Feature", "properties": {"collection_times": [{"days": "Mon-Fri", "time": "3:25pm"}, {"days": "Sat-Sun", "time": "Closed"}], "id": "5651100002", "name": "USPS COLLECTION BOX - PO LOBBY", "address": {"city": "AUDUBON", "state": "MN", "street": "215 4TH ST", "postcode": "56511"}}},
{"geometry": {"type": "Point", "coordinates": [-96.4199440897, 46.6521295806]}, "type": "Feature", "properties": {"collection_times": [{"days": "Mon-Sat", "time": "4:45pm"}, {"days": "Sun", "time": "Closed"}], "id": "5651400001", "name": "USPS COLLECTION BOX - BLUE BOX", "address": {"city": "BARNESVILLE", "state": "MN", "street": "212 FRONT ST S", "postcode": "56514"}}},
{"geometry": {"type": "Point", "coordinates": [-96.4200811611, 46.658915651]}, "type": "Feature", "properties": {"collection_times": [{"days": "Mon-Sat", "time": "4:30pm"}, {"days": "Sun", "time": "Closed"}], "id": "5651400002", "name": "USPS COLLECTION BOX - BLUE BOX", "address": {"city": "BARNESVILLE", "state": "MN", "street": "615 FRONT ST N", "postcode": "56514"}}},
{"geometry": {"type": "Point", "coordinates": [-96.4199440897, 46.6521295806]}, "type": "Feature", "properties": {"collection_times": [{"days": "Mon-Fri", "time": "5:00pm"}, {"days": "Sat-Sun", "time": "Closed"}], "id": "5651400003", "name": "USPS COLLECTION BOX - PO LOBBY", "address": {"city": "BARNESVILLE", "state": "MN", "street": "212 FRONT ST S", "postcode": "56514"}}},
{"geometry": {"type": "Point", "coordinates": [-95.714034535, 46.2823604818]}, "type": "Feature", "properties": {"collection_times": [{"days": "Mon-Fri", "time": "4:00pm"}, {"days": "Sat", "time": "4:30pm"}, {"days": "Sun", "time": "Closed"}], "id": "5651500001", "name": "USPS COLLECTION BOX - BLUE BOX", "address": {"city": "BATTLE LAKE", "state": "MN", "street": "116 N LAKE AVE", "postcode": "56515"}}},
{"geometry": {"type": "Point", "coordinates": [-95.7139800302, 46.2823697622]}, "type": "Feature", "properties": {"collection_times": [{"days": "Mon-Fri", "time": "4:00pm"}, {"days": "Sat", "time": "9:30am"}, {"days": "Sun", "time": "Closed"}], "id": "5651500002", "name": "USPS COLLECTION BOX - PO LOBBY", "address": {"city": "BATTLE LAKE", "state": "MN", "street": "116 N LAKE AVE", "postcode": "56515"}}},
{"geometry": {"type": "Point", "coordinates": [-95.9727124981, 47.4422769284]}, "type": "Feature", "properties": {"collection_times": [{"days": "Mon-Sat", "time": "3:45pm"}, {"days": "Sun", "time": "Closed"}], "id": "5651600001", "name": "USPS COLLECTION BOX - BLUE BOX", "address": {"city": "BEJOU", "state": "MN", "street": "525 MAIN ST", "postcode": "56516"}}},
{"geometry": {"type": "Point", "coordinates": [-95.9727124981, 47.4422769284]}, "type": "Feature", "properties": {"collection_times": [{"days": "Mon-Fri", "time": "9:50am"}, {"days": "Sat-Sun", "time": "Closed"}], "id": "5651600002", "name": "USPS COLLECTION BOX - PO LOBBY", "address": {"city": "BEJOU", "state": "MN", "street": "525 MAIN ST", "postcode": "56516"}}},
{"geometry": {"type": "Point", "coordinates": [-95.976091336, 47.444153714]}, "type": "Feature", "properties": {"collection_times": [{"days": "Mon-Sat", "time": "12:00pm"}, {"days": "Sun", "time": "Closed"}], "id": "5651600003", "name": "USPS COLLECTION BOX - BLUE BOX", "address": {"city": "BEJOU", "state": "MN", "street": "218 N HIGHWAY 59", "postcode": "56516"}}},
{"geometry": {"type": "Point", "coordinates": [-96.4810013059, 47.5860390985]}, "type": "Feature", "properties": {"collection_times": [{"days": "Mon-Fri", "time": "10:55am"}, {"days": "Sat", "time": "9:55am"}, {"days": "Sun", "time": "Closed"}], "id": "5651700001", "name": "USPS COLLECTION BOX - BLUE BOX", "address": {"city": "BELTRAMI", "state": "MN", "street": "507 ATLANTIC AVE STE 5", "postcode": "56517"}}},
{"geometry": {"type": "Point", "coordinates": [-95.2343996319, 46.468113405]}, "type": "Feature", "properties": {"collection_times": [{"days": "Mon-Sat", "time": "3:50pm"}, {"days": "Sun", "time": "Closed"}], "id": "5651800001", "name": "USPS COLLECTION BOX - BLUE BOX", "address": {"city": "BLUFFTON", "state": "MN", "street": "104 2ND ST", "postcode": "56518"}}},
{"geometry": {"type": "Point", "coordinates": [-95.2343996319, 46.468113405]}, "type": "Feature", "properties": {"collection_times": [{"days": "Mon-Fri", "time": "12:30pm"}, {"days": "Sat-Sun", "time": "Closed"}], "id": "5651800002", "name": "USPS COLLECTION BOX - PO LOBBY", "address": {"city": "BLUFFTON", "state": "MN", "street": "104 2ND ST", "postcode": "56518"}}},
{"geometry": {"type": "Point", "coordinates": [-96.5054245797, 47.1803651262]}, "type": "Feature", "properties": {"collection_times": [{"days": "Mon-Sat", "time": "2:40pm"}, {"days": "Sun", "time": "Closed"}], "id": "5651900000", "name": "USPS COLLECTION BOX - BLUE BOX", "address": {"city": "BORUP", "state": "MN", "street": "206 MAIN AVE", "postcode": "56519"}}},
{"geometry": {"type": "Point", "coordinates": [-96.5054245797, 47.1803651262]}, "type": "Feature", "properties": {"collection_times": [{"days": "Mon-Fri", "time": "1:15pm"}, {"days": "Sat-Sun", "time": "Closed"}], "id": "5651900001", "name": "USPS COLLECTION BOX - PO LOBBY", "address": {"city": "BORUP", "state": "MN", "street": "206 MAIN AVE", "postcode": "56519"}}},
{"geometry": {"type": "Point", "coordinates": [-96.5890711061, 46.2646293022]}, "type": "Feature", "properties": {"collection_times": [{"days": "Mon-Sat", "time": "2:00pm"}, {"days": "Sun", "time": "Closed"}], "id": "5652000008", "name": "USPS COLLECTION BOX - BLUE BOX", "address": {"city": "BRECKENRIDGE", "state": "MN", "street": "420 NEBRASKA AVE", "postcode": "56520"}}},
{"geometry": {"type": "Point", "coordinates": [-96.5878936466, 46.2648868866]}, "type": "Feature", "properties": {"collection_times": [{"days": "Mon-Fri", "time": "3:35pm"}, {"days": "Sat", "time": "2:30pm"}, {"days": "Sun", "time": "Closed"}], "id": "5652000021", "name": "USPS COLLECTION BOX - BLUE BOX", "address": {"city": "BRECKENRIDGE", "state": "MN", "street": "224 5TH ST N", "postcode": "56520"}}},
{"geometry": {"type": "Point", "coordinates": [-96.5878936466, 46.2648868866]}, "type": "Feature", "properties": {"collection_times": [{"days": "Mon-Fri", "time": "3:35pm"}, {"days": "Sat-Sun", "time": "Closed"}], "id": "5652000023", "name": "USPS COLLECTION BOX - PO LOBBY", "address": {"city": "BRECKENRIDGE", "state": "MN", "street": "224 5TH ST N", "postcode": "56520"}}},
{"geometry": {"type": "Point", "coordinates": [-96.5879181841, 46.2608980406]}, "type": "Feature", "properties": {"collection_times": [{"days": "Mon-Fri", "time": "2:30pm"}, {"days": "Sat-Sun", "time": "Closed"}], "id": "5652000024", "name": "USPS COLLECTION BOX - BLUE BOX", "address": {"city": "BRECKENRIDGE", "state": "MN", "street": "300 5TH ST S", "postcode": "56520"}}},
{"geometry": {"type": "Point", "coordinates": [-95.9091482118, 46.9804418325]}, "type": "Feature", "properties": {"collection_times": [{"days": "Mon-Sat", "time": "4:45pm"}, {"days": "Sun", "time": "Closed"}], "id": "5652100001", "name": "USPS COLLECTION BOX - BLUE BOX", "address": {"city": "CALLAWAY", "state": "MN", "street": "312 MAIN AVE", "postcode": "56521"}}},
{"geometry": {"type": "Point", "coordinates": [-95.9091482118, 46.9804418325]}, "type": "Feature", "properties": {"collection_times": [{"days": "Mon-Fri", "time": "12:00pm"}, {"days": "Sat-Sun", "time": "Closed"}], "id": "5652100002", "name": "USPS COLLECTION BOX - PO LOBBY", "address": {"city": "CALLAWAY", "state": "MN", "street": "312 MAIN AVE", "postcode": "56521"}}},
{"geometry": {"type": "Point", "coordinates": [-96.4878396113, 46.1842230379]}, "type": "Feature", "properties": {"collection_times": [{"days": "Mon-Fri", "time": "3:15pm"}, {"days": "Sat", "time": "2:30pm"}, {"days": "Sun", "time": "Closed"}], "id": "5652200001", "name": "USPS COLLECTION BOX - BLUE BOX", "address": {"city": "CAMPBELL", "state": "MN", "street": "510 5TH ST", "postcode": "56522"}}},
{"geometry": {"type": "Point", "coordinates": [-96.4878396113, 46.1842230379]}, "type": "Feature", "properties": {"collection_times": [{"days": "Mon-Fri", "time": "12:00pm"}, {"days": "Sat-Sun", "time": "Closed"}], "id": "5652200003", "name": "USPS COLLECTION BOX - PO LOBBY", "address": {"city": "CAMPBELL", "state": "MN", "street": "510 5TH ST", "postcode": "56522"}}},
{"geometry": {"type": "Point", "coordinates": [-96.3885386929, 46.1294367348]}, "type": "Feature", "properties": {"collection_times": [{"days": "Mon-Sat", "time": "3:00pm"}, {"days": "Sun", "time": "Closed"}], "id": "5652200004", "name": "USPS COLLECTION BOX - BLUE BOX", "address": {"city": "CAMPBELL", "state": "MN", "street": "206 ASH AVE", "postcode": "56522"}}},
{"geometry": {"type": "Point", "coordinates": [-96.8176058603, 47.6076877483]}, "type": "Feature", "properties": {"collection_times": [{"days": "Mon-Fri", "time": "4:15pm"}, {"days": "Sat", "time": "4:30pm"}, {"days": "Sun", "time": "Closed"}], "id": "5652300001", "name": "USPS COLLECTION BOX - BLUE BOX", "address": {"city": "CLIMAX", "state": "MN", "street": "202 W BROADWAY", "postcode": "56523"}}},
{"geometry": {"type": "Point", "coordinates": [-96.8176058603, 47.6076877483]}, "type": "Feature", "properties": {"collection_times": [{"days": "Mon-Fri", "time": "12:00pm"}, {"days": "Sat-Sun", "time": "Closed"}], "id": "5652300002", "name": "USPS COLLECTION BOX - PO LOBBY", "address": {"city": "CLIMAX", "state": "MN", "street": "202 W BROADWAY", "postcode": "56523"}}},
{"geometry": {"type": "Point", "coordinates": [-95.6308793938, 46.2744483255]}, "type": "Feature", "properties": {"collection_times": [{"days": "Mon-Fri", "time": "3:45pm"}, {"days": "Sat", "time": "4:30pm"}, {"days": "Sun", "time": "Closed"}], "id": "5652400001", "name": "USPS COLLECTION BOX - BLUE BOX", "address": {"city": "CLITHERALL", "state": "MN", "street": "104 S OAK ST", "postcode": "56524"}}},
{"geometry": {"type": "Point", "coordinates": [-95.6307933812, 46.2723834975]}, "type": "Feature", "properties": {"collection_times": [{"days": "Mon-Fri", "time": "11:30am"}, {"days": "Sat-Sun", "time": "Closed"}], "id": "5652400002", "name": "USPS COLLECTION BOX - PO LOBBY", "address": {"city": "CLITHERALL", "state": "MN", "street": "104 S OAK ST", "postcode": "56524"}}},
{"geometry": {"type": "Point", "coordinates": [-96.744832558, 46.6613524304]}, "type": "Feature", "properties": {"collection_times": [{"days": "Mon-Fri", "time": "2:00pm"}, {"days": "Sat", "time": "4:00pm"}, {"days": "Sun", "time": "Closed"}], "id": "5652500000", "name": "USPS COLLECTION BOX - BLUE BOX", "address": {"city": "COMSTOCK", "state": "MN", "street": "1762 160TH AVE S", "postcode": "56525"}}},
{"geometry": {"type": "Point", "coordinates": [-96.744832558, 46.6613524304]}, "type": "Feature", "properties": {"collection_times": [{"days": "Mon-Fri", "time": "10:45am"}, {"days": "Sat-Sun", "time": "Closed"}], "id": "5652500001", "name": "USPS COLLECTION BOX - PO LOBBY", "address": {"city": "COMSTOCK", "state": "MN", "street": "1762 160TH AVE S", "postcode": "56525"}}},
{"geometry": {"type": "Point", "coordinates": [-95.3209389399, 46.3910194353]}, "type": "Feature", "properties": {"collection_times": [{"days": "Mon-Sat", "time": "3:30pm"}, {"days": "Sun", "time": "Closed"}], "id": "5652700001", "name": "USPS COLLECTION BOX - BLUE BOX", "address": {"city": "DEER CREEK", "state": "MN", "street": "120 MAIN AVE E", "postcode": "56527"}}},
{"geometry": {"type": "Point", "coordinates": [-95.3209389399, 46.3910194353]}, "type": "Feature", "properties": {"collection_times": [{"days": "Mon-Fri", "time": "12:00pm"}, {"days": "Sat-Sun", "time": "Closed"}], "id": "5652700002", "name": "USPS COLLECTION BOX - PO LOBBY", "address": {"city": "DEER CREEK", "state": "MN", "street": "120 MAIN AVE E", "postcode": "56527"}}},
{"geometry": {"type": "Point", "coordinates": [-95.715760407, 46.5539337628]}, "type": "Feature", "properties": {"collection_times": [{"days": "Mon-Sat", "time": "3:00pm"}, {"days": "Sun", "time": "Closed"}], "id": "5652800001", "name": "USPS COLLECTION BOX - BLUE BOX", "address": {"city": "DENT", "state": "MN", "street": "108 MAIN ST", "postcode": "56528"}}},
{"geometry": {"type": "Point", "coordinates": [-95.715760407, 46.5539337628]}, "type": "Feature", "properties": {"collection_times": [{"days": "Mon-Fri", "time": "3:00pm"}, {"days": "Sat-Sun", "time": "Closed"}], "id": "5652800002", "name": "USPS COLLECTION BOX - PO LOBBY", "address": {"city": "DENT", "state": "MN", "street": "108 MAIN ST", "postcode": "56528"}}},
{"geometry": {"type": "Point", "coordinates": [-96.7030963169, 46.8756743261]}, "type": "Feature", "properties": {"collection_times": [{"days": "Mon-Fri", "time": "4:30pm"}, {"days": "Sat", "time": "7:00pm"}, {"days": "Sun", "time": "Closed"}], "id": "5652900002", "name": "USPS COLLECTION BOX - BLUE BOX", "address": {"city": "DILWORTH", "state": "MN", "street": "1 1ST AVE SE", "postcode": "56529"}}},
{"geometry": {"type": "Point", "coordinates": [-96.7030963169, 46.8756743261]}, "type": "Feature", "properties": {"collection_times": [{"days": "Mon-Fri", "time": "4:30pm"}, {"days": "Sat", "time": "9:45am"}, {"days": "Sun", "time": "Closed"}], "id": "5652900004", "name": "USPS COLLECTION BOX - PO LOBBY", "address": {"city": "DILWORTH", "state": "MN", "street": "1 1ST AVE SE", "postcode": "56529"}}},
{"geometry": {"type": "Point", "coordinates": [-96.6964193087, 46.8797924429]}, "type": "Feature", "properties": {"collection_times": [{"days": "Mon-Sat", "time": "12:00pm"}, {"days": "Sun", "time": "Closed"}], "id": "5652900008", "name": "USPS COLLECTION BOX - BLUE BOX", "address": {"city": "DILWORTH", "state": "MN", "street": "415 34TH ST N", "postcode": "56529"}}},
{"geometry": {"type": "Point", "coordinates": [-95.9754889654, 45.9920654135]}, "type": "Feature", "properties": {"collection_times": [{"days": "Mon-Sat", "time": "4:30pm"}, {"days": "Sun", "time": "Closed"}], "id": "5653100002", "name": "USPS COLLECTION BOX - BLUE BOX", "address": {"city": "ELBOW LAKE", "state": "MN", "street": "16 1ST AVE SE", "postcode": "56531"}}},
{"geometry": {"type": "Point", "coordinates": [-95.9754889654, 45.9920654135]}, "type": "Feature", "properties": {"collection_times": [{"days": "Mon-Fri", "time": "4:30pm"}, {"days": "Sat-Sun", "time": "Closed"}], "id": "5653100003", "name": "USPS COLLECTION BOX - PO LOBBY", "address": {"city": "ELBOW LAKE", "state": "MN", "street": "16 1ST AVE SE", "postcode": "56531"}}},
{"geometry": {"type": "Point", "coordinates": [-95.9769663607, 45.9941981419]}, "type": "Feature", "properties": {"collection_times": [{"days": "Mon-Sat", "time": "1:30pm"}, {"days": "Sun", "time": "Closed"}], "id": "5653100004", "name": "USPS COLLECTION BOX - BLUE BOX", "address": {"city": "ELBOW LAKE", "state": "MN", "street": "15 2ND ST NW", "postcode": "56531"}}},
{"geometry": {"type": "Point", "coordinates": [-96.0994292636, 46.4832751074]}, "type": "Feature", "properties": {"collection_times": [{"days": "Mon-Sat", "time": "4:20pm"}, {"days": "Sun", "time": "Closed"}], "id": "5653400000", "name": "USPS COLLECTION BOX - BLUE BOX", "address": {"city": "ERHARD", "state": "MN", "street": "417 GROVE ST", "postcode": "56534"}}},
{"geometry": {"type": "Point", "coordinates": [-96.0994292636, 46.4832751074]}, "type": "Feature", "properties": {"collection_times": [{"days": "Mon-Fri", "time": "12:00pm"}, {"days": "Sat-Sun", "time": "Closed"}], "id": "5653400001", "name": "USPS COLLECTION BOX - PO LOBBY", "address": {"city": "ERHARD", "state": "MN", "street": "417 GROVE ST", "postcode": "56534"}}},
{"geometry": {"type": "Point", "coordinates": [-96.0102666664, 47.6674941849]}, "type": "Feature", "properties": {"collection_times": [{"days": "Mon-Sat", "time": "2:35pm"}, {"days": "Sun", "time": "Closed"}], "id": "5653500001", "name": "USPS COLLECTION BOX - BLUE BOX", "address": {"city": "ERSKINE", "state": "MN", "street": "123 VANCE AVE S", "postcode": "56535"}}},
{"geometry": {"type": "Point", "coordinates": [-96.0102666664, 47.6674941849]}, "type": "Feature", "properties": {"collection_times": [{"days": "Mon-Fri", "time": "2:35pm"}, {"days": "Sat-Sun", "time": "Closed"}], "id": "5653500002", "name": "USPS COLLECTION BOX - PO LOBBY", "address": {"city": "ERSKINE", "state": "MN", "street": "123 VANCE AVE S", "postcode": "56535"}}},
{"geometry": {"type": "Point", "coordinates": [-96.0102666664, 47.6674941849]}, "type": "Feature", "properties": {"collection_times": [{"days": "Mon-Fri", "time": "2:35pm"}, {"days": "Sat-Sun", "time": "Closed"}], "id": "5653500003", "name": "USPS COLLECTION BOX - PO LOBBY", "address": {"city": "ERSKINE", "state": "MN", "street": "123 VANCE AVE S", "postcode": "56535"}}},
{"geometry": {"type": "Point", "coordinates": [-96.5055768827, 47.0770309119]}, "type": "Feature", "properties": {"collection_times": [{"days": "Mon-Sat", "time": "2:40pm"}, {"days": "Sun", "time": "Closed"}], "id": "5653600001", "name": "USPS COLLECTION BOX - BLUE BOX", "address": {"city": "FELTON", "state": "MN", "street": "340 5TH ST", "postcode": "56536"}}},
{"geometry": {"type": "Point", "coordinates": [-96.0746581476, 46.2846208137]}, "type": "Feature", "properties": {"collection_times": [{"days": "Mon-Fri", "time": "2:30pm"}, {"days": "Sat", "time": "11:30am"}, {"days": "Sun", "time": "Closed"}], "id": "5653700006", "name": "USPS COLLECTION BOX - BLUE BOX", "address": {"city": "FERGUS FALLS", "state": "MN", "street": "130 W CAVOUR AVE", "postcode": "56537"}}},
{"geometry": {"type": "Point", "coordinates": [-96.0979424188, 46.2851467529]}, "type": "Feature", "properties": {"collection_times": [{"days": "Mon-Fri", "time": "2:30pm"}, {"days": "Sat-Sun", "time": "Closed"}], "id": "5653700011", "name": "USPS COLLECTION BOX - BLUE BOX", "address": {"city": "FERGUS FALLS", "state": "MN", "street": "1414 COLLEGE WAY", "postcode": "56537"}}},
{"geometry": {"type": "Point", "coordinates": [-96.1001475303, 46.2838557448]}, "type": "Feature", "properties": {"collection_times": [{"days": "Mon-Fri", "time": "2:30pm"}, {"days": "Sat", "time": "11:30am"}, {"days": "Sun", "time": "Closed"}], "id": "5653700029", "name": "USPS COLLECTION BOX - BLUE BOX", "address": {"city": "FERGUS FALLS", "state": "MN", "street": "1425 W LINCOLN AVE", "postcode": "56537"}}},
{"geometry": {"type": "Point", "coordinates": [-96.0979231086, 46.2834817836]}, "type": "Feature", "properties": {"collection_times": [{"days": "Mon-Fri", "time": "2:30pm"}, {"days": "Sat", "time": "11:30am"}, {"days": "Sun", "time": "Closed"}], "id": "5653700034", "name": "USPS COLLECTION BOX - BLUE BOX", "address": {"city": "FERGUS FALLS", "state": "MN", "street": "1205 W LINCOLN AVE", "postcode": "56537"}}},
{"geometry": {"type": "Point", "coordinates": [-96.1172503657, 46.2925920193]}, "type": "Feature", "properties": {"collection_times": [{"days": "Mon-Fri", "time": "5:30pm"}, {"days": "Sat", "time": "3:00pm"}, {"days": "Sun", "time": "Closed"}], "id": "5653700038", "name": "USPS COLLECTION BOX - BLUE BOX", "address": {"city": "FERGUS FALLS", "state": "MN", "street": "1011 WESTERN AVE", "postcode": "56537"}}},
{"geometry": {"type": "Point", "coordinates": [-96.1172503657, 46.2925920193]}, "type": "Feature", "properties": {"collection_times": [{"days": "Mon-Fri", "time": "5:30pm"}, {"days": "Sat", "time": "3:00pm"}, {"days": "Sun", "time": "Closed"}], "id": "5653700039", "name": "USPS COLLECTION BOX - PO LOBBY", "address": {"city": "FERGUS FALLS", "state": "MN", "street": "1011 WESTERN AVE", "postcode": "56537"}}},
{"geometry": {"type": "Point", "coordinates": [-96.0742504784, 46.2826084761]}, "type": "Feature", "properties": {"collection_times": [{"days": "Mon-Fri", "time": "5:15pm"}, {"days": "Sat", "time": "11:30am"}, {"days": "Sun", "time": "Closed"}], "id": "5653700041", "name": "USPS COLLECTION BOX - BLUE BOX", "address": {"city": "FERGUS FALLS", "state": "MN", "street": "118 S MILL ST", "postcode": "56537"}}},
{"geometry": {"type": "Point", "coordinates": [-96.2803936791, 47.5360755754]}, "type": "Feature", "properties": {"collection_times": [{"days": "Mon-Sat", "time": "1:15pm"}, {"days": "Sun", "time": "Closed"}], "id": "5654000001", "name": "USPS COLLECTION BOX - BLUE BOX", "address": {"city": "FERTILE", "state": "MN", "street": "107 WASHINGTON AVE NE", "postcode": "56540"}}},
{"geometry": {"type": "Point", "coordinates": [-96.2803936791, 47.5360755754]}, "type": "Feature", "properties": {"collection_times": [{"days": "Mon-Fri", "time": "1:15pm"}, {"days": "Sat-Sun", "time": "Closed"}], "id": "5654000002", "name": "USPS COLLECTION BOX - PO LOBBY", "address": {"city": "FERTILE", "state": "MN", "street": "107 WASHINGTON AVE NE", "postcode": "56540"}}},
{"geometry": {"type": "Point", "coordinates": [-96.1307280728, 47.1657794165]}, "type": "Feature", "properties": {"collection_times": [{"days": "Mon-Sat", "time": "11:05am"}, {"days": "Sun", "time": "Closed"}], "id": "5654100001", "name": "USPS COLLECTION BOX - BLUE BOX", "address": {"city": "FLOM", "state": "MN", "street": "1101 COUNTY HIGHWAY 38", "postcode": "56541"}}},
{"geometry": {"type": "Point", "coordinates": [-96.1307280728, 47.1657794165]}, "type": "Feature", "properties": {"collection_times": [{"days": "Mon-Fri", "time": "11:05am"}, {"days": "Sat-Sun", "time": "Closed"}], "id": "5654100002", "name": "USPS COLLECTION BOX - PO LOBBY", "address": {"city": "FLOM", "state": "MN", "street": "1101 COUNTY HIGHWAY 38", "postcode": "56541"}}},
{"geometry": {"type": "Point", "coordinates": [-95.7511654196, 47.5770012131]}, "type": "Feature", "properties": {"collection_times": [{"days": "Mon-Sat", "time": "3:05pm"}, {"days": "Sun", "time": "Closed"}], "id": "5654200001", "name": "USPS COLLECTION BOX - BLUE BOX", "address": {"city": "FOSSTON", "state": "MN", "street": "119 2ND ST NW", "postcode": "56542"}}},
{"geometry": {"type": "Point", "coordinates": [-95.7511654196, 47.5770012131]}, "type": "Feature", "properties": {"collection_times": [{"days": "Mon-Fri", "time": "3:05pm"}, {"days": "Sat-Sun", "time": "Closed"}], "id": "5654200003", "name": "USPS COLLECTION BOX - PO LOBBY", "address": {"city": "FOSSTON", "state": "MN", "street": "119 2ND ST NW", "postcode": "56542"}}},
{"geometry": {"type": "Point", "coordinates": [-96.3069991736, 46.2762403678]}, "type": "Feature", "properties": {"collection_times": [{"days": "Mon-Sat", "time": "4:00pm"}, {"days": "Sun", "time": "Closed"}], "id": "5654300001", "name": "USPS COLLECTION BOX - BLUE BOX", "address": {"city": "FOXHOME", "state": "MN", "street": "100 DENNISTON AVE", "postcode": "56543"}}},
{"geometry": {"type": "Point", "coordinates": [-96.3069991736, 46.2762403678]}, "type": "Feature", "properties": {"collection_times": [{"days": "Mon-Fri", "time": "11:15am"}, {"days": "Sat-Sun", "time": "Closed"}], "id": "5654300002", "name": "USPS COLLECTION BOX - PO LOBBY", "address": {"city": "FOXHOME", "state": "MN", "street": "100 DENNISTON AVE", "postcode": "56543"}}},
{"geometry": {"type": "Point", "coordinates": [-95.7007918149, 46.7277400732]}, "type": "Feature", "properties": {"collection_times": [{"days": "Mon-Sat", "time": "5:00pm"}, {"days": "Sun", "time": "Closed"}], "id": "5654400001", "name": "USPS COLLECTION BOX - BLUE BOX", "address": {"city": "FRAZEE", "state": "MN", "street": "103 E MAIN AVE", "postcode": "56544"}}},
{"geometry": {"type": "Point", "coordinates": [-95.7007918149, 46.7277400732]}, "type": "Feature", "properties": {"collection_times": [{"days": "Mon-Fri", "time": "4:30pm"}, {"days": "Sat-Sun", "time": "Closed"}], "id": "5654400002", "name": "USPS COLLECTION BOX - PO LOBBY", "address": {"city": "FRAZEE", "state": "MN", "street": "103 E MAIN AVE", "postcode": "56544"}}},
{"geometry": {"type": "Point", "coordinates": [-95.5944470867, 46.7523295571]}, "type": "Feature", "properties": {"collection_times": [{"days": "Mon-Sat", "time": "3:30pm"}, {"days": "Sun", "time": "Closed"}], "id": "5654400003", "name": "USPS COLLECTION BOX - BLUE BOX", "address": {"city": "FRAZEE", "state": "MN", "street": "132 W JOHNSON ST", "postcode": "56544"}}},
{"geometry": {"type": "Point", "coordinates": [-96.2662043239, 47.3724612673]}, "type": "Feature", "properties": {"collection_times": [{"days": "Mon-Sat", "time": "1:35pm"}, {"days": "Sun", "time": "Closed"}], "id": "5654500001", "name": "USPS COLLECTION BOX - BLUE BOX", "address": {"city": "GARY", "state": "MN", "street": "201 1ST AVE E", "postcode": "56545"}}},
{"geometry": {"type": "Point", "coordinates": [-96.2662043239, 47.3724612673]}, "type": "Feature", "properties": {"collection_times": [{"days": "Mon-Fri", "time": "12:00pm"}, {"days": "Sat-Sun", "time": "Closed"}], "id": "5654500002", "name": "USPS COLLECTION BOX - PO LOBBY", "address": {"city": "GARY", "state": "MN", "street": "201 1ST AVE E", "postcode": "56545"}}},
{"geometry": {"type": "Point", "coordinates": [-96.7973269023, 47.0804166504]}, "type": "Feature", "properties": {"collection_times": [{"days": "Mon-Fri", "time": "4:20pm"}, {"days": "Sat", "time": "5:35pm"}, {"days": "Sun", "time": "Closed"}], "id": "5654600001", "name": "USPS COLLECTION BOX - BLUE BOX", "address": {"city": "GEORGETOWN", "state": "MN", "street": "127 MAIN ST", "postcode": "56546"}}},
{"geometry": {"type": "Point", "coordinates": [-96.7973269023, 47.0804166504]}, "type": "Feature", "properties": {"collection_times": [{"days": "Mon-Fri", "time": "11:30am"}, {"days": "Sat-Sun", "time": "Closed"}], "id": "5654600002", "name": "USPS COLLECTION BOX - PO LOBBY", "address": {"city": "GEORGETOWN", "state": "MN", "street": "127 MAIN ST", "postcode": "56546"}}},
{"geometry": {"type": "Point", "coordinates": [-96.5798112248, 46.8771582639]}, "type": "Feature", "properties": {"collection_times": [{"days": "Mon-Sat", "time": "4:15pm"}, {"days": "Sun", "time": "Closed"}], "id": "5654700001", "name": "USPS COLLECTION BOX - BLUE BOX", "address": {"city": "GLYNDON", "state": "MN", "street": "27 STATE ST SE", "postcode": "56547"}}},
{"geometry": {"type": "Point", "coordinates": [-96.5798112248, 46.8771582639]}, "type": "Feature", "properties": {"collection_times": [{"days": "Mon-Fri", "time": "4:15pm"}, {"days": "Sat-Sun", "time": "Closed"}], "id": "5654700002", "name": "USPS COLLECTION BOX - PO LOBBY", "address": {"city": "GLYNDON", "state": "MN", "street": "27 STATE ST SE", "postcode": "56547"}}},
{"geometry": {"type": "Point", "coordinates": [-96.8287796682, 47.3524082738]}, "type": "Feature", "properties": {"collection_times": [{"days": "Mon-Sat", "time": "5:00pm"}, {"days": "Sun", "time": "Closed"}], "id": "5654800001", "name": "USPS COLLECTION BOX - BLUE BOX", "address": {"city": "HALSTAD", "state": "MN", "street": "229 2ND AVE W", "postcode": "56548"}}},
{"geometry": {"type": "Point", "coordinates": [-96.8287796682, 47.3524082738]}, "type": "Feature", "properties": {"collection_times": [{"days": "Mon-Fri", "time": "2:00pm"}, {"days": "Sat-Sun", "time": "Closed"}], "id": "5654800002", "name": "USPS COLLECTION BOX - PO LOBBY", "address": {"city": "HALSTAD", "state": "MN", "street": "229 2ND AVE W", "postcode": "56548"}}},
{"geometry": {"type": "Point", "coordinates": [-96.31477773, 46.8796986374]}, "type": "Feature", "properties": {"collection_times": [{"days": "Mon-Sat", "time": "4:30pm"}, {"days": "Sun", "time": "Closed"}], "id": "5654900001", "name": "USPS COLLECTION BOX - BLUE BOX", "address": {"city": "HAWLEY", "state": "MN", "street": "503 FRONT ST", "postcode": "56549"}}},
{"geometry": {"type": "Point", "coordinates": [-96.31477773, 46.8796986374]}, "type": "Feature", "properties": {"collection_times": [{"days": "Mon-Fri", "time": "4:30pm"}, {"days": "Sat-Sun", "time": "Closed"}], "id": "5654900003", "name": "USPS COLLECTION BOX - PO LOBBY", "address": {"city": "HAWLEY", "state": "MN", "street": "503 FRONT ST", "postcode": "56549"}}},
{"geometry": {"type": "Point", "coordinates": [-96.8109350284, 47.2643717137]}, "type": "Feature", "properties": {"collection_times": [{"days": "Mon-Fri", "time": "4:45pm"}, {"days": "Sat", "time": "4:30pm"}, {"days": "Sun", "time": "Closed"}], "id": "5655000001", "name": "USPS COLLECTION BOX - BLUE BOX", "address": {"city": "HENDRUM", "state": "MN", "street": "307 MAIN ST E", "postcode": "56550"}}},
{"geometry": {"type": "Point", "coordinates": [-96.8109350284, 47.2643717137]}, "type": "Feature", "properties": {"collection_times": [{"days": "Mon-Fri", "time": "12:00pm"}, {"days": "Sat-Sun", "time": "Closed"}], "id": "5655000002", "name": "USPS COLLECTION BOX - PO LOBBY", "address": {"city": "HENDRUM", "state": "MN", "street": "307 MAIN ST E", "postcode": "56550"}}},
{"geometry": {"type": "Point", "coordinates": [-95.4449123542, 46.3213037847]}, "type": "Feature", "properties": {"collection_times": [{"days": "Mon-Sat", "time": "3:45pm"}, {"days": "Sun", "time": "Closed"}], "id": "5655100001", "name": "USPS COLLECTION BOX - BLUE BOX", "address": {"city": "HENNING", "state": "MN", "street": "507 DOUGLAS AVE", "postcode": "56551"}}},
{"geometry": {"type": "Point", "coordinates": [-95.4499096685, 46.3240239858]}, "type": "Feature", "properties": {"collection_times": [{"days": "Mon-Fri", "time": "3:45pm"}, {"days": "Sat-Sun", "time": "Closed"}], "id": "5655100002", "name": "USPS COLLECTION BOX - PO LOBBY", "address": {"city": "HENNING", "state": "MN", "street": "507 DOUGLAS AVE", "postcode": "56551"}}},
{"geometry": {"type": "Point", "coordinates": [-96.2569339954, 46.9774303572]}, "type": "Feature", "properties": {"collection_times": [{"days": "Mon-Sat", "time": "3:10pm"}, {"days": "Sun", "time": "Closed"}], "id": "5655200001", "name": "USPS COLLECTION BOX - BLUE BOX", "address": {"city": "HITTERDAL", "state": "MN", "street": "52 FRONT ST E", "postcode": "56552"}}},
{"geometry": {"type": "Point", "coordinates": [-96.2569339954, 46.9774303572]}, "type": "Feature", "properties": {"collection_times": [{"days": "Mon-Fri", "time": "1:00pm"}, {"days": "Sat-Sun", "time": "Closed"}], "id": "5655200002", "name": "USPS COLLECTION BOX - PO LOBBY", "address": {"city": "HITTERDAL", "state": "MN", "street": "52 FRONT ST E", "postcode": "56552"}}},
{"geometry": {"type": "Point", "coordinates": [-96.6842190702, 46.4356322978]}, "type": "Feature", "properties": {"collection_times": [{"days": "Mon-Fri", "time": "5:35pm"}, {"days": "Sat", "time": "5:00pm"}, {"days": "Sun", "time": "Closed"}], "id": "5655300001", "name": "USPS COLLECTION BOX - BLUE BOX", "address": {"city": "KENT", "state": "MN", "street": "216 MAIN ST", "postcode": "56553"}}},
{"geometry": {"type": "Point", "coordinates": [-96.6842190702, 46.4356322978]}, "type": "Feature", "properties": {"collection_times": [{"days": "Mon-Fri", "time": "9:50am"}, {"days": "Sat-Sun", "time": "Closed"}], "id": "5655300002", "name": "USPS COLLECTION BOX - PO LOBBY", "address": {"city": "KENT", "state": "MN", "street": "216 MAIN ST", "postcode": "56553"}}},
{"geometry": {"type": "Point", "coordinates": [-96.0946752786, 46.8866156472]}, "type": "Feature", "properties": {"collection_times": [{"days": "Mon-Fri", "time": "4:00pm"}, {"days": "Sat", "time": "5:00pm"}, {"days": "Sun", "time": "Closed"}], "id": "5655400001", "name": "USPS COLLECTION BOX - BLUE BOX", "address": {"city": "LAKE PARK", "state": "MN", "street": "2035 2ND ST", "postcode": "56554"}}},
{"geometry": {"type": "Point", "coordinates": [-96.0946752786, 46.8866156472]}, "type": "Feature", "properties": {"collection_times": [{"days": "Mon-Fri", "time": "4:00pm"}, {"days": "Sat-Sun", "time": "Closed"}], "id": "5655400002", "name": "USPS COLLECTION BOX - PO LOBBY", "address": {"city": "LAKE PARK", "state": "MN", "street": "2035 2ND ST", "postcode": "56554"}}},
{"geometry": {"type": "Point", "coordinates": [-95.8886425371, 47.6353602796]}, "type": "Feature", "properties": {"collection_times": [{"days": "Mon-Sat", "time": "2:50pm"}, {"days": "Sun", "time": "Closed"}], "id": "5655600001", "name": "USPS COLLECTION BOX - BLUE BOX", "address": {"city": "MCINTOSH", "state": "MN", "street": "285 CLEVELAND AVE SW", "postcode": "56556"}}},
{"geometry": {"type": "Point", "coordinates": [-95.8886425371, 47.6353602796]}, "type": "Feature", "properties": {"collection_times": [{"days": "Mon-Fri", "time": "2:30pm"}, {"days": "Sat-Sun", "time": "Closed"}], "id": "5655600003", "name": "USPS COLLECTION BOX - PO LOBBY", "address": {"city": "MCINTOSH", "state": "MN", "street": "285 CLEVELAND AVE SW", "postcode": "56556"}}},
{"geometry": {"type": "Point", "coordinates": [-95.9689634994, 47.3163690305]}, "type": "Feature", "properties": {"collection_times": [{"days": "Mon-Sat", "time": "4:00pm"}, {"days": "Sun", "time": "Closed"}], "id": "5655700001", "name": "USPS COLLECTION BOX - BLUE BOX", "address": {"city": "MAHNOMEN", "state": "MN", "street": "123 W ADAMS AVE", "postcode": "56557"}}},
{"geometry": {"type": "Point", "coordinates": [-95.9689634994, 47.3163690305]}, "type": "Feature", "properties": {"collection_times": [{"days": "Mon-Fri", "time": "4:00pm"}, {"days": "Sat-Sun", "time": "Closed"}], "id": "5655700002", "name": "USPS COLLECTION BOX - PO LOBBY", "address": {"city": "MAHNOMEN", "state": "MN", "street": "123 W ADAMS AVE", "postcode": "56557"}}},
{"geometry": {"type": "Point", "coordinates": [-96.7393993419, 46.876549671]}, "type": "Feature", "properties": {"collection_times": [{"days": "Mon-Fri", "time": "4:45pm"}, {"days": "Sat", "time": "4:30pm"}, {"days": "Sun", "time": "Closed"}], "id": "5656000007", "name": "USPS COLLECTION BOX - BLUE BOX", "address": {"city": "MOORHEAD", "state": "MN", "street": "3000 HIGHWAY 10 E", "postcode": "56560"}}},
{"geometry": {"type": "Point", "coordinates": [-96.7371417176, 46.8765445354]}, "type": "Feature", "properties": {"collection_times": [{"days": "Mon-Fri", "time": "4:45pm"}, {"days": "Sat", "time": "4:30pm"}, {"days": "Sun", "time": "Closed"}], "id": "5656000008", "name": "USPS COLLECTION BOX - BLUE BOX", "address": {"city": "MOORHEAD", "state": "MN", "street": "3300 HIGHWAY 10 E", "postcode": "56560"}}},
{"geometry": {"type": "Point", "coordinates": [-96.7673915462, 46.8441541395]}, "type": "Feature", "properties": {"collection_times": [{"days": "Mon-Fri", "time": "4:30pm"}, {"days": "Sat", "time": "4:00pm"}, {"days": "Sun", "time": "Closed"}], "id": "5656000022", "name": "USPS COLLECTION BOX - BLUE BOX", "address": {"city": "MOORHEAD", "state": "MN", "street": "824 30TH AVE S", "postcode": "56560"}}},
{"geometry": {"type": "Point", "coordinates": [-96.762758065, 46.8739829186]}, "type": "Feature", "properties": {"collection_times": [{"days": "Mon-Fri", "time": "5:30pm"}, {"days": "Sat", "time": "4:30pm"}, {"days": "Sun", "time": "Closed"}], "id": "5656000027", "name": "USPS COLLECTION BOX - BLUE BOX", "address": {"city": "MOORHEAD", "state": "MN", "street": "101 11TH ST S", "postcode": "56560"}}},
{"geometry": {"type": "Point", "coordinates": [-96.7689597887, 46.8751208859]}, "type": "Feature", "properties": {"collection_times": [{"days": "Mon-Fri", "time": "5:15pm"}, {"days": "Sat", "time": "4:30pm"}, {"days": "Sun", "time": "Closed"}], "id": "5656000031", "name": "USPS COLLECTION BOX - BLUE BOX", "address": {"city": "MOORHEAD", "state": "MN", "street": "730 CENTER AVE", "postcode": "56560"}}},
{"geometry": {"type": "Point", "coordinates": [-96.773808614, 46.8750395338]}, "type": "Feature", "properties": {"collection_times": [{"days": "Mon-Fri", "time": "4:30pm"}, {"days": "Sat", "time": "4:15pm"}, {"days": "Sun", "time": "Closed"}], "id": "5656000037", "name": "USPS COLLECTION BOX - BLUE BOX", "address": {"city": "MOORHEAD", "state": "MN", "street": "403 CENTER AVE", "postcode": "56560"}}},
{"geometry": {"type": "Point", "coordinates": [-96.7724521021, 46.8736208899]}, "type": "Feature", "properties": {"collection_times": [{"days": "Mon-Sat", "time": "5:30pm"}, {"days": "Sun", "time": "Closed"}], "id": "5656000048", "name": "USPS COLLECTION BOX - BLUE BOX", "address": {"city": "MOORHEAD", "state": "MN", "street": "119 5TH ST S", "postcode": "56560"}}},
{"geometry": {"type": "Point", "coordinates": [-96.7724521021, 46.8736208899]}, "type": "Feature", "properties": {"collection_times": [{"days": "Mon-Sat", "time": "5:30pm"}, {"days": "Sun", "time": "Closed"}], "id": "5656000049", "name": "USPS COLLECTION BOX - BLUE BOX", "address": {"city": "MOORHEAD", "state": "MN", "street": "119 5TH ST S", "postcode": "56560"}}},
{"geometry": {"type": "Point", "coordinates": [-96.7371276382, 46.8765444849]}, "type": "Feature", "properties": {"collection_times": [{"days": "Mon-Fri", "time": "9:30am"}, {"days": "Sat", "time": "9:00am"}, {"days": "Sun", "time": "Closed"}], "id": "5656000058", "name": "USPS COLLECTION BOX - BLUE BOX", "address": {"city": "MOORHEAD", "state": "MN", "street": "3301 HIGHWAY 10 E", "postcode": "56560"}}},
{"geometry": {"type": "Point", "coordinates": [-96.7682685312, 46.8502897186]}, "type": "Feature", "properties": {"collection_times": [{"days": "Mon-Fri", "time": "4:30pm"}, {"days": "Sat", "time": "4:00pm"}, {"days": "Sun", "time": "Closed"}], "id": "5656000065", "name": "USPS COLLECTION BOX - BLUE BOX", "address": {"city": "MOORHEAD", "state": "MN", "street": "2605 8TH ST S", "postcode": "56560"}}},
{"geometry": {"type": "Point", "coordinates": [-96.7682685312, 46.8502897186]}, "type": "Feature", "properties": {"collection_times": [{"days": "Mon-Fri", "time": "4:30pm"}, {"days": "Sat", "time": "4:00pm"}, {"days": "Sun", "time": "Closed"}], "id": "5656000066", "name": "USPS COLLECTION BOX - BLUE BOX", "address": {"city": "MOORHEAD", "state": "MN", "street": "2605 8TH ST S", "postcode": "56560"}}},
{"geometry": {"type": "Point", "coordinates": [-96.7724521021, 46.8736208899]}, "type": "Feature", "properties": {"collection_times": [{"days": "Mon-Sat", "time": "5:30pm"}, {"days": "Sun", "time": "Closed"}], "id": "5656000067", "name": "USPS COLLECTION BOX - PO LOBBY", "address": {"city": "MOORHEAD", "state": "MN", "street": "119 5TH ST S", "postcode": "56560"}}},
{"geometry": {"type": "Point", "coordinates": [-96.7561121977, 46.8441542731]}, "type": "Feature", "properties": {"collection_times": [{"days": "Mon-Fri", "time": "2:30pm"}, {"days": "Sat", "time": "2:00pm"}, {"days": "Sun", "time": "Closed"}], "id": "5656000070", "name": "USPS COLLECTION BOX - BLUE BOX", "address": {"city": "MOORHEAD", "state": "MN", "street": "1500 30TH AVE S", "postcode": "56560"}}},
{"geometry": {"type": "Point", "coordinates": [-96.7724521021, 46.8736208899]}, "type": "Feature", "properties": {"collection_times": [{"days": "Mon-Sat", "time": "5:30pm"}, {"days": "Sun", "time": "Closed"}], "id": "5656000073", "name": "USPS COLLECTION BOX - BLUE BOX", "address": {"city": "MOORHEAD", "state": "MN", "street": "119 5TH ST S", "postcode": "56560"}}},
{"geometry": {"type": "Point", "coordinates": [-96.7538276503, 46.865037476]}, "type": "Feature", "properties": {"collection_times": [{"days": "Mon-Sat", "time": "2:30pm"}, {"days": "Sun", "time": "Closed"}], "id": "5656000075", "name": "USPS COLLECTION BOX - BLUE BOX", "address": {"city": "MOORHEAD", "state": "MN", "street": "3478 28TH AVE S", "postcode": "56560"}}},
{"geometry": {"type": "Point", "coordinates": [-96.7649448509, 46.8330989446]}, "type": "Feature", "properties": {"collection_times": [{"days": "Mon-Sat", "time": "4:00pm"}, {"days": "Sun", "time": "Closed"}], "id": "5656000076", "name": "USPS COLLECTION BOX - BLUE BOX", "address": {"city": "MOORHEAD", "state": "MN", "street": "950 40TH AVE S", "postcode": "56560"}}},
{"geometry": {"type": "Point", "coordinates": [-95.614535566, 47.2387750881]}, "type": "Feature", "properties": {"collection_times": [{"days": "Mon-Sat", "time": "12:00pm"}, {"days": "Sun", "time": "Closed"}], "id": "5656600001", "name": "USPS COLLECTION BOX - BLUE BOX", "address": {"city": "NAYTAHWAUSH", "state": "MN", "street": "2531 310TH AVE", "postcode": "56566"}}},
{"geometry": {"type": "Point", "coordinates": [-95.614535566, 47.2387750881]}, "type": "Feature", "properties": {"collection_times": [{"days": "Mon-Sat", "time": "12:00pm"}, {"days": "Sun", "time": "Closed"}], "id": "5656600002", "name": "USPS COLLECTION BOX - PO LOBBY", "address": {"city": "NAYTAHWAUSH", "state": "MN", "street": "2531 310TH AVE", "postcode": "56566"}}},
{"geometry": {"type": "Point", "coordinates": [-95.3774253172, 46.5187953142]}, "type": "Feature", "properties": {"collection_times": [{"days": "Mon-Sat", "time": "4:05pm"}, {"days": "Sun", "time": "Closed"}], "id": "5656700001", "name": "USPS COLLECTION BOX - BLUE BOX", "address": {"city": "NEW YORK MILLS", "state": "MN", "street": "16 WALKER AVE N", "postcode": "56567"}}},
{"geometry": {"type": "Point", "coordinates": [-95.3774253172, 46.5187953142]}, "type": "Feature", "properties": {"collection_times": [{"days": "Mon-Fri", "time": "4:05pm"}, {"days": "Sat-Sun", "time": "Closed"}], "id": "5656700002", "name": "USPS COLLECTION BOX - PO LOBBY", "address": {"city": "NEW YORK MILLS", "state": "MN", "street": "16 WALKER AVE N", "postcode": "56567"}}},
{"geometry": {"type": "Point", "coordinates": [-96.7534737725, 47.5430361985]}, "type": "Feature", "properties": {"collection_times": [{"days": "Mon-Sat", "time": "4:30pm"}, {"days": "Sun", "time": "Closed"}], "id": "5656800001", "name": "USPS COLLECTION BOX - BLUE BOX", "address": {"city": "NIELSVILLE", "state": "MN", "street": "202 N SPOKELY AVE", "postcode": "56568"}}},
{"geometry": {"type": "Point", "coordinates": [-96.7534737725, 47.5430361985]}, "type": "Feature", "properties": {"collection_times": [{"days": "Mon-Fri", "time": "1:15pm"}, {"days": "Sat-Sun", "time": "Closed"}], "id": "5656800002", "name": "USPS COLLECTION BOX - PO LOBBY", "address": {"city": "NIELSVILLE", "state": "MN", "street": "202 N SPOKELY AVE", "postcode": "56568"}}},
{"geometry": {"type": "Point", "coordinates": [-95.9266003074, 47.1028493668]}, "type": "Feature", "properties": {"collection_times": [{"days": "Mon-Sat", "time": "4:25pm"}, {"days": "Sun", "time": "Closed"}], "id": "5656900001", "name": "USPS COLLECTION BOX - BLUE BOX", "address": {"city": "OGEMA", "state": "MN", "street": "412 MAIN ST E", "postcode": "56569"}}},
{"geometry": {"type": "Point", "coordinates": [-95.9266003074, 47.1028493668]}, "type": "Feature", "properties": {"collection_times": [{"days": "Mon-Fri", "time": "11:30am"}, {"days": "Sat-Sun", "time": "Closed"}], "id": "5656900002", "name": "USPS COLLECTION BOX - PO LOBBY", "address": {"city": "OGEMA", "state": "MN", "street": "412 MAIN ST E", "postcode": "56569"}}},
{"geometry": {"type": "Point", "coordinates": [-95.2563312431, 46.9205234785]}, "type": "Feature", "properties": {"collection_times": [{"days": "Mon-Fri", "time": "3:30pm"}, {"days": "Sat", "time": "4:00pm"}, {"days": "Sun", "time": "Closed"}], "id": "5657000001", "name": "USPS COLLECTION BOX - BLUE BOX", "address": {"city": "OSAGE", "state": "MN", "street": "54586 STATE HIGHWAY 34", "postcode": "56570"}}},
{"geometry": {"type": "Point", "coordinates": [-95.2563312431, 46.9205234785]}, "type": "Feature", "properties": {"collection_times": [{"days": "Mon-Fri", "time": "11:00am"}, {"days": "Sat-Sun", "time": "Closed"}], "id": "5657000002", "name": "USPS COLLECTION BOX - PO LOBBY", "address": {"city": "OSAGE", "state": "MN", "street": "54586 STATE HIGHWAY 34", "postcode": "56570"}}},
{"geometry": {"type": "Point", "coordinates": [-95.5574313432, 46.4265319321]}, "type": "Feature", "properties": {"collection_times": [{"days": "Mon-Sat", "time": "3:25pm"}, {"days": "Sun", "time": "Closed"}], "id": "5657100001", "name": "USPS COLLECTION BOX - BLUE BOX", "address": {"city": "OTTERTAIL", "state": "MN", "street": "105 W MAIN ST", "postcode": "56571"}}},
{"geometry": {"type": "Point", "coordinates": [-95.5570260394, 46.4265189506]}, "type": "Feature", "properties": {"collection_times": [{"days": "Mon-Fri", "time": "3:00pm"}, {"days": "Sat-Sun", "time": "Closed"}], "id": "5657100002", "name": "USPS COLLECTION BOX - PO LOBBY", "address": {"city": "OTTERTAIL", "state": "MN", "street": "105 W MAIN ST", "postcode": "56571"}}},
{"geometry": {"type": "Point", "coordinates": [-96.065496224, 46.5990970694]}, "type": "Feature", "properties": {"collection_times": [{"days": "Mon-Fri", "time": "4:30pm"}, {"days": "Sat-Sun", "time": "Closed"}], "id": "5657200003", "name": "USPS COLLECTION BOX - PO LOBBY", "address": {"city": "PELICAN RAPIDS", "state": "MN", "street": "25 E MILL AVE", "postcode": "56572"}}},
{"geometry": {"type": "Point", "coordinates": [-96.0835418404, 46.5604237437]}, "type": "Feature", "properties": {"collection_times": [{"days": "Mon-Sat", "time": "4:50pm"}, {"days": "Sun", "time": "Closed"}], "id": "5657200004", "name": "USPS COLLECTION BOX - BLUE BOX", "address": {"city": "PELICAN RAPIDS", "state": "MN", "street": "901 S BROADWAY", "postcode": "56572"}}},
{"geometry": {"type": "Point", "coordinates": [-96.0835529542, 46.5737165539]}, "type": "Feature", "properties": {"collection_times": [{"days": "Mon-Sat", "time": "4:50pm"}, {"days": "Sun", "time": "Closed"}], "id": "5657200005", "name": "USPS COLLECTION BOX - BLUE BOX", "address": {"city": "PELICAN RAPIDS", "state": "MN", "street": "315 N BROADWAY", "postcode": "56572"}}},
{"geometry": {"type": "Point", "coordinates": [-95.5712008599, 46.5933677521]}, "type": "Feature", "properties": {"collection_times": [{"days": "Mon-Sat", "time": "9:30am"}, {"days": "Sun", "time": "Closed"}], "id": "5657300001", "name": "USPS COLLECTION BOX - BLUE BOX", "address": {"city": "PERHAM", "state": "MN", "street": "250 E MAIN ST", "postcode": "56573"}}},
{"geometry": {"type": "Point", "coordinates": [-95.5751779241, 46.5955676837]}, "type": "Feature", "properties": {"collection_times": [{"days": "Mon-Sat", "time": "4:30pm"}, {"days": "Sun", "time": "Closed"}], "id": "5657300007", "name": "USPS COLLECTION BOX - BLUE BOX", "address": {"city": "PERHAM", "state": "MN", "street": "100 3RD AVE NW", "postcode": "56573"}}},
{"geometry": {"type": "Point", "coordinates": [-95.5639696192, 46.5984496635]}, "type": "Feature", "properties": {"collection_times": [{"days": "Mon-Sat", "time": "1:00pm"}, {"days": "Sun", "time": "Closed"}], "id": "5657300008", "name": "USPS COLLECTION BOX - BLUE BOX", "address": {"city": "PERHAM", "state": "MN", "street": "231 MARKET DR", "postcode": "56573"}}},
{"geometry": {"type": "Point", "coordinates": [-95.574245007, 46.5963491399]}, "type": "Feature", "properties": {"collection_times": [{"days": "Mon-Fri", "time": "4:30pm"}, {"days": "Sat-Sun", "time": "Closed"}], "id": "5657300010", "name": "USPS COLLECTION BOX - PO LOBBY", "address": {"city": "PERHAM", "state": "MN", "street": "100 3RD AVE NW", "postcode": "56573"}}},
{"geometry": {"type": "Point", "coordinates": [-96.8038203554, 47.1795191752]}, "type": "Feature", "properties": {"collection_times": [{"days": "Mon-Sat", "time": "5:30pm"}, {"days": "Sun", "time": "Closed"}], "id": "5657400001", "name": "USPS COLLECTION BOX - BLUE BOX", "address": {"city": "PERLEY", "state": "MN", "street": "214 MAIN ST", "postcode": "56574"}}},
{"geometry": {"type": "Point", "coordinates": [-96.8038203554, 47.1795191752]}, "type": "Feature", "properties": {"collection_times": [{"days": "Mon-Fri", "time": "9:40am"}, {"days": "Sat-Sun", "time": "Closed"}], "id": "5657400002", "name": "USPS COLLECTION BOX - PO LOBBY", "address": {"city": "PERLEY", "state": "MN", "street": "214 MAIN ST", "postcode": "56574"}}},
{"geometry": {"type": "Point", "coordinates": [-95.3837313498, 46.9699536351]}, "type": "Feature", "properties": {"collection_times": [{"days": "Mon-Fri", "time": "4:15pm"}, {"days": "Sat", "time": "4:30pm"}, {"days": "Sun", "time": "Closed"}], "id": "5657500001", "name": "USPS COLLECTION BOX - BLUE BOX", "address": {"city": "PONSFORD", "state": "MN", "street": "48510 STATE HIGHWAY 225", "postcode": "56575"}}},
{"geometry": {"type": "Point", "coordinates": [-95.3837313498, 46.9699536351]}, "type": "Feature", "properties": {"collection_times": [{"days": "Mon-Fri", "time": "1:45pm"}, {"days": "Sat-Sun", "time": "Closed"}], "id": "5657500002", "name": "USPS COLLECTION BOX - PO LOBBY", "address": {"city": "PONSFORD", "state": "MN", "street": "48510 STATE HIGHWAY 225", "postcode": "56575"}}},
{"geometry": {"type": "Point", "coordinates": [-95.626498593, 46.5062676356]}, "type": "Feature", "properties": {"collection_times": [{"days": "Mon-Sat", "time": "3:10pm"}, {"days": "Sun", "time": "Closed"}], "id": "5657600001", "name": "USPS COLLECTION BOX - BLUE BOX", "address": {"city": "RICHVILLE", "state": "MN", "street": "120 MAIN ST S", "postcode": "56576"}}},
{"geometry": {"type": "Point", "coordinates": [-96.2821381753, 46.4727266946]}, "type": "Feature", "properties": {"collection_times": [{"days": "Mon-Fri", "time": "4:15pm"}, {"days": "Sat", "time": "6:00pm"}, {"days": "Sun", "time": "Closed"}], "id": "5657900001", "name": "USPS COLLECTION BOX - BLUE BOX", "address": {"city": "ROTHSAY", "state": "MN", "street": "211 1ST ST SW", "postcode": "56579"}}},
{"geometry": {"type": "Point", "coordinates": [-96.2806813535, 46.4811245657]}, "type": "Feature", "properties": {"collection_times": [{"days": "Mon-Sat", "time": "1:45pm"}, {"days": "Sun", "time": "Closed"}], "id": "5657900002", "name": "USPS COLLECTION BOX - BLUE BOX", "address": {"city": "ROTHSAY", "state": "MN", "street": "544 CENTER ST N", "postcode": "56579"}}},
{"geometry": {"type": "Point", "coordinates": [-96.2821381753, 46.4727266946]}, "type": "Feature", "properties": {"collection_times": [{"days": "Mon-Fri", "time": "12:00pm"}, {"days": "Sat-Sun", "time": "Closed"}], "id": "5657900003", "name": "USPS COLLECTION BOX - PO LOBBY", "address": {"city": "ROTHSAY", "state": "MN", "street": "211 1ST ST SW", "postcode": "56579"}}},
{"geometry": {"type": "Point", "coordinates": [-96.28373979, 46.474808102]}, "type": "Feature", "properties": {"collection_times": [{"days": "Mon-Sat", "time": "12:30pm"}, {"days": "Sun", "time": "Closed"}], "id": "5657900004", "name": "USPS COLLECTION BOX - BLUE BOX", "address": {"city": "ROTHSAY", "state": "MN", "street": "106 2ND ST SW", "postcode": "56579"}}},
{"geometry": {"type": "Point", "coordinates": [-96.6531421305, 46.7770420341]}, "type": "Feature", "properties": {"collection_times": [{"days": "Mon-Fri", "time": "3:45pm"}, {"days": "Sat", "time": "5:15pm"}, {"days": "Sun", "time": "Closed"}], "id": "5658000000", "name": "USPS COLLECTION BOX - BLUE BOX", "address": {"city": "SABIN", "state": "MN", "street": "18 MAIN ST", "postcode": "56580"}}},
{"geometry": {"type": "Point", "coordinates": [-96.6531421305, 46.7770420341]}, "type": "Feature", "properties": {"collection_times": [{"days": "Mon-Fri", "time": "3:45pm"}, {"days": "Sat-Sun", "time": "Closed"}], "id": "5658000001", "name": "USPS COLLECTION BOX - PO LOBBY", "address": {"city": "SABIN", "state": "MN", "street": "18 MAIN ST", "postcode": "56580"}}},
{"geometry": {"type": "Point", "coordinates": [-96.820483179, 47.4584270798]}, "type": "Feature", "properties": {"collection_times": [{"days": "Mon-Fri", "time": "4:15pm"}, {"days": "Sat", "time": "4:30pm"}, {"days": "Sun", "time": "Closed"}], "id": "5658100001", "name": "USPS COLLECTION BOX - BLUE BOX", "address": {"city": "SHELLY", "state": "MN", "street": "109 W MCKINLEY AVE", "postcode": "56581"}}},
{"geometry": {"type": "Point", "coordinates": [-96.820483179, 47.4584270798]}, "type": "Feature", "properties": {"collection_times": [{"days": "Mon-Fri", "time": "10:50am"}, {"days": "Sat-Sun", "time": "Closed"}], "id": "5658100002", "name": "USPS COLLECTION BOX - PO LOBBY", "address": {"city": "SHELLY", "state": "MN", "street": "109 W MCKINLEY AVE", "postcode": "56581"}}},
{"geometry": {"type": "Point", "coordinates": [-96.2590044624, 47.2605114611]}, "type": "Feature", "properties": {"collection_times": [{"days": "Mon-Sat", "time": "1:55pm"}, {"days": "Sun", "time": "Closed"}], "id": "5658400001", "name": "USPS COLLECTION BOX - BLUE BOX", "address": {"city": "TWIN VALLEY", "state": "MN", "street": "106 MAIN AVE W", "postcode": "56584"}}},
{"geometry": {"type": "Point", "coordinates": [-96.2590044624, 47.2605114611]}, "type": "Feature", "properties": {"collection_times": [{"days": "Mon-Fri", "time": "1:45pm"}, {"days": "Sat-Sun", "time": "Closed"}], "id": "5658400003", "name": "USPS COLLECTION BOX - PO LOBBY", "address": {"city": "TWIN VALLEY", "state": "MN", "street": "106 MAIN AVE W", "postcode": "56584"}}},
{"geometry": {"type": "Point", "coordinates": [-96.249194548, 47.0884517714]}, "type": "Feature", "properties": {"collection_times": [{"days": "Mon-Sat", "time": "2:55pm"}, {"days": "Sun", "time": "Closed"}], "id": "5658500001", "name": "USPS COLLECTION BOX - BLUE BOX", "address": {"city": "ULEN", "state": "MN", "street": "15 1ST ST NW", "postcode": "56585"}}},
{"geometry": {"type": "Point", "coordinates": [-96.249194548, 47.0884517714]}, "type": "Feature", "properties": {"collection_times": [{"days": "Mon-Fri", "time": "2:00pm"}, {"days": "Sat-Sun", "time": "Closed"}], "id": "5658500002", "name": "USPS COLLECTION BOX - PO LOBBY", "address": {"city": "ULEN", "state": "MN", "street": "15 1ST ST NW", "postcode": "56585"}}},
{"geometry": {"type": "Point", "coordinates": [-95.8712263648, 46.285411822]}, "type": "Feature", "properties": {"collection_times": [{"days": "Mon-Fri", "time": "3:45pm"}, {"days": "Sat", "time": "3:30pm"}, {"days": "Sun", "time": "Closed"}], "id": "5658600001", "name": "USPS COLLECTION BOX - BLUE BOX", "address": {"city": "UNDERWOOD", "state": "MN", "street": "113 MAIN ST S", "postcode": "56586"}}},
{"geometry": {"type": "Point", "coordinates": [-95.8712263648, 46.285411822]}, "type": "Feature", "properties": {"collection_times": [{"days": "Mon-Fri", "time": "1:30pm"}, {"days": "Sat-Sun", "time": "Closed"}], "id": "5658600002", "name": "USPS COLLECTION BOX - PO LOBBY", "address": {"city": "UNDERWOOD", "state": "MN", "street": "113 MAIN ST S", "postcode": "56586"}}},
{"geometry": {"type": "Point", "coordinates": [-95.8053261455, 46.6567181768]}, "type": "Feature", "properties": {"collection_times": [{"days": "Mon-Sat", "time": "2:45pm"}, {"days": "Sun", "time": "Closed"}], "id": "5658700001", "name": "USPS COLLECTION BOX - BLUE BOX", "address": {"city": "VERGAS", "state": "MN", "street": "123 E MAIN ST", "postcode": "56587"}}},
{"geometry": {"type": "Point", "coordinates": [-95.8053261455, 46.6567181768]}, "type": "Feature", "properties": {"collection_times": [{"days": "Mon-Fri", "time": "1:00pm"}, {"days": "Sat-Sun", "time": "Closed"}], "id": "5658700002", "name": "USPS COLLECTION BOX - PO LOBBY", "address": {"city": "VERGAS", "state": "MN", "street": "123 E MAIN ST", "postcode": "56587"}}},
{"geometry": {"type": "Point", "coordinates": [-95.5377366427, 46.2625794203]}, "type": "Feature", "properties": {"collection_times": [{"days": "Mon-Sat", "time": "4:20pm"}, {"days": "Sun", "time": "Closed"}], "id": "5658800001", "name": "USPS COLLECTION BOX - BLUE BOX", "address": {"city": "VINING", "state": "MN", "street": "3005 FRONT ST", "postcode": "56588"}}},
{"geometry": {"type": "Point", "coordinates": [-95.5452770296, 46.2597677622]}, "type": "Feature", "properties": {"collection_times": [{"days": "Mon-Fri", "time": "3:00pm"}, {"days": "Sat-Sun", "time": "Closed"}], "id": "5658800002", "name": "USPS COLLECTION BOX - PO LOBBY", "address": {"city": "VINING", "state": "MN", "street": "3005 FRONT ST", "postcode": "56588"}}},
{"geometry": {"type": "Point", "coordinates": [-95.7479941646, 47.1937077875]}, "type": "Feature", "properties": {"collection_times": [{"days": "Mon-Sat", "time": "4:00pm"}, {"days": "Sun", "time": "Closed"}], "id": "5658900001", "name": "USPS COLLECTION BOX - BLUE BOX", "address": {"city": "WAUBUN", "state": "MN", "street": "1015 1ST ST", "postcode": "56589"}}},
{"geometry": {"type": "Point", "coordinates": [-95.7479941646, 47.1937077875]}, "type": "Feature", "properties": {"collection_times": [{"days": "Mon-Fri", "time": "2:30pm"}, {"days": "Sat-Sun", "time": "Closed"}], "id": "5658900002", "name": "USPS COLLECTION BOX - PO LOBBY", "address": {"city": "WAUBUN", "state": "MN", "street": "1015 1ST ST", "postcode": "56589"}}},
{"geometry": {"type": "Point", "coordinates": [-96.1364353662, 46.0619985352]}, "type": "Feature", "properties": {"collection_times": [{"days": "Mon-Sat", "time": "4:15pm"}, {"days": "Sun", "time": "Closed"}], "id": "5659000001", "name": "USPS COLLECTION BOX - BLUE BOX", "address": {"city": "WENDELL", "state": "MN", "street": "542 STATE HIGHWAY 55", "postcode": "56590"}}},
{"geometry": {"type": "Point", "coordinates": [-96.1364353662, 46.0619985352]}, "type": "Feature", "properties": {"collection_times": [{"days": "Mon-Fri", "time": "12:00pm"}, {"days": "Sat-Sun", "time": "Closed"}], "id": "5659000002", "name": "USPS COLLECTION BOX - PO LOBBY", "address": {"city": "WENDELL", "state": "MN", "street": "542 STATE HIGHWAY 55", "postcode": "56590"}}},
{"geometry": {"type": "Point", "coordinates": [-95.8374681008, 47.0961467431]}, "type": "Feature", "properties": {"collection_times": [{"days": "Mon-Fri", "time": "1:15pm"}, {"days": "Sat", "time": "10:45am"}, {"days": "Sun", "time": "Closed"}], "id": "5659100001", "name": "USPS COLLECTION BOX - BLUE BOX", "address": {"city": "WHITE EARTH", "state": "MN", "street": "26246 CRANE RD", "postcode": "56591"}}},
{"geometry": {"type": "Point", "coordinates": [-95.8374681008, 47.0961467431]}, "type": "Feature", "properties": {"collection_times": [{"days": "Mon-Fri", "time": "1:15pm"}, {"days": "Sat-Sun", "time": "Closed"}], "id": "5659100002", "name": "USPS COLLECTION BOX - PO LOBBY", "address": {"city": "WHITE EARTH", "state": "MN", "street": "26246 CRANE RD", "postcode": "56591"}}},
{"geometry": {"type": "Point", "coordinates": [-96.0035820221, 47.5426952101]}, "type": "Feature", "properties": {"collection_times": [{"days": "Mon-Sat", "time": "3:30pm"}, {"days": "Sun", "time": "Closed"}], "id": "5659200001", "name": "USPS COLLECTION BOX - BLUE BOX", "address": {"city": "WINGER", "state": "MN", "street": "14 S MAIN ST", "postcode": "56592"}}},
{"geometry": {"type": "Point", "coordinates": [-96.0035820221, 47.5426952101]}, "type": "Feature", "properties": {"collection_times": [{"days": "Mon-Fri", "time": "12:00pm"}, {"days": "Sat-Sun", "time": "Closed"}], "id": "5659200002", "name": "USPS COLLECTION BOX - PO LOBBY", "address": {"city": "WINGER", "state": "MN", "street": "14 S MAIN ST", "postcode": "56592"}}},
{"geometry": {"type": "Point", "coordinates": [-96.5761356496, 46.5460457811]}, "type": "Feature", "properties": {"collection_times": [{"days": "Mon-Fri", "time": "4:15pm"}, {"days": "Sat", "time": "4:00pm"}, {"days": "Sun", "time": "Closed"}], "id": "5659400001", "name": "USPS COLLECTION BOX - BLUE BOX", "address": {"city": "WOLVERTON", "state": "MN", "street": "333 KING OF TRAILS PKWY", "postcode": "56594"}}},
{"geometry": {"type": "Point", "coordinates": [-96.5761356496, 46.5460457811]}, "type": "Feature", "properties": {"collection_times": [{"days": "Mon-Fri", "time": "12:00pm"}, {"days": "Sat-Sun", "time": "Closed"}], "id": "5659400002", "name": "USPS COLLECTION BOX - PO LOBBY", "address": {"city": "WOLVERTON", "state": "MN", "street": "333 KING OF TRAILS PKWY", "postcode": "56594"}}}
]}
