{"type": "FeatureCollection", "features": [
{"geometry": {"type": "Point", "coordinates": [-94.8855038211, 47.4716083]}, "type": "Feature", "properties": {"collection_times": [{"days": "Mon-Sat", "time": "6:00pm"}, {"days": "Sun", "time": "Closed"}], "id": "5660100001", "name": "USPS COLLECTION BOX - BLUE BOX", "address": {"city": "BEMIDJI", "state": "MN", "street": "401 IRVINE AVE NW", "postcode": "56601"}}},
{"geometry": {"type": "Point", "coordinates": [-94.8855038211, 47.4716083]}, "type": "Feature", "properties": {"collection_times": [{"days": "Mon-Sat", "time": "6:00pm"}, {"days": "Sun", "time": "Closed"}], "id": "5660100002", "name": "USPS COLLECTION BOX - BLUE BOX", "address": {"city": "BEMIDJI", "state": "MN", "street": "401 IRVINE AVE NW", "postcode": "56601"}}},
{"geometry": {"type": "Point", "coordinates": [-94.8638381687, 47.4559416474]}, "type": "Feature", "properties": {"collection_times": [{"days": "Mon-Sat", "time": "3:30pm"}, {"days": "Sun", "time": "Closed"}], "id": "5660100004", "name": "USPS COLLECTION BOX - BLUE BOX", "address": {"city": "BEMIDJI", "state": "MN", "street": "609 WASHINGTON AVE S", "postcode": "56601"}}},
{"geometry": {"type": "Point", "coordinates": [-94.8811101733, 47.4727047456]}, "type": "Feature", "properties": {"collection_times": [{"days": "Mon-Sat", "time": "3:30pm"}, {"days": "Sun", "time": "Closed"}], "id": "5660100007", "name": "USPS COLLECTION BOX - BLUE BOX", "address": {"city": "BEMIDJI", "state": "MN", "street": "502 BELTRAMI AVE NW", "postcode": "56601"}}},
{"geometry": {"type": "Point", "coordinates": [-94.8812680589, 47.4716207939]}, "type": "Feature", "properties": {"collection_times": [{"days": "Mon-Sat", "time": "3:30pm"}, {"days": "Sun", "time": "Closed"}], "id": "5660100008", "name": "USPS COLLECTION BOX - BLUE BOX", "address": {"city": "BEMIDJI", "state": "MN", "street": "401 BELTRAMI AVE NW", "postcode": "56601"}}},
{"geometry": {"type": "Point", "coordinates": [-94.9092087926, 47.4953325916]}, "type": "Feature", "properties": {"collection_times": [{"days": "Mon-Sat", "time": "3:30pm"}, {"days": "Sun", "time": "Closed"}], "id": "5660100010", "name": "USPS COLLECTION BOX - BLUE BOX", "address": {"city": "BEMIDJI", "state": "MN", "street": "2000 PAUL BUNYAN DR NW", "postcode": "56601"}}},
{"geometry": {"type": "Point", "coordinates": [-94.8957471095, 47.4915082083]}, "type": "Feature", "properties": {"collection_times": [{"days": "Mon-Sat", "time": "3:30pm"}, {"days": "Sun", "time": "Closed"}], "id": "5660100014", "name": "USPS COLLECTION BOX - BLUE BOX", "address": {"city": "BEMIDJI", "state": "MN", "street": "1171 PAUL BUNYAN DR NW", "postcode": "56601"}}},
{"geometry": {"type": "Point", "coordinates": [-94.8855038211, 47.4716083]}, "type": "Feature", "properties": {"collection_times": [{"days": "Mon-Sat", "time": "6:00pm"}, {"days": "Sun", "time": "Closed"}], "id": "5660100020", "name": "USPS COLLECTION BOX - PO LOBBY", "address": {"city": "BEMIDJI", "state": "MN", "street": "401 IRVINE AVE NW", "postcode": "56601"}}},
{"geometry": {"type": "Point", "coordinates": [-94.8957471095, 47.4915082083]}, "type": "Feature", "properties": {"collection_times": [{"days": "Mon-Sat", "time": "3:30pm"}, {"days": "Sun", "time": "Closed"}], "id": "5660100021", "name": "USPS COLLECTION BOX - BLUE BOX", "address": {"city": "BEMIDJI", "state": "MN", "street": "1171 PAUL BUNYAN DR NW", "postcode": "56601"}}},
{"geometry": {"type": "Point", "coordinates": [-94.8855038211, 47.4716083]}, "type": "Feature", "properties": {"collection_times": [{"days": "Mon-Sat", "time": "6:00pm"}, {"days": "Sun", "time": "Closed"}], "id": "5660100022", "name": "USPS COLLECTION BOX - PO LOBBY", "address": {"city": "BEMIDJI", "state": "MN", "street": "401 IRVINE AVE NW", "postcode": "56601"}}},
{"geometry": {"type": "Point", "coordinates": [-94.8957471095, 47.4915082083]}, "type": "Feature", "properties": {"collection_times": [{"days": "Mon-Sat", "time": "3:30pm"}, {"days": "Sun", "time": "Closed"}], "id": "5660100023", "name": "USPS COLLECTION BOX - BLUE BOX", "address": {"city": "BEMIDJI", "state": "MN", "street": "1171 PAUL BUNYAN DR NW", "postcode": "56601"}}},
{"geometry": {"type": "Point", "coordinates": [-95.0030581912, 47.5128121965]}, "type": "Feature", "properties": {"collection_times": [{"days": "Mon-Sat", "time": "5:15pm"}, {"days": "Sun", "time": "Closed"}], "id": "5660100028", "name": "USPS COLLECTION BOX - BLUE BOX", "address": {"city": "BEMIDJI", "state": "MN", "street": "430 OLD WHITETAIL DR NW", "postcode": "56601"}}},
{"geometry": {"type": "Point", "coordinates": [-95.3968878244, 47.5217299255]}, "type": "Feature", "properties": {"collection_times": [{"days": "Mon-Sat", "time": "4:30pm"}, {"days": "Sun", "time": "Closed"}], "id": "5662100001", "name": "USPS COLLECTION BOX - BLUE BOX", "address": {"city": "BAGLEY", "state": "MN", "street": "26 GETCHELL AVE NE", "postcode": "56621"}}},
{"geometry": {"type": "Point", "coordinates": [-95.3968878244, 47.5217299255]}, "type": "Feature", "properties": {"collection_times": [{"days": "Mon-Fri", "time": "4:30pm"}, {"days": "Sat", "time": "10:00am"}, {"days": "Sun", "time": "Closed"}], "id": "5662100003", "name": "USPS COLLECTION BOX - PO LOBBY", "address": {"city": "BAGLEY", "state": "MN", "street": "26 GETCHELL AVE NE", "postcode": "56621"}}},
{"geometry": {"type": "Point", "coordinates": [-94.6017356926, 48.7126850014]}, "type": "Feature", "properties": {"collection_times": [{"days": "Mon-Sat", "time": "4:30pm"}, {"days": "Sun", "time": "Closed"}], "id": "5662300000", "name": "USPS COLLECTION BOX - BLUE BOX", "address": {"city": "BAUDETTE", "state": "MN", "street": "119 1ST AVE NW", "postcode": "56623"}}},
{"geometry": {"type": "Point", "coordinates": [-94.6017356926, 48.7126850014]}, "type": "Feature", "properties": {"collection_times": [{"days": "Mon-Fri", "time": "4:30pm"}, {"days": "Sat", "time": "9:30am"}, {"days": "Sun", "time": "Closed"}], "id": "5662300002", "name": "USPS COLLECTION BOX - PO LOBBY", "address": {"city": "BAUDETTE", "state": "MN", "street": "119 1ST AVE NW", "postcode": "56623"}}},
{"geometry": {"type": "Point", "coordinates": [-94.6017356926, 48.7126850014]}, "type": "Feature", "properties": {"collection_times": [{"days": "Mon-Sat", "time": "4:30pm"}, {"days": "Sun", "time": "Closed"}], "id": "5662300003", "name": "USPS COLLECTION BOX - BLUE BOX", "address": {"city": "BAUDETTE", "state": "MN", "street": "119 1ST AVE NW", "postcode": "56623"}}},
{"geometry": {"type": "Point", "coordinates": [-94.2018618152, 47.3503777508]}, "type": "Feature", "properties": {"collection_times": [{"days": "Mon-Fri", "time": "4:00pm"}, {"days": "Sat", "time": "3:30pm"}, {"days": "Sun", "time": "Closed"}], "id": "5662600000", "name": "USPS COLLECTION BOX - BLUE BOX", "address": {"city": "BENA", "state": "MN", "street": "38 COUNTY ROAD 8", "postcode": "56626"}}},
{"geometry": {"type": "Point", "coordinates": [-94.2018618152, 47.3503777508]}, "type": "Feature", "properties": {"collection_times": [{"days": "Mon-Fri", "time": "12:00pm"}, {"days": "Sat", "time": "8:30am"}, {"days": "Sun", "time": "Closed"}], "id": "5662600001", "name": "USPS COLLECTION BOX - PO LOBBY", "address": {"city": "BENA", "state": "MN", "street": "38 COUNTY ROAD 8", "postcode": "56626"}}},
{"geometry": {"type": "Point", "coordinates": [-93.8040757875, 48.1909610512]}, "type": "Feature", "properties": {"collection_times": [{"days": "Mon-Sat", "time": "4:15pm"}, {"days": "Sun", "time": "Closed"}], "id": "5662700000", "name": "USPS COLLECTION BOX - BLUE BOX", "address": {"city": "BIG FALLS", "state": "MN", "street": "305 2ND ST NW", "postcode": "56627"}}},
{"geometry": {"type": "Point", "coordinates": [-93.8040757875, 48.1909610512]}, "type": "Feature", "properties": {"collection_times": [{"days": "Mon-Fri", "time": "4:15pm"}, {"days": "Sat", "time": "10:00am"}, {"days": "Sun", "time": "Closed"}], "id": "5662700001", "name": "USPS COLLECTION BOX - PO LOBBY", "address": {"city": "BIG FALLS", "state": "MN", "street": "305 2ND ST NW", "postcode": "56627"}}},
{"geometry": {"type": "Point", "coordinates": [-93.6000172839, 47.7074451778]}, "type": "Feature", "properties": {"collection_times": [{"days": "Mon-Fri", "time": "3:45pm"}, {"days": "Sat", "time": "4:15pm"}, {"days": "Sun", "time": "Closed"}], "id": "5662800000", "name": "USPS COLLECTION BOX - BLUE BOX", "address": {"city": "BIGFORK", "state": "MN", "street": "305 MAIN AVE", "postcode": "56628"}}},
{"geometry": {"type": "Point", "coordinates": [-93.6550156502, 47.7471273819]}, "type": "Feature", "properties": {"collection_times": [{"days": "Mon-Sat", "time": "3:30pm"}, {"days": "Sun", "time": "Closed"}], "id": "5662800001", "name": "USPS COLLECTION BOX - BLUE BOX", "address": {"city": "BIGFORK", "state": "MN", "street": "101 STATE HIGHWAY 38 S", "postcode": "56628"}}},
{"geometry": {"type": "Point", "coordinates": [-93.3975589826, 47.6367405417]}, "type": "Feature", "properties": {"collection_times": [{"days": "Mon-Sat", "time": "10:30am"}, {"days": "Sun", "time": "Closed"}], "id": "5662800002", "name": "USPS COLLECTION BOX - BLUE BOX", "address": {"city": "BIGFORK", "state": "MN", "street": "29314 COUNTY ROAD 52", "postcode": "56628"}}},
{"geometry": {"type": "Point", "coordinates": [-93.6000172839, 47.7074451778]}, "type": "Feature", "properties": {"collection_times": [{"days": "Mon-Fri", "time": "4:00pm"}, {"days": "Sat-Sun", "time": "Closed"}], "id": "5662800003", "name": "USPS COLLECTION BOX - PO LOBBY", "address": {"city": "BIGFORK", "state": "MN", "street": "305 MAIN AVE", "postcode": "56628"}}},
{"geometry": {"type": "Point", "coordinates": [-94.2989170601, 48.5298196964]}, "type": "Feature", "properties": {"collection_times": [{"days": "Mon-Sat", "time": "1:00pm"}, {"days": "Sun", "time": "Closed"}], "id": "5662900000", "name": "USPS COLLECTION BOX - BLUE BOX", "address": {"city": "BIRCHDALE", "state": "MN", "street": "10424 HIGHWAY 11", "postcode": "56629"}}},
{"geometry": {"type": "Point", "coordinates": [-94.2989170601, 48.5298196964]}, "type": "Feature", "properties": {"collection_times": [{"days": "Mon-Sat", "time": "1:30pm"}, {"days": "Sun", "time": "Closed"}], "id": "5662900001", "name": "USPS COLLECTION BOX - PO LOBBY", "address": {"city": "BIRCHDALE", "state": "MN", "street": "10424 HIGHWAY 11", "postcode": "56629"}}},
{"geometry": {"type": "Point", "coordinates": [-94.3722380915, 47.7293565243]}, "type": "Feature", "properties": {"collection_times": [{"days": "Mon-Fri", "time": "4:00pm"}, {"days": "Sat", "time": "5:00pm"}, {"days": "Sun", "time": "Closed"}], "id": "5663000000", "name": "USPS COLLECTION BOX - BLUE BOX", "address": {"city": "BLACKDUCK", "state": "MN", "street": "57 1ST ST SE", "postcode": "56630"}}},
{"geometry": {"type": "Point", "coordinates": [-94.3722380915, 47.7293565243]}, "type": "Feature", "properties": {"collection_times": [{"days": "Mon-Fri", "time": "4:00pm"}, {"days": "Sat-Sun", "time": "Closed"}], "id": "5663000001", "name": "USPS COLLECTION BOX - PO LOBBY", "address": {"city": "BLACKDUCK", "state": "MN", "street": "57 1ST ST SE", "postcode": "56630"}}},
{"geometry": {"type": "Point", "coordinates": [-94.3722380915, 47.7293565243]}, "type": "Feature", "properties": {"collection_times": [{"days": "Mon-Sat", "time": "10:00am"}, {"days": "Sun", "time": "Closed"}], "id": "5663000002", "name": "USPS COLLECTION BOX - BLUE BOX", "address": {"city": "BLACKDUCK", "state": "MN", "street": "3070 SCENIC HWY NE", "postcode": "56630"}}},
{"geometry": {"type": "Point", "coordinates": [-94.3722380915, 47.7293565243]}, "type": "Feature", "properties": {"collection_times": [{"days": "Mon-Fri", "time": "4:00pm"}, {"days": "Sat-Sun", "time": "Closed"}], "id": "5663000003", "name": "USPS COLLECTION BOX - PO LOBBY", "address": {"city": "BLACKDUCK", "state": "MN", "street": "57 1ST ST SE", "postcode": "56630"}}},
{"geometry": {"type": "Point", "coordinates": [-94.607960537, 47.3791972686]}, "type": "Feature", "properties": {"collection_times": [{"days": "Mon-Sat", "time": "4:30pm"}, {"days": "Sun", "time": "Closed"}], "id": "5663300000", "name": "USPS COLLECTION BOX - BLUE BOX", "address": {"city": "CASS LAKE", "state": "MN", "street": "322 2ND ST", "postcode": "56633"}}},
{"geometry": {"type": "Point", "coordinates": [-94.607960537, 47.3791972686]}, "type": "Feature", "properties": {"collection_times": [{"days": "Mon-Fri", "time": "4:30pm"}, {"days": "Sat", "time": "11:00am"}, {"days": "Sun", "time": "Closed"}], "id": "5663300001", "name": "USPS COLLECTION BOX - PO LOBBY", "address": {"city": "CASS LAKE", "state": "MN", "street": "322 2ND ST", "postcode": "56633"}}},
{"geometry": {"type": "Point", "coordinates": [-94.607960537, 47.3791972686]}, "type": "Feature", "properties": {"collection_times": [{"days": "Mon-Fri", "time": "4:30pm"}, {"days": "Sat", "time": "11:00am"}, {"days": "Sun", "time": "Closed"}], "id": "5663300002", "name": "USPS COLLECTION BOX - PO LOBBY", "address": {"city": "CASS LAKE", "state": "MN", "street": "322 2ND ST", "postcode": "56633"}}},
{"geometry": {"type": "Point", "coordinates": [-95.4279544443, 47.6937060492]}, "type": "Feature", "properties": {"collection_times": [{"days": "Mon-Fri", "time": "4:00pm"}, {"days": "Sat", "time": "4:30pm"}, {"days": "Sun", "time": "Closed"}], "id": "5663400000", "name": "USPS COLLECTION BOX - BLUE BOX", "address": {"city": "LEONARD", "state": "MN", "street": "117 MAIN ST S", "postcode": "56634"}}},
{"geometry": {"type": "Point", "coordinates": [-95.2664645497, 47.7863228994]}, "type": "Feature", "properties": {"collection_times": [{"days": "Mon-Sat", "time": "4:00pm"}, {"days": "Sun", "time": "Closed"}], "id": "5663400001", "name": "USPS COLLECTION BOX - BLUE BOX", "address": {"city": "LEONARD", "state": "MN", "street": "24624 LEONARD RD", "postcode": "56634"}}},
{"geometry": {"type": "Point", "coordinates": [-95.4279544443, 47.6937060492]}, "type": "Feature", "properties": {"collection_times": [{"days": "Mon-Fri", "time": "4:00pm"}, {"days": "Sat", "time": "9:00am"}, {"days": "Sun", "time": "Closed"}], "id": "5663400002", "name": "USPS COLLECTION BOX - PO LOBBY", "address": {"city": "LEONARD", "state": "MN", "street": "117 MAIN ST S", "postcode": "56634"}}},
{"geometry": {"type": "Point", "coordinates": [-93.7955726054, 47.3337793056]}, "type": "Feature", "properties": {"collection_times": [{"days": "Mon-Fri", "time": "4:15pm"}, {"days": "Sat", "time": "4:30pm"}, {"days": "Sun", "time": "Closed"}], "id": "5663600000", "name": "USPS COLLECTION BOX - BLUE BOX", "address": {"city": "DEER RIVER", "state": "MN", "street": "12 1ST AVE NE", "postcode": "56636"}}},
{"geometry": {"type": "Point", "coordinates": [-93.7955726054, 47.3337793056]}, "type": "Feature", "properties": {"collection_times": [{"days": "Mon-Fri", "time": "4:15pm"}, {"days": "Sat-Sun", "time": "Closed"}], "id": "5663600001", "name": "USPS COLLECTION BOX - PO LOBBY", "address": {"city": "DEER RIVER", "state": "MN", "street": "12 1ST AVE NE", "postcode": "56636"}}},
{"geometry": {"type": "Point", "coordinates": [-93.7962380029, 47.5498607295]}, "type": "Feature", "properties": {"collection_times": [{"days": "Mon-Sat", "time": "4:00pm"}, {"days": "Sun", "time": "Closed"}], "id": "5663600003", "name": "USPS COLLECTION BOX - BLUE BOX", "address": {"city": "DEER RIVER", "state": "MN", "street": "46025 STATE HWY 6 - BOWSTRING MN 5663", "postcode": "56636"}}},
{"geometry": {"type": "Point", "coordinates": [-94.2414789844, 47.2003684276]}, "type": "Feature", "properties": {"collection_times": [{"days": "Mon-Fri", "time": "4:15pm"}, {"days": "Sat", "time": "3:30pm"}, {"days": "Sun", "time": "Closed"}], "id": "5664100001", "name": "USPS COLLECTION BOX - BLUE BOX", "address": {"city": "FEDERAL DAM", "state": "MN", "street": "12 1ST AVE E", "postcode": "56641"}}},
{"geometry": {"type": "Point", "coordinates": [-95.4814350053, 47.8471751214]}, "type": "Feature", "properties": {"collection_times": [{"days": "Mon-Sat", "time": "4:00pm"}, {"days": "Sun", "time": "Closed"}], "id": "5664400000", "name": "USPS COLLECTION BOX - BLUE BOX", "address": {"city": "GONVICK", "state": "MN", "street": "233 2ND AVE", "postcode": "56644"}}},
{"geometry": {"type": "Point", "coordinates": [-95.4814350053, 47.8471751214]}, "type": "Feature", "properties": {"collection_times": [{"days": "Mon-Fri", "time": "4:00pm"}, {"days": "Sat-Sun", "time": "Closed"}], "id": "5664400001", "name": "USPS COLLECTION BOX - PO LOBBY", "address": {"city": "GONVICK", "state": "MN", "street": "233 2ND AVE", "postcode": "56644"}}},
{"geometry": {"type": "Point", "coordinates": [-95.6115718085, 47.8039534206]}, "type": "Feature", "properties": {"collection_times": [{"days": "Mon-Sat", "time": "3:45pm"}, {"days": "Sun", "time": "Closed"}], "id": "5664600000", "name": "USPS COLLECTION BOX - BLUE BOX", "address": {"city": "GULLY", "state": "MN", "street": "301 S MAIN ST", "postcode": "56646"}}},
{"geometry": {"type": "Point", "coordinates": [-95.6115718085, 47.8039534206]}, "type": "Feature", "properties": {"collection_times": [{"days": "Mon-Fri", "time": "1:00pm"}, {"days": "Sat", "time": "11:00am"}, {"days": "Sun", "time": "Closed"}], "id": "5664600001", "name": "USPS COLLECTION BOX - PO LOBBY", "address": {"city": "GULLY", "state": "MN", "street": "301 S MAIN ST", "postcode": "56646"}}},
{"geometry": {"type": "Point", "coordinates": [-94.6330048392, 47.6868246312]}, "type": "Feature", "properties": {"collection_times": [{"days": "Mon-Fri", "time": "3:30pm"}, {"days": "Sat", "time": "4:15pm"}, {"days": "Sun", "time": "Closed"}], "id": "5664700000", "name": "USPS COLLECTION BOX - BLUE BOX", "address": {"city": "HINES", "state": "MN", "street": "22061 HINES RD NE", "postcode": "56647"}}},
{"geometry": {"type": "Point", "coordinates": [-94.6330048392, 47.6868246312]}, "type": "Feature", "properties": {"collection_times": [{"days": "Mon-Sat", "time": "10:00am"}, {"days": "Sun", "time": "Closed"}], "id": "5664700001", "name": "USPS COLLECTION BOX - PO LOBBY", "address": {"city": "HINES", "state": "MN", "street": "22061 HINES RD NE", "postcode": "56647"}}},
{"geometry": {"type": "Point", "coordinates": [-93.4051890143, 48.6038108193]}, "type": "Feature", "properties": {"collection_times": [{"days": "Mon-Sat", "time": "9:15am"}, {"days": "Sun", "time": "Closed"}], "id": "5664900001", "name": "USPS COLLECTION BOX - BLUE BOX", "address": {"city": "INTL FALLS", "state": "MN", "street": "400 2ND ST", "postcode": "56649"}}},
{"geometry": {"type": "Point", "coordinates": [-93.4455239656, 48.5895506826]}, "type": "Feature", "properties": {"collection_times": [{"days": "Mon-Sat", "time": "1:00pm"}, {"days": "Sun", "time": "Closed"}], "id": "5664900006", "name": "USPS COLLECTION BOX - BLUE BOX", "address": {"city": "INTL FALLS", "state": "MN", "street": "1641 20TH AVE", "postcode": "56649"}}},
{"geometry": {"type": "Point", "coordinates": [-93.43564, 48.587486]}, "type": "Feature", "properties": {"collection_times": [{"days": "Mon-Sat", "time": "11:00am"}, {"days": "Sun", "time": "Closed"}], "id": "5664900007", "name": "USPS COLLECTION BOX - BLUE BOX", "address": {"city": "INTL FALLS", "state": "MN", "street": "2201 KEENAN DR", "postcode": "56649"}}},
{"geometry": {"type": "Point", "coordinates": [-93.4389634169, 48.5877071295]}, "type": "Feature", "properties": {"collection_times": [{"days": "Mon-Sat", "time": "12:00pm"}, {"days": "Sun", "time": "Closed"}], "id": "5664900009", "name": "USPS COLLECTION BOX - BLUE BOX", "address": {"city": "INTL FALLS", "state": "MN", "street": "1907 VALLEY PINE CIR", "postcode": "56649"}}},
{"geometry": {"type": "Point", "coordinates": [-93.39808, 48.586807]}, "type": "Feature", "properties": {"collection_times": [{"days": "Mon-Sat", "time": "3:00pm"}, {"days": "Sun", "time": "Closed"}], "id": "5664900010", "name": "USPS COLLECTION BOX - BLUE BOX", "address": {"city": "INTL FALLS", "state": "MN", "street": "1802 1ST AVE E", "postcode": "56649"}}},
{"geometry": {"type": "Point", "coordinates": [-93.4052124785, 48.6017377784]}, "type": "Feature", "properties": {"collection_times": [{"days": "Mon-Fri", "time": "4:00pm"}, {"days": "Sat", "time": "3:30pm"}, {"days": "Sun", "time": "Closed"}], "id": "5664900014", "name": "USPS COLLECTION BOX - BLUE BOX", "address": {"city": "INTL FALLS", "state": "MN", "street": "400 4TH ST", "postcode": "56649"}}},
{"geometry": {"type": "Point", "coordinates": [-93.4052124785, 48.6017377784]}, "type": "Feature", "properties": {"collection_times": [{"days": "Mon-Fri", "time": "4:00pm"}, {"days": "Sat", "time": "3:30pm"}, {"days": "Sun", "time": "Closed"}], "id": "5664900015", "name": "USPS COLLECTION BOX - BLUE BOX", "address": {"city": "INTL FALLS", "state": "MN", "street": "400 4TH ST", "postcode": "56649"}}},
{"geometry": {"type": "Point", "coordinates": [-93.4159711243, 48.6034436831]}, "type": "Feature", "properties": {"collection_times": [{"days": "Mon-Sat", "time": "11:00am"}, {"days": "Sun", "time": "Closed"}], "id": "5664900018", "name": "USPS COLLECTION BOX - BLUE BOX", "address": {"city": "INTL FALLS", "state": "MN", "street": "1200 RIVERSIDE DR", "postcode": "56649"}}},
{"geometry": {"type": "Point", "coordinates": [-93.4052124785, 48.6017377784]}, "type": "Feature", "properties": {"collection_times": [{"days": "Mon-Fri", "time": "4:00pm"}, {"days": "Sat", "time": "3:30pm"}, {"days": "Sun", "time": "Closed"}], "id": "5664900020", "name": "USPS COLLECTION BOX - PO LOBBY", "address": {"city": "INTL FALLS", "state": "MN", "street": "400 4TH ST", "postcode": "56649"}}},
{"geometry": {"type": "Point", "coordinates": [-93.3993797583, 48.5868868791]}, "type": "Feature", "properties": {"collection_times": [{"days": "Mon-Sat", "time": "12:30pm"}, {"days": "Sun", "time": "Closed"}], "id": "5664900021", "name": "USPS COLLECTION BOX - PO LOBBY", "address": {"city": "INTL FALLS", "state": "MN", "street": "15 18TH ST E", "postcode": "56649"}}},
{"geometry": {"type": "Point", "coordinates": [-94.4605299564, 47.940977979]}, "type": "Feature", "properties": {"collection_times": [{"days": "Mon-Fri", "time": "4:45pm"}, {"days": "Sat", "time": "5:45pm"}, {"days": "Sun", "time": "Closed"}], "id": "5665000000", "name": "USPS COLLECTION BOX - BLUE BOX", "address": {"city": "KELLIHER", "state": "MN", "street": "162 E MAIN ST", "postcode": "56650"}}},
{"geometry": {"type": "Point", "coordinates": [-94.4605299564, 47.940977979]}, "type": "Feature", "properties": {"collection_times": [{"days": "Mon-Fri", "time": "3:00pm"}, {"days": "Sat", "time": "9:00am"}, {"days": "Sun", "time": "Closed"}], "id": "5665000002", "name": "USPS COLLECTION BOX - PO LOBBY", "address": {"city": "KELLIHER", "state": "MN", "street": "162 E MAIN ST", "postcode": "56650"}}},
{"geometry": {"type": "Point", "coordinates": [-95.6356038681, 47.515821676]}, "type": "Feature", "properties": {"collection_times": [{"days": "Mon-Sat", "time": "2:00pm"}, {"days": "Sun", "time": "Closed"}], "id": "5665100000", "name": "USPS COLLECTION BOX - BLUE BOX", "address": {"city": "LENGBY", "state": "MN", "street": "102 MAIN AVE", "postcode": "56651"}}},
{"geometry": {"type": "Point", "coordinates": [-95.6356038681, 47.515821676]}, "type": "Feature", "properties": {"collection_times": [{"days": "Mon-Sat", "time": "10:30am"}, {"days": "Sun", "time": "Closed"}], "id": "5665100001", "name": "USPS COLLECTION BOX - PO LOBBY", "address": {"city": "LENGBY", "state": "MN", "street": "102 MAIN AVE", "postcode": "56651"}}},
{"geometry": {"type": "Point", "coordinates": [-93.385207377, 48.2702920021]}, "type": "Feature", "properties": {"collection_times": [{"days": "Mon-Fri", "time": "4:00pm"}, {"days": "Sat", "time": "3:30pm"}, {"days": "Sun", "time": "Closed"}], "id": "5665300000", "name": "USPS COLLECTION BOX - BLUE BOX", "address": {"city": "LITTLE FORK", "state": "MN", "street": "716 3RD AVE", "postcode": "56653"}}},
{"geometry": {"type": "Point", "coordinates": [-93.385207377, 48.2702920021]}, "type": "Feature", "properties": {"collection_times": [{"days": "Mon-Fri", "time": "4:00pm"}, {"days": "Sat", "time": "10:30am"}, {"days": "Sun", "time": "Closed"}], "id": "5665300001", "name": "USPS COLLECTION BOX - PO LOBBY", "address": {"city": "LITTLE FORK", "state": "MN", "street": "716 3RD AVE", "postcode": "56653"}}},
{"geometry": {"type": "Point", "coordinates": [-93.8049520906, 48.5127536545]}, "type": "Feature", "properties": {"collection_times": [{"days": "Mon-Fri", "time": "1:15pm"}, {"days": "Sat", "time": "12:45pm"}, {"days": "Sun", "time": "Closed"}], "id": "5665400000", "name": "USPS COLLECTION BOX - BLUE BOX", "address": {"city": "LOMAN", "state": "MN", "street": "7678 HIGHWAY 11", "postcode": "56654"}}},
{"geometry": {"type": "Point", "coordinates": [-93.8049520906, 48.5127536545]}, "type": "Feature", "properties": {"collection_times": [{"days": "Mon-Fri", "time": "1:15pm"}, {"days": "Sat", "time": "12:45pm"}, {"days": "Sun", "time": "Closed"}], "id": "5665400001", "name": "USPS COLLECTION BOX - PO LOBBY", "address": {"city": "LOMAN", "state": "MN", "street": "7678 HIGHWAY 11", "postcode": "56654"}}},
{"geometry": {"type": "Point", "coordinates": [-94.2078603695, 47.0250094583]}, "type": "Feature", "properties": {"collection_times": [{"days": "Mon-Sat", "time": "4:30pm"}, {"days": "Sun", "time": "Closed"}], "id": "5665500000", "name": "USPS COLLECTION BOX - BLUE BOX", "address": {"city": "LONGVILLE", "state": "MN", "street": "1462 COUNTY ROAD 5", "postcode": "56655"}}},
{"geometry": {"type": "Point", "coordinates": [-94.2078603695, 47.0250094583]}, "type": "Feature", "properties": {"collection_times": [{"days": "Mon-Fri", "time": "4:30pm"}, {"days": "Sat-Sun", "time": "Closed"}], "id": "5665500002", "name": "USPS COLLECTION BOX - PO LOBBY", "address": {"city": "LONGVILLE", "state": "MN", "street": "1462 COUNTY ROAD 5", "postcode": "56655"}}},
{"geometry": {"type": "Point", "coordinates": [-93.611740181, 47.5576134528]}, "type": "Feature", "properties": {"collection_times": [{"days": "Mon-Fri", "time": "4:00pm"}, {"days": "Sat", "time": "4:30pm"}, {"days": "Sun", "time": "Closed"}], "id": "5665700000", "name": "USPS COLLECTION BOX - BLUE BOX", "address": {"city": "MARCELL", "state": "MN", "street": "39370 STATE HIGHWAY 286", "postcode": "56657"}}},
{"geometry": {"type": "Point", "coordinates": [-93.611740181, 47.5576134528]}, "type": "Feature", "properties": {"collection_times": [{"days": "Mon-Fri", "time": "4:00pm"}, {"days": "Sat", "time": "9:30am"}, {"days": "Sun", "time": "Closed"}], "id": "5665700001", "name": "USPS COLLECTION BOX - PO LOBBY", "address": {"city": "MARCELL", "state": "MN", "street": "39370 STATE HIGHWAY 286", "postcode": "56657"}}},
{"geometry": {"type": "Point", "coordinates": [-93.611740181, 47.5576134528]}, "type": "Feature", "properties": {"collection_times": [{"days": "Mon-Sat", "time": "10:00am"}, {"days": "Sun", "time": "Closed"}], "id": "5665700002", "name": "USPS COLLECTION BOX - BLUE BOX", "address": {"city": "MARCELL", "state": "MN", "street": "50503 COUNTY RD 4 - MAX MN 56659", "postcode": "56657"}}},
{"geometry": {"type": "Point", "coordinates": [-93.611740181, 47.5576134528]}, "type": "Feature", "properties": {"collection_times": [{"days": "Mon-Sat", "time": "1:15pm"}, {"days": "Sun", "time": "Closed"}], "id": "5665700003", "name": "USPS COLLECTION BOX - BLUE BOX", "address": {"city": "MARCELL", "state": "MN", "street": "59926 ST HWY 6 - TALMOON MN CPO 56", "postcode": "56657"}}},
{"geometry": {"type": "Point", "coordinates": [-94.1928028899, 47.9872659445]}, "type": "Feature", "properties": {"collection_times": [{"days": "Mon-Fri", "time": "12:30pm"}, {"days": "Sat", "time": "4:30pm"}, {"days": "Sun", "time": "Closed"}], "id": "5666000000", "name": "USPS COLLECTION BOX - BLUE BOX", "address": {"city": "MIZPAH", "state": "MN", "street": "101 WOODLAND AVE", "postcode": "56660"}}},
{"geometry": {"type": "Point", "coordinates": [-94.1928028899, 47.9872659445]}, "type": "Feature", "properties": {"collection_times": [{"days": "Mon-Fri", "time": "12:30pm"}, {"days": "Sat", "time": "10:15am"}, {"days": "Sun", "time": "Closed"}], "id": "5666000001", "name": "USPS COLLECTION BOX - PO LOBBY", "address": {"city": "MIZPAH", "state": "MN", "street": "101 WOODLAND AVE", "postcode": "56660"}}},
{"geometry": {"type": "Point", "coordinates": [-94.2688762271, 47.8723725056]}, "type": "Feature", "properties": {"collection_times": [{"days": "Mon-Fri", "time": "4:00pm"}, {"days": "Sat", "time": "5:00pm"}, {"days": "Sun", "time": "Closed"}], "id": "5666100000", "name": "USPS COLLECTION BOX - BLUE BOX", "address": {"city": "NORTHOME", "state": "MN", "street": "12055 MAIN ST", "postcode": "56661"}}},
{"geometry": {"type": "Point", "coordinates": [-94.2688762271, 47.8723725056]}, "type": "Feature", "properties": {"collection_times": [{"days": "Mon-Fri", "time": "4:00pm"}, {"days": "Sat", "time": "9:00am"}, {"days": "Sun", "time": "Closed"}], "id": "5666100001", "name": "USPS COLLECTION BOX - PO LOBBY", "address": {"city": "NORTHOME", "state": "MN", "street": "12055 MAIN ST", "postcode": "56661"}}},
{"geometry": {"type": "Point", "coordinates": [-93.9434642531, 46.8193520827]}, "type": "Feature", "properties": {"collection_times": [{"days": "Mon-Sat", "time": "1:30pm"}, {"days": "Sun", "time": "Closed"}], "id": "5666200000", "name": "USPS COLLECTION BOX - BLUE BOX", "address": {"city": "OUTING", "state": "MN", "street": "420 STATE HWY 6 NE", "postcode": "56662"}}},
{"geometry": {"type": "Point", "coordinates": [-93.9434642531, 46.8193520827]}, "type": "Feature", "properties": {"collection_times": [{"days": "Mon-Fri", "time": "1:30pm"}, {"days": "Sat", "time": "10:15am"}, {"days": "Sun", "time": "Closed"}], "id": "5666200001", "name": "USPS COLLECTION BOX - PO LOBBY", "address": {"city": "OUTING", "state": "MN", "street": "420 STATE HWY 6 NE", "postcode": "56662"}}},
{"geometry": {"type": "Point", "coordinates": [-94.9713262999, 47.9795652897]}, "type": "Feature", "properties": {"collection_times": [{"days": "Mon-Sat", "time": "10:30am"}, {"days": "Sun", "time": "Closed"}], "id": "5666600001", "name": "USPS COLLECTION BOX - PO LOBBY", "address": {"city": "PONEMAH", "state": "MN", "street": "9998 LAKE ST", "postcode": "56666"}}},
{"geometry": {"type": "Point", "coordinates": [-94.9047616537, 47.6779079431]}, "type": "Feature", "properties": {"collection_times": [{"days": "Mon-Sat", "time": "12:45pm"}, {"days": "Sun", "time": "Closed"}], "id": "5666700000", "name": "USPS COLLECTION BOX - BLUE BOX", "address": {"city": "PUPOSKY", "state": "MN", "street": "1139 DURAND DR NW", "postcode": "56667"}}},
{"geometry": {"type": "Point", "coordinates": [-94.9047616537, 47.6779079431]}, "type": "Feature", "properties": {"collection_times": [{"days": "Mon-Fri", "time": "12:00pm"}, {"days": "Sat", "time": "10:00am"}, {"days": "Sun", "time": "Closed"}], "id": "5666700001", "name": "USPS COLLECTION BOX - PO LOBBY", "address": {"city": "PUPOSKY", "state": "MN", "street": "1139 DURAND DR NW", "postcode": "56667"}}},
{"geometry": {"type": "Point", "coordinates": [-93.3461968829, 48.6110758121]}, "type": "Feature", "properties": {"collection_times": [{"days": "Mon-Fri", "time": "4:00pm"}, {"days": "Sat", "time": "3:00pm"}, {"days": "Sun", "time": "Closed"}], "id": "5666800000", "name": "USPS COLLECTION BOX - BLUE BOX", "address": {"city": "RANIER", "state": "MN", "street": "3479 DULUTH ST", "postcode": "56668"}}},
{"geometry": {"type": "Point", "coordinates": [-93.3461968829, 48.6110758121]}, "type": "Feature", "properties": {"collection_times": [{"days": "Mon-Fri", "time": "12:00pm"}, {"days": "Sat", "time": "10:45am"}, {"days": "Sun", "time": "Closed"}], "id": "5666800001", "name": "USPS COLLECTION BOX - PO LOBBY", "address": {"city": "RANIER", "state": "MN", "street": "3479 DULUTH ST", "postcode": "56668"}}},
{"geometry": {"type": "Point", "coordinates": [-94.8920564417, 47.8459674542]}, "type": "Feature", "properties": {"collection_times": [{"days": "Mon-Fri", "time": "4:15pm"}, {"days": "Sat", "time": "2:00pm"}, {"days": "Sun", "time": "Closed"}], "id": "5667000000", "name": "USPS COLLECTION BOX - BLUE BOX", "address": {"city": "REDBY", "state": "MN", "street": "101 3RD ST", "postcode": "56670"}}},
{"geometry": {"type": "Point", "coordinates": [-94.8920564417, 47.8459674542]}, "type": "Feature", "properties": {"collection_times": [{"days": "Mon-Fri", "time": "4:00pm"}, {"days": "Sat", "time": "11:00am"}, {"days": "Sun", "time": "Closed"}], "id": "5667000001", "name": "USPS COLLECTION BOX - PO LOBBY", "address": {"city": "REDBY", "state": "MN", "street": "101 3RD ST", "postcode": "56670"}}},
{"geometry": {"type": "Point", "coordinates": [-95.0838084285, 47.8374242739]}, "type": "Feature", "properties": {"collection_times": [{"days": "Mon-Fri", "time": "4:15pm"}, {"days": "Sat", "time": "4:30pm"}, {"days": "Sun", "time": "Closed"}], "id": "5667100000", "name": "USPS COLLECTION BOX - BLUE BOX", "address": {"city": "REDLAKE", "state": "MN", "street": "101 HIGHWAY 1", "postcode": "56671"}}},
{"geometry": {"type": "Point", "coordinates": [-95.0838084285, 47.8374242739]}, "type": "Feature", "properties": {"collection_times": [{"days": "Mon-Fri", "time": "4:30pm"}, {"days": "Sat", "time": "12:00pm"}, {"days": "Sun", "time": "Closed"}], "id": "5667100001", "name": "USPS COLLECTION BOX - PO LOBBY", "address": {"city": "REDLAKE", "state": "MN", "street": "101 HIGHWAY 1", "postcode": "56671"}}},
{"geometry": {"type": "Point", "coordinates": [-93.915955548, 47.0562454447]}, "type": "Feature", "properties": {"collection_times": [{"days": "Mon-Fri", "time": "3:30pm"}, {"days": "Sat", "time": "4:00pm"}, {"days": "Sun", "time": "Closed"}], "id": "5667200000", "name": "USPS COLLECTION BOX - BLUE BOX", "address": {"city": "REMER", "state": "MN", "street": "117 MAIN ST E", "postcode": "56672"}}},
{"geometry": {"type": "Point", "coordinates": [-93.915955548, 47.0562454447]}, "type": "Feature", "properties": {"collection_times": [{"days": "Mon-Fri", "time": "3:30pm"}, {"days": "Sat", "time": "10:00am"}, {"days": "Sun", "time": "Closed"}], "id": "5667200002", "name": "USPS COLLECTION BOX - PO LOBBY", "address": {"city": "REMER", "state": "MN", "street": "117 MAIN ST E", "postcode": "56672"}}},
{"geometry": {"type": "Point", "coordinates": [-95.0569484879, 48.8038962292]}, "type": "Feature", "properties": {"collection_times": [{"days": "Mon-Sat", "time": "4:00pm"}, {"days": "Sun", "time": "Closed"}], "id": "5667300000", "name": "USPS COLLECTION BOX - BLUE BOX", "address": {"city": "ROOSEVELT", "state": "MN", "street": "10 N MAIN ST", "postcode": "56673"}}},
{"geometry": {"type": "Point", "coordinates": [-95.0569484879, 48.8038962292]}, "type": "Feature", "properties": {"collection_times": [{"days": "Mon-Fri", "time": "2:30pm"}, {"days": "Sat", "time": "8:00am"}, {"days": "Sun", "time": "Closed"}], "id": "5667300001", "name": "USPS COLLECTION BOX - PO LOBBY", "address": {"city": "ROOSEVELT", "state": "MN", "street": "101 MAIN ST", "postcode": "56673"}}},
{"geometry": {"type": "Point", "coordinates": [-95.2388402267, 47.4995857513]}, "type": "Feature", "properties": {"collection_times": [{"days": "Mon-Fri", "time": "4:00pm"}, {"days": "Sat", "time": "5:00pm"}, {"days": "Sun", "time": "Closed"}], "id": "5667600000", "name": "USPS COLLECTION BOX - BLUE BOX", "address": {"city": "SHEVLIN", "state": "MN", "street": "148 BROADWAY AVE S", "postcode": "56676"}}},
{"geometry": {"type": "Point", "coordinates": [-95.2388402267, 47.4995857513]}, "type": "Feature", "properties": {"collection_times": [{"days": "Mon-Fri", "time": "11:00am"}, {"days": "Sat-Sun", "time": "Closed"}], "id": "5667600001", "name": "USPS COLLECTION BOX - PO LOBBY", "address": {"city": "SHEVLIN", "state": "MN", "street": "148 BROADWAY AVE S", "postcode": "56676"}}},
{"geometry": {"type": "Point", "coordinates": [-95.1300718726, 47.4692434587]}, "type": "Feature", "properties": {"collection_times": [{"days": "Mon-Fri", "time": "3:45pm"}, {"days": "Sat", "time": "5:00pm"}, {"days": "Sun", "time": "Closed"}], "id": "5667800000", "name": "USPS COLLECTION BOX - BLUE BOX", "address": {"city": "SOLWAY", "state": "MN", "street": "218 CENTERLINE RD N", "postcode": "56678"}}},
{"geometry": {"type": "Point", "coordinates": [-95.1300718726, 47.4692434587]}, "type": "Feature", "properties": {"collection_times": [{"days": "Mon-Fri", "time": "11:00am"}, {"days": "Sat", "time": "9:00am"}, {"days": "Sun", "time": "Closed"}], "id": "5667800001", "name": "USPS COLLECTION BOX - PO LOBBY", "address": {"city": "SOLWAY", "state": "MN", "street": "218 CENTERLINE RD N", "postcode": "56678"}}},
{"geometry": {"type": "Point", "coordinates": [-93.8682494198, 47.6424903312]}, "type": "Feature", "properties": {"collection_times": [{"days": "Mon-Sat", "time": "1:00pm"}, {"days": "Sun", "time": "Closed"}], "id": "5668000000", "name": "USPS COLLECTION BOX - BLUE BOX", "address": {"city": "SPRING LAKE", "state": "MN", "street": "48501 CTY RD 4", "postcode": "56680"}}},
{"geometry": {"type": "Point", "coordinates": [-93.8682494198, 47.6424903312]}, "type": "Feature", "properties": {"collection_times": [{"days": "Mon-Sat", "time": "1:00pm"}, {"days": "Sun", "time": "Closed"}], "id": "5668000001", "name": "USPS COLLECTION BOX - PO LOBBY", "address": {"city": "SPRING LAKE", "state": "MN", "street": "48501 CTY RD 4", "postcode": "56680"}}},
{"geometry": {"type": "Point", "coordinates": [-94.1896260146, 47.6245139566]}, "type": "Feature", "properties": {"collection_times": [{"days": "Mon-Sat", "time": "11:00am"}, {"days": "Sun", "time": "Closed"}], "id": "5668100000", "name": "USPS COLLECTION BOX - BLUE BOX", "address": {"city": "SQUAW LAKE", "state": "MN", "street": "200 FRONTAGE RD", "postcode": "56681"}}},
{"geometry": {"type": "Point", "coordinates": [-94.1896260146, 47.6245139566]}, "type": "Feature", "properties": {"collection_times": [{"days": "Mon-Sat", "time": "11:00am"}, {"days": "Sun", "time": "Closed"}], "id": "5668100001", "name": "USPS COLLECTION BOX - PO LOBBY", "address": {"city": "SQUAW LAKE", "state": "MN", "street": "200 FRONTAGE RD", "postcode": "56681"}}},
{"geometry": {"type": "Point", "coordinates": [-94.6778157875, 47.6574798474]}, "type": "Feature", "properties": {"collection_times": [{"days": "Mon-Fri", "time": "5:30pm"}, {"days": "Sat", "time": "5:00pm"}, {"days": "Sun", "time": "Closed"}], "id": "5668300000", "name": "USPS COLLECTION BOX - BLUE BOX", "address": {"city": "TENSTRIKE", "state": "MN", "street": "171 3RD AVE N", "postcode": "56683"}}},
{"geometry": {"type": "Point", "coordinates": [-95.7610284463, 47.7526588193]}, "type": "Feature", "properties": {"collection_times": [{"days": "Mon-Sat", "time": "2:15pm"}, {"days": "Sun", "time": "Closed"}], "id": "5668400000", "name": "USPS COLLECTION BOX - BLUE BOX", "address": {"city": "TRAIL", "state": "MN", "street": "106 N MAIN ST", "postcode": "56684"}}},
{"geometry": {"type": "Point", "coordinates": [-94.4866453839, 48.196229321]}, "type": "Feature", "properties": {"collection_times": [{"days": "Mon-Fri", "time": "5:00pm"}, {"days": "Sat", "time": "5:30pm"}, {"days": "Sun", "time": "Closed"}], "id": "5668500000", "name": "USPS COLLECTION BOX - BLUE BOX", "address": {"city": "WASKISH", "state": "MN", "street": "54997 HIGHWAY 72 NE", "postcode": "56685"}}},
{"geometry": {"type": "Point", "coordinates": [-94.4866453839, 48.196229321]}, "type": "Feature", "properties": {"collection_times": [{"days": "Mon-Fri", "time": "2:30pm"}, {"days": "Sat", "time": "11:15am"}, {"days": "Sun", "time": "Closed"}], "id": "5668500001", "name": "USPS COLLECTION BOX - PO LOBBY", "address": {"city": "WASKISH", "state": "MN", "street": "54997 HIGHWAY 72 NE", "postcode": "56685"}}},
{"geometry": {"type": "Point", "coordinates": [-94.954932268, 48.7681827521]}, "type": "Feature", "properties": {"collection_times": [{"days": "Mon-Sat", "time": "4:00pm"}, {"days": "Sun", "time": "Closed"}], "id": "5668600000", "name": "USPS COLLECTION BOX - BLUE BOX", "address": {"city": "WILLIAMS", "state": "MN", "street": "24 MAIN ST", "postcode": "56686"}}},
{"geometry": {"type": "Point", "coordinates": [-94.954932268, 48.7681827521]}, "type": "Feature", "properties": {"collection_times": [{"days": "Mon-Fri", "time": "2:00pm"}, {"days": "Sat", "time": "10:00am"}, {"days": "Sun", "time": "Closed"}], "id": "5668600001", "name": "USPS COLLECTION BOX - PO LOBBY", "address": {"city": "WILLIAMS", "state": "MN", "street": "24 MAIN ST", "postcode": "56686"}}}
]}
