{"type": "FeatureCollection", "features": [
{"geometry": {"type": "Point", "coordinates": [-96.1800922111, 48.1172851255]}, "type": "Feature", "properties": {"collection_times": [{"days": "Mon-Sat", "time": "6:20pm"}, {"days": "Sun", "time": "Closed"}], "id": "5670100013", "name": "USPS COLLECTION BOX - BLUE BOX", "address": {"city": "THIEF RVR FLS", "state": "MN", "street": "121 LABREE AVE N", "postcode": "56701"}}},
{"geometry": {"type": "Point", "coordinates": [-96.1800922111, 48.1172851255]}, "type": "Feature", "properties": {"collection_times": [{"days": "Mon-Sat", "time": "6:20pm"}, {"days": "Sun", "time": "Closed"}], "id": "5670100014", "name": "USPS COLLECTION BOX - BLUE BOX", "address": {"city": "THIEF RVR FLS", "state": "MN", "street": "121 LABREE AVE N", "postcode": "56701"}}},
{"geometry": {"type": "Point", "coordinates": [-96.1800922111, 48.1172851255]}, "type": "Feature", "properties": {"collection_times": [{"days": "Mon-Sat", "time": "5:00pm"}, {"days": "Sun", "time": "Closed"}], "id": "5670100016", "name": "USPS COLLECTION BOX - PO LOBBY", "address": {"city": "THIEF RVR FLS", "state": "MN", "street": "121 LABREE AVE N", "postcode": "56701"}}},
{"geometry": {"type": "Point", "coordinates": [-96.160687441, 48.1168551456]}, "type": "Feature", "properties": {"collection_times": [{"days": "Mon-Sat", "time": "1:00pm"}, {"days": "Sun", "time": "Closed"}], "id": "5670100018", "name": "USPS COLLECTION BOX - BLUE BOX", "address": {"city": "THIEF RVR FLS", "state": "MN", "street": "1525 HIGHWAY 59 S", "postcode": "56701"}}},
{"geometry": {"type": "Point", "coordinates": [-96.9963104973, 48.1930260952]}, "type": "Feature", "properties": {"collection_times": [{"days": "Mon-Fri", "time": "4:15pm"}, {"days": "Sat", "time": "5:00pm"}, {"days": "Sun", "time": "Closed"}], "id": "5671000001", "name": "USPS COLLECTION BOX - BLUE BOX", "address": {"city": "ALVARADO", "state": "MN", "street": "200 MARSHALL ST", "postcode": "56710"}}},
{"geometry": {"type": "Point", "coordinates": [-96.9963104973, 48.1930260952]}, "type": "Feature", "properties": {"collection_times": [{"days": "Mon-Fri", "time": "12:00pm"}, {"days": "Sat-Sun", "time": "Closed"}], "id": "5671000002", "name": "USPS COLLECTION BOX - PO LOBBY", "address": {"city": "ALVARADO", "state": "MN", "street": "200 MARSHALL ST", "postcode": "56710"}}},
{"geometry": {"type": "Point", "coordinates": [-94.9580135443, 49.2074489003]}, "type": "Feature", "properties": {"collection_times": [{"days": "Mon-Fri", "time": "1:00pm"}, {"days": "Sat-Sun", "time": "Closed"}], "id": "5671100000", "name": "USPS COLLECTION BOX - BLUE BOX", "address": {"city": "ANGLE INLET", "state": "MN", "street": "9394 GOLF COURSE DR NW", "postcode": "56711"}}},
{"geometry": {"type": "Point", "coordinates": [-96.8186944291, 48.3336146455]}, "type": "Feature", "properties": {"collection_times": [{"days": "Mon-Fri", "time": "4:15pm"}, {"days": "Sat", "time": "5:00pm"}, {"days": "Sun", "time": "Closed"}], "id": "5671300001", "name": "USPS COLLECTION BOX - BLUE BOX", "address": {"city": "ARGYLE", "state": "MN", "street": "108 W 3RD ST", "postcode": "56713"}}},
{"geometry": {"type": "Point", "coordinates": [-96.8186944291, 48.3336146455]}, "type": "Feature", "properties": {"collection_times": [{"days": "Mon-Fri", "time": "2:30pm"}, {"days": "Sat", "time": "9:30am"}, {"days": "Sun", "time": "Closed"}], "id": "5671300002", "name": "USPS COLLECTION BOX - PO LOBBY", "address": {"city": "ARGYLE", "state": "MN", "street": "108 W 3RD ST", "postcode": "56713"}}},
{"geometry": {"type": "Point", "coordinates": [-96.0145280531, 48.7826686242]}, "type": "Feature", "properties": {"collection_times": [{"days": "Mon-Fri", "time": "4:00pm"}, {"days": "Sat", "time": "4:30pm"}, {"days": "Sun", "time": "Closed"}], "id": "5671400001", "name": "USPS COLLECTION BOX - BLUE BOX", "address": {"city": "BADGER", "state": "MN", "street": "109 N MAIN ST", "postcode": "56714"}}},
{"geometry": {"type": "Point", "coordinates": [-96.0145280531, 48.7826686242]}, "type": "Feature", "properties": {"collection_times": [{"days": "Mon-Fri", "time": "12:00pm"}, {"days": "Sat", "time": "10:00am"}, {"days": "Sun", "time": "Closed"}], "id": "5671400002", "name": "USPS COLLECTION BOX - PO LOBBY", "address": {"city": "BADGER", "state": "MN", "street": "109 N MAIN ST", "postcode": "56714"}}},
{"geometry": {"type": "Point", "coordinates": [-96.0136777994, 48.7830845344]}, "type": "Feature", "properties": {"collection_times": [{"days": "Mon-Fri", "time": "4:00pm"}, {"days": "Sat", "time": "4:15pm"}, {"days": "Sun", "time": "Closed"}], "id": "5671400004", "name": "USPS COLLECTION BOX - BLUE BOX", "address": {"city": "BADGER", "state": "MN", "street": "201 N MAIN ST", "postcode": "56714"}}},
{"geometry": {"type": "Point", "coordinates": [-96.0726785181, 47.8206866757]}, "type": "Feature", "properties": {"collection_times": [{"days": "Mon-Fri", "time": "4:10pm"}, {"days": "Sat", "time": "4:30pm"}, {"days": "Sun", "time": "Closed"}], "id": "5671500001", "name": "USPS COLLECTION BOX - BLUE BOX", "address": {"city": "BROOKS", "state": "MN", "street": "302 MAIN ST", "postcode": "56715"}}},
{"geometry": {"type": "Point", "coordinates": [-96.0023966218, 47.8146188916]}, "type": "Feature", "properties": {"collection_times": [{"days": "Mon-Fri", "time": "10:50am"}, {"days": "Sat", "time": "10:30am"}, {"days": "Sun", "time": "Closed"}], "id": "5671500002", "name": "USPS COLLECTION BOX - PO LOBBY", "address": {"city": "BROOKS", "state": "MN", "street": "302 MAIN ST", "postcode": "56715"}}},
{"geometry": {"type": "Point", "coordinates": [-95.9986498762, 47.8093337918]}, "type": "Feature", "properties": {"collection_times": [{"days": "Mon-Sat", "time": "4:30pm"}, {"days": "Sun", "time": "Closed"}], "id": "5671500003", "name": "USPS COLLECTION BOX - BLUE BOX", "address": {"city": "BROOKS", "state": "MN", "street": "701 HIGHWAY 59 S", "postcode": "56715"}}},
{"geometry": {"type": "Point", "coordinates": [-96.6076547587, 47.7729037811]}, "type": "Feature", "properties": {"collection_times": [{"days": "Mon-Fri", "time": "5:45pm"}, {"days": "Sat", "time": "4:45pm"}, {"days": "Sun", "time": "Closed"}], "id": "5671600001", "name": "USPS COLLECTION BOX - BLUE BOX", "address": {"city": "CROOKSTON", "state": "MN", "street": "202 S BROADWAY", "postcode": "56716"}}},
{"geometry": {"type": "Point", "coordinates": [-96.6104159342, 47.784934712]}, "type": "Feature", "properties": {"collection_times": [{"days": "Mon-Sat", "time": "1:30pm"}, {"days": "Sun", "time": "Closed"}], "id": "5671600011", "name": "USPS COLLECTION BOX - BLUE BOX", "address": {"city": "CROOKSTON", "state": "MN", "street": "1310 UNIVERSITY AVE", "postcode": "56716"}}},
{"geometry": {"type": "Point", "coordinates": [-96.6068832715, 47.7738416638]}, "type": "Feature", "properties": {"collection_times": [{"days": "Mon-Sat", "time": "1:30pm"}, {"days": "Sun", "time": "Closed"}], "id": "5671600013", "name": "USPS COLLECTION BOX - BLUE BOX", "address": {"city": "CROOKSTON", "state": "MN", "street": "101 N BROADWAY", "postcode": "56716"}}},
{"geometry": {"type": "Point", "coordinates": [-96.6076547587, 47.7729037811]}, "type": "Feature", "properties": {"collection_times": [{"days": "Mon-Fri", "time": "5:00pm"}, {"days": "Sat", "time": "12:00pm"}, {"days": "Sun", "time": "Closed"}], "id": "5671600019", "name": "USPS COLLECTION BOX - PO LOBBY", "address": {"city": "CROOKSTON", "state": "MN", "street": "202 S BROADWAY", "postcode": "56716"}}},
{"geometry": {"type": "Point", "coordinates": [-96.6076547587, 47.7729037811]}, "type": "Feature", "properties": {"collection_times": [{"days": "Mon-Fri", "time": "5:45pm"}, {"days": "Sat", "time": "4:45pm"}, {"days": "Sun", "time": "Closed"}], "id": "5671600020", "name": "USPS COLLECTION BOX - BLUE BOX", "address": {"city": "CROOKSTON", "state": "MN", "street": "202 S BROADWAY", "postcode": "56716"}}},
{"geometry": {"type": "Point", "coordinates": [-96.8455520075, 48.5868897888]}, "type": "Feature", "properties": {"collection_times": [{"days": "Mon-Fri", "time": "4:45pm"}, {"days": "Sat", "time": "4:00pm"}, {"days": "Sun", "time": "Closed"}], "id": "5672000001", "name": "USPS COLLECTION BOX - BLUE BOX", "address": {"city": "DONALDSON", "state": "MN", "street": "410 COMMERCIAL ST", "postcode": "56720"}}},
{"geometry": {"type": "Point", "coordinates": [-96.8455520075, 48.5868897888]}, "type": "Feature", "properties": {"collection_times": [{"days": "Mon-Fri", "time": "2:15pm"}, {"days": "Sat", "time": "11:45am"}, {"days": "Sun", "time": "Closed"}], "id": "5672000002", "name": "USPS COLLECTION BOX - PO LOBBY", "address": {"city": "DONALDSON", "state": "MN", "street": "410 COMMERCIAL ST", "postcode": "56720"}}},
{"geometry": {"type": "Point", "coordinates": [-97.0202313399, 47.9384726084]}, "type": "Feature", "properties": {"collection_times": [{"days": "Mon-Sat", "time": "2:30pm"}, {"days": "Sun", "time": "Closed"}], "id": "5672100005", "name": "USPS COLLECTION BOX - BLUE BOX", "address": {"city": "E GRAND FORKS", "state": "MN", "street": "1413 CENTRAL AVE NW", "postcode": "56721"}}},
{"geometry": {"type": "Point", "coordinates": [-97.009257081, 47.9139343805]}, "type": "Feature", "properties": {"collection_times": [{"days": "Mon-Sat", "time": "2:00pm"}, {"days": "Sun", "time": "Closed"}], "id": "5672100008", "name": "USPS COLLECTION BOX - BLUE BOX", "address": {"city": "E GRAND FORKS", "state": "MN", "street": "504 RHINEHART DR SE", "postcode": "56721"}}},
{"geometry": {"type": "Point", "coordinates": [-97.0245350996, 47.9285167786]}, "type": "Feature", "properties": {"collection_times": [{"days": "Mon-Fri", "time": "4:30pm"}, {"days": "Sat", "time": "11:30am"}, {"days": "Sun", "time": "Closed"}], "id": "5672100010", "name": "USPS COLLECTION BOX - PO LOBBY", "address": {"city": "E GRAND FORKS", "state": "MN", "street": "306 3RD ST NW", "postcode": "56721"}}},
{"geometry": {"type": "Point", "coordinates": [-97.0245350996, 47.9285167786]}, "type": "Feature", "properties": {"collection_times": [{"days": "Mon-Fri", "time": "5:00pm"}, {"days": "Sat", "time": "11:30am"}, {"days": "Sun", "time": "Closed"}], "id": "5672100012", "name": "USPS COLLECTION BOX - BLUE BOX", "address": {"city": "E GRAND FORKS", "state": "MN", "street": "306 3RD ST NW", "postcode": "56721"}}},
{"geometry": {"type": "Point", "coordinates": [-97.0245350996, 47.9285167786]}, "type": "Feature", "properties": {"collection_times": [{"days": "Mon-Fri", "time": "5:00pm"}, {"days": "Sat", "time": "11:30am"}, {"days": "Sun", "time": "Closed"}], "id": "5672100013", "name": "USPS COLLECTION BOX - BLUE BOX", "address": {"city": "E GRAND FORKS", "state": "MN", "street": "306 3RD ST NW", "postcode": "56721"}}},
{"geometry": {"type": "Point", "coordinates": [-96.800166658, 47.8007126676]}, "type": "Feature", "properties": {"collection_times": [{"days": "Mon-Fri", "time": "4:15pm"}, {"days": "Sat", "time": "5:30pm"}, {"days": "Sun", "time": "Closed"}], "id": "5672300001", "name": "USPS COLLECTION BOX - BLUE BOX", "address": {"city": "FISHER", "state": "MN", "street": "319 THOMPSON AVE", "postcode": "56723"}}},
{"geometry": {"type": "Point", "coordinates": [-96.800166658, 47.8007126676]}, "type": "Feature", "properties": {"collection_times": [{"days": "Mon-Fri", "time": "12:00pm"}, {"days": "Sat-Sun", "time": "Closed"}], "id": "5672300003", "name": "USPS COLLECTION BOX - PO LOBBY", "address": {"city": "FISHER", "state": "MN", "street": "319 THOMPSON AVE", "postcode": "56723"}}},
{"geometry": {"type": "Point", "coordinates": [-95.8078930304, 48.1440986555]}, "type": "Feature", "properties": {"collection_times": [{"days": "Mon-Fri", "time": "4:20pm"}, {"days": "Sat", "time": "3:40pm"}, {"days": "Sun", "time": "Closed"}], "id": "5672500000", "name": "USPS COLLECTION BOX - BLUE BOX", "address": {"city": "GOODRIDGE", "state": "MN", "street": "204 VAUGHN MAIN ST E", "postcode": "56725"}}},
{"geometry": {"type": "Point", "coordinates": [-95.8078930304, 48.1440986555]}, "type": "Feature", "properties": {"collection_times": [{"days": "Mon-Fri", "time": "11:30am"}, {"days": "Sat", "time": "8:50am"}, {"days": "Sun", "time": "Closed"}], "id": "5672500001", "name": "USPS COLLECTION BOX - PO LOBBY", "address": {"city": "GOODRIDGE", "state": "MN", "street": "204 VAUGHN MAIN ST E", "postcode": "56725"}}},
{"geometry": {"type": "Point", "coordinates": [-96.1831706713, 48.7001820349]}, "type": "Feature", "properties": {"collection_times": [{"days": "Mon-Fri", "time": "4:15pm"}, {"days": "Sat", "time": "4:30pm"}, {"days": "Sun", "time": "Closed"}], "id": "5672600001", "name": "USPS COLLECTION BOX - BLUE BOX", "address": {"city": "GREENBUSH", "state": "MN", "street": "136 4TH ST N", "postcode": "56726"}}},
{"geometry": {"type": "Point", "coordinates": [-96.1831706713, 48.7001820349]}, "type": "Feature", "properties": {"collection_times": [{"days": "Mon-Fri", "time": "4:15pm"}, {"days": "Sat", "time": "9:45am"}, {"days": "Sun", "time": "Closed"}], "id": "5672600003", "name": "USPS COLLECTION BOX - PO LOBBY", "address": {"city": "GREENBUSH", "state": "MN", "street": "136 4TH ST N", "postcode": "56726"}}},
{"geometry": {"type": "Point", "coordinates": [-95.5928273918, 48.279346665]}, "type": "Feature", "properties": {"collection_times": [{"days": "Mon-Fri", "time": "3:30pm"}, {"days": "Sat", "time": "3:25pm"}, {"days": "Sun", "time": "Closed"}], "id": "5672700001", "name": "USPS COLLECTION BOX - BLUE BOX", "address": {"city": "GRYGLA", "state": "MN", "street": "107 S MAIN AVE", "postcode": "56727"}}},
{"geometry": {"type": "Point", "coordinates": [-95.5928273918, 48.279346665]}, "type": "Feature", "properties": {"collection_times": [{"days": "Mon-Fri", "time": "2:30pm"}, {"days": "Sat", "time": "9:45am"}, {"days": "Sun", "time": "Closed"}], "id": "5672700002", "name": "USPS COLLECTION BOX - PO LOBBY", "address": {"city": "GRYGLA", "state": "MN", "street": "107 S MAIN AVE", "postcode": "56727"}}},
{"geometry": {"type": "Point", "coordinates": [-97.0095674294, 48.7954454]}, "type": "Feature", "properties": {"collection_times": [{"days": "Mon-Fri", "time": "4:00pm"}, {"days": "Sat", "time": "4:30pm"}, {"days": "Sun", "time": "Closed"}], "id": "5672800001", "name": "USPS COLLECTION BOX - BLUE BOX", "address": {"city": "HALLOCK", "state": "MN", "street": "105 S BIRCH AVE", "postcode": "56728"}}},
{"geometry": {"type": "Point", "coordinates": [-97.0095674294, 48.7954454]}, "type": "Feature", "properties": {"collection_times": [{"days": "Mon-Fri", "time": "4:00pm"}, {"days": "Sat", "time": "10:30am"}, {"days": "Sun", "time": "Closed"}], "id": "5672800002", "name": "USPS COLLECTION BOX - PO LOBBY", "address": {"city": "HALLOCK", "state": "MN", "street": "105 S BIRCH AVE", "postcode": "56728"}}},
{"geometry": {"type": "Point", "coordinates": [-97.094617041, 48.9207799499]}, "type": "Feature", "properties": {"collection_times": [{"days": "Mon-Sat", "time": "3:45pm"}, {"days": "Sun", "time": "Closed"}], "id": "5673100001", "name": "USPS COLLECTION BOX - BLUE BOX", "address": {"city": "HUMBOLDT", "state": "MN", "street": "301 MAIN ST", "postcode": "56731"}}},
{"geometry": {"type": "Point", "coordinates": [-97.094617041, 48.9207799499]}, "type": "Feature", "properties": {"collection_times": [{"days": "Mon-Fri", "time": "12:00pm"}, {"days": "Sat", "time": "1:00pm"}, {"days": "Sun", "time": "Closed"}], "id": "5673100002", "name": "USPS COLLECTION BOX - PO LOBBY", "address": {"city": "HUMBOLDT", "state": "MN", "street": "301 MAIN ST", "postcode": "56731"}}},
{"geometry": {"type": "Point", "coordinates": [-96.5216553, 48.578081948]}, "type": "Feature", "properties": {"collection_times": [{"days": "Mon-Fri", "time": "4:00pm"}, {"days": "Sat", "time": "4:45pm"}, {"days": "Sun", "time": "Closed"}], "id": "5673200001", "name": "USPS COLLECTION BOX - BLUE BOX", "address": {"city": "KARLSTAD", "state": "MN", "street": "107 MAIN ST S", "postcode": "56732"}}},
{"geometry": {"type": "Point", "coordinates": [-96.5216553, 48.578081948]}, "type": "Feature", "properties": {"collection_times": [{"days": "Mon-Fri", "time": "4:45pm"}, {"days": "Sat", "time": "10:15am"}, {"days": "Sun", "time": "Closed"}], "id": "5673200002", "name": "USPS COLLECTION BOX - PO LOBBY", "address": {"city": "KARLSTAD", "state": "MN", "street": "107 MAIN ST S", "postcode": "56732"}}},
{"geometry": {"type": "Point", "coordinates": [-96.9092322258, 48.6431693748]}, "type": "Feature", "properties": {"collection_times": [{"days": "Mon-Sat", "time": "4:30pm"}, {"days": "Sun", "time": "Closed"}], "id": "5673300001", "name": "USPS COLLECTION BOX - BLUE BOX", "address": {"city": "KENNEDY", "state": "MN", "street": "510 ATLANTIC AVE", "postcode": "56733"}}},
{"geometry": {"type": "Point", "coordinates": [-96.9092893902, 48.6431537221]}, "type": "Feature", "properties": {"collection_times": [{"days": "Mon-Fri", "time": "12:00pm"}, {"days": "Sat-Sun", "time": "Closed"}], "id": "5673300002", "name": "USPS COLLECTION BOX - PO LOBBY", "address": {"city": "KENNEDY", "state": "MN", "street": "510 ATLANTIC AVE", "postcode": "56733"}}},
{"geometry": {"type": "Point", "coordinates": [-96.6020138278, 48.7604074208]}, "type": "Feature", "properties": {"collection_times": [{"days": "Mon-Sat", "time": "4:30pm"}, {"days": "Sun", "time": "Closed"}], "id": "5673400001", "name": "USPS COLLECTION BOX - BLUE BOX", "address": {"city": "LAKE BRONSON", "state": "MN", "street": "101 N 1ST AVE", "postcode": "56734"}}},
{"geometry": {"type": "Point", "coordinates": [-96.6020138278, 48.7604074208]}, "type": "Feature", "properties": {"collection_times": [{"days": "Mon-Fri", "time": "12:00pm"}, {"days": "Sat", "time": "9:15am"}, {"days": "Sun", "time": "Closed"}], "id": "5673400002", "name": "USPS COLLECTION BOX - PO LOBBY", "address": {"city": "LAKE BRONSON", "state": "MN", "street": "101 N 1ST AVE", "postcode": "56734"}}},
{"geometry": {"type": "Point", "coordinates": [-96.8039553434, 48.8593087391]}, "type": "Feature", "properties": {"collection_times": [{"days": "Mon-Sat", "time": "4:00pm"}, {"days": "Sun", "time": "Closed"}], "id": "5673500001", "name": "USPS COLLECTION BOX - BLUE BOX", "address": {"city": "LANCASTER", "state": "MN", "street": "113 CENTRAL AVE S", "postcode": "56735"}}},
{"geometry": {"type": "Point", "coordinates": [-96.8039553434, 48.8593087391]}, "type": "Feature", "properties": {"collection_times": [{"days": "Mon-Fri", "time": "2:15pm"}, {"days": "Sat", "time": "9:15am"}, {"days": "Sun", "time": "Closed"}], "id": "5673500002", "name": "USPS COLLECTION BOX - PO LOBBY", "address": {"city": "LANCASTER", "state": "MN", "street": "113 CENTRAL AVE S", "postcode": "56735"}}},
{"geometry": {"type": "Point", "coordinates": [-96.1418561489, 47.6955077983]}, "type": "Feature", "properties": {"collection_times": [{"days": "Mon-Fri", "time": "4:00pm"}, {"days": "Sat", "time": "4:30pm"}, {"days": "Sun", "time": "Closed"}], "id": "5673600001", "name": "USPS COLLECTION BOX - BLUE BOX", "address": {"city": "MENTOR", "state": "MN", "street": "204 GARFIELD AVE N", "postcode": "56736"}}},
{"geometry": {"type": "Point", "coordinates": [-96.1418561489, 47.6955077983]}, "type": "Feature", "properties": {"collection_times": [{"days": "Mon-Fri", "time": "12:00pm"}, {"days": "Sat-Sun", "time": "Closed"}], "id": "5673600002", "name": "USPS COLLECTION BOX - PO LOBBY", "address": {"city": "MENTOR", "state": "MN", "street": "204 GARFIELD AVE N", "postcode": "56736"}}},
{"geometry": {"type": "Point", "coordinates": [-96.164225902, 48.4343158014]}, "type": "Feature", "properties": {"collection_times": [{"days": "Mon-Fri", "time": "4:00pm"}, {"days": "Sat", "time": "5:00pm"}, {"days": "Sun", "time": "Closed"}], "id": "5673700001", "name": "USPS COLLECTION BOX - BLUE BOX", "address": {"city": "MIDDLE RIVER", "state": "MN", "street": "208 HILL AVE S", "postcode": "56737"}}},
{"geometry": {"type": "Point", "coordinates": [-96.164225902, 48.4343158014]}, "type": "Feature", "properties": {"collection_times": [{"days": "Mon-Fri", "time": "2:30pm"}, {"days": "Sat", "time": "9:45am"}, {"days": "Sun", "time": "Closed"}], "id": "5673700002", "name": "USPS COLLECTION BOX - PO LOBBY", "address": {"city": "MIDDLE RIVER", "state": "MN", "street": "208 HILL AVE S", "postcode": "56737"}}},
{"geometry": {"type": "Point", "coordinates": [-96.32927229, 48.3564647905]}, "type": "Feature", "properties": {"collection_times": [{"days": "Mon-Sat", "time": "4:00pm"}, {"days": "Sun", "time": "Closed"}], "id": "5673800001", "name": "USPS COLLECTION BOX - BLUE BOX", "address": {"city": "NEW FOLDEN", "state": "MN", "street": "120 S MAIN ST", "postcode": "56738"}}},
{"geometry": {"type": "Point", "coordinates": [-96.32927229, 48.3564647905]}, "type": "Feature", "properties": {"collection_times": [{"days": "Mon-Fri", "time": "2:30pm"}, {"days": "Sat", "time": "10:00am"}, {"days": "Sun", "time": "Closed"}], "id": "5673800002", "name": "USPS COLLECTION BOX - PO LOBBY", "address": {"city": "NEW FOLDEN", "state": "MN", "street": "120 S MAIN ST", "postcode": "56738"}}},
{"geometry": {"type": "Point", "coordinates": [-95.8581462334, 47.839269649]}, "type": "Feature", "properties": {"collection_times": [{"days": "Mon-Fri", "time": "4:00pm"}, {"days": "Sat", "time": "5:15pm"}, {"days": "Sun", "time": "Closed"}], "id": "5674200001", "name": "USPS COLLECTION BOX - BLUE BOX", "address": {"city": "OKLEE", "state": "MN", "street": "202 2ND AVE", "postcode": "56742"}}},
{"geometry": {"type": "Point", "coordinates": [-95.8581462334, 47.839269649]}, "type": "Feature", "properties": {"collection_times": [{"days": "Mon-Fri", "time": "2:30pm"}, {"days": "Sat", "time": "10:00am"}, {"days": "Sun", "time": "Closed"}], "id": "5674200003", "name": "USPS COLLECTION BOX - PO LOBBY", "address": {"city": "OKLEE", "state": "MN", "street": "202 2ND AVE", "postcode": "56742"}}},
{"geometry": {"type": "Point", "coordinates": [-97.0962665724, 48.2109074509]}, "type": "Feature", "properties": {"collection_times": [{"days": "Mon-Fri", "time": "4:00pm"}, {"days": "Sat", "time": "6:00pm"}, {"days": "Sun", "time": "Closed"}], "id": "5674400001", "name": "USPS COLLECTION BOX - BLUE BOX", "address": {"city": "OSLO", "state": "MN", "street": "312 MAIN ST", "postcode": "56744"}}},
{"geometry": {"type": "Point", "coordinates": [-97.0962665724, 48.2109074509]}, "type": "Feature", "properties": {"collection_times": [{"days": "Mon-Fri", "time": "12:00pm"}, {"days": "Sat", "time": "9:30am"}, {"days": "Sun", "time": "Closed"}], "id": "5674400002", "name": "USPS COLLECTION BOX - PO LOBBY", "address": {"city": "OSLO", "state": "MN", "street": "312 MAIN ST", "postcode": "56744"}}},
{"geometry": {"type": "Point", "coordinates": [-95.9083809015, 47.908645385]}, "type": "Feature", "properties": {"collection_times": [{"days": "Mon-Sat", "time": "5:20pm"}, {"days": "Sun", "time": "Closed"}], "id": "5674800001", "name": "USPS COLLECTION BOX - BLUE BOX", "address": {"city": "PLUMMER", "state": "MN", "street": "210 CENTRAL AVE E", "postcode": "56748"}}},
{"geometry": {"type": "Point", "coordinates": [-95.9083809015, 47.908645385]}, "type": "Feature", "properties": {"collection_times": [{"days": "Mon-Fri", "time": "12:00pm"}, {"days": "Sat", "time": "8:55am"}, {"days": "Sun", "time": "Closed"}], "id": "5674800002", "name": "USPS COLLECTION BOX - PO LOBBY", "address": {"city": "PLUMMER", "state": "MN", "street": "210 CENTRAL AVE E", "postcode": "56748"}}},
{"geometry": {"type": "Point", "coordinates": [-96.2753710514, 47.8833514645]}, "type": "Feature", "properties": {"collection_times": [{"days": "Mon-Fri", "time": "4:30pm"}, {"days": "Sat", "time": "4:40pm"}, {"days": "Sun", "time": "Closed"}], "id": "5675000001", "name": "USPS COLLECTION BOX - BLUE BOX", "address": {"city": "RED LAKE FALLS", "state": "MN", "street": "118 CHAMPAGNE AVE SW", "postcode": "56750"}}},
{"geometry": {"type": "Point", "coordinates": [-96.2753710514, 47.8833514645]}, "type": "Feature", "properties": {"collection_times": [{"days": "Mon-Fri", "time": "4:15pm"}, {"days": "Sat", "time": "9:30am"}, {"days": "Sun", "time": "Closed"}], "id": "5675000004", "name": "USPS COLLECTION BOX - PO LOBBY", "address": {"city": "RED LAKE FALLS", "state": "MN", "street": "118 CHAMPAGNE AVE SW", "postcode": "56750"}}},
{"geometry": {"type": "Point", "coordinates": [-96.271710706, 47.887569227]}, "type": "Feature", "properties": {"collection_times": [{"days": "Mon-Sat", "time": "4:30pm"}, {"days": "Sun", "time": "Closed"}], "id": "5675000006", "name": "USPS COLLECTION BOX - BLUE BOX", "address": {"city": "RED LAKE FALLS", "state": "MN", "street": "405 BRIDGE ST NE", "postcode": "56750"}}},
{"geometry": {"type": "Point", "coordinates": [-95.7626370649, 48.8462239297]}, "type": "Feature", "properties": {"collection_times": [{"days": "Mon-Fri", "time": "5:00pm"}, {"days": "Sat", "time": "4:30pm"}, {"days": "Sun", "time": "Closed"}], "id": "5675100005", "name": "USPS COLLECTION BOX - BLUE BOX", "address": {"city": "ROSEAU", "state": "MN", "street": "114 CENTER ST E", "postcode": "56751"}}},
{"geometry": {"type": "Point", "coordinates": [-95.7626370649, 48.8462239297]}, "type": "Feature", "properties": {"collection_times": [{"days": "Mon-Fri", "time": "5:00pm"}, {"days": "Sat", "time": "4:30pm"}, {"days": "Sun", "time": "Closed"}], "id": "5675100006", "name": "USPS COLLECTION BOX - BLUE BOX", "address": {"city": "ROSEAU", "state": "MN", "street": "114 CENTER ST E", "postcode": "56751"}}},
{"geometry": {"type": "Point", "coordinates": [-95.7626370649, 48.8462239297]}, "type": "Feature", "properties": {"collection_times": [{"days": "Mon-Fri", "time": "4:30pm"}, {"days": "Sat", "time": "10:30am"}, {"days": "Sun", "time": "Closed"}], "id": "5675100013", "name": "USPS COLLECTION BOX - PO LOBBY", "address": {"city": "ROSEAU", "state": "MN", "street": "114 CENTER ST E", "postcode": "56751"}}},
{"geometry": {"type": "Point", "coordinates": [-96.214802031, 48.0137525662]}, "type": "Feature", "properties": {"collection_times": [{"days": "Mon-Fri", "time": "4:15pm"}, {"days": "Sat", "time": "4:30pm"}, {"days": "Sun", "time": "Closed"}], "id": "5675400001", "name": "USPS COLLECTION BOX - BLUE BOX", "address": {"city": "SAINT HILAIRE", "state": "MN", "street": "302 N BROADWAY", "postcode": "56754"}}},
{"geometry": {"type": "Point", "coordinates": [-96.214802031, 48.0137525662]}, "type": "Feature", "properties": {"collection_times": [{"days": "Mon-Fri", "time": "12:00pm"}, {"days": "Sat", "time": "9:50am"}, {"days": "Sun", "time": "Closed"}], "id": "5675400002", "name": "USPS COLLECTION BOX - PO LOBBY", "address": {"city": "SAINT HILAIRE", "state": "MN", "street": "302 N BROADWAY", "postcode": "56754"}}},
{"geometry": {"type": "Point", "coordinates": [-96.874762375, 48.4502816432]}, "type": "Feature", "properties": {"collection_times": [{"days": "Mon-Sat", "time": "4:30pm"}, {"days": "Sun", "time": "Closed"}], "id": "5675700001", "name": "USPS COLLECTION BOX - BLUE BOX", "address": {"city": "STEPHEN", "state": "MN", "street": "422 5TH ST", "postcode": "56757"}}},
{"geometry": {"type": "Point", "coordinates": [-96.874762375, 48.4502816432]}, "type": "Feature", "properties": {"collection_times": [{"days": "Mon-Fri", "time": "2:30pm"}, {"days": "Sat-Sun", "time": "Closed"}], "id": "5675700002", "name": "USPS COLLECTION BOX - PO LOBBY", "address": {"city": "STEPHEN", "state": "MN", "street": "422 5TH ST", "postcode": "56757"}}},
{"geometry": {"type": "Point", "coordinates": [-96.4476352334, 48.4903330638]}, "type": "Feature", "properties": {"collection_times": [{"days": "Mon-Fri", "time": "4:00pm"}, {"days": "Sat", "time": "5:15pm"}, {"days": "Sun", "time": "Closed"}], "id": "5675800001", "name": "USPS COLLECTION BOX - BLUE BOX", "address": {"city": "STRANDQUIST", "state": "MN", "street": "108 MAIN ST", "postcode": "56758"}}},
{"geometry": {"type": "Point", "coordinates": [-96.4476352334, 48.4903330638]}, "type": "Feature", "properties": {"collection_times": [{"days": "Mon-Fri", "time": "12:00pm"}, {"days": "Sat", "time": "9:30am"}, {"days": "Sun", "time": "Closed"}], "id": "5675800002", "name": "USPS COLLECTION BOX - PO LOBBY", "address": {"city": "STRANDQUIST", "state": "MN", "street": "108 MAIN ST", "postcode": "56758"}}},
{"geometry": {"type": "Point", "coordinates": [-95.9795281318, 48.5864053011]}, "type": "Feature", "properties": {"collection_times": [{"days": "Mon-Sat", "time": "5:00pm"}, {"days": "Sun", "time": "Closed"}], "id": "5675900001", "name": "USPS COLLECTION BOX - BLUE BOX", "address": {"city": "STRATHCONA", "state": "MN", "street": "111 S 1ST ST", "postcode": "56759"}}},
{"geometry": {"type": "Point", "coordinates": [-95.9795281318, 48.5864053011]}, "type": "Feature", "properties": {"collection_times": [{"days": "Mon-Fri", "time": "11:45am"}, {"days": "Sat-Sun", "time": "Closed"}], "id": "5675900002", "name": "USPS COLLECTION BOX - PO LOBBY", "address": {"city": "STRATHCONA", "state": "MN", "street": "111 S 1ST ST", "postcode": "56759"}}},
{"geometry": {"type": "Point", "coordinates": [-96.4061532816, 48.2184091802]}, "type": "Feature", "properties": {"collection_times": [{"days": "Mon-Sat", "time": "5:30pm"}, {"days": "Sun", "time": "Closed"}], "id": "5676000001", "name": "USPS COLLECTION BOX - BLUE BOX", "address": {"city": "VIKING", "state": "MN", "street": "101 N MAIN ST", "postcode": "56760"}}},
{"geometry": {"type": "Point", "coordinates": [-96.4061532816, 48.2184091802]}, "type": "Feature", "properties": {"collection_times": [{"days": "Mon-Fri", "time": "3:15pm"}, {"days": "Sat", "time": "12:25pm"}, {"days": "Sun", "time": "Closed"}], "id": "5676000002", "name": "USPS COLLECTION BOX - PO LOBBY", "address": {"city": "VIKING", "state": "MN", "street": "101 N MAIN ST", "postcode": "56760"}}},
{"geometry": {"type": "Point", "coordinates": [-95.7533036382, 48.6174991811]}, "type": "Feature", "properties": {"collection_times": [{"days": "Mon-Fri", "time": "1:30pm"}, {"days": "Sat", "time": "11:15am"}, {"days": "Sun", "time": "Closed"}], "id": "5676100001", "name": "USPS COLLECTION BOX - BLUE BOX", "address": {"city": "WANNASKA", "state": "MN", "street": "39985 181ST ST", "postcode": "56761"}}},
{"geometry": {"type": "Point", "coordinates": [-95.7533036382, 48.6174991811]}, "type": "Feature", "properties": {"collection_times": [{"days": "Mon-Sat", "time": "2:00pm"}, {"days": "Sun", "time": "Closed"}], "id": "5676100002", "name": "USPS COLLECTION BOX - PO LOBBY", "address": {"city": "WANNASKA", "state": "MN", "street": "39985 181ST ST", "postcode": "56761"}}},
{"geometry": {"type": "Point", "coordinates": [-96.7745982711, 48.196537949]}, "type": "Feature", "properties": {"collection_times": [{"days": "Mon-Sat", "time": "5:00pm"}, {"days": "Sun", "time": "Closed"}], "id": "5676200007", "name": "USPS COLLECTION BOX - BLUE BOX", "address": {"city": "WARREN", "state": "MN", "street": "520 N MINNESOTA ST", "postcode": "56762"}}},
{"geometry": {"type": "Point", "coordinates": [-96.7745982711, 48.196537949]}, "type": "Feature", "properties": {"collection_times": [{"days": "Mon-Fri", "time": "5:00pm"}, {"days": "Sat-Sun", "time": "Closed"}], "id": "5676200009", "name": "USPS COLLECTION BOX - PO LOBBY", "address": {"city": "WARREN", "state": "MN", "street": "520 N MINNESOTA ST", "postcode": "56762"}}},
{"geometry": {"type": "Point", "coordinates": [-95.3178170341, 48.9066833017]}, "type": "Feature", "properties": {"collection_times": [{"days": "Mon-Sat", "time": "4:00pm"}, {"days": "Sun", "time": "Closed"}], "id": "5676300001", "name": "USPS COLLECTION BOX - BLUE BOX", "address": {"city": "WARROAD", "state": "MN", "street": "204 MAIN AVE NE", "postcode": "56763"}}},
{"geometry": {"type": "Point", "coordinates": [-95.3178170341, 48.9066833017]}, "type": "Feature", "properties": {"collection_times": [{"days": "Mon-Sat", "time": "4:00pm"}, {"days": "Sun", "time": "Closed"}], "id": "5676300002", "name": "USPS COLLECTION BOX - BLUE BOX", "address": {"city": "WARROAD", "state": "MN", "street": "204 MAIN AVE NE", "postcode": "56763"}}},
{"geometry": {"type": "Point", "coordinates": [-95.3918573518, 48.8703264533]}, "type": "Feature", "properties": {"collection_times": [{"days": "Mon-Sat", "time": "4:15pm"}, {"days": "Sun", "time": "Closed"}], "id": "5676300004", "name": "USPS COLLECTION BOX - BLUE BOX", "address": {"city": "WARROAD", "state": "MN", "street": "32598 482ND AVE", "postcode": "56763"}}},
{"geometry": {"type": "Point", "coordinates": [-95.3178170341, 48.9066833017]}, "type": "Feature", "properties": {"collection_times": [{"days": "Mon-Fri", "time": "4:00pm"}, {"days": "Sat", "time": "10:30am"}, {"days": "Sun", "time": "Closed"}], "id": "5676300005", "name": "USPS COLLECTION BOX - PO LOBBY", "address": {"city": "WARROAD", "state": "MN", "street": "204 MAIN AVE NE", "postcode": "56763"}}}
]}
