{"type": "FeatureCollection", "features": [
{"geometry": {"type": "Point", "coordinates": [-118.3533193361, 33.9627627984]}, "type": "Feature", "properties": {"collection_times": [{"days": "Mon-Fri", "time": "3:00pm"}, {"days": "Sat-Sun", "time": "Closed"}], "id": "9030100001", "name": "USPS COLLECTION BOX - BLUE BOX", "address": {"city": "INGLEWOOD", "state": "CA", "street": "110 S LA BREA AVE", "postcode": "90301"}}},
{"geometry": {"type": "Point", "coordinates": [-119.2702268805, 36.3741071704]}, "type": "Feature", "properties": {"collection_times": [{"days": "Mon-Fri", "time": "3:00pm"}, {"days": "Sat-Sun", "time": "Closed"}], "id": "9030100004", "name": "USPS COLLECTION BOX - BLUE BOX", "address": {"city": "INGLEWOOD", "state": "CA", "street": "1 W MANCHESTER BLVD", "postcode": "90301"}}},
{"geometry": {"type": "Point", "coordinates": [-118.3544880579, 33.9567300264]}, "type": "Feature", "properties": {"collection_times": [{"days": "Mon-Fri", "time": "5:00pm"}, {"days": "Sat", "time": "3:00pm"}, {"days": "Sun", "time": "Closed"}], "id": "9030100005", "name": "USPS COLLECTION BOX - PO LOBBY", "address": {"city": "INGLEWOOD", "state": "CA", "street": "300 E HILLCREST BLVD", "postcode": "90301"}}},
{"geometry": {"type": "Point", "coordinates": [-118.3544880576, 33.9567213825]}, "type": "Feature", "properties": {"collection_times": [{"days": "Mon-Fri", "time": "5:00pm"}, {"days": "Sat", "time": "3:00pm"}, {"days": "Sun", "time": "Closed"}], "id": "9030100011", "name": "USPS COLLECTION BOX - BLUE BOX", "address": {"city": "INGLEWOOD", "state": "CA", "street": "300 E HILLCREST BLVD", "postcode": "90301"}}},
{"geometry": {"type": "Point", "coordinates": [-118.3544880576, 33.9567213825]}, "type": "Feature", "properties": {"collection_times": [{"days": "Mon-Fri", "time": "5:00pm"}, {"days": "Sat", "time": "3:00pm"}, {"days": "Sun", "time": "Closed"}], "id": "9030100014", "name": "USPS COLLECTION BOX - BLUE BOX", "address": {"city": "INGLEWOOD", "state": "CA", "street": "300 E HILLCREST BLVD", "postcode": "90301"}}},
{"geometry": {"type": "Point", "coordinates": [-118.3665578299, 33.962801836]}, "type": "Feature", "properties": {"collection_times": [{"days": "Mon-Fri", "time": "12:00pm"}, {"days": "Sat", "time": "1:00pm"}, {"days": "Sun", "time": "Closed"}], "id": "9030100016", "name": "USPS COLLECTION BOX - BLUE BOX", "address": {"city": "INGLEWOOD", "state": "CA", "street": "600 E QUEEN ST", "postcode": "90301"}}},
{"geometry": {"type": "Point", "coordinates": [-118.374347072, 33.9562322654]}, "type": "Feature", "properties": {"collection_times": [{"days": "Mon-Fri", "time": "12:00pm"}, {"days": "Sat-Sun", "time": "Closed"}], "id": "9030100027", "name": "USPS COLLECTION BOX - BLUE BOX", "address": {"city": "INGLEWOOD", "state": "CA", "street": "1044 W HILLCREST BLVD", "postcode": "90301"}}},
{"geometry": {"type": "Point", "coordinates": [-118.3549056841, 33.9564197724]}, "type": "Feature", "properties": {"collection_times": [{"days": "Mon-Fri", "time": "12:00pm"}, {"days": "Sat", "time": "1:00pm"}, {"days": "Sun", "time": "Closed"}], "id": "9030100028", "name": "USPS COLLECTION BOX - BLUE BOX", "address": {"city": "INGLEWOOD", "state": "CA", "street": "601 S GREVILLEA AVE", "postcode": "90301"}}},
{"geometry": {"type": "Point", "coordinates": [-118.3544880576, 33.9567213825]}, "type": "Feature", "properties": {"collection_times": [{"days": "Mon-Fri", "time": "12:00pm"}, {"days": "Sat", "time": "1:00pm"}, {"days": "Sun", "time": "Closed"}], "id": "9030100031", "name": "USPS COLLECTION BOX - BLUE BOX", "address": {"city": "INGLEWOOD", "state": "CA", "street": "4802 W 95TH ST", "postcode": "90301"}}},
{"geometry": {"type": "Point", "coordinates": [-118.3544880576, 33.9567213825]}, "type": "Feature", "properties": {"collection_times": [{"days": "Mon-Fri", "time": "3:00pm"}, {"days": "Sat-Sun", "time": "Closed"}], "id": "9030100032", "name": "USPS COLLECTION BOX - BLUE BOX", "address": {"city": "INGLEWOOD", "state": "CA", "street": "301 N PRAIRIE AVE", "postcode": "90301"}}},
{"geometry": {"type": "Point", "coordinates": [-118.3510336511, 33.9617343274]}, "type": "Feature", "properties": {"collection_times": [{"days": "Mon-Fri", "time": "3:00pm"}, {"days": "Sat", "time": "1:00pm"}, {"days": "Sun", "time": "Closed"}], "id": "9030100036", "name": "USPS COLLECTION BOX - BLUE BOX", "address": {"city": "INGLEWOOD", "state": "CA", "street": "330 E MANCHESTER BLVD", "postcode": "90301"}}},
{"geometry": {"type": "Point", "coordinates": [-118.3533193361, 33.9627627984]}, "type": "Feature", "properties": {"collection_times": [{"days": "Mon-Fri", "time": "3:00pm"}, {"days": "Sat-Sun", "time": "Closed"}], "id": "9030100037", "name": "USPS COLLECTION BOX - BLUE BOX", "address": {"city": "INGLEWOOD", "state": "CA", "street": "110 S LA BREA AVE", "postcode": "90301"}}},
{"geometry": {"type": "Point", "coordinates": [-118.3550391961, 33.9617980329]}, "type": "Feature", "properties": {"collection_times": [{"days": "Mon-Fri", "time": "3:00pm"}, {"days": "Sat-Sun", "time": "Closed"}], "id": "9030100044", "name": "USPS COLLECTION BOX - BLUE BOX", "address": {"city": "INGLEWOOD", "state": "CA", "street": "1 W MANCHESTER BLVD", "postcode": "90301"}}},
{"geometry": {"type": "Point", "coordinates": [-118.3544880576, 33.9567213825]}, "type": "Feature", "properties": {"collection_times": [{"days": "Mon-Fri", "time": "12:00pm"}, {"days": "Sat", "time": "1:00pm"}, {"days": "Sun", "time": "Closed"}], "id": "9030100048", "name": "USPS COLLECTION BOX - BLUE BOX", "address": {"city": "INGLEWOOD", "state": "CA", "street": "832 MYRTLE AVE", "postcode": "90301"}}},
{"geometry": {"type": "Point", "coordinates": [-118.3663981304, 33.9616721102]}, "type": "Feature", "properties": {"collection_times": [{"days": "Mon-Fri", "time": "12:00pm"}, {"days": "Sat", "time": "1:00pm"}, {"days": "Sun", "time": "Closed"}], "id": "9030100052", "name": "USPS COLLECTION BOX - BLUE BOX", "address": {"city": "INGLEWOOD", "state": "CA", "street": "601 W MANCHESTER BLVD", "postcode": "90301"}}},
{"geometry": {"type": "Point", "coordinates": [-118.3478565873, 33.949143736]}, "type": "Feature", "properties": {"collection_times": [{"days": "Mon-Fri", "time": "3:30pm"}, {"days": "Sat-Sun", "time": "Closed"}], "id": "9030100054", "name": "USPS COLLECTION BOX - BLUE BOX", "address": {"city": "INGLEWOOD", "state": "CA", "street": "555 E HARDY ST", "postcode": "90301"}}},
{"geometry": {"type": "Point", "coordinates": [-119.2702268805, 36.3741071704]}, "type": "Feature", "properties": {"collection_times": [{"days": "Mon-Fri", "time": "12:00pm"}, {"days": "Sat", "time": "1:00pm"}, {"days": "Sun", "time": "Closed"}], "id": "9030100061", "name": "USPS COLLECTION BOX - BLUE BOX", "address": {"city": "INGLEWOOD", "state": "CA", "street": "250 W ARBOR VITAE ST", "postcode": "90301"}}},
{"geometry": {"type": "Point", "coordinates": [-118.3635779562, 33.964329036]}, "type": "Feature", "properties": {"collection_times": [{"days": "Mon-Fri", "time": "12:00pm"}, {"days": "Sat", "time": "1:00pm"}, {"days": "Sun", "time": "Closed"}], "id": "9030100063", "name": "USPS COLLECTION BOX - BLUE BOX", "address": {"city": "INGLEWOOD", "state": "CA", "street": "440 W REGENT ST", "postcode": "90301"}}},
{"geometry": {"type": "Point", "coordinates": [-118.3503075685, 33.962997543]}, "type": "Feature", "properties": {"collection_times": [{"days": "Mon-Fri", "time": "12:00pm"}, {"days": "Sat", "time": "1:00pm"}, {"days": "Sun", "time": "Closed"}], "id": "9030100068", "name": "USPS COLLECTION BOX - BLUE BOX", "address": {"city": "INGLEWOOD", "state": "CA", "street": "100 N LOCUST ST", "postcode": "90301"}}},
{"geometry": {"type": "Point", "coordinates": [-118.3545874681, 33.970210708]}, "type": "Feature", "properties": {"collection_times": [{"days": "Mon-Fri", "time": "12:00pm"}, {"days": "Sat", "time": "1:00pm"}, {"days": "Sun", "time": "Closed"}], "id": "9030200002", "name": "USPS COLLECTION BOX - BLUE BOX", "address": {"city": "INGLEWOOD", "state": "CA", "street": "500 N MARKET ST", "postcode": "90302"}}},
{"geometry": {"type": "Point", "coordinates": [-118.366565808, 33.9770491791]}, "type": "Feature", "properties": {"collection_times": [{"days": "Mon-Fri", "time": "12:00pm"}, {"days": "Sat-Sun", "time": "Closed"}], "id": "9030200006", "name": "USPS COLLECTION BOX - BLUE BOX", "address": {"city": "INGLEWOOD", "state": "CA", "street": "1580 CENTINELA AVE", "postcode": "90302"}}},
{"geometry": {"type": "Point", "coordinates": [-118.3584569269, 33.9687036183]}, "type": "Feature", "properties": {"collection_times": [{"days": "Mon-Fri", "time": "12:00pm"}, {"days": "Sat-Sun", "time": "Closed"}], "id": "9030200007", "name": "USPS COLLECTION BOX - BLUE BOX", "address": {"city": "INGLEWOOD", "state": "CA", "street": "279 W BEACH AVE", "postcode": "90302"}}},
{"geometry": {"type": "Point", "coordinates": [-118.3562157047, 33.9617828047]}, "type": "Feature", "properties": {"collection_times": [{"days": "Mon-Fri", "time": "12:00pm"}, {"days": "Sat", "time": "1:00pm"}, {"days": "Sun", "time": "Closed"}], "id": "9030200010", "name": "USPS COLLECTION BOX - BLUE BOX", "address": {"city": "INGLEWOOD", "state": "CA", "street": "6803 WEST BLVD SW", "postcode": "90302"}}},
{"geometry": {"type": "Point", "coordinates": [-118.3525563276, 33.9464722705]}, "type": "Feature", "properties": {"collection_times": [{"days": "Mon-Fri", "time": "12:00pm"}, {"days": "Sat-Sun", "time": "Closed"}], "id": "9030200014", "name": "USPS COLLECTION BOX - BLUE BOX", "address": {"city": "INGLEWOOD", "state": "CA", "street": "1220 N LA BREA AVE", "postcode": "90302"}}},
{"geometry": {"type": "Point", "coordinates": [-118.363960052, 33.9794105799]}, "type": "Feature", "properties": {"collection_times": [{"days": "Mon-Fri", "time": "12:00pm"}, {"days": "Sat", "time": "1:00pm"}, {"days": "Sun", "time": "Closed"}], "id": "9030200016", "name": "USPS COLLECTION BOX - BLUE BOX", "address": {"city": "INGLEWOOD", "state": "CA", "street": "400 W FAIRVIEW BLVD", "postcode": "90302"}}},
{"geometry": {"type": "Point", "coordinates": [-118.368801903, 33.96721309]}, "type": "Feature", "properties": {"collection_times": [{"days": "Mon-Fri", "time": "12:00pm"}, {"days": "Sat-Sun", "time": "Closed"}], "id": "9030200017", "name": "USPS COLLECTION BOX - BLUE BOX", "address": {"city": "INGLEWOOD", "state": "CA", "street": "821 W HYDE PARK BLVD", "postcode": "90302"}}},
{"geometry": {"type": "Point", "coordinates": [-118.3665406646, 33.9656535012]}, "type": "Feature", "properties": {"collection_times": [{"days": "Mon-Fri", "time": "3:00pm"}, {"days": "Sat-Sun", "time": "Closed"}], "id": "9030200018", "name": "USPS COLLECTION BOX - EXPRESS", "address": {"city": "INGLEWOOD", "state": "CA", "street": "300 N OAK ST", "postcode": "90302"}}},
{"geometry": {"type": "Point", "coordinates": [-118.3556602581, 33.9748234861]}, "type": "Feature", "properties": {"collection_times": [{"days": "Mon-Fri", "time": "12:00pm"}, {"days": "Sat", "time": "1:00pm"}, {"days": "Sun", "time": "Closed"}], "id": "9030200021", "name": "USPS COLLECTION BOX - BLUE BOX", "address": {"city": "INGLEWOOD", "state": "CA", "street": "6501 WEST BLVD", "postcode": "90302"}}},
{"geometry": {"type": "Point", "coordinates": [-118.3499952214, 33.9804078143]}, "type": "Feature", "properties": {"collection_times": [{"days": "Mon-Fri", "time": "12:00pm"}, {"days": "Sat", "time": "1:00pm"}, {"days": "Sun", "time": "Closed"}], "id": "9030200023", "name": "USPS COLLECTION BOX - BLUE BOX", "address": {"city": "INGLEWOOD", "state": "CA", "street": "562 E FAIRVIEW BLVD", "postcode": "90302"}}},
{"geometry": {"type": "Point", "coordinates": [-118.3674710742, 33.9708849946]}, "type": "Feature", "properties": {"collection_times": [{"days": "Mon-Fri", "time": "12:00pm"}, {"days": "Sat", "time": "1:00pm"}, {"days": "Sun", "time": "Closed"}], "id": "9030200026", "name": "USPS COLLECTION BOX - BLUE BOX", "address": {"city": "INGLEWOOD", "state": "CA", "street": "841 GLENWAY DR", "postcode": "90302"}}},
{"geometry": {"type": "Point", "coordinates": [-118.3660905611, 33.9744930195]}, "type": "Feature", "properties": {"collection_times": [{"days": "Mon-Fri", "time": "12:00pm"}, {"days": "Sat", "time": "1:00pm"}, {"days": "Sun", "time": "Closed"}], "id": "9030200027", "name": "USPS COLLECTION BOX - BLUE BOX", "address": {"city": "INGLEWOOD", "state": "CA", "street": "524 W PLYMOUTH ST", "postcode": "90302"}}},
{"geometry": {"type": "Point", "coordinates": [-118.3311293083, 33.9377814574]}, "type": "Feature", "properties": {"collection_times": [{"days": "Mon-Fri", "time": "5:00pm"}, {"days": "Sat", "time": "1:00pm"}, {"days": "Sun", "time": "Closed"}], "id": "9030300006", "name": "USPS COLLECTION BOX - BLUE BOX", "address": {"city": "INGLEWOOD", "state": "CA", "street": "2672 W IMPERIAL HWY", "postcode": "90303"}}},
{"geometry": {"type": "Point", "coordinates": [-118.3236045899, 33.9341990712]}, "type": "Feature", "properties": {"collection_times": [{"days": "Mon-Fri", "time": "12:00pm"}, {"days": "Sat", "time": "1:00pm"}, {"days": "Sun", "time": "Closed"}], "id": "9030300009", "name": "USPS COLLECTION BOX - BLUE BOX", "address": {"city": "INGLEWOOD", "state": "CA", "street": "11038 ARDATH AVE", "postcode": "90303"}}},
{"geometry": {"type": "Point", "coordinates": [-118.3312596582, 33.9377815037]}, "type": "Feature", "properties": {"collection_times": [{"days": "Mon-Fri", "time": "12:30pm"}, {"days": "Sat", "time": "1:30pm"}, {"days": "Sun", "time": "Closed"}], "id": "9030300014", "name": "USPS COLLECTION BOX - BLUE BOX", "address": {"city": "INGLEWOOD", "state": "CA", "street": "10725 S 6TH AVE", "postcode": "90303"}}},
{"geometry": {"type": "Point", "coordinates": [-118.3253246122, 33.9309163601]}, "type": "Feature", "properties": {"collection_times": [{"days": "Mon-Fri", "time": "12:00pm"}, {"days": "Sat-Sun", "time": "Closed"}], "id": "9030300019", "name": "USPS COLLECTION BOX - BLUE BOX", "address": {"city": "INGLEWOOD", "state": "CA", "street": "2930 W IMPERIAL HWY", "postcode": "90303"}}},
{"geometry": {"type": "Point", "coordinates": [-118.3311293083, 33.9377814574]}, "type": "Feature", "properties": {"collection_times": [{"days": "Mon-Fri", "time": "12:00pm"}, {"days": "Sat-Sun", "time": "Closed"}], "id": "9030300020", "name": "USPS COLLECTION BOX - EXPRESS", "address": {"city": "INGLEWOOD", "state": "CA", "street": "2930 W IMPERIAL HWY", "postcode": "90303"}}},
{"geometry": {"type": "Point", "coordinates": [-118.3562157047, 33.9617828047]}, "type": "Feature", "properties": {"collection_times": [{"days": "Mon-Fri", "time": "5:00pm"}, {"days": "Sat-Sun", "time": "Closed"}], "id": "9030300021", "name": "USPS COLLECTION BOX - PO LOBBY", "address": {"city": "INGLEWOOD", "state": "CA", "street": "2672 W IMPERIAL HWY LBBY", "postcode": "90303"}}},
{"geometry": {"type": "Point", "coordinates": [-118.326253235, 33.9416978481]}, "type": "Feature", "properties": {"collection_times": [{"days": "Mon-Fri", "time": "12:30pm"}, {"days": "Sat", "time": "1:30pm"}, {"days": "Sun", "time": "Closed"}], "id": "9030300023", "name": "USPS COLLECTION BOX - BLUE BOX", "address": {"city": "INGLEWOOD", "state": "CA", "street": "10400 CRENSHAW BLVD", "postcode": "90303"}}},
{"geometry": {"type": "Point", "coordinates": [-118.3265489747, 33.9317952986]}, "type": "Feature", "properties": {"collection_times": [{"days": "Mon-Fri", "time": "12:00pm"}, {"days": "Sat-Sun", "time": "Closed"}], "id": "9030300024", "name": "USPS COLLECTION BOX - BLUE BOX", "address": {"city": "INGLEWOOD", "state": "CA", "street": "11305 CRENSHAW BLVD", "postcode": "90303"}}},
{"geometry": {"type": "Point", "coordinates": [-118.3439171782, 33.9370961377]}, "type": "Feature", "properties": {"collection_times": [{"days": "Mon-Fri", "time": "12:00pm"}, {"days": "Sat", "time": "1:00pm"}, {"days": "Sun", "time": "Closed"}], "id": "9030300026", "name": "USPS COLLECTION BOX - BLUE BOX", "address": {"city": "INGLEWOOD", "state": "CA", "street": "10833 S PRAIRIE AVE", "postcode": "90303"}}},
{"geometry": {"type": "Point", "coordinates": [-118.3661860578, 33.9381566603]}, "type": "Feature", "properties": {"collection_times": [{"days": "Mon-Fri", "time": "12:00pm"}, {"days": "Sat", "time": "1:00pm"}, {"days": "Sun", "time": "Closed"}], "id": "9030400007", "name": "USPS COLLECTION BOX - BLUE BOX", "address": {"city": "INGLEWOOD", "state": "CA", "street": "5012 LENNOX BLVD", "postcode": "90304"}}},
{"geometry": {"type": "Point", "coordinates": [-118.3742115744, 33.9236565409]}, "type": "Feature", "properties": {"collection_times": [{"days": "Mon-Fri", "time": "12:00pm"}, {"days": "Sat", "time": "1:00pm"}, {"days": "Sun", "time": "Closed"}], "id": "9030400008", "name": "USPS COLLECTION BOX - BLUE BOX", "address": {"city": "INGLEWOOD", "state": "CA", "street": "5359 W 120TH ST", "postcode": "90304"}}},
{"geometry": {"type": "Point", "coordinates": [-118.3483887631, 33.9382010214]}, "type": "Feature", "properties": {"collection_times": [{"days": "Mon-Fri", "time": "12:00pm"}, {"days": "Sat", "time": "1:00pm"}, {"days": "Sun", "time": "Closed"}], "id": "9030400009", "name": "USPS COLLECTION BOX - BLUE BOX", "address": {"city": "INGLEWOOD", "state": "CA", "street": "4200 LENNOX BLVD", "postcode": "90304"}}},
{"geometry": {"type": "Point", "coordinates": [-118.3292088154, 33.9580900589]}, "type": "Feature", "properties": {"collection_times": [{"days": "Mon-Fri", "time": "5:00pm"}, {"days": "Sat", "time": "2:00pm"}, {"days": "Sun", "time": "Closed"}], "id": "9030500001", "name": "USPS COLLECTION BOX - BLUE BOX", "address": {"city": "INGLEWOOD", "state": "CA", "street": "3212 W 85TH ST", "postcode": "90305"}}},
{"geometry": {"type": "Point", "coordinates": [-118.3373296631, 33.9599114978]}, "type": "Feature", "properties": {"collection_times": [{"days": "Mon-Fri", "time": "1:00pm"}, {"days": "Sat-Sun", "time": "Closed"}], "id": "9030500003", "name": "USPS COLLECTION BOX - BLUE BOX", "address": {"city": "INGLEWOOD", "state": "CA", "street": "8700 CARLTON DR", "postcode": "90305"}}},
{"geometry": {"type": "Point", "coordinates": [-118.3292088154, 33.9580900589]}, "type": "Feature", "properties": {"collection_times": [{"days": "Mon-Fri", "time": "5:00pm"}, {"days": "Sat", "time": "2:00pm"}, {"days": "Sun", "time": "Closed"}], "id": "9030500004", "name": "USPS COLLECTION BOX - BLUE BOX", "address": {"city": "INGLEWOOD", "state": "CA", "street": "3212 W 85TH ST", "postcode": "90305"}}},
{"geometry": {"type": "Point", "coordinates": [-118.3226227339, 33.9634299872]}, "type": "Feature", "properties": {"collection_times": [{"days": "Mon-Fri", "time": "1:00pm"}, {"days": "Sat", "time": "2:00pm"}, {"days": "Sun", "time": "Closed"}], "id": "9030500006", "name": "USPS COLLECTION BOX - BLUE BOX", "address": {"city": "INGLEWOOD", "state": "CA", "street": "8265 PARK CIR", "postcode": "90305"}}},
{"geometry": {"type": "Point", "coordinates": [-118.3309272326, 33.9563888006]}, "type": "Feature", "properties": {"collection_times": [{"days": "Mon-Fri", "time": "1:00pm"}, {"days": "Sat-Sun", "time": "Closed"}], "id": "9030500007", "name": "USPS COLLECTION BOX - BLUE BOX", "address": {"city": "INGLEWOOD", "state": "CA", "street": "425 KENSINGTON LN NW", "postcode": "90305"}}},
{"geometry": {"type": "Point", "coordinates": [-118.3309272326, 33.9563888006]}, "type": "Feature", "properties": {"collection_times": [{"days": "Mon-Fri", "time": "1:00pm"}, {"days": "Sat-Sun", "time": "Closed"}], "id": "9030500008", "name": "USPS COLLECTION BOX - BLUE BOX", "address": {"city": "INGLEWOOD", "state": "CA", "street": "251 SUSSEX LN NE", "postcode": "90305"}}},
{"geometry": {"type": "Point", "coordinates": [-118.3267501184, 33.9540133871]}, "type": "Feature", "properties": {"collection_times": [{"days": "Mon-Fri", "time": "1:00pm"}, {"days": "Sat-Sun", "time": "Closed"}], "id": "9030500012", "name": "USPS COLLECTION BOX - BLUE BOX", "address": {"city": "INGLEWOOD", "state": "CA", "street": "9201 CRENSHAW BLVD", "postcode": "90305"}}},
{"geometry": {"type": "Point", "coordinates": [-118.3347286014, 33.9645228052]}, "type": "Feature", "properties": {"collection_times": [{"days": "Mon-Fri", "time": "12:30pm"}, {"days": "Sat", "time": "1:30pm"}, {"days": "Sun", "time": "Closed"}], "id": "9030500014", "name": "USPS COLLECTION BOX - BLUE BOX", "address": {"city": "INGLEWOOD", "state": "CA", "street": "3020 W 82ND ST", "postcode": "90305"}}},
{"geometry": {"type": "Point", "coordinates": [-118.3292088154, 33.9580900589]}, "type": "Feature", "properties": {"collection_times": [{"days": "Mon-Fri", "time": "12:30pm"}, {"days": "Sat", "time": "1:30pm"}, {"days": "Sun", "time": "Closed"}], "id": "9030500015", "name": "USPS COLLECTION BOX - BLUE BOX", "address": {"city": "INGLEWOOD", "state": "CA", "street": "9601 S 5TH AVE", "postcode": "90305"}}},
{"geometry": {"type": "Point", "coordinates": [-118.3221211593, 33.9561760829]}, "type": "Feature", "properties": {"collection_times": [{"days": "Mon-Fri", "time": "12:30pm"}, {"days": "Sat", "time": "1:30pm"}, {"days": "Sun", "time": "Closed"}], "id": "9030500016", "name": "USPS COLLECTION BOX - BLUE BOX", "address": {"city": "INGLEWOOD", "state": "CA", "street": "9001 S 5TH AVE", "postcode": "90305"}}},
{"geometry": {"type": "Point", "coordinates": [-118.3177637582, 33.9600322929]}, "type": "Feature", "properties": {"collection_times": [{"days": "Mon-Fri", "time": "12:30pm"}, {"days": "Sat-Sun", "time": "Closed"}], "id": "9030500017", "name": "USPS COLLECTION BOX - BLUE BOX", "address": {"city": "INGLEWOOD", "state": "CA", "street": "2201 W MANCHESTER BLVD", "postcode": "90305"}}},
{"geometry": {"type": "Point", "coordinates": [-118.3284109521, 33.960870064]}, "type": "Feature", "properties": {"collection_times": [{"days": "Mon-Fri", "time": "5:00pm"}, {"days": "Sat-Sun", "time": "Closed"}], "id": "9030500018", "name": "USPS COLLECTION BOX - PO LOBBY", "address": {"city": "INGLEWOOD", "state": "CA", "street": "3212 W 85TH ST (MORINGSIDE FINANCE)", "postcode": "90305"}}}
]}
