{"type": "FeatureCollection", "features": [
{"geometry": {"type": "Point", "coordinates": [-118.4937976242, 34.0174732033]}, "type": "Feature", "properties": {"collection_times": [{"days": "Mon-Fri", "time": "5:00pm"}, {"days": "Sat", "time": "3:00pm"}, {"days": "Sun", "time": "Closed"}], "id": "9040100002", "name": "USPS COLLECTION BOX - BLUE BOX", "address": {"city": "SANTA MONICA", "state": "CA", "street": "1248 5TH ST", "postcode": "90401"}}},
{"geometry": {"type": "Point", "coordinates": [-118.4937976242, 34.0174732033]}, "type": "Feature", "properties": {"collection_times": [{"days": "Mon-Fri", "time": "5:00pm"}, {"days": "Sat", "time": "3:00pm"}, {"days": "Sun", "time": "Closed"}], "id": "9040100004", "name": "USPS COLLECTION BOX - BLUE BOX", "address": {"city": "SANTA MONICA", "state": "CA", "street": "1248 5TH ST", "postcode": "90401"}}},
{"geometry": {"type": "Point", "coordinates": [-118.4937976242, 34.0174732033]}, "type": "Feature", "properties": {"collection_times": [{"days": "Mon-Fri", "time": "5:30pm"}, {"days": "Sat", "time": "3:00pm"}, {"days": "Sun", "time": "Closed"}], "id": "9040100013", "name": "USPS COLLECTION BOX - BLUE BOX", "address": {"city": "SANTA MONICA", "state": "CA", "street": "1653 7TH ST", "postcode": "90401"}}},
{"geometry": {"type": "Point", "coordinates": [-118.4958107007, 34.0184782185]}, "type": "Feature", "properties": {"collection_times": [{"days": "Mon-Fri", "time": "5:00pm"}, {"days": "Sat", "time": "3:00pm"}, {"days": "Sun", "time": "Closed"}], "id": "9040100021", "name": "USPS COLLECTION BOX - BLUE BOX", "address": {"city": "SANTA MONICA", "state": "CA", "street": "1248 5TH ST", "postcode": "90401"}}},
{"geometry": {"type": "Point", "coordinates": [-118.4909341355, 34.0104183003]}, "type": "Feature", "properties": {"collection_times": [{"days": "Mon-Fri", "time": "4:00pm"}, {"days": "Sat-Sun", "time": "Closed"}], "id": "9040100026", "name": "USPS COLLECTION BOX - BLUE BOX", "address": {"city": "SANTA MONICA", "state": "CA", "street": "1725 MAIN ST", "postcode": "90401"}}},
{"geometry": {"type": "Point", "coordinates": [-118.4937976242, 34.0174732033]}, "type": "Feature", "properties": {"collection_times": [{"days": "Mon-Fri", "time": "5:30pm"}, {"days": "Sat", "time": "3:00pm"}, {"days": "Sun", "time": "Closed"}], "id": "9040100029", "name": "USPS COLLECTION BOX - PO LOBBY", "address": {"city": "SANTA MONICA", "state": "CA", "street": "1653 7TH ST", "postcode": "90401"}}},
{"geometry": {"type": "Point", "coordinates": [-118.4856817976, 34.0189083968]}, "type": "Feature", "properties": {"collection_times": [{"days": "Mon-Fri", "time": "4:30pm"}, {"days": "Sat", "time": "3:45pm"}, {"days": "Sun", "time": "Closed"}], "id": "9040100031", "name": "USPS COLLECTION BOX - BLUE BOX", "address": {"city": "SANTA MONICA", "state": "CA", "street": "1025 COLORADO AVE", "postcode": "90401"}}},
{"geometry": {"type": "Point", "coordinates": [-118.4998512801, 34.0178602951]}, "type": "Feature", "properties": {"collection_times": [{"days": "Mon-Fri", "time": "4:30pm"}, {"days": "Sat-Sun", "time": "Closed"}], "id": "9040100033", "name": "USPS COLLECTION BOX - BLUE BOX", "address": {"city": "SANTA MONICA", "state": "CA", "street": "201 WILSHIRE BLVD", "postcode": "90401"}}},
{"geometry": {"type": "Point", "coordinates": [-118.4917287397, 34.0166560436]}, "type": "Feature", "properties": {"collection_times": [{"days": "Mon-Fri", "time": "4:30pm"}, {"days": "Sat", "time": "2:00pm"}, {"days": "Sun", "time": "Closed"}], "id": "9040100043", "name": "USPS COLLECTION BOX - BLUE BOX", "address": {"city": "SANTA MONICA", "state": "CA", "street": "601 BROADWAY", "postcode": "90401"}}},
{"geometry": {"type": "Point", "coordinates": [-118.4898387154, 34.0207230558]}, "type": "Feature", "properties": {"collection_times": [{"days": "Mon-Fri", "time": "4:30pm"}, {"days": "Sat-Sun", "time": "Closed"}], "id": "9040100044", "name": "USPS COLLECTION BOX - BLUE BOX", "address": {"city": "SANTA MONICA", "state": "CA", "street": "919 SANTA MONICA BLVD", "postcode": "90401"}}},
{"geometry": {"type": "Point", "coordinates": [-118.4937976242, 34.0174732033]}, "type": "Feature", "properties": {"collection_times": [{"days": "Mon-Fri", "time": "4:30pm"}, {"days": "Sat", "time": "2:15pm"}, {"days": "Sun", "time": "Closed"}], "id": "9040100048", "name": "USPS COLLECTION BOX - BLUE BOX", "address": {"city": "SANTA MONICA", "state": "CA", "street": "1300 OCEAN AVE", "postcode": "90401"}}},
{"geometry": {"type": "Point", "coordinates": [-118.4980579847, 34.0193532248]}, "type": "Feature", "properties": {"collection_times": [{"days": "Mon-Fri", "time": "4:30pm"}, {"days": "Sat-Sun", "time": "Closed"}], "id": "9040100053", "name": "USPS COLLECTION BOX - BLUE BOX", "address": {"city": "SANTA MONICA", "state": "CA", "street": "401 WILSHIRE BLVD", "postcode": "90401"}}},
{"geometry": {"type": "Point", "coordinates": [-118.4904737653, 34.0186508872]}, "type": "Feature", "properties": {"collection_times": [{"days": "Mon-Fri", "time": "4:30pm"}, {"days": "Sat", "time": "2:00pm"}, {"days": "Sun", "time": "Closed"}], "id": "9040100058", "name": "USPS COLLECTION BOX - BLUE BOX", "address": {"city": "SANTA MONICA", "state": "CA", "street": "1460 LINCOLN BLVD", "postcode": "90401"}}},
{"geometry": {"type": "Point", "coordinates": [-118.4937976242, 34.0174732033]}, "type": "Feature", "properties": {"collection_times": [{"days": "Mon-Fri", "time": "5:30pm"}, {"days": "Sat", "time": "3:00pm"}, {"days": "Sun", "time": "Closed"}], "id": "9040100059", "name": "USPS COLLECTION BOX - BLUE BOX", "address": {"city": "SANTA MONICA", "state": "CA", "street": "1653 7TH ST", "postcode": "90401"}}},
{"geometry": {"type": "Point", "coordinates": [-118.4933201637, 34.0231516706]}, "type": "Feature", "properties": {"collection_times": [{"days": "Mon-Fri", "time": "4:30pm"}, {"days": "Sat", "time": "3:00pm"}, {"days": "Sun", "time": "Closed"}], "id": "9040100068", "name": "USPS COLLECTION BOX - BLUE BOX", "address": {"city": "SANTA MONICA", "state": "CA", "street": "900 WILSHIRE BLVD", "postcode": "90401"}}},
{"geometry": {"type": "Point", "coordinates": [-118.4992898752, 34.0184003089]}, "type": "Feature", "properties": {"collection_times": [{"days": "Mon-Fri", "time": "4:30pm"}, {"days": "Sat", "time": "3:00pm"}, {"days": "Sun", "time": "Closed"}], "id": "9040100070", "name": "USPS COLLECTION BOX - BLUE BOX", "address": {"city": "SANTA MONICA", "state": "CA", "street": "301 WILSHIRE BLVD", "postcode": "90401"}}},
{"geometry": {"type": "Point", "coordinates": [-118.4937976242, 34.0174732033]}, "type": "Feature", "properties": {"collection_times": [{"days": "Mon-Fri", "time": "4:00pm"}, {"days": "Sat", "time": "2:00pm"}, {"days": "Sun", "time": "Closed"}], "id": "9040100072", "name": "USPS COLLECTION BOX - BLUE BOX", "address": {"city": "SANTA MONICA", "state": "CA", "street": "408 BROADWAY", "postcode": "90401"}}},
{"geometry": {"type": "Point", "coordinates": [-118.4937976242, 34.0174732033]}, "type": "Feature", "properties": {"collection_times": [{"days": "Mon-Fri", "time": "5:30pm"}, {"days": "Sat", "time": "3:00pm"}, {"days": "Sun", "time": "Closed"}], "id": "9040100075", "name": "USPS COLLECTION BOX - APC", "address": {"city": "SANTA MONICA", "state": "CA", "street": "1653 7TH ST", "postcode": "90401"}}},
{"geometry": {"type": "Point", "coordinates": [-118.5058593595, 34.0325503724]}, "type": "Feature", "properties": {"collection_times": [{"days": "Mon-Fri", "time": "4:30pm"}, {"days": "Sat", "time": "1:00pm"}, {"days": "Sun", "time": "Closed"}], "id": "9040200001", "name": "USPS COLLECTION BOX - EXPRESS", "address": {"city": "SANTA MONICA", "state": "CA", "street": "225 26TH ST", "postcode": "90402"}}},
{"geometry": {"type": "Point", "coordinates": [-118.5081130655, 34.0316890854]}, "type": "Feature", "properties": {"collection_times": [{"days": "Mon-Fri", "time": "12:00pm"}, {"days": "Sat", "time": "1:00pm"}, {"days": "Sun", "time": "Closed"}], "id": "9040200003", "name": "USPS COLLECTION BOX - BLUE BOX", "address": {"city": "SANTA MONICA", "state": "CA", "street": "630 SAN VICENTE BLVD", "postcode": "90402"}}},
{"geometry": {"type": "Point", "coordinates": [-118.5110266935, 34.029021513]}, "type": "Feature", "properties": {"collection_times": [{"days": "Mon-Fri", "time": "12:00pm"}, {"days": "Sat", "time": "1:00pm"}, {"days": "Sun", "time": "Closed"}], "id": "9040200004", "name": "USPS COLLECTION BOX - BLUE BOX", "address": {"city": "SANTA MONICA", "state": "CA", "street": "326 SAN VICENTE BLVD", "postcode": "90402"}}},
{"geometry": {"type": "Point", "coordinates": [-118.5111744899, 34.0247986318]}, "type": "Feature", "properties": {"collection_times": [{"days": "Mon-Fri", "time": "12:00pm"}, {"days": "Sat", "time": "1:00pm"}, {"days": "Sun", "time": "Closed"}], "id": "9040200006", "name": "USPS COLLECTION BOX - BLUE BOX", "address": {"city": "SANTA MONICA", "state": "CA", "street": "101 MARGUERITA AVE", "postcode": "90402"}}},
{"geometry": {"type": "Point", "coordinates": [-118.4999234406, 34.0366149266]}, "type": "Feature", "properties": {"collection_times": [{"days": "Mon-Fri", "time": "12:00pm"}, {"days": "Sat", "time": "1:00pm"}, {"days": "Sun", "time": "Closed"}], "id": "9040200008", "name": "USPS COLLECTION BOX - BLUE BOX", "address": {"city": "SANTA MONICA", "state": "CA", "street": "1407 CARLYLE AVE", "postcode": "90402"}}},
{"geometry": {"type": "Point", "coordinates": [-118.5016261265, 34.0413853731]}, "type": "Feature", "properties": {"collection_times": [{"days": "Mon-Fri", "time": "12:00pm"}, {"days": "Sat", "time": "1:00pm"}, {"days": "Sun", "time": "Closed"}], "id": "9040200009", "name": "USPS COLLECTION BOX - BLUE BOX", "address": {"city": "SANTA MONICA", "state": "CA", "street": "1632 SAN VICENTE BLVD", "postcode": "90402"}}},
{"geometry": {"type": "Point", "coordinates": [-118.505798205, 34.036630899]}, "type": "Feature", "properties": {"collection_times": [{"days": "Mon-Fri", "time": "12:00pm"}, {"days": "Sat", "time": "1:00pm"}, {"days": "Sun", "time": "Closed"}], "id": "9040200010", "name": "USPS COLLECTION BOX - BLUE BOX", "address": {"city": "SANTA MONICA", "state": "CA", "street": "1102 SAN VICENTE BLVD", "postcode": "90402"}}},
{"geometry": {"type": "Point", "coordinates": [-118.5094214182, 34.0365120091]}, "type": "Feature", "properties": {"collection_times": [{"days": "Mon-Fri", "time": "12:00pm"}, {"days": "Sat", "time": "1:00pm"}, {"days": "Sun", "time": "Closed"}], "id": "9040200011", "name": "USPS COLLECTION BOX - BLUE BOX", "address": {"city": "SANTA MONICA", "state": "CA", "street": "656 SAN LORENZO ST", "postcode": "90402"}}},
{"geometry": {"type": "Point", "coordinates": [-118.4908111077, 34.0474307204]}, "type": "Feature", "properties": {"collection_times": [{"days": "Mon-Fri", "time": "4:30pm"}, {"days": "Sat", "time": "1:00pm"}, {"days": "Sun", "time": "Closed"}], "id": "9040200012", "name": "USPS COLLECTION BOX - BLUE BOX", "address": {"city": "SANTA MONICA", "state": "CA", "street": "225 26TH ST (CONTRACT)", "postcode": "90402"}}},
{"geometry": {"type": "Point", "coordinates": [-118.4899976858, 34.0259135606]}, "type": "Feature", "properties": {"collection_times": [{"days": "Mon-Fri", "time": "5:00pm"}, {"days": "Sat", "time": "3:45pm"}, {"days": "Sun", "time": "Closed"}], "id": "9040300001", "name": "USPS COLLECTION BOX - BLUE BOX", "address": {"city": "SANTA MONICA", "state": "CA", "street": "1217 WILSHIRE BLVD", "postcode": "90403"}}},
{"geometry": {"type": "Point", "coordinates": [-118.4899976858, 34.0259135606]}, "type": "Feature", "properties": {"collection_times": [{"days": "Mon-Fri", "time": "5:00pm"}, {"days": "Sat", "time": "3:45pm"}, {"days": "Sun", "time": "Closed"}], "id": "9040300002", "name": "USPS COLLECTION BOX - BLUE BOX", "address": {"city": "SANTA MONICA", "state": "CA", "street": "1217 WILSHIRE BLVD", "postcode": "90403"}}},
{"geometry": {"type": "Point", "coordinates": [-118.4845767419, 34.0303297226]}, "type": "Feature", "properties": {"collection_times": [{"days": "Mon-Sat", "time": "3:45pm"}, {"days": "Sun", "time": "Closed"}], "id": "9040300003", "name": "USPS COLLECTION BOX - BLUE BOX", "address": {"city": "SANTA MONICA", "state": "CA", "street": "1811 WILSHIRE BLVD", "postcode": "90403"}}},
{"geometry": {"type": "Point", "coordinates": [-118.4751960494, 34.0378582164]}, "type": "Feature", "properties": {"collection_times": [{"days": "Mon-Fri", "time": "3:45pm"}, {"days": "Sat", "time": "3:30pm"}, {"days": "Sun", "time": "Closed"}], "id": "9040300004", "name": "USPS COLLECTION BOX - BLUE BOX", "address": {"city": "SANTA MONICA", "state": "CA", "street": "2811 WILSHIRE BLVD", "postcode": "90403"}}},
{"geometry": {"type": "Point", "coordinates": [-118.4721642993, 34.0402400621]}, "type": "Feature", "properties": {"collection_times": [{"days": "Mon-Fri", "time": "3:30pm"}, {"days": "Sat-Sun", "time": "Closed"}], "id": "9040300006", "name": "USPS COLLECTION BOX - BLUE BOX", "address": {"city": "SANTA MONICA", "state": "CA", "street": "3140 WILSHIRE BLVD", "postcode": "90403"}}},
{"geometry": {"type": "Point", "coordinates": [-118.4968293113, 34.0229313308]}, "type": "Feature", "properties": {"collection_times": [{"days": "Mon-Fri", "time": "12:00pm"}, {"days": "Sat", "time": "1:00pm"}, {"days": "Sun", "time": "Closed"}], "id": "9040300007", "name": "USPS COLLECTION BOX - BLUE BOX", "address": {"city": "SANTA MONICA", "state": "CA", "street": "720 CALIFORNIA AVE", "postcode": "90403"}}},
{"geometry": {"type": "Point", "coordinates": [-118.4772200922, 34.0362174523]}, "type": "Feature", "properties": {"collection_times": [{"days": "Mon-Sat", "time": "3:30pm"}, {"days": "Sun", "time": "Closed"}], "id": "9040300008", "name": "USPS COLLECTION BOX - BLUE BOX", "address": {"city": "SANTA MONICA", "state": "CA", "street": "2600 WILSHIRE BLVD", "postcode": "90403"}}},
{"geometry": {"type": "Point", "coordinates": [-118.4899976858, 34.0259135606]}, "type": "Feature", "properties": {"collection_times": [{"days": "Mon-Fri", "time": "5:00pm"}, {"days": "Sat", "time": "3:45pm"}, {"days": "Sun", "time": "Closed"}], "id": "9040300009", "name": "USPS COLLECTION BOX - BLUE BOX", "address": {"city": "SANTA MONICA", "state": "CA", "street": "1217 WILSHIRE BLVD", "postcode": "90403"}}},
{"geometry": {"type": "Point", "coordinates": [-118.4721642993, 34.0402400621]}, "type": "Feature", "properties": {"collection_times": [{"days": "Mon-Fri", "time": "3:30pm"}, {"days": "Sat-Sun", "time": "Closed"}], "id": "9040300013", "name": "USPS COLLECTION BOX - BLUE BOX", "address": {"city": "SANTA MONICA", "state": "CA", "street": "3140 WILSHIRE BLVD", "postcode": "90403"}}},
{"geometry": {"type": "Point", "coordinates": [-118.4935369239, 34.0284226171]}, "type": "Feature", "properties": {"collection_times": [{"days": "Mon-Fri", "time": "4:00pm"}, {"days": "Sat", "time": "2:00pm"}, {"days": "Sun", "time": "Closed"}], "id": "9040300016", "name": "USPS COLLECTION BOX - BLUE BOX", "address": {"city": "SANTA MONICA", "state": "CA", "street": "1630 MONTANA AVE", "postcode": "90403"}}},
{"geometry": {"type": "Point", "coordinates": [-118.4954700014, 34.031890664]}, "type": "Feature", "properties": {"collection_times": [{"days": "Mon-Fri", "time": "4:00pm"}, {"days": "Sat", "time": "2:00pm"}, {"days": "Sun", "time": "Closed"}], "id": "9040300018", "name": "USPS COLLECTION BOX - BLUE BOX", "address": {"city": "SANTA MONICA", "state": "CA", "street": "1340 MONTANA AVE", "postcode": "90403"}}},
{"geometry": {"type": "Point", "coordinates": [-118.5043559879, 34.0247616777]}, "type": "Feature", "properties": {"collection_times": [{"days": "Mon-Fri", "time": "12:00pm"}, {"days": "Sat", "time": "1:00pm"}, {"days": "Sun", "time": "Closed"}], "id": "9040300019", "name": "USPS COLLECTION BOX - BLUE BOX", "address": {"city": "SANTA MONICA", "state": "CA", "street": "402 MONTANA AVE", "postcode": "90403"}}},
{"geometry": {"type": "Point", "coordinates": [-118.5043920804, 34.0195685938]}, "type": "Feature", "properties": {"collection_times": [{"days": "Mon-Fri", "time": "12:00pm"}, {"days": "Sat", "time": "1:00pm"}, {"days": "Sun", "time": "Closed"}], "id": "9040300020", "name": "USPS COLLECTION BOX - BLUE BOX", "address": {"city": "SANTA MONICA", "state": "CA", "street": "101 WASHINGTON AVE", "postcode": "90403"}}},
{"geometry": {"type": "Point", "coordinates": [-118.5074090188, 34.022253152]}, "type": "Feature", "properties": {"collection_times": [{"days": "Mon-Fri", "time": "12:00pm"}, {"days": "Sat", "time": "1:00pm"}, {"days": "Sun", "time": "Closed"}], "id": "9040300021", "name": "USPS COLLECTION BOX - BLUE BOX", "address": {"city": "SANTA MONICA", "state": "CA", "street": "102 MONTANA AVE", "postcode": "90403"}}},
{"geometry": {"type": "Point", "coordinates": [-118.4935369239, 34.0284226171]}, "type": "Feature", "properties": {"collection_times": [{"days": "Mon-Fri", "time": "3:45pm"}, {"days": "Sat-Sun", "time": "Closed"}], "id": "9040300022", "name": "USPS COLLECTION BOX - EXPRESS", "address": {"city": "SANTA MONICA", "state": "CA", "street": "2811 WILSHIRE BLVD", "postcode": "90403"}}},
{"geometry": {"type": "Point", "coordinates": [-118.4845767419, 34.0303297226]}, "type": "Feature", "properties": {"collection_times": [{"days": "Mon-Sat", "time": "3:45pm"}, {"days": "Sun", "time": "Closed"}], "id": "9040300023", "name": "USPS COLLECTION BOX - BLUE BOX", "address": {"city": "SANTA MONICA", "state": "CA", "street": "1811 WILSHIRE BLVD", "postcode": "90403"}}},
{"geometry": {"type": "Point", "coordinates": [-118.4983465303, 34.0295519428]}, "type": "Feature", "properties": {"collection_times": [{"days": "Mon-Fri", "time": "4:00pm"}, {"days": "Sat", "time": "2:00pm"}, {"days": "Sun", "time": "Closed"}], "id": "9040300025", "name": "USPS COLLECTION BOX - BLUE BOX", "address": {"city": "SANTA MONICA", "state": "CA", "street": "1034 MONTANA AVE", "postcode": "90403"}}},
{"geometry": {"type": "Point", "coordinates": [-118.4816443587, 34.0326330867]}, "type": "Feature", "properties": {"collection_times": [{"days": "Mon-Sat", "time": "3:30pm"}, {"days": "Sun", "time": "Closed"}], "id": "9040300026", "name": "USPS COLLECTION BOX - BLUE BOX", "address": {"city": "SANTA MONICA", "state": "CA", "street": "2122 WILSHIRE BLVD", "postcode": "90403"}}},
{"geometry": {"type": "Point", "coordinates": [-118.4841156747, 34.0412405532]}, "type": "Feature", "properties": {"collection_times": [{"days": "Mon-Fri", "time": "12:00pm"}, {"days": "Sat", "time": "1:00pm"}, {"days": "Sun", "time": "Closed"}], "id": "9040300027", "name": "USPS COLLECTION BOX - BLUE BOX", "address": {"city": "SANTA MONICA", "state": "CA", "street": "2551 MONTANA AVE", "postcode": "90403"}}},
{"geometry": {"type": "Point", "coordinates": [-118.5019365565, 34.0266521633]}, "type": "Feature", "properties": {"collection_times": [{"days": "Mon-Fri", "time": "4:00pm"}, {"days": "Sat", "time": "2:00pm"}, {"days": "Sun", "time": "Closed"}], "id": "9040300029", "name": "USPS COLLECTION BOX - BLUE BOX", "address": {"city": "SANTA MONICA", "state": "CA", "street": "666 MONTANA AVE", "postcode": "90403"}}},
{"geometry": {"type": "Point", "coordinates": [-118.4935369239, 34.0284226171]}, "type": "Feature", "properties": {"collection_times": [{"days": "Mon-Fri", "time": "5:00pm"}, {"days": "Sat", "time": "3:45pm"}, {"days": "Sun", "time": "Closed"}], "id": "9040300031", "name": "USPS COLLECTION BOX - EXPRESS", "address": {"city": "SANTA MONICA", "state": "CA", "street": "1217 WILSHIRE BLVD", "postcode": "90403"}}},
{"geometry": {"type": "Point", "coordinates": [-118.4935369239, 34.0284226171]}, "type": "Feature", "properties": {"collection_times": [{"days": "Mon-Fri", "time": "3:45pm"}, {"days": "Sat-Sun", "time": "Closed"}], "id": "9040300032", "name": "USPS COLLECTION BOX - EXPRESS", "address": {"city": "SANTA MONICA", "state": "CA", "street": "1811 WILSHIRE BLVD", "postcode": "90403"}}},
{"geometry": {"type": "Point", "coordinates": [-118.4816408098, 34.0326354526]}, "type": "Feature", "properties": {"collection_times": [{"days": "Mon-Fri", "time": "3:45pm"}, {"days": "Sat-Sun", "time": "Closed"}], "id": "9040300036", "name": "USPS COLLECTION BOX - BLUE BOX", "address": {"city": "SANTA MONICA", "state": "CA", "street": "2121 WILSHIRE BLVD", "postcode": "90403"}}},
{"geometry": {"type": "Point", "coordinates": [-118.4816408098, 34.0326354526]}, "type": "Feature", "properties": {"collection_times": [{"days": "Mon-Fri", "time": "3:45pm"}, {"days": "Sat-Sun", "time": "Closed"}], "id": "9040300037", "name": "USPS COLLECTION BOX - BLUE BOX", "address": {"city": "SANTA MONICA", "state": "CA", "street": "2121 WILSHIRE BLVD", "postcode": "90403"}}},
{"geometry": {"type": "Point", "coordinates": [-118.4935369239, 34.0284226171]}, "type": "Feature", "properties": {"collection_times": [{"days": "Mon-Fri", "time": "3:45pm"}, {"days": "Sat", "time": "3:30pm"}, {"days": "Sun", "time": "Closed"}], "id": "9040300039", "name": "USPS COLLECTION BOX - BLUE BOX", "address": {"city": "SANTA MONICA", "state": "CA", "street": "3027 WILSHIRE BLVD", "postcode": "90403"}}},
{"geometry": {"type": "Point", "coordinates": [-118.4845767419, 34.0303297226]}, "type": "Feature", "properties": {"collection_times": [{"days": "Mon-Sat", "time": "3:45pm"}, {"days": "Sun", "time": "Closed"}], "id": "9040300041", "name": "USPS COLLECTION BOX - BLUE BOX", "address": {"city": "SANTA MONICA", "state": "CA", "street": "1811 WILSHIRE BLVD", "postcode": "90403"}}},
{"geometry": {"type": "Point", "coordinates": [-118.4899976858, 34.0259135606]}, "type": "Feature", "properties": {"collection_times": [{"days": "Mon-Fri", "time": "5:00pm"}, {"days": "Sat", "time": "3:45pm"}, {"days": "Sun", "time": "Closed"}], "id": "9040300042", "name": "USPS COLLECTION BOX - PO LOBBY", "address": {"city": "SANTA MONICA", "state": "CA", "street": "1217 WILSHIRE BLVD LBBY", "postcode": "90403"}}},
{"geometry": {"type": "Point", "coordinates": [-118.4899976858, 34.0259135606]}, "type": "Feature", "properties": {"collection_times": [{"days": "Mon-Fri", "time": "5:00pm"}, {"days": "Sat", "time": "3:45pm"}, {"days": "Sun", "time": "Closed"}], "id": "9040300043", "name": "USPS COLLECTION BOX - PO LOBBY", "address": {"city": "SANTA MONICA", "state": "CA", "street": "1217 WILSHIRE BLVD LBBY", "postcode": "90403"}}},
{"geometry": {"type": "Point", "coordinates": [-118.4772200922, 34.0362174523]}, "type": "Feature", "properties": {"collection_times": [{"days": "Mon-Sat", "time": "3:30pm"}, {"days": "Sun", "time": "Closed"}], "id": "9040300044", "name": "USPS COLLECTION BOX - BLUE BOX", "address": {"city": "SANTA MONICA", "state": "CA", "street": "2600 WILSHIRE BLVD", "postcode": "90403"}}},
{"geometry": {"type": "Point", "coordinates": [-118.4899976858, 34.0259135606]}, "type": "Feature", "properties": {"collection_times": [{"days": "Mon-Fri", "time": "5:00pm"}, {"days": "Sat", "time": "3:45pm"}, {"days": "Sun", "time": "Closed"}], "id": "9040300045", "name": "USPS COLLECTION BOX - APC", "address": {"city": "SANTA MONICA", "state": "CA", "street": "1217 WILSHIRE BLVD LBBY", "postcode": "90403"}}},
{"geometry": {"type": "Point", "coordinates": [-118.4711361413, 34.0357939994]}, "type": "Feature", "properties": {"collection_times": [{"days": "Mon-Fri", "time": "3:30pm"}, {"days": "Sat", "time": "2:00pm"}, {"days": "Sun", "time": "Closed"}], "id": "9040400004", "name": "USPS COLLECTION BOX - BLUE BOX", "address": {"city": "SANTA MONICA", "state": "CA", "street": "2930 SANTA MONICA BLVD", "postcode": "90404"}}},
{"geometry": {"type": "Point", "coordinates": [-118.4613168789, 34.033075064]}, "type": "Feature", "properties": {"collection_times": [{"days": "Mon-Fri", "time": "4:30pm"}, {"days": "Sat", "time": "4:15pm"}, {"days": "Sun", "time": "Closed"}], "id": "9040400006", "name": "USPS COLLECTION BOX - BLUE BOX", "address": {"city": "SANTA MONICA", "state": "CA", "street": "1815 CENTINELA AVE", "postcode": "90404"}}},
{"geometry": {"type": "Point", "coordinates": [-118.4747273951, 34.0278403864]}, "type": "Feature", "properties": {"collection_times": [{"days": "Mon-Fri", "time": "3:30pm"}, {"days": "Sat-Sun", "time": "Closed"}], "id": "9040400010", "name": "USPS COLLECTION BOX - BLUE BOX", "address": {"city": "SANTA MONICA", "state": "CA", "street": "2925 SANTA MONICA BLVD", "postcode": "90404"}}},
{"geometry": {"type": "Point", "coordinates": [-118.4691858706, 34.0373554825]}, "type": "Feature", "properties": {"collection_times": [{"days": "Mon-Fri", "time": "3:30pm"}, {"days": "Sat", "time": "1:30pm"}, {"days": "Sun", "time": "Closed"}], "id": "9040400011", "name": "USPS COLLECTION BOX - BLUE BOX", "address": {"city": "SANTA MONICA", "state": "CA", "street": "3136 SANTA MONICA BLVD", "postcode": "90404"}}},
{"geometry": {"type": "Point", "coordinates": [-118.4748659858, 34.0327957497]}, "type": "Feature", "properties": {"collection_times": [{"days": "Mon-Fri", "time": "3:30pm"}, {"days": "Sat", "time": "1:30pm"}, {"days": "Sun", "time": "Closed"}], "id": "9040400012", "name": "USPS COLLECTION BOX - BLUE BOX", "address": {"city": "SANTA MONICA", "state": "CA", "street": "2530 SANTA MONICA BLVD", "postcode": "90404"}}},
{"geometry": {"type": "Point", "coordinates": [-118.4797433436, 34.0288961193]}, "type": "Feature", "properties": {"collection_times": [{"days": "Mon-Fri", "time": "4:30pm"}, {"days": "Sat", "time": "1:45pm"}, {"days": "Sun", "time": "Closed"}], "id": "9040400015", "name": "USPS COLLECTION BOX - BLUE BOX", "address": {"city": "SANTA MONICA", "state": "CA", "street": "2001 SANTA MONICA BLVD", "postcode": "90404"}}},
{"geometry": {"type": "Point", "coordinates": [-118.4877709032, 34.0224064064]}, "type": "Feature", "properties": {"collection_times": [{"days": "Mon-Fri", "time": "4:30pm"}, {"days": "Sat", "time": "1:15pm"}, {"days": "Sun", "time": "Closed"}], "id": "9040400016", "name": "USPS COLLECTION BOX - BLUE BOX", "address": {"city": "SANTA MONICA", "state": "CA", "street": "1130 SANTA MONICA BLVD SW", "postcode": "90404"}}},
{"geometry": {"type": "Point", "coordinates": [-118.4816610897, 34.0190185534]}, "type": "Feature", "properties": {"collection_times": [{"days": "Mon-Fri", "time": "4:30pm"}, {"days": "Sat-Sun", "time": "Closed"}], "id": "9040400018", "name": "USPS COLLECTION BOX - BLUE BOX", "address": {"city": "SANTA MONICA", "state": "CA", "street": "1299 OLYMPIC BLVD", "postcode": "90404"}}},
{"geometry": {"type": "Point", "coordinates": [-118.4665183851, 34.0308341719]}, "type": "Feature", "properties": {"collection_times": [{"days": "Mon-Fri", "time": "4:30pm"}, {"days": "Sat-Sun", "time": "Closed"}], "id": "9040400019", "name": "USPS COLLECTION BOX - BLUE BOX", "address": {"city": "SANTA MONICA", "state": "CA", "street": "1735 STEWART ST", "postcode": "90404"}}},
{"geometry": {"type": "Point", "coordinates": [-118.4631763944, 34.0319815012]}, "type": "Feature", "properties": {"collection_times": [{"days": "Mon-Fri", "time": "4:30pm"}, {"days": "Sat-Sun", "time": "Closed"}], "id": "9040400020", "name": "USPS COLLECTION BOX - BLUE BOX", "address": {"city": "SANTA MONICA", "state": "CA", "street": "3101 NEBRASKA AVE", "postcode": "90404"}}},
{"geometry": {"type": "Point", "coordinates": [-118.4727960554, 34.0294249852]}, "type": "Feature", "properties": {"collection_times": [{"days": "Mon-Fri", "time": "4:30pm"}, {"days": "Sat-Sun", "time": "Closed"}], "id": "9040400023", "name": "USPS COLLECTION BOX - BLUE BOX", "address": {"city": "SANTA MONICA", "state": "CA", "street": "2425 COLORADO AVE", "postcode": "90404"}}},
{"geometry": {"type": "Point", "coordinates": [-118.4797701432, 34.0314205773]}, "type": "Feature", "properties": {"collection_times": [{"days": "Mon-Sat", "time": "3:30pm"}, {"days": "Sun", "time": "Closed"}], "id": "9040400025", "name": "USPS COLLECTION BOX - BLUE BOX", "address": {"city": "SANTA MONICA", "state": "CA", "street": "2202 ARIZONA AVE", "postcode": "90404"}}},
{"geometry": {"type": "Point", "coordinates": [-118.4815225353, 34.030008438]}, "type": "Feature", "properties": {"collection_times": [{"days": "Mon-Fri", "time": "3:30pm"}, {"days": "Sat-Sun", "time": "Closed"}], "id": "9040400026", "name": "USPS COLLECTION BOX - BLUE BOX", "address": {"city": "SANTA MONICA", "state": "CA", "street": "2000 ARIZONA AVE", "postcode": "90404"}}},
{"geometry": {"type": "Point", "coordinates": [-118.4747273951, 34.0278403864]}, "type": "Feature", "properties": {"collection_times": [{"days": "Mon-Fri", "time": "4:30pm"}, {"days": "Sat", "time": "4:00pm"}, {"days": "Sun", "time": "Closed"}], "id": "9040400027", "name": "USPS COLLECTION BOX - BLUE BOX", "address": {"city": "SANTA MONICA", "state": "CA", "street": "2700 COLORADO AVE", "postcode": "90404"}}},
{"geometry": {"type": "Point", "coordinates": [-118.476443504, 34.029052356]}, "type": "Feature", "properties": {"collection_times": [{"days": "Mon-Fri", "time": "12:00pm"}, {"days": "Sat", "time": "1:00pm"}, {"days": "Sun", "time": "Closed"}], "id": "9040400029", "name": "USPS COLLECTION BOX - BLUE BOX", "address": {"city": "SANTA MONICA", "state": "CA", "street": "2227 BROADWAY", "postcode": "90404"}}},
{"geometry": {"type": "Point", "coordinates": [-118.4747273951, 34.0278403864]}, "type": "Feature", "properties": {"collection_times": [{"days": "Mon-Fri", "time": "4:30pm"}, {"days": "Sat-Sun", "time": "Closed"}], "id": "9040400031", "name": "USPS COLLECTION BOX - EXPRESS", "address": {"city": "SANTA MONICA", "state": "CA", "street": "3101 NEBRASKA AVE", "postcode": "90404"}}},
{"geometry": {"type": "Point", "coordinates": [-118.4613168789, 34.033075064]}, "type": "Feature", "properties": {"collection_times": [{"days": "Mon-Fri", "time": "4:30pm"}, {"days": "Sat", "time": "4:15pm"}, {"days": "Sun", "time": "Closed"}], "id": "9040400034", "name": "USPS COLLECTION BOX - BLUE BOX", "address": {"city": "SANTA MONICA", "state": "CA", "street": "1815 CENTINELA AVE", "postcode": "90404"}}},
{"geometry": {"type": "Point", "coordinates": [-118.4727960554, 34.0294249852]}, "type": "Feature", "properties": {"collection_times": [{"days": "Mon-Fri", "time": "4:30pm"}, {"days": "Sat-Sun", "time": "Closed"}], "id": "9040400035", "name": "USPS COLLECTION BOX - BLUE BOX", "address": {"city": "SANTA MONICA", "state": "CA", "street": "2425 COLORADO AVE", "postcode": "90404"}}},
{"geometry": {"type": "Point", "coordinates": [-118.4727960554, 34.0294249852]}, "type": "Feature", "properties": {"collection_times": [{"days": "Mon-Fri", "time": "4:30pm"}, {"days": "Sat-Sun", "time": "Closed"}], "id": "9040400037", "name": "USPS COLLECTION BOX - BLUE BOX", "address": {"city": "SANTA MONICA", "state": "CA", "street": "2425 COLORADO AVE", "postcode": "90404"}}},
{"geometry": {"type": "Point", "coordinates": [-118.476158931, 34.0314289792]}, "type": "Feature", "properties": {"collection_times": [{"days": "Mon-Fri", "time": "4:30pm"}, {"days": "Sat", "time": "1:30pm"}, {"days": "Sun", "time": "Closed"}], "id": "9040400045", "name": "USPS COLLECTION BOX - BLUE BOX", "address": {"city": "SANTA MONICA", "state": "CA", "street": "1401 24TH ST", "postcode": "90404"}}},
{"geometry": {"type": "Point", "coordinates": [-118.4683636807, 34.0271707156]}, "type": "Feature", "properties": {"collection_times": [{"days": "Mon-Fri", "time": "12:30pm"}, {"days": "Sat", "time": "4:15pm"}, {"days": "Sun", "time": "Closed"}], "id": "9040400046", "name": "USPS COLLECTION BOX - BLUE BOX", "address": {"city": "SANTA MONICA", "state": "CA", "street": "2525 MICHIGAN AVE", "postcode": "90404"}}},
{"geometry": {"type": "Point", "coordinates": [-118.4797433436, 34.0288961193]}, "type": "Feature", "properties": {"collection_times": [{"days": "Mon-Fri", "time": "4:30pm"}, {"days": "Sat", "time": "1:45pm"}, {"days": "Sun", "time": "Closed"}], "id": "9040400047", "name": "USPS COLLECTION BOX - BLUE BOX", "address": {"city": "SANTA MONICA", "state": "CA", "street": "2001 SANTA MONICA BLVD", "postcode": "90404"}}},
{"geometry": {"type": "Point", "coordinates": [-118.4856971761, 34.0272529893]}, "type": "Feature", "properties": {"collection_times": [{"days": "Mon-Fri", "time": "3:30pm"}, {"days": "Sat", "time": "2:00pm"}, {"days": "Sun", "time": "Closed"}], "id": "9040400048", "name": "USPS COLLECTION BOX - BLUE BOX", "address": {"city": "SANTA MONICA", "state": "CA", "street": "1245 16TH ST", "postcode": "90404"}}},
{"geometry": {"type": "Point", "coordinates": [-118.4683636807, 34.0271707156]}, "type": "Feature", "properties": {"collection_times": [{"days": "Mon-Fri", "time": "12:30pm"}, {"days": "Sat", "time": "4:15pm"}, {"days": "Sun", "time": "Closed"}], "id": "9040400050", "name": "USPS COLLECTION BOX - BLUE BOX", "address": {"city": "SANTA MONICA", "state": "CA", "street": "2525 MICHIGAN AVE", "postcode": "90404"}}},
{"geometry": {"type": "Point", "coordinates": [-118.4727960554, 34.0294249852]}, "type": "Feature", "properties": {"collection_times": [{"days": "Mon-Fri", "time": "4:30pm"}, {"days": "Sat-Sun", "time": "Closed"}], "id": "9040400051", "name": "USPS COLLECTION BOX - BLUE BOX", "address": {"city": "SANTA MONICA", "state": "CA", "street": "2425 COLORADO AVE", "postcode": "90404"}}},
{"geometry": {"type": "Point", "coordinates": [-118.4815225353, 34.030008438]}, "type": "Feature", "properties": {"collection_times": [{"days": "Mon-Fri", "time": "3:30pm"}, {"days": "Sat-Sun", "time": "Closed"}], "id": "9040400061", "name": "USPS COLLECTION BOX - BLUE BOX", "address": {"city": "SANTA MONICA", "state": "CA", "street": "2000 ARIZONA AVE", "postcode": "90404"}}},
{"geometry": {"type": "Point", "coordinates": [-118.4847543578, 34.003160847]}, "type": "Feature", "properties": {"collection_times": [{"days": "Mon-Fri", "time": "4:30pm"}, {"days": "Sat", "time": "2:00pm"}, {"days": "Sun", "time": "Closed"}], "id": "9040500001", "name": "USPS COLLECTION BOX - BLUE BOX", "address": {"city": "SANTA MONICA", "state": "CA", "street": "2510 MAIN ST", "postcode": "90405"}}},
{"geometry": {"type": "Point", "coordinates": [-118.451721978, 34.0213650274]}, "type": "Feature", "properties": {"collection_times": [{"days": "Mon-Fri", "time": "4:45pm"}, {"days": "Sat", "time": "2:00pm"}, {"days": "Sun", "time": "Closed"}], "id": "9040500007", "name": "USPS COLLECTION BOX - BLUE BOX", "address": {"city": "SANTA MONICA", "state": "CA", "street": "3231 OCEAN PARK BLVD", "postcode": "90405"}}},
{"geometry": {"type": "Point", "coordinates": [-118.4531969815, 34.0202432789]}, "type": "Feature", "properties": {"collection_times": [{"days": "Mon-Fri", "time": "4:45pm"}, {"days": "Sat", "time": "2:00pm"}, {"days": "Sun", "time": "Closed"}], "id": "9040500008", "name": "USPS COLLECTION BOX - BLUE BOX", "address": {"city": "SANTA MONICA", "state": "CA", "street": "3102 OCEAN PARK BLVD", "postcode": "90405"}}},
{"geometry": {"type": "Point", "coordinates": [-118.451721978, 34.0213650274]}, "type": "Feature", "properties": {"collection_times": [{"days": "Mon-Fri", "time": "4:45pm"}, {"days": "Sat", "time": "2:00pm"}, {"days": "Sun", "time": "Closed"}], "id": "9040500010", "name": "USPS COLLECTION BOX - BLUE BOX", "address": {"city": "SANTA MONICA", "state": "CA", "street": "3231 OCEAN PARK BLVD", "postcode": "90405"}}},
{"geometry": {"type": "Point", "coordinates": [-118.4499396149, 34.0221360095]}, "type": "Feature", "properties": {"collection_times": [{"days": "Mon-Fri", "time": "4:45pm"}, {"days": "Sat-Sun", "time": "Closed"}], "id": "9040500011", "name": "USPS COLLECTION BOX - BLUE BOX", "address": {"city": "SANTA MONICA", "state": "CA", "street": "3350 OCEAN PARK BLVD", "postcode": "90405"}}},
{"geometry": {"type": "Point", "coordinates": [-118.4499396149, 34.0221360095]}, "type": "Feature", "properties": {"collection_times": [{"days": "Mon-Fri", "time": "4:45pm"}, {"days": "Sat-Sun", "time": "Closed"}], "id": "9040500012", "name": "USPS COLLECTION BOX - BLUE BOX", "address": {"city": "SANTA MONICA", "state": "CA", "street": "3350 OCEAN PARK BLVD", "postcode": "90405"}}},
{"geometry": {"type": "Point", "coordinates": [-118.4537691136, 34.0201079172]}, "type": "Feature", "properties": {"collection_times": [{"days": "Mon-Fri", "time": "4:45pm"}, {"days": "Sat", "time": "2:00pm"}, {"days": "Sun", "time": "Closed"}], "id": "9040500013", "name": "USPS COLLECTION BOX - BLUE BOX", "address": {"city": "SANTA MONICA", "state": "CA", "street": "3001 OCEAN PARK BLVD", "postcode": "90405"}}},
{"geometry": {"type": "Point", "coordinates": [-118.4579740203, 34.0176953929]}, "type": "Feature", "properties": {"collection_times": [{"days": "Mon-Fri", "time": "5:00pm"}, {"days": "Sat-Sun", "time": "Closed"}], "id": "9040500014", "name": "USPS COLLECTION BOX - BLUE BOX", "address": {"city": "SANTA MONICA", "state": "CA", "street": "2601 OCEAN PARK BLVD", "postcode": "90405"}}},
{"geometry": {"type": "Point", "coordinates": [-118.4579740203, 34.0176953929]}, "type": "Feature", "properties": {"collection_times": [{"days": "Mon-Fri", "time": "5:00pm"}, {"days": "Sat-Sun", "time": "Closed"}], "id": "9040500015", "name": "USPS COLLECTION BOX - BLUE BOX", "address": {"city": "SANTA MONICA", "state": "CA", "street": "2601 OCEAN PARK BLVD", "postcode": "90405"}}},
{"geometry": {"type": "Point", "coordinates": [-118.455749531, 34.0188077922]}, "type": "Feature", "properties": {"collection_times": [{"days": "Mon-Fri", "time": "4:45pm"}, {"days": "Sat", "time": "2:00pm"}, {"days": "Sun", "time": "Closed"}], "id": "9040500016", "name": "USPS COLLECTION BOX - BLUE BOX", "address": {"city": "SANTA MONICA", "state": "CA", "street": "2802 OCEAN PARK BLVD", "postcode": "90405"}}},
{"geometry": {"type": "Point", "coordinates": [-118.455749531, 34.0188077922]}, "type": "Feature", "properties": {"collection_times": [{"days": "Mon-Fri", "time": "4:45pm"}, {"days": "Sat", "time": "2:00pm"}, {"days": "Sun", "time": "Closed"}], "id": "9040500017", "name": "USPS COLLECTION BOX - BLUE BOX", "address": {"city": "SANTA MONICA", "state": "CA", "street": "2802 OCEAN PARK BLVD", "postcode": "90405"}}},
{"geometry": {"type": "Point", "coordinates": [-118.4830696437, 34.0003470715]}, "type": "Feature", "properties": {"collection_times": [{"days": "Mon-Fri", "time": "5:00pm"}, {"days": "Sat", "time": "2:00pm"}, {"days": "Sun", "time": "Closed"}], "id": "9040500018", "name": "USPS COLLECTION BOX - BLUE BOX", "address": {"city": "SANTA MONICA", "state": "CA", "street": "2720 NEILSON WAY (OP FINANCE)", "postcode": "90405"}}},
{"geometry": {"type": "Point", "coordinates": [-118.4499396149, 34.0221360095]}, "type": "Feature", "properties": {"collection_times": [{"days": "Mon-Fri", "time": "4:45pm"}, {"days": "Sat-Sun", "time": "Closed"}], "id": "9040500019", "name": "USPS COLLECTION BOX - BLUE BOX", "address": {"city": "SANTA MONICA", "state": "CA", "street": "3350 OCEAN PARK BLVD", "postcode": "90405"}}},
{"geometry": {"type": "Point", "coordinates": [-118.4686476325, 34.0198713737]}, "type": "Feature", "properties": {"collection_times": [{"days": "Mon-Fri", "time": "4:00pm"}, {"days": "Sat", "time": "2:00pm"}, {"days": "Sun", "time": "Closed"}], "id": "9040500023", "name": "USPS COLLECTION BOX - BLUE BOX", "address": {"city": "SANTA MONICA", "state": "CA", "street": "2050 PICO BLVD", "postcode": "90405"}}},
{"geometry": {"type": "Point", "coordinates": [-118.4531969815, 34.0202432789]}, "type": "Feature", "properties": {"collection_times": [{"days": "Mon-Fri", "time": "4:45pm"}, {"days": "Sat", "time": "2:00pm"}, {"days": "Sun", "time": "Closed"}], "id": "9040500026", "name": "USPS COLLECTION BOX - BLUE BOX", "address": {"city": "SANTA MONICA", "state": "CA", "street": "3102 OCEAN PARK BLVD", "postcode": "90405"}}},
{"geometry": {"type": "Point", "coordinates": [-118.4537691136, 34.0201079172]}, "type": "Feature", "properties": {"collection_times": [{"days": "Mon-Fri", "time": "4:45pm"}, {"days": "Sat", "time": "2:00pm"}, {"days": "Sun", "time": "Closed"}], "id": "9040500027", "name": "USPS COLLECTION BOX - BLUE BOX", "address": {"city": "SANTA MONICA", "state": "CA", "street": "3001 OCEAN PARK BLVD", "postcode": "90405"}}},
{"geometry": {"type": "Point", "coordinates": [-118.4803726612, 34.0102736462]}, "type": "Feature", "properties": {"collection_times": [{"days": "Mon-Fri", "time": "3:30pm"}, {"days": "Sat", "time": "4:15pm"}, {"days": "Sun", "time": "Closed"}], "id": "9040500028", "name": "USPS COLLECTION BOX - BLUE BOX", "address": {"city": "SANTA MONICA", "state": "CA", "street": "2221 LINCOLN BLVD", "postcode": "90405"}}},
{"geometry": {"type": "Point", "coordinates": [-118.4786899112, 34.0012818609]}, "type": "Feature", "properties": {"collection_times": [{"days": "Mon-Fri", "time": "1:00pm"}, {"days": "Sat", "time": "4:15pm"}, {"days": "Sun", "time": "Closed"}], "id": "9040500031", "name": "USPS COLLECTION BOX - BLUE BOX", "address": {"city": "SANTA MONICA", "state": "CA", "street": "401 ASHLAND AVE", "postcode": "90405"}}},
{"geometry": {"type": "Point", "coordinates": [-118.4677350336, 34.0165183907]}, "type": "Feature", "properties": {"collection_times": [{"days": "Mon-Fri", "time": "12:45pm"}, {"days": "Sat", "time": "4:15pm"}, {"days": "Sun", "time": "Closed"}], "id": "9040500033", "name": "USPS COLLECTION BOX - BLUE BOX", "address": {"city": "SANTA MONICA", "state": "CA", "street": "1819 PEARL ST", "postcode": "90405"}}},
{"geometry": {"type": "Point", "coordinates": [-118.455749531, 34.0188077922]}, "type": "Feature", "properties": {"collection_times": [{"days": "Mon-Fri", "time": "4:45pm"}, {"days": "Sat", "time": "2:00pm"}, {"days": "Sun", "time": "Closed"}], "id": "9040500034", "name": "USPS COLLECTION BOX - BLUE BOX", "address": {"city": "SANTA MONICA", "state": "CA", "street": "2802 OCEAN PARK BLVD", "postcode": "90405"}}},
{"geometry": {"type": "Point", "coordinates": [-118.4579740203, 34.0176953929]}, "type": "Feature", "properties": {"collection_times": [{"days": "Mon-Fri", "time": "5:00pm"}, {"days": "Sat-Sun", "time": "Closed"}], "id": "9040500037", "name": "USPS COLLECTION BOX - BLUE BOX", "address": {"city": "SANTA MONICA", "state": "CA", "street": "2601 OCEAN PARK BLVD", "postcode": "90405"}}},
{"geometry": {"type": "Point", "coordinates": [-118.479674732, 34.0139896534]}, "type": "Feature", "properties": {"collection_times": [{"days": "Mon-Fri", "time": "3:30pm"}, {"days": "Sat-Sun", "time": "Closed"}], "id": "9040500038", "name": "USPS COLLECTION BOX - BLUE BOX", "address": {"city": "SANTA MONICA", "state": "CA", "street": "1048 PICO BLVD", "postcode": "90405"}}},
{"geometry": {"type": "Point", "coordinates": [-118.4830696437, 34.0003470715]}, "type": "Feature", "properties": {"collection_times": [{"days": "Mon-Fri", "time": "5:00pm"}, {"days": "Sat", "time": "2:00pm"}, {"days": "Sun", "time": "Closed"}], "id": "9040500039", "name": "USPS COLLECTION BOX - BLUE BOX", "address": {"city": "SANTA MONICA", "state": "CA", "street": "2720 NEILSON WAY (OP FINANCE)", "postcode": "90405"}}},
{"geometry": {"type": "Point", "coordinates": [-118.4744137613, 34.008103719]}, "type": "Feature", "properties": {"collection_times": [{"days": "Mon-Fri", "time": "1:00pm"}, {"days": "Sat", "time": "4:15pm"}, {"days": "Sun", "time": "Closed"}], "id": "9040500040", "name": "USPS COLLECTION BOX - BLUE BOX", "address": {"city": "SANTA MONICA", "state": "CA", "street": "1049 OCEAN PARK BLVD", "postcode": "90405"}}},
{"geometry": {"type": "Point", "coordinates": [-118.4717111862, 34.0035847921]}, "type": "Feature", "properties": {"collection_times": [{"days": "Mon-Fri", "time": "1:00pm"}, {"days": "Sat", "time": "4:15pm"}, {"days": "Sun", "time": "Closed"}], "id": "9040500041", "name": "USPS COLLECTION BOX - BLUE BOX", "address": {"city": "SANTA MONICA", "state": "CA", "street": "3001 LINCOLN BLVD", "postcode": "90405"}}},
{"geometry": {"type": "Point", "coordinates": [-118.4472673903, 34.0153123414]}, "type": "Feature", "properties": {"collection_times": [{"days": "Mon-Fri", "time": "12:45pm"}, {"days": "Sat", "time": "4:15pm"}, {"days": "Sun", "time": "Closed"}], "id": "9040500042", "name": "USPS COLLECTION BOX - BLUE BOX", "address": {"city": "SANTA MONICA", "state": "CA", "street": "3200 AIRPORT AVE", "postcode": "90405"}}},
{"geometry": {"type": "Point", "coordinates": [-118.462925216, 34.011090221]}, "type": "Feature", "properties": {"collection_times": [{"days": "Mon-Fri", "time": "12:45pm"}, {"days": "Sat", "time": "4:15pm"}, {"days": "Sun", "time": "Closed"}], "id": "9040500044", "name": "USPS COLLECTION BOX - BLUE BOX", "address": {"city": "SANTA MONICA", "state": "CA", "street": "1802 ASHLAND AVE", "postcode": "90405"}}},
{"geometry": {"type": "Point", "coordinates": [-118.4468874247, 34.0171810994]}, "type": "Feature", "properties": {"collection_times": [{"days": "Mon-Fri", "time": "12:45pm"}, {"days": "Sat", "time": "4:15pm"}, {"days": "Sun", "time": "Closed"}], "id": "9040500050", "name": "USPS COLLECTION BOX - BLUE BOX", "address": {"city": "SANTA MONICA", "state": "CA", "street": "3223 DONALD DOUGLAS LOOP S", "postcode": "90405"}}},
{"geometry": {"type": "Point", "coordinates": [-118.4908516065, 34.0080000232]}, "type": "Feature", "properties": {"collection_times": [{"days": "Mon-Fri", "time": "4:00pm"}, {"days": "Sat", "time": "2:00pm"}, {"days": "Sun", "time": "Closed"}], "id": "9040500051", "name": "USPS COLLECTION BOX - BLUE BOX", "address": {"city": "SANTA MONICA", "state": "CA", "street": "1819 OCEAN AVE", "postcode": "90405"}}},
{"geometry": {"type": "Point", "coordinates": [-118.4726765526, 34.0101301898]}, "type": "Feature", "properties": {"collection_times": [{"days": "Mon-Fri", "time": "5:00pm"}, {"days": "Sat", "time": "2:00pm"}, {"days": "Sun", "time": "Closed"}], "id": "9040500052", "name": "USPS COLLECTION BOX - PO LOBBY", "address": {"city": "SANTA MONICA", "state": "CA", "street": "2720 NEILSON WAY", "postcode": "90405"}}},
{"geometry": {"type": "Point", "coordinates": [-118.4726765526, 34.0101301898]}, "type": "Feature", "properties": {"collection_times": [{"days": "Mon-Fri", "time": "5:00pm"}, {"days": "Sat", "time": "2:00pm"}, {"days": "Sun", "time": "Closed"}], "id": "9040500053", "name": "USPS COLLECTION BOX - PO LOBBY", "address": {"city": "SANTA MONICA", "state": "CA", "street": "2720 NEILSON WAY", "postcode": "90405"}}},
{"geometry": {"type": "Point", "coordinates": [-118.4851050918, 34.0076623368]}, "type": "Feature", "properties": {"collection_times": [{"days": "Mon-Fri", "time": "1:00pm"}, {"days": "Sat", "time": "4:15pm"}, {"days": "Sun", "time": "Closed"}], "id": "9040500055", "name": "USPS COLLECTION BOX - BLUE BOX", "address": {"city": "SANTA MONICA", "state": "CA", "street": "400 PACIFIC ST", "postcode": "90405"}}}
]}
