{"type": "FeatureCollection", "features": [
{"geometry": {"type": "Point", "coordinates": [-118.315360059, 33.833958973]}, "type": "Feature", "properties": {"collection_times": [{"days": "Mon-Fri", "time": "5:00pm"}, {"days": "Sat", "time": "2:45pm"}, {"days": "Sun", "time": "Closed"}], "id": "9050100002", "name": "USPS COLLECTION BOX - BLUE BOX", "address": {"city": "TORRANCE", "state": "CA", "street": "1433 MARCELINA AVE", "postcode": "90501"}}},
{"geometry": {"type": "Point", "coordinates": [-118.3266652386, 33.8453622154]}, "type": "Feature", "properties": {"collection_times": [{"days": "Mon-Fri", "time": "3:00pm"}, {"days": "Sat", "time": "1:00pm"}, {"days": "Sun", "time": "Closed"}], "id": "9050100004", "name": "USPS COLLECTION BOX - BLUE BOX", "address": {"city": "TORRANCE", "state": "CA", "street": "2461 W 205TH ST", "postcode": "90501"}}},
{"geometry": {"type": "Point", "coordinates": [-118.3144792472, 33.8291215598]}, "type": "Feature", "properties": {"collection_times": [{"days": "Mon-Fri", "time": "3:00pm"}, {"days": "Sat", "time": "1:00pm"}, {"days": "Sun", "time": "Closed"}], "id": "9050100007", "name": "USPS COLLECTION BOX - EXPRESS", "address": {"city": "TORRANCE", "state": "CA", "street": "357 VAN NESS WAY", "postcode": "90501"}}},
{"geometry": {"type": "Point", "coordinates": [-118.3093839094, 33.8394977077]}, "type": "Feature", "properties": {"collection_times": [{"days": "Mon-Fri", "time": "3:00pm"}, {"days": "Sat", "time": "1:00pm"}, {"days": "Sun", "time": "Closed"}], "id": "9050100008", "name": "USPS COLLECTION BOX - BLUE BOX", "address": {"city": "TORRANCE", "state": "CA", "street": "21041 S WESTERN AVE", "postcode": "90501"}}},
{"geometry": {"type": "Point", "coordinates": [-118.3155686527, 33.8337731104]}, "type": "Feature", "properties": {"collection_times": [{"days": "Mon-Fri", "time": "5:00pm"}, {"days": "Sat", "time": "2:45pm"}, {"days": "Sun", "time": "Closed"}], "id": "9050100009", "name": "USPS COLLECTION BOX - BLUE BOX", "address": {"city": "TORRANCE", "state": "CA", "street": "1433 MARCELINA AVE", "postcode": "90501"}}},
{"geometry": {"type": "Point", "coordinates": [-118.3093839094, 33.8394977077]}, "type": "Feature", "properties": {"collection_times": [{"days": "Mon-Fri", "time": "3:00pm"}, {"days": "Sat", "time": "1:00pm"}, {"days": "Sun", "time": "Closed"}], "id": "9050100011", "name": "USPS COLLECTION BOX - BLUE BOX", "address": {"city": "TORRANCE", "state": "CA", "street": "21041 S WESTERN AVE", "postcode": "90501"}}},
{"geometry": {"type": "Point", "coordinates": [-118.3109824177, 33.8447283358]}, "type": "Feature", "properties": {"collection_times": [{"days": "Mon-Fri", "time": "3:00pm"}, {"days": "Sat", "time": "1:00pm"}, {"days": "Sun", "time": "Closed"}], "id": "9050100017", "name": "USPS COLLECTION BOX - BLUE BOX", "address": {"city": "TORRANCE", "state": "CA", "street": "1815 W 205TH ST", "postcode": "90501"}}},
{"geometry": {"type": "Point", "coordinates": [-118.3266652386, 33.8453622154]}, "type": "Feature", "properties": {"collection_times": [{"days": "Mon-Fri", "time": "3:00pm"}, {"days": "Sat", "time": "1:00pm"}, {"days": "Sun", "time": "Closed"}], "id": "9050100018", "name": "USPS COLLECTION BOX - BLUE BOX", "address": {"city": "TORRANCE", "state": "CA", "street": "2461 W 205TH ST", "postcode": "90501"}}},
{"geometry": {"type": "Point", "coordinates": [-118.3186574555, 33.8451660306]}, "type": "Feature", "properties": {"collection_times": [{"days": "Mon-Fri", "time": "3:00pm"}, {"days": "Sat", "time": "1:00pm"}, {"days": "Sun", "time": "Closed"}], "id": "9050100019", "name": "USPS COLLECTION BOX - BLUE BOX", "address": {"city": "TORRANCE", "state": "CA", "street": "357 VAN NESS WAY", "postcode": "90501"}}},
{"geometry": {"type": "Point", "coordinates": [-118.3199722234, 33.8102861001]}, "type": "Feature", "properties": {"collection_times": [{"days": "Mon-Sat", "time": "1:00pm"}, {"days": "Sun", "time": "Closed"}], "id": "9050100022", "name": "USPS COLLECTION BOX - BLUE BOX", "address": {"city": "TORRANCE", "state": "CA", "street": "23649 ARLINGTON AVE", "postcode": "90501"}}},
{"geometry": {"type": "Point", "coordinates": [-118.3266652386, 33.8453622154]}, "type": "Feature", "properties": {"collection_times": [{"days": "Mon-Fri", "time": "3:00pm"}, {"days": "Sat", "time": "1:00pm"}, {"days": "Sun", "time": "Closed"}], "id": "9050100028", "name": "USPS COLLECTION BOX - BLUE BOX", "address": {"city": "TORRANCE", "state": "CA", "street": "2461 W 205TH ST", "postcode": "90501"}}},
{"geometry": {"type": "Point", "coordinates": [-118.3155686527, 33.8337731104]}, "type": "Feature", "properties": {"collection_times": [{"days": "Mon-Fri", "time": "5:00pm"}, {"days": "Sat", "time": "2:45pm"}, {"days": "Sun", "time": "Closed"}], "id": "9050100031", "name": "USPS COLLECTION BOX - BLUE BOX", "address": {"city": "TORRANCE", "state": "CA", "street": "1433 MARCELINA AVE", "postcode": "90501"}}},
{"geometry": {"type": "Point", "coordinates": [-118.3285526332, 33.8238597927]}, "type": "Feature", "properties": {"collection_times": [{"days": "Mon-Fri", "time": "3:00pm"}, {"days": "Sat", "time": "1:00pm"}, {"days": "Sun", "time": "Closed"}], "id": "9050100035", "name": "USPS COLLECTION BOX - BLUE BOX", "address": {"city": "TORRANCE", "state": "CA", "street": "2355 CRENSHAW BLVD", "postcode": "90501"}}},
{"geometry": {"type": "Point", "coordinates": [-118.305149247, 33.8156476556]}, "type": "Feature", "properties": {"collection_times": [{"days": "Mon-Fri", "time": "3:00pm"}, {"days": "Sat", "time": "1:00pm"}, {"days": "Sun", "time": "Closed"}], "id": "9050100038", "name": "USPS COLLECTION BOX - BLUE BOX", "address": {"city": "TORRANCE", "state": "CA", "street": "1555 SEPULVEDA BLVD", "postcode": "90501"}}},
{"geometry": {"type": "Point", "coordinates": [-118.3186574555, 33.8451660306]}, "type": "Feature", "properties": {"collection_times": [{"days": "Mon-Fri", "time": "3:00pm"}, {"days": "Sat", "time": "1:00pm"}, {"days": "Sun", "time": "Closed"}], "id": "9050100044", "name": "USPS COLLECTION BOX - BLUE BOX", "address": {"city": "TORRANCE", "state": "CA", "street": "357 VAN NESS WAY", "postcode": "90501"}}},
{"geometry": {"type": "Point", "coordinates": [-118.3093376988, 33.83751594]}, "type": "Feature", "properties": {"collection_times": [{"days": "Mon-Fri", "time": "3:00pm"}, {"days": "Sat", "time": "1:00pm"}, {"days": "Sun", "time": "Closed"}], "id": "9050100045", "name": "USPS COLLECTION BOX - BLUE BOX", "address": {"city": "TORRANCE", "state": "CA", "street": "21151 S WESTERN AVE", "postcode": "90501"}}},
{"geometry": {"type": "Point", "coordinates": [-118.3155686527, 33.8337731104]}, "type": "Feature", "properties": {"collection_times": [{"days": "Mon-Fri", "time": "5:00pm"}, {"days": "Sat-Sun", "time": "Closed"}], "id": "9050100048", "name": "USPS COLLECTION BOX - PO LOBBY", "address": {"city": "TORRANCE", "state": "CA", "street": "1433 MARCELINA AVE", "postcode": "90501"}}},
{"geometry": {"type": "Point", "coordinates": [-118.2992403669, 33.8567069782]}, "type": "Feature", "properties": {"collection_times": [{"days": "Mon-Fri", "time": "3:30pm"}, {"days": "Sat-Sun", "time": "Closed"}], "id": "9050100053", "name": "USPS COLLECTION BOX - BLUE BOX", "address": {"city": "TORRANCE", "state": "CA", "street": "19106 NORMANDIE AVE", "postcode": "90501"}}},
{"geometry": {"type": "Point", "coordinates": [-118.2953421963, 33.8315301852]}, "type": "Feature", "properties": {"collection_times": [{"days": "Mon-Fri", "time": "3:00pm"}, {"days": "Sat", "time": "1:00pm"}, {"days": "Sun", "time": "Closed"}], "id": "9050200009", "name": "USPS COLLECTION BOX - BLUE BOX", "address": {"city": "TORRANCE", "state": "CA", "street": "1124 W CARSON ST", "postcode": "90502"}}},
{"geometry": {"type": "Point", "coordinates": [-118.2904591407, 33.8514284171]}, "type": "Feature", "properties": {"collection_times": [{"days": "Mon-Fri", "time": "3:00pm"}, {"days": "Sat", "time": "1:00pm"}, {"days": "Sun", "time": "Closed"}], "id": "9050200016", "name": "USPS COLLECTION BOX - BLUE BOX", "address": {"city": "TORRANCE", "state": "CA", "street": "19750 S VERMONT AVE", "postcode": "90502"}}},
{"geometry": {"type": "Point", "coordinates": [-118.2904962218, 33.851750774]}, "type": "Feature", "properties": {"collection_times": [{"days": "Mon-Fri", "time": "3:00pm"}, {"days": "Sat", "time": "1:00pm"}, {"days": "Sun", "time": "Closed"}], "id": "9050200017", "name": "USPS COLLECTION BOX - BLUE BOX", "address": {"city": "TORRANCE", "state": "CA", "street": "19700 S VERMONT AVE", "postcode": "90502"}}},
{"geometry": {"type": "Point", "coordinates": [-118.2887519595, 33.8421069032]}, "type": "Feature", "properties": {"collection_times": [{"days": "Mon-Fri", "time": "12:00pm"}, {"days": "Sat", "time": "1:00pm"}, {"days": "Sun", "time": "Closed"}], "id": "9050200019", "name": "USPS COLLECTION BOX - BLUE BOX", "address": {"city": "TORRANCE", "state": "CA", "street": "833 TORRANCE BLVD", "postcode": "90502"}}},
{"geometry": {"type": "Point", "coordinates": [-118.2892729993, 33.8124735807]}, "type": "Feature", "properties": {"collection_times": [{"days": "Mon-Sat", "time": "1:00pm"}, {"days": "Sun", "time": "Closed"}], "id": "9050200021", "name": "USPS COLLECTION BOX - BLUE BOX", "address": {"city": "TORRANCE", "state": "CA", "street": "838 CORIANDER DR", "postcode": "90502"}}},
{"geometry": {"type": "Point", "coordinates": [-118.2971866375, 33.8316211768]}, "type": "Feature", "properties": {"collection_times": [{"days": "Mon-Fri", "time": "12:00pm"}, {"days": "Sat", "time": "1:00pm"}, {"days": "Sun", "time": "Closed"}], "id": "9050200023", "name": "USPS COLLECTION BOX - BLUE BOX", "address": {"city": "TORRANCE", "state": "CA", "street": "1211 W CARSON ST", "postcode": "90502"}}},
{"geometry": {"type": "Point", "coordinates": [-118.290533789, 33.8548769408]}, "type": "Feature", "properties": {"collection_times": [{"days": "Mon-Fri", "time": "3:00pm"}, {"days": "Sat", "time": "1:00pm"}, {"days": "Sun", "time": "Closed"}], "id": "9050200024", "name": "USPS COLLECTION BOX - BLUE BOX", "address": {"city": "TORRANCE", "state": "CA", "street": "19700 S VERMONT AVE", "postcode": "90502"}}},
{"geometry": {"type": "Point", "coordinates": [-118.2905720464, 33.8547612302]}, "type": "Feature", "properties": {"collection_times": [{"days": "Mon-Fri", "time": "3:00pm"}, {"days": "Sat", "time": "1:00pm"}, {"days": "Sun", "time": "Closed"}], "id": "9050200025", "name": "USPS COLLECTION BOX - BLUE BOX", "address": {"city": "TORRANCE", "state": "CA", "street": "19401 S VERMONT AVE", "postcode": "90502"}}},
{"geometry": {"type": "Point", "coordinates": [-118.290533789, 33.8548769408]}, "type": "Feature", "properties": {"collection_times": [{"days": "Mon-Fri", "time": "3:00pm"}, {"days": "Sat", "time": "1:00pm"}, {"days": "Sun", "time": "Closed"}], "id": "9050200026", "name": "USPS COLLECTION BOX - BLUE BOX", "address": {"city": "TORRANCE", "state": "CA", "street": "19401 S VERMONT AVE", "postcode": "90502"}}},
{"geometry": {"type": "Point", "coordinates": [-118.293072419, 33.858328815]}, "type": "Feature", "properties": {"collection_times": [{"days": "Mon-Fri", "time": "3:00pm"}, {"days": "Sat", "time": "1:00pm"}, {"days": "Sun", "time": "Closed"}], "id": "9050200028", "name": "USPS COLLECTION BOX - BLUE BOX", "address": {"city": "TORRANCE", "state": "CA", "street": "970 W 190TH ST", "postcode": "90502"}}},
{"geometry": {"type": "Point", "coordinates": [-118.293072419, 33.858328815]}, "type": "Feature", "properties": {"collection_times": [{"days": "Mon-Fri", "time": "3:00pm"}, {"days": "Sat", "time": "1:00pm"}, {"days": "Sun", "time": "Closed"}], "id": "9050200029", "name": "USPS COLLECTION BOX - BLUE BOX", "address": {"city": "TORRANCE", "state": "CA", "street": "970 W 190TH ST", "postcode": "90502"}}},
{"geometry": {"type": "Point", "coordinates": [-118.290533789, 33.8548769408]}, "type": "Feature", "properties": {"collection_times": [{"days": "Mon-Fri", "time": "3:00pm"}, {"days": "Sat", "time": "1:00pm"}, {"days": "Sun", "time": "Closed"}], "id": "9050200034", "name": "USPS COLLECTION BOX - BLUE BOX", "address": {"city": "TORRANCE", "state": "CA", "street": "19401 S VERMONT AVE", "postcode": "90502"}}},
{"geometry": {"type": "Point", "coordinates": [-118.2928193948, 33.831641663]}, "type": "Feature", "properties": {"collection_times": [{"days": "Mon-Fri", "time": "12:00pm"}, {"days": "Sat", "time": "1:00pm"}, {"days": "Sun", "time": "Closed"}], "id": "9050200039", "name": "USPS COLLECTION BOX - BLUE BOX", "address": {"city": "TORRANCE", "state": "CA", "street": "1000 W CARSON ST", "postcode": "90502"}}},
{"geometry": {"type": "Point", "coordinates": [-118.2901470699, 33.8229060681]}, "type": "Feature", "properties": {"collection_times": [{"days": "Mon-Sat", "time": "1:00pm"}, {"days": "Sun", "time": "Closed"}], "id": "9050200045", "name": "USPS COLLECTION BOX - BLUE BOX", "address": {"city": "TORRANCE", "state": "CA", "street": "22416 S VERMONT AVE", "postcode": "90502"}}},
{"geometry": {"type": "Point", "coordinates": [-118.3521259945, 33.8414128314]}, "type": "Feature", "properties": {"collection_times": [{"days": "Mon-Sat", "time": "5:00pm"}, {"days": "Sun", "time": "Closed"}], "id": "9050300001", "name": "USPS COLLECTION BOX - BLUE BOX", "address": {"city": "TORRANCE", "state": "CA", "street": "291 DEL AMO FASHION SQ", "postcode": "90503"}}},
{"geometry": {"type": "Point", "coordinates": [-118.3539058271, 33.8399623486]}, "type": "Feature", "properties": {"collection_times": [{"days": "Mon-Fri", "time": "5:00pm"}, {"days": "Sat", "time": "4:00pm"}, {"days": "Sun", "time": "Closed"}], "id": "9050300003", "name": "USPS COLLECTION BOX - BLUE BOX", "address": {"city": "TORRANCE", "state": "CA", "street": "2510 MONTEREY ST", "postcode": "90503"}}},
{"geometry": {"type": "Point", "coordinates": [-118.3539058271, 33.8399623486]}, "type": "Feature", "properties": {"collection_times": [{"days": "Mon-Sat", "time": "5:00pm"}, {"days": "Sun", "time": "Closed"}], "id": "9050300004", "name": "USPS COLLECTION BOX - BLUE BOX", "address": {"city": "TORRANCE", "state": "CA", "street": "291 DEL AMO FASHION SQ", "postcode": "90503"}}},
{"geometry": {"type": "Point", "coordinates": [-118.3502755827, 33.8485694036]}, "type": "Feature", "properties": {"collection_times": [{"days": "Mon-Fri", "time": "3:00pm"}, {"days": "Sat", "time": "1:00pm"}, {"days": "Sun", "time": "Closed"}], "id": "9050300005", "name": "USPS COLLECTION BOX - BLUE BOX", "address": {"city": "TORRANCE", "state": "CA", "street": "3625 DEL AMO BLVD", "postcode": "90503"}}},
{"geometry": {"type": "Point", "coordinates": [-118.3521259945, 33.8414128314]}, "type": "Feature", "properties": {"collection_times": [{"days": "Mon-Sat", "time": "5:00pm"}, {"days": "Sun", "time": "Closed"}], "id": "9050300006", "name": "USPS COLLECTION BOX - BLUE BOX", "address": {"city": "TORRANCE", "state": "CA", "street": "291 DEL AMO FASHION SQ", "postcode": "90503"}}},
{"geometry": {"type": "Point", "coordinates": [-118.3537511717, 33.8372861704]}, "type": "Feature", "properties": {"collection_times": [{"days": "Mon-Fri", "time": "3:00pm"}, {"days": "Sat", "time": "1:00pm"}, {"days": "Sun", "time": "Closed"}], "id": "9050300008", "name": "USPS COLLECTION BOX - BLUE BOX", "address": {"city": "TORRANCE", "state": "CA", "street": "21213 HAWTHORNE BLVD STE B", "postcode": "90503"}}},
{"geometry": {"type": "Point", "coordinates": [-118.3537511717, 33.8372861704]}, "type": "Feature", "properties": {"collection_times": [{"days": "Mon-Fri", "time": "3:00pm"}, {"days": "Sat", "time": "1:00pm"}, {"days": "Sun", "time": "Closed"}], "id": "9050300009", "name": "USPS COLLECTION BOX - BLUE BOX", "address": {"city": "TORRANCE", "state": "CA", "street": "21213 HAWTHORNE BLVD STE B", "postcode": "90503"}}},
{"geometry": {"type": "Point", "coordinates": [-118.3587301904, 33.8375808977]}, "type": "Feature", "properties": {"collection_times": [{"days": "Mon-Fri", "time": "3:00pm"}, {"days": "Sat", "time": "1:00pm"}, {"days": "Sun", "time": "Closed"}], "id": "9050300010", "name": "USPS COLLECTION BOX - BLUE BOX", "address": {"city": "TORRANCE", "state": "CA", "street": "4201 TORRANCE BLVD", "postcode": "90503"}}},
{"geometry": {"type": "Point", "coordinates": [-118.3587301904, 33.8375808977]}, "type": "Feature", "properties": {"collection_times": [{"days": "Mon-Fri", "time": "3:00pm"}, {"days": "Sat", "time": "1:00pm"}, {"days": "Sun", "time": "Closed"}], "id": "9050300011", "name": "USPS COLLECTION BOX - BLUE BOX", "address": {"city": "TORRANCE", "state": "CA", "street": "4201 TORRANCE BLVD", "postcode": "90503"}}},
{"geometry": {"type": "Point", "coordinates": [-118.3547703628, 33.8311914145]}, "type": "Feature", "properties": {"collection_times": [{"days": "Mon-Fri", "time": "3:00pm"}, {"days": "Sat", "time": "1:00pm"}, {"days": "Sun", "time": "Closed"}], "id": "9050300012", "name": "USPS COLLECTION BOX - BLUE BOX", "address": {"city": "TORRANCE", "state": "CA", "street": "3838 W CARSON ST", "postcode": "90503"}}},
{"geometry": {"type": "Point", "coordinates": [-118.3539058271, 33.8399623486]}, "type": "Feature", "properties": {"collection_times": [{"days": "Mon-Fri", "time": "3:00pm"}, {"days": "Sat", "time": "1:00pm"}, {"days": "Sun", "time": "Closed"}], "id": "9050300015", "name": "USPS COLLECTION BOX - EXPRESS", "address": {"city": "TORRANCE", "state": "CA", "street": "340 MAPLE AVE", "postcode": "90503"}}},
{"geometry": {"type": "Point", "coordinates": [-118.3401459051, 33.8458900015]}, "type": "Feature", "properties": {"collection_times": [{"days": "Mon-Fri", "time": "3:00pm"}, {"days": "Sat", "time": "1:00pm"}, {"days": "Sun", "time": "Closed"}], "id": "9050300016", "name": "USPS COLLECTION BOX - BLUE BOX", "address": {"city": "TORRANCE", "state": "CA", "street": "340 MAPLE AVE", "postcode": "90503"}}},
{"geometry": {"type": "Point", "coordinates": [-118.3539058271, 33.8399623486]}, "type": "Feature", "properties": {"collection_times": [{"days": "Mon-Fri", "time": "3:00pm"}, {"days": "Sat", "time": "1:00pm"}, {"days": "Sun", "time": "Closed"}], "id": "9050300017", "name": "USPS COLLECTION BOX - EXPRESS", "address": {"city": "TORRANCE", "state": "CA", "street": "3625 DEL AMO BLVD", "postcode": "90503"}}},
{"geometry": {"type": "Point", "coordinates": [-118.3539058271, 33.8399623486]}, "type": "Feature", "properties": {"collection_times": [{"days": "Mon-Fri", "time": "3:00pm"}, {"days": "Sat", "time": "1:00pm"}, {"days": "Sun", "time": "Closed"}], "id": "9050300020", "name": "USPS COLLECTION BOX - EXPRESS", "address": {"city": "TORRANCE", "state": "CA", "street": "3422 W CARSON ST", "postcode": "90503"}}},
{"geometry": {"type": "Point", "coordinates": [-118.3502755827, 33.8485694036]}, "type": "Feature", "properties": {"collection_times": [{"days": "Mon-Fri", "time": "3:00pm"}, {"days": "Sat", "time": "1:00pm"}, {"days": "Sun", "time": "Closed"}], "id": "9050300021", "name": "USPS COLLECTION BOX - BLUE BOX", "address": {"city": "TORRANCE", "state": "CA", "street": "3625 DEL AMO BLVD", "postcode": "90503"}}},
{"geometry": {"type": "Point", "coordinates": [-118.3547703628, 33.8311914145]}, "type": "Feature", "properties": {"collection_times": [{"days": "Mon-Fri", "time": "3:00pm"}, {"days": "Sat", "time": "1:00pm"}, {"days": "Sun", "time": "Closed"}], "id": "9050300022", "name": "USPS COLLECTION BOX - BLUE BOX", "address": {"city": "TORRANCE", "state": "CA", "street": "3838 W CARSON ST", "postcode": "90503"}}},
{"geometry": {"type": "Point", "coordinates": [-118.3462881685, 33.8376448656]}, "type": "Feature", "properties": {"collection_times": [{"days": "Mon-Fri", "time": "3:00pm"}, {"days": "Sat", "time": "1:00pm"}, {"days": "Sun", "time": "Closed"}], "id": "9050300025", "name": "USPS COLLECTION BOX - BLUE BOX", "address": {"city": "TORRANCE", "state": "CA", "street": "3455 TORRANCE BLVD", "postcode": "90503"}}},
{"geometry": {"type": "Point", "coordinates": [-118.3473737843, 33.8395221334]}, "type": "Feature", "properties": {"collection_times": [{"days": "Mon-Sat", "time": "3:00pm"}, {"days": "Sun", "time": "Closed"}], "id": "9050300029", "name": "USPS COLLECTION BOX - BLUE BOX", "address": {"city": "TORRANCE", "state": "CA", "street": "3510 MARICOPA ST", "postcode": "90503"}}},
{"geometry": {"type": "Point", "coordinates": [-118.3401459051, 33.8458900015]}, "type": "Feature", "properties": {"collection_times": [{"days": "Mon-Fri", "time": "3:00pm"}, {"days": "Sat", "time": "1:00pm"}, {"days": "Sun", "time": "Closed"}], "id": "9050300031", "name": "USPS COLLECTION BOX - BLUE BOX", "address": {"city": "TORRANCE", "state": "CA", "street": "340 MAPLE AVE", "postcode": "90503"}}},
{"geometry": {"type": "Point", "coordinates": [-118.3587301904, 33.8375808977]}, "type": "Feature", "properties": {"collection_times": [{"days": "Mon-Fri", "time": "3:00pm"}, {"days": "Sat", "time": "1:00pm"}, {"days": "Sun", "time": "Closed"}], "id": "9050300036", "name": "USPS COLLECTION BOX - BLUE BOX", "address": {"city": "TORRANCE", "state": "CA", "street": "4201 TORRANCE BLVD", "postcode": "90503"}}},
{"geometry": {"type": "Point", "coordinates": [-118.3460818044, 33.8374444002]}, "type": "Feature", "properties": {"collection_times": [{"days": "Mon-Fri", "time": "3:00pm"}, {"days": "Sat", "time": "1:00pm"}, {"days": "Sun", "time": "Closed"}], "id": "9050300037", "name": "USPS COLLECTION BOX - BLUE BOX", "address": {"city": "TORRANCE", "state": "CA", "street": "3400 TORRANCE BLVD", "postcode": "90503"}}},
{"geometry": {"type": "Point", "coordinates": [-118.3633271689, 33.8582270806]}, "type": "Feature", "properties": {"collection_times": [{"days": "Mon-Fri", "time": "12:00pm"}, {"days": "Sat", "time": "1:00pm"}, {"days": "Sun", "time": "Closed"}], "id": "9050300041", "name": "USPS COLLECTION BOX - BLUE BOX", "address": {"city": "TORRANCE", "state": "CA", "street": "4848 W 190TH ST", "postcode": "90503"}}},
{"geometry": {"type": "Point", "coordinates": [-118.3454987259, 33.8310342906]}, "type": "Feature", "properties": {"collection_times": [{"days": "Mon-Fri", "time": "3:00pm"}, {"days": "Sat", "time": "1:00pm"}, {"days": "Sun", "time": "Closed"}], "id": "9050300042", "name": "USPS COLLECTION BOX - BLUE BOX", "address": {"city": "TORRANCE", "state": "CA", "street": "3422 W CARSON ST", "postcode": "90503"}}},
{"geometry": {"type": "Point", "coordinates": [-118.334641597, 33.8365706508]}, "type": "Feature", "properties": {"collection_times": [{"days": "Mon-Sat", "time": "1:30pm"}, {"days": "Sun", "time": "Closed"}], "id": "9050300043", "name": "USPS COLLECTION BOX - BLUE BOX", "address": {"city": "TORRANCE", "state": "CA", "street": "1122 HICKORY AVE", "postcode": "90503"}}},
{"geometry": {"type": "Point", "coordinates": [-118.3641711372, 33.8376432311]}, "type": "Feature", "properties": {"collection_times": [{"days": "Mon-Fri", "time": "3:00pm"}, {"days": "Sat", "time": "1:00pm"}, {"days": "Sun", "time": "Closed"}], "id": "9050300057", "name": "USPS COLLECTION BOX - BLUE BOX", "address": {"city": "TORRANCE", "state": "CA", "street": "4733 TORRANCE BLVD", "postcode": "90503"}}},
{"geometry": {"type": "Point", "coordinates": [-118.3490216462, 33.8431632811]}, "type": "Feature", "properties": {"collection_times": [{"days": "Mon-Sat", "time": "3:00pm"}, {"days": "Sun", "time": "Closed"}], "id": "9050300060", "name": "USPS COLLECTION BOX - BLUE BOX", "address": {"city": "TORRANCE", "state": "CA", "street": "3556 GARNET ST", "postcode": "90503"}}},
{"geometry": {"type": "Point", "coordinates": [-118.3692727207, 33.8315903935]}, "type": "Feature", "properties": {"collection_times": [{"days": "Mon-Sat", "time": "3:30pm"}, {"days": "Sun", "time": "Closed"}], "id": "9050300063", "name": "USPS COLLECTION BOX - BLUE BOX", "address": {"city": "TORRANCE", "state": "CA", "street": "21634 PALOS VERDES BLVD", "postcode": "90503"}}},
{"geometry": {"type": "Point", "coordinates": [-118.3580982805, 33.840077972]}, "type": "Feature", "properties": {"collection_times": [{"days": "Mon-Fri", "time": "3:00pm"}, {"days": "Sat", "time": "1:00pm"}, {"days": "Sun", "time": "Closed"}], "id": "9050300064", "name": "USPS COLLECTION BOX - BLUE BOX", "address": {"city": "TORRANCE", "state": "CA", "street": "20911 EARL ST", "postcode": "90503"}}},
{"geometry": {"type": "Point", "coordinates": [-118.3580982805, 33.840077972]}, "type": "Feature", "properties": {"collection_times": [{"days": "Mon-Fri", "time": "3:00pm"}, {"days": "Sat", "time": "1:00pm"}, {"days": "Sun", "time": "Closed"}], "id": "9050300070", "name": "USPS COLLECTION BOX - BLUE BOX", "address": {"city": "TORRANCE", "state": "CA", "street": "20911 EARL ST", "postcode": "90503"}}},
{"geometry": {"type": "Point", "coordinates": [-118.3460818044, 33.8374444002]}, "type": "Feature", "properties": {"collection_times": [{"days": "Mon-Fri", "time": "3:00pm"}, {"days": "Sat", "time": "1:00pm"}, {"days": "Sun", "time": "Closed"}], "id": "9050300071", "name": "USPS COLLECTION BOX - BLUE BOX", "address": {"city": "TORRANCE", "state": "CA", "street": "3400 TORRANCE BLVD", "postcode": "90503"}}},
{"geometry": {"type": "Point", "coordinates": [-118.3521259945, 33.8414128314]}, "type": "Feature", "properties": {"collection_times": [{"days": "Mon-Sat", "time": "5:00pm"}, {"days": "Sun", "time": "Closed"}], "id": "9050300072", "name": "USPS COLLECTION BOX - EXPRESS", "address": {"city": "TORRANCE", "state": "CA", "street": "291 DEL AMO FASHION SQ", "postcode": "90503"}}},
{"geometry": {"type": "Point", "coordinates": [-118.3529995462, 33.8328010941]}, "type": "Feature", "properties": {"collection_times": [{"days": "Mon-Fri", "time": "3:00pm"}, {"days": "Sat", "time": "1:00pm"}, {"days": "Sun", "time": "Closed"}], "id": "9050300078", "name": "USPS COLLECTION BOX - BLUE BOX", "address": {"city": "TORRANCE", "state": "CA", "street": "21535 HAWTHORNE BLVD", "postcode": "90503"}}},
{"geometry": {"type": "Point", "coordinates": [-118.3564305684, 33.8449385702]}, "type": "Feature", "properties": {"collection_times": [{"days": "Mon-Fri", "time": "3:00pm"}, {"days": "Sat", "time": "1:00pm"}, {"days": "Sun", "time": "Closed"}], "id": "9050300081", "name": "USPS COLLECTION BOX - BLUE BOX", "address": {"city": "TORRANCE", "state": "CA", "street": "4050 SPENCER ST", "postcode": "90503"}}},
{"geometry": {"type": "Point", "coordinates": [-118.3290367374, 33.8294527867]}, "type": "Feature", "properties": {"collection_times": [{"days": "Mon-Fri", "time": "5:00pm"}, {"days": "Sat", "time": "4:00pm"}, {"days": "Sun", "time": "Closed"}], "id": "9050300082", "name": "USPS COLLECTION BOX - PO LOBBY", "address": {"city": "TORRANCE", "state": "CA", "street": "2510 MONTEREY (MAIN OFFICE)", "postcode": "90503"}}},
{"geometry": {"type": "Point", "coordinates": [-118.3529995462, 33.8328010941]}, "type": "Feature", "properties": {"collection_times": [{"days": "Mon-Fri", "time": "3:00pm"}, {"days": "Sat", "time": "1:00pm"}, {"days": "Sun", "time": "Closed"}], "id": "9050300083", "name": "USPS COLLECTION BOX - BLUE BOX", "address": {"city": "TORRANCE", "state": "CA", "street": "21535 HAWTHORNE BLVD", "postcode": "90503"}}},
{"geometry": {"type": "Point", "coordinates": [-118.353841021, 33.8389637768]}, "type": "Feature", "properties": {"collection_times": [{"days": "Mon-Fri", "time": "12:00pm"}, {"days": "Sat", "time": "1:00pm"}, {"days": "Sun", "time": "Closed"}], "id": "9050300086", "name": "USPS COLLECTION BOX - BLUE BOX", "address": {"city": "TORRANCE", "state": "CA", "street": "21035 HAWTHORNE BLVD", "postcode": "90503"}}},
{"geometry": {"type": "Point", "coordinates": [-118.3708436902, 33.8430331556]}, "type": "Feature", "properties": {"collection_times": [{"days": "Mon-Sat", "time": "3:30pm"}, {"days": "Sun", "time": "Closed"}], "id": "9050300087", "name": "USPS COLLECTION BOX - BLUE BOX", "address": {"city": "TORRANCE", "state": "CA", "street": "5326 EDGEMERE DR", "postcode": "90503"}}},
{"geometry": {"type": "Point", "coordinates": [-118.2953506336, 33.8523871659]}, "type": "Feature", "properties": {"collection_times": [{"days": "Mon-Fri", "time": "3:00pm"}, {"days": "Sat", "time": "1:00pm"}, {"days": "Sun", "time": "Closed"}], "id": "9050300102", "name": "USPS COLLECTION BOX - BLUE BOX", "address": {"city": "TORRANCE", "state": "CA", "street": "19681 PACIFIC GATEWAY", "postcode": "90503"}}},
{"geometry": {"type": "Point", "coordinates": [-118.3130632425, 33.8654088244]}, "type": "Feature", "properties": {"collection_times": [{"days": "Mon-Sat", "time": "2:00pm"}, {"days": "Sun", "time": "Closed"}], "id": "9050400007", "name": "USPS COLLECTION BOX - BLUE BOX", "address": {"city": "TORRANCE", "state": "CA", "street": "18205 DORMAN AVE", "postcode": "90504"}}},
{"geometry": {"type": "Point", "coordinates": [-118.3264886438, 33.8779706657]}, "type": "Feature", "properties": {"collection_times": [{"days": "Mon-Sat", "time": "1:00pm"}, {"days": "Sun", "time": "Closed"}], "id": "9050400009", "name": "USPS COLLECTION BOX - BLUE BOX", "address": {"city": "TORRANCE", "state": "CA", "street": "16741 CRENSHAW BLVD", "postcode": "90504"}}},
{"geometry": {"type": "Point", "coordinates": [-118.3358423003, 33.8728922228]}, "type": "Feature", "properties": {"collection_times": [{"days": "Mon-Fri", "time": "12:00pm"}, {"days": "Sat", "time": "1:00pm"}, {"days": "Sun", "time": "Closed"}], "id": "9050400011", "name": "USPS COLLECTION BOX - BLUE BOX", "address": {"city": "TORRANCE", "state": "CA", "street": "3615 ARTESIA BLVD", "postcode": "90504"}}},
{"geometry": {"type": "Point", "coordinates": [-118.3312596585, 33.8716504737]}, "type": "Feature", "properties": {"collection_times": [{"days": "Mon-Fri", "time": "3:00pm"}, {"days": "Sat", "time": "4:00pm"}, {"days": "Sun", "time": "Closed"}], "id": "9050400013", "name": "USPS COLLECTION BOX - EXPRESS", "address": {"city": "TORRANCE", "state": "CA", "street": "18080 CRENSHAW BLVD", "postcode": "90504"}}},
{"geometry": {"type": "Point", "coordinates": [-118.3264803631, 33.8665243547]}, "type": "Feature", "properties": {"collection_times": [{"days": "Mon-Fri", "time": "5:00pm"}, {"days": "Sat", "time": "4:00pm"}, {"days": "Sun", "time": "Closed"}], "id": "9050400020", "name": "USPS COLLECTION BOX - BLUE BOX", "address": {"city": "TORRANCE", "state": "CA", "street": "18080 CRENSHAW BLVD", "postcode": "90504"}}},
{"geometry": {"type": "Point", "coordinates": [-118.3129283852, 33.858357206]}, "type": "Feature", "properties": {"collection_times": [{"days": "Mon-Fri", "time": "3:00pm"}, {"days": "Sat", "time": "1:00pm"}, {"days": "Sun", "time": "Closed"}], "id": "9050400021", "name": "USPS COLLECTION BOX - BLUE BOX", "address": {"city": "TORRANCE", "state": "CA", "street": "1995 W 190TH ST", "postcode": "90504"}}},
{"geometry": {"type": "Point", "coordinates": [-118.3312596585, 33.8716504737]}, "type": "Feature", "properties": {"collection_times": [{"days": "Mon-Fri", "time": "3:00pm"}, {"days": "Sat", "time": "1:00pm"}, {"days": "Sun", "time": "Closed"}], "id": "9050400022", "name": "USPS COLLECTION BOX - EXPRESS", "address": {"city": "TORRANCE", "state": "CA", "street": "1995 W 190TH ST", "postcode": "90504"}}},
{"geometry": {"type": "Point", "coordinates": [-118.3264566328, 33.8667004777]}, "type": "Feature", "properties": {"collection_times": [{"days": "Mon-Fri", "time": "5:00pm"}, {"days": "Sat", "time": "4:00pm"}, {"days": "Sun", "time": "Closed"}], "id": "9050400023", "name": "USPS COLLECTION BOX - PO LOBBY", "address": {"city": "TORRANCE", "state": "CA", "street": "18080 CRENSHAW BLVD LBBY", "postcode": "90504"}}},
{"geometry": {"type": "Point", "coordinates": [-118.3264566328, 33.8667004777]}, "type": "Feature", "properties": {"collection_times": [{"days": "Mon-Fri", "time": "5:00pm"}, {"days": "Sat", "time": "4:00pm"}, {"days": "Sun", "time": "Closed"}], "id": "9050400024", "name": "USPS COLLECTION BOX - APC", "address": {"city": "TORRANCE", "state": "CA", "street": "18080 CRENSHAW BLVD LBBY", "postcode": "90504"}}},
{"geometry": {"type": "Point", "coordinates": [-118.343319784, 33.8156287282]}, "type": "Feature", "properties": {"collection_times": [{"days": "Mon-Fri", "time": "3:00pm"}, {"days": "Sat", "time": "1:00pm"}, {"days": "Sun", "time": "Closed"}], "id": "9050500003", "name": "USPS COLLECTION BOX - BLUE BOX", "address": {"city": "TORRANCE", "state": "CA", "street": "3401 FUJITA ST", "postcode": "90505"}}},
{"geometry": {"type": "Point", "coordinates": [-118.3478793045, 33.8114504225]}, "type": "Feature", "properties": {"collection_times": [{"days": "Mon-Fri", "time": "3:00pm"}, {"days": "Sat", "time": "1:00pm"}, {"days": "Sun", "time": "Closed"}], "id": "9050500005", "name": "USPS COLLECTION BOX - EXPRESS", "address": {"city": "TORRANCE", "state": "CA", "street": "3401 FUJITA ST", "postcode": "90505"}}},
{"geometry": {"type": "Point", "coordinates": [-118.3376152122, 33.8135016828]}, "type": "Feature", "properties": {"collection_times": [{"days": "Mon-Fri", "time": "3:00pm"}, {"days": "Sat", "time": "1:00pm"}, {"days": "Sun", "time": "Closed"}], "id": "9050500006", "name": "USPS COLLECTION BOX - BLUE BOX", "address": {"city": "TORRANCE", "state": "CA", "street": "23535 TELO AVE", "postcode": "90505"}}},
{"geometry": {"type": "Point", "coordinates": [-118.3376152122, 33.8135016828]}, "type": "Feature", "properties": {"collection_times": [{"days": "Mon-Fri", "time": "3:00pm"}, {"days": "Sat", "time": "1:00pm"}, {"days": "Sun", "time": "Closed"}], "id": "9050500007", "name": "USPS COLLECTION BOX - BLUE BOX", "address": {"city": "TORRANCE", "state": "CA", "street": "23535 TELO AVE", "postcode": "90505"}}},
{"geometry": {"type": "Point", "coordinates": [-118.3404664869, 33.824226474]}, "type": "Feature", "properties": {"collection_times": [{"days": "Mon-Fri", "time": "12:00pm"}, {"days": "Sat", "time": "1:00pm"}, {"days": "Sun", "time": "Closed"}], "id": "9050500008", "name": "USPS COLLECTION BOX - BLUE BOX", "address": {"city": "TORRANCE", "state": "CA", "street": "3020 SEPULVEDA BLVD", "postcode": "90505"}}},
{"geometry": {"type": "Point", "coordinates": [-118.3487396398, 33.8065776237]}, "type": "Feature", "properties": {"collection_times": [{"days": "Mon-Fri", "time": "3:00pm"}, {"days": "Sat", "time": "1:00pm"}, {"days": "Sun", "time": "Closed"}], "id": "9050500011", "name": "USPS COLLECTION BOX - BLUE BOX", "address": {"city": "TORRANCE", "state": "CA", "street": "24000 MADISON ST", "postcode": "90505"}}},
{"geometry": {"type": "Point", "coordinates": [-118.3487396398, 33.8065776237]}, "type": "Feature", "properties": {"collection_times": [{"days": "Mon-Fri", "time": "3:00pm"}, {"days": "Sat", "time": "1:00pm"}, {"days": "Sun", "time": "Closed"}], "id": "9050500012", "name": "USPS COLLECTION BOX - BLUE BOX", "address": {"city": "TORRANCE", "state": "CA", "street": "24000 MADISON ST", "postcode": "90505"}}},
{"geometry": {"type": "Point", "coordinates": [-118.3478793045, 33.8114504225]}, "type": "Feature", "properties": {"collection_times": [{"days": "Mon-Fri", "time": "5:00pm"}, {"days": "Sat", "time": "4:15pm"}, {"days": "Sun", "time": "Closed"}], "id": "9050500013", "name": "USPS COLLECTION BOX - EXPRESS", "address": {"city": "TORRANCE", "state": "CA", "street": "4216 PACIFIC COAST HWY", "postcode": "90505"}}},
{"geometry": {"type": "Point", "coordinates": [-118.3585287558, 33.8078396077]}, "type": "Feature", "properties": {"collection_times": [{"days": "Mon-Fri", "time": "5:00pm"}, {"days": "Sat", "time": "4:15pm"}, {"days": "Sun", "time": "Closed"}], "id": "9050500014", "name": "USPS COLLECTION BOX - BLUE BOX", "address": {"city": "TORRANCE", "state": "CA", "street": "4216 PACIFIC COAST HWY", "postcode": "90505"}}},
{"geometry": {"type": "Point", "coordinates": [-118.3585287558, 33.8078396077]}, "type": "Feature", "properties": {"collection_times": [{"days": "Mon-Fri", "time": "5:00pm"}, {"days": "Sat", "time": "4:15pm"}, {"days": "Sun", "time": "Closed"}], "id": "9050500015", "name": "USPS COLLECTION BOX - BLUE BOX", "address": {"city": "TORRANCE", "state": "CA", "street": "4216 PACIFIC COAST HWY", "postcode": "90505"}}},
{"geometry": {"type": "Point", "coordinates": [-118.3490204632, 33.8149532587]}, "type": "Feature", "properties": {"collection_times": [{"days": "Mon-Fri", "time": "3:00pm"}, {"days": "Sat", "time": "1:00pm"}, {"days": "Sun", "time": "Closed"}], "id": "9050500017", "name": "USPS COLLECTION BOX - BLUE BOX", "address": {"city": "TORRANCE", "state": "CA", "street": "3655 LOMITA BLVD", "postcode": "90505"}}},
{"geometry": {"type": "Point", "coordinates": [-118.3294803369, 33.7930391729]}, "type": "Feature", "properties": {"collection_times": [{"days": "Mon-Fri", "time": "3:00pm"}, {"days": "Sat", "time": "1:00pm"}, {"days": "Sun", "time": "Closed"}], "id": "9050500022", "name": "USPS COLLECTION BOX - BLUE BOX", "address": {"city": "TORRANCE", "state": "CA", "street": "2601 AIRPORT DR", "postcode": "90505"}}},
{"geometry": {"type": "Point", "coordinates": [-118.3513052147, 33.8168615067]}, "type": "Feature", "properties": {"collection_times": [{"days": "Mon-Fri", "time": "3:00pm"}, {"days": "Sat", "time": "1:00pm"}, {"days": "Sun", "time": "Closed"}], "id": "9050500024", "name": "USPS COLLECTION BOX - BLUE BOX", "address": {"city": "TORRANCE", "state": "CA", "street": "23133 HAWTHORNE BLVD", "postcode": "90505"}}},
{"geometry": {"type": "Point", "coordinates": [-118.3506014078, 33.8092082493]}, "type": "Feature", "properties": {"collection_times": [{"days": "Mon-Fri", "time": "3:00pm"}, {"days": "Sat", "time": "1:00pm"}, {"days": "Sun", "time": "Closed"}], "id": "9050500025", "name": "USPS COLLECTION BOX - BLUE BOX", "address": {"city": "TORRANCE", "state": "CA", "street": "23800 HAWTHORNE BLVD", "postcode": "90505"}}},
{"geometry": {"type": "Point", "coordinates": [-118.3509535875, 33.8144309059]}, "type": "Feature", "properties": {"collection_times": [{"days": "Mon-Fri", "time": "3:00pm"}, {"days": "Sat", "time": "1:00pm"}, {"days": "Sun", "time": "Closed"}], "id": "9050500026", "name": "USPS COLLECTION BOX - BLUE BOX", "address": {"city": "TORRANCE", "state": "CA", "street": "23326 HAWTHORNE BLVD", "postcode": "90505"}}},
{"geometry": {"type": "Point", "coordinates": [-118.3408142246, 33.7886199967]}, "type": "Feature", "properties": {"collection_times": [{"days": "Mon-Sat", "time": "1:00pm"}, {"days": "Sun", "time": "Closed"}], "id": "9050500027", "name": "USPS COLLECTION BOX - BLUE BOX", "address": {"city": "TORRANCE", "state": "CA", "street": "2905 ROLLING HILLS RD", "postcode": "90505"}}},
{"geometry": {"type": "Point", "coordinates": [-118.3478793045, 33.8114504225]}, "type": "Feature", "properties": {"collection_times": [{"days": "Mon-Fri", "time": "3:00pm"}, {"days": "Sat", "time": "1:00pm"}, {"days": "Sun", "time": "Closed"}], "id": "9050500029", "name": "USPS COLLECTION BOX - EXPRESS", "address": {"city": "TORRANCE", "state": "CA", "street": "24000 MADISON ST", "postcode": "90505"}}},
{"geometry": {"type": "Point", "coordinates": [-118.3408624257, 33.7979136539]}, "type": "Feature", "properties": {"collection_times": [{"days": "Mon-Fri", "time": "3:00pm"}, {"days": "Sat", "time": "1:00pm"}, {"days": "Sun", "time": "Closed"}], "id": "9050500032", "name": "USPS COLLECTION BOX - BLUE BOX", "address": {"city": "TORRANCE", "state": "CA", "street": "3142 PACIFIC COAST HWY", "postcode": "90505"}}},
{"geometry": {"type": "Point", "coordinates": [-118.3353145874, 33.7937170055]}, "type": "Feature", "properties": {"collection_times": [{"days": "Mon-Fri", "time": "12:00pm"}, {"days": "Sat", "time": "1:00pm"}, {"days": "Sun", "time": "Closed"}], "id": "9050500033", "name": "USPS COLLECTION BOX - BLUE BOX", "address": {"city": "TORRANCE", "state": "CA", "street": "2785 PACIFIC COAST HWY", "postcode": "90505"}}},
{"geometry": {"type": "Point", "coordinates": [-118.3693328696, 33.8267966503]}, "type": "Feature", "properties": {"collection_times": [{"days": "Mon-Sat", "time": "1:00pm"}, {"days": "Sun", "time": "Closed"}], "id": "9050500036", "name": "USPS COLLECTION BOX - BLUE BOX", "address": {"city": "TORRANCE", "state": "CA", "street": "22217 PALOS VERDES BLVD", "postcode": "90505"}}},
{"geometry": {"type": "Point", "coordinates": [-118.3493954612, 33.8184134136]}, "type": "Feature", "properties": {"collection_times": [{"days": "Mon-Sat", "time": "1:00pm"}, {"days": "Sun", "time": "Closed"}], "id": "9050500041", "name": "USPS COLLECTION BOX - BLUE BOX", "address": {"city": "TORRANCE", "state": "CA", "street": "22938 SAMUEL ST", "postcode": "90505"}}},
{"geometry": {"type": "Point", "coordinates": [-118.3431683652, 33.8187150682]}, "type": "Feature", "properties": {"collection_times": [{"days": "Mon-Sat", "time": "1:00pm"}, {"days": "Sun", "time": "Closed"}], "id": "9050500043", "name": "USPS COLLECTION BOX - BLUE BOX", "address": {"city": "TORRANCE", "state": "CA", "street": "22925 NADINE CIR", "postcode": "90505"}}},
{"geometry": {"type": "Point", "coordinates": [-118.3405078498, 33.8207591401]}, "type": "Feature", "properties": {"collection_times": [{"days": "Mon-Sat", "time": "2:00pm"}, {"days": "Sun", "time": "Closed"}], "id": "9050500044", "name": "USPS COLLECTION BOX - BLUE BOX", "address": {"city": "TORRANCE", "state": "CA", "street": "22727 MAPLE AVE", "postcode": "90505"}}},
{"geometry": {"type": "Point", "coordinates": [-118.3452858618, 33.8133089457]}, "type": "Feature", "properties": {"collection_times": [{"days": "Mon-Fri", "time": "3:00pm"}, {"days": "Sat", "time": "1:00pm"}, {"days": "Sun", "time": "Closed"}], "id": "9050500050", "name": "USPS COLLECTION BOX - BLUE BOX", "address": {"city": "TORRANCE", "state": "CA", "street": "3440 LOMITA BLVD", "postcode": "90505"}}},
{"geometry": {"type": "Point", "coordinates": [-118.3436498295, 33.8126015362]}, "type": "Feature", "properties": {"collection_times": [{"days": "Mon-Fri", "time": "3:00pm"}, {"days": "Sat", "time": "1:00pm"}, {"days": "Sun", "time": "Closed"}], "id": "9050500051", "name": "USPS COLLECTION BOX - BLUE BOX", "address": {"city": "TORRANCE", "state": "CA", "street": "3330 LOMITA BLVD", "postcode": "90505"}}},
{"geometry": {"type": "Point", "coordinates": [-118.3285523557, 33.8211735566]}, "type": "Feature", "properties": {"collection_times": [{"days": "Mon-Sat", "time": "3:00pm"}, {"days": "Sun", "time": "Closed"}], "id": "9050500061", "name": "USPS COLLECTION BOX - BLUE BOX", "address": {"city": "TORRANCE", "state": "CA", "street": "22535 CRENSHAW BLVD", "postcode": "90505"}}},
{"geometry": {"type": "Point", "coordinates": [-118.330490594, 33.8108909776]}, "type": "Feature", "properties": {"collection_times": [{"days": "Mon-Fri", "time": "3:00pm"}, {"days": "Sat", "time": "1:00pm"}, {"days": "Sun", "time": "Closed"}], "id": "9050500063", "name": "USPS COLLECTION BOX - BLUE BOX", "address": {"city": "TORRANCE", "state": "CA", "street": "2530 W 237TH ST", "postcode": "90505"}}},
{"geometry": {"type": "Point", "coordinates": [-118.3534021432, 33.8256353781]}, "type": "Feature", "properties": {"collection_times": [{"days": "Mon-Fri", "time": "4:30pm"}, {"days": "Sat", "time": "4:00pm"}, {"days": "Sun", "time": "Closed"}], "id": "9050500064", "name": "USPS COLLECTION BOX - BLUE BOX", "address": {"city": "TORRANCE", "state": "CA", "street": "3856 SEPULVEDA BLVD", "postcode": "90505"}}},
{"geometry": {"type": "Point", "coordinates": [-118.3506014078, 33.8092082493]}, "type": "Feature", "properties": {"collection_times": [{"days": "Mon-Fri", "time": "3:00pm"}, {"days": "Sat", "time": "1:00pm"}, {"days": "Sun", "time": "Closed"}], "id": "9050500067", "name": "USPS COLLECTION BOX - BLUE BOX", "address": {"city": "TORRANCE", "state": "CA", "street": "23800 HAWTHORNE BLVD", "postcode": "90505"}}},
{"geometry": {"type": "Point", "coordinates": [-118.3478793045, 33.8114504225]}, "type": "Feature", "properties": {"collection_times": [{"days": "Mon-Fri", "time": "3:00pm"}, {"days": "Sat", "time": "1:00pm"}, {"days": "Sun", "time": "Closed"}], "id": "9050500068", "name": "USPS COLLECTION BOX - EXPRESS", "address": {"city": "TORRANCE", "state": "CA", "street": "23800 HAWTHORNE BLVD", "postcode": "90505"}}},
{"geometry": {"type": "Point", "coordinates": [-118.3477606119, 33.8119142371]}, "type": "Feature", "properties": {"collection_times": [{"days": "Mon-Fri", "time": "3:00pm"}, {"days": "Sat", "time": "1:00pm"}, {"days": "Sun", "time": "Closed"}], "id": "9050500073", "name": "USPS COLLECTION BOX - BLUE BOX", "address": {"city": "TORRANCE", "state": "CA", "street": "23451 MADISON ST", "postcode": "90505"}}},
{"geometry": {"type": "Point", "coordinates": [-118.3541923598, 33.8063058286]}, "type": "Feature", "properties": {"collection_times": [{"days": "Mon-Fri", "time": "1:00pm"}, {"days": "Sat", "time": "11:00am"}, {"days": "Sun", "time": "Closed"}], "id": "9050500074", "name": "USPS COLLECTION BOX - BLUE BOX", "address": {"city": "TORRANCE", "state": "CA", "street": "3855 PACIFIC COAST HWY", "postcode": "90505"}}},
{"geometry": {"type": "Point", "coordinates": [-118.3294803369, 33.7930391729]}, "type": "Feature", "properties": {"collection_times": [{"days": "Mon-Fri", "time": "3:00pm"}, {"days": "Sat", "time": "1:00pm"}, {"days": "Sun", "time": "Closed"}], "id": "9050500082", "name": "USPS COLLECTION BOX - BLUE BOX", "address": {"city": "TORRANCE", "state": "CA", "street": "2601 AIRPORT DR", "postcode": "90505"}}},
{"geometry": {"type": "Point", "coordinates": [-118.3491979071, 33.7940314464]}, "type": "Feature", "properties": {"collection_times": [{"days": "Mon-Fri", "time": "3:00pm"}, {"days": "Sat", "time": "1:00pm"}, {"days": "Sun", "time": "Closed"}], "id": "9050500084", "name": "USPS COLLECTION BOX - BLUE BOX", "address": {"city": "TORRANCE", "state": "CA", "street": "25550 HAWTHORNE BLVD", "postcode": "90505"}}},
{"geometry": {"type": "Point", "coordinates": [-118.3585287558, 33.8078396077]}, "type": "Feature", "properties": {"collection_times": [{"days": "Mon-Fri", "time": "5:00pm"}, {"days": "Sat-Sun", "time": "Closed"}], "id": "9050500085", "name": "USPS COLLECTION BOX - PO LOBBY", "address": {"city": "TORRANCE", "state": "CA", "street": "4216 PACIFIC COAST HWY", "postcode": "90505"}}},
{"geometry": {"type": "Point", "coordinates": [-118.3489613153, 33.7951114879]}, "type": "Feature", "properties": {"collection_times": [{"days": "Mon-Fri", "time": "3:00pm"}, {"days": "Sat", "time": "1:00pm"}, {"days": "Sun", "time": "Closed"}], "id": "9050500086", "name": "USPS COLLECTION BOX - BLUE BOX", "address": {"city": "TORRANCE", "state": "CA", "street": "25500 HAWTHORNE BLVD", "postcode": "90505"}}},
{"geometry": {"type": "Point", "coordinates": [-118.3477606119, 33.8119142371]}, "type": "Feature", "properties": {"collection_times": [{"days": "Mon-Fri", "time": "3:00pm"}, {"days": "Sat", "time": "1:00pm"}, {"days": "Sun", "time": "Closed"}], "id": "9050500093", "name": "USPS COLLECTION BOX - BLUE BOX", "address": {"city": "TORRANCE", "state": "CA", "street": "23451 MADISON ST", "postcode": "90505"}}}
]}
