{"type": "FeatureCollection", "features": [
{"geometry": {"type": "Point", "coordinates": [-118.0350835649, 33.9799260528]}, "type": "Feature", "properties": {"collection_times": [{"days": "Mon-Fri", "time": "5:00pm"}, {"days": "Sat", "time": "4:45pm"}, {"days": "Sun", "time": "Closed"}], "id": "9060100008", "name": "USPS COLLECTION BOX - BLUE BOX", "address": {"city": "WHITTIER", "state": "CA", "street": "6709 WASHINGTON AVE", "postcode": "90601"}}},
{"geometry": {"type": "Point", "coordinates": [-118.0472322528, 34.0113682163]}, "type": "Feature", "properties": {"collection_times": [{"days": "Mon-Sat", "time": "12:30pm"}, {"days": "Sun", "time": "Closed"}], "id": "9060100019", "name": "USPS COLLECTION BOX - BLUE BOX", "address": {"city": "WHITTIER", "state": "CA", "street": "4411 LUCAYAN DR", "postcode": "90601"}}},
{"geometry": {"type": "Point", "coordinates": [-118.0404658204, 33.9954700954]}, "type": "Feature", "properties": {"collection_times": [{"days": "Mon-Fri", "time": "5:00pm"}, {"days": "Sat", "time": "4:45pm"}, {"days": "Sun", "time": "Closed"}], "id": "9060100035", "name": "USPS COLLECTION BOX - EXPRESS", "address": {"city": "WHITTIER", "state": "CA", "street": "6709 WASHINGTON AVE", "postcode": "90601"}}},
{"geometry": {"type": "Point", "coordinates": [-118.0350835649, 33.9799260528]}, "type": "Feature", "properties": {"collection_times": [{"days": "Mon-Fri", "time": "5:00pm"}, {"days": "Sat", "time": "4:45pm"}, {"days": "Sun", "time": "Closed"}], "id": "9060100036", "name": "USPS COLLECTION BOX - BLUE BOX", "address": {"city": "WHITTIER", "state": "CA", "street": "6709 WASHINGTON AVE", "postcode": "90601"}}},
{"geometry": {"type": "Point", "coordinates": [-118.0508036059, 33.9808514239]}, "type": "Feature", "properties": {"collection_times": [{"days": "Mon-Sat", "time": "12:00pm"}, {"days": "Sun", "time": "Closed"}], "id": "9060100037", "name": "USPS COLLECTION BOX - BLUE BOX", "address": {"city": "WHITTIER", "state": "CA", "street": "11750 WHITTIER BLVD", "postcode": "90601"}}},
{"geometry": {"type": "Point", "coordinates": [-118.054922669, 33.9949617584]}, "type": "Feature", "properties": {"collection_times": [{"days": "Mon-Sat", "time": "12:30pm"}, {"days": "Sun", "time": "Closed"}], "id": "9060100040", "name": "USPS COLLECTION BOX - BLUE BOX", "address": {"city": "WHITTIER", "state": "CA", "street": "11347 MONTE VISTA DR", "postcode": "90601"}}},
{"geometry": {"type": "Point", "coordinates": [-118.0350835649, 33.9799260528]}, "type": "Feature", "properties": {"collection_times": [{"days": "Mon-Fri", "time": "5:00pm"}, {"days": "Sat", "time": "4:45pm"}, {"days": "Sun", "time": "Closed"}], "id": "9060100047", "name": "USPS COLLECTION BOX - PO LOBBY", "address": {"city": "WHITTIER", "state": "CA", "street": "6709 WASHINGTON AVE LBBY", "postcode": "90601"}}},
{"geometry": {"type": "Point", "coordinates": [-118.0354771895, 33.9827157672]}, "type": "Feature", "properties": {"collection_times": [{"days": "Mon-Fri", "time": "4:30pm"}, {"days": "Sat-Sun", "time": "Closed"}], "id": "9060100048", "name": "USPS COLLECTION BOX - BLUE BOX", "address": {"city": "WHITTIER", "state": "CA", "street": "13117 HADLEY ST", "postcode": "90601"}}},
{"geometry": {"type": "Point", "coordinates": [-118.0137677101, 34.0350626232]}, "type": "Feature", "properties": {"collection_times": [{"days": "Mon-Sat", "time": "12:30pm"}, {"days": "Sun", "time": "Closed"}], "id": "9060100050", "name": "USPS COLLECTION BOX - BLUE BOX", "address": {"city": "WHITTIER", "state": "CA", "street": "1501 WORKMAN MILL RD", "postcode": "90601"}}},
{"geometry": {"type": "Point", "coordinates": [-118.0350835649, 33.9799260528]}, "type": "Feature", "properties": {"collection_times": [{"days": "Mon-Fri", "time": "5:00pm"}, {"days": "Sat", "time": "4:00pm"}, {"days": "Sun", "time": "Closed"}], "id": "9060100051", "name": "USPS COLLECTION BOX - APC", "address": {"city": "WHITTIER", "state": "CA", "street": "6709 WASHINGTON AVE", "postcode": "90601"}}},
{"geometry": {"type": "Point", "coordinates": [-118.0481419482, 33.9674331204]}, "type": "Feature", "properties": {"collection_times": [{"days": "Mon-Sat", "time": "12:30pm"}, {"days": "Sun", "time": "Closed"}], "id": "9060200008", "name": "USPS COLLECTION BOX - BLUE BOX", "address": {"city": "WHITTIER", "state": "CA", "street": "12401 WASHINGTON BLVD", "postcode": "90602"}}},
{"geometry": {"type": "Point", "coordinates": [-118.0344160753, 33.9754240082]}, "type": "Feature", "properties": {"collection_times": [{"days": "Mon-Fri", "time": "3:00pm"}, {"days": "Sat-Sun", "time": "Closed"}], "id": "9060200013", "name": "USPS COLLECTION BOX - BLUE BOX", "address": {"city": "WHITTIER", "state": "CA", "street": "13215 PENN ST", "postcode": "90602"}}},
{"geometry": {"type": "Point", "coordinates": [-118.0373628261, 33.9758758985]}, "type": "Feature", "properties": {"collection_times": [{"days": "Mon-Sat", "time": "12:30pm"}, {"days": "Sun", "time": "Closed"}], "id": "9060200026", "name": "USPS COLLECTION BOX - BLUE BOX", "address": {"city": "WHITTIER", "state": "CA", "street": "7255 GREENLEAF AVE", "postcode": "90602"}}},
{"geometry": {"type": "Point", "coordinates": [-118.0373022769, 33.9763326846]}, "type": "Feature", "properties": {"collection_times": [{"days": "Mon-Fri", "time": "4:30pm"}, {"days": "Sat", "time": "1:15pm"}, {"days": "Sun", "time": "Closed"}], "id": "9060200036", "name": "USPS COLLECTION BOX - BLUE BOX", "address": {"city": "WHITTIER", "state": "CA", "street": "7202 GREENLEAF AVE", "postcode": "90602"}}},
{"geometry": {"type": "Point", "coordinates": [-118.0350562885, 33.9712640698]}, "type": "Feature", "properties": {"collection_times": [{"days": "Mon-Fri", "time": "4:30pm"}, {"days": "Sat", "time": "1:15pm"}, {"days": "Sun", "time": "Closed"}], "id": "9060200037", "name": "USPS COLLECTION BOX - EXPRESS", "address": {"city": "WHITTIER", "state": "CA", "street": "7202 GREENLEAF AVE", "postcode": "90602"}}},
{"geometry": {"type": "Point", "coordinates": [-118.0350562885, 33.9712640698]}, "type": "Feature", "properties": {"collection_times": [{"days": "Mon-Fri", "time": "3:00pm"}, {"days": "Sat-Sun", "time": "Closed"}], "id": "9060200039", "name": "USPS COLLECTION BOX - EXPRESS", "address": {"city": "WHITTIER", "state": "CA", "street": "13215 PENN ST", "postcode": "90602"}}},
{"geometry": {"type": "Point", "coordinates": [-117.9799680231, 33.9441773301]}, "type": "Feature", "properties": {"collection_times": [{"days": "Mon-Fri", "time": "4:15pm"}, {"days": "Sat", "time": "10:30am"}, {"days": "Sun", "time": "Closed"}], "id": "9060300006", "name": "USPS COLLECTION BOX - BLUE BOX", "address": {"city": "WHITTIER", "state": "CA", "street": "10166 POUNDS AVE", "postcode": "90603"}}},
{"geometry": {"type": "Point", "coordinates": [-117.9833170141, 33.9404125292]}, "type": "Feature", "properties": {"collection_times": [{"days": "Mon-Fri", "time": "4:30pm"}, {"days": "Sat-Sun", "time": "Closed"}], "id": "9060300013", "name": "USPS COLLECTION BOX - BLUE BOX", "address": {"city": "WHITTIER", "state": "CA", "street": "16262 WHITTIER BLVD", "postcode": "90603"}}},
{"geometry": {"type": "Point", "coordinates": [-117.9852759599, 33.9413429604]}, "type": "Feature", "properties": {"collection_times": [{"days": "Mon-Fri", "time": "4:30pm"}, {"days": "Sat-Sun", "time": "Closed"}], "id": "9060300014", "name": "USPS COLLECTION BOX - BLUE BOX", "address": {"city": "WHITTIER", "state": "CA", "street": "16201 WHITTIER BLVD", "postcode": "90603"}}},
{"geometry": {"type": "Point", "coordinates": [-117.9991165798, 33.9451201484]}, "type": "Feature", "properties": {"collection_times": [{"days": "Mon-Fri", "time": "5:00pm"}, {"days": "Sat", "time": "4:00pm"}, {"days": "Sun", "time": "Closed"}], "id": "9060300025", "name": "USPS COLLECTION BOX - BLUE BOX", "address": {"city": "WHITTIER", "state": "CA", "street": "10053 WHITTWOOD DR", "postcode": "90603"}}},
{"geometry": {"type": "Point", "coordinates": [-117.9991165798, 33.9451201484]}, "type": "Feature", "properties": {"collection_times": [{"days": "Mon-Fri", "time": "5:00pm"}, {"days": "Sat", "time": "3:00pm"}, {"days": "Sun", "time": "Closed"}], "id": "9060300027", "name": "USPS COLLECTION BOX - PO LOBBY", "address": {"city": "WHITTIER", "state": "CA", "street": "10053 WHITTWOOD DR LBBY", "postcode": "90603"}}},
{"geometry": {"type": "Point", "coordinates": [-117.9991165798, 33.9451201484]}, "type": "Feature", "properties": {"collection_times": [{"days": "Mon-Fri", "time": "5:00pm"}, {"days": "Sat", "time": "3:00pm"}, {"days": "Sun", "time": "Closed"}], "id": "9060300028", "name": "USPS COLLECTION BOX - APC", "address": {"city": "WHITTIER", "state": "CA", "street": "10053 WHITTWOOD DR", "postcode": "90603"}}},
{"geometry": {"type": "Point", "coordinates": [-118.0116665161, 33.9361914772]}, "type": "Feature", "properties": {"collection_times": [{"days": "Mon-Fri", "time": "1:15pm"}, {"days": "Sat", "time": "10:30am"}, {"days": "Sun", "time": "Closed"}], "id": "9060400007", "name": "USPS COLLECTION BOX - BLUE BOX", "address": {"city": "WHITTIER", "state": "CA", "street": "10660 LA MIRADA BLVD", "postcode": "90604"}}},
{"geometry": {"type": "Point", "coordinates": [-118.0396314927, 33.9354040065]}, "type": "Feature", "properties": {"collection_times": [{"days": "Mon-Fri", "time": "1:15pm"}, {"days": "Sat", "time": "4:00pm"}, {"days": "Sun", "time": "Closed"}], "id": "9060400019", "name": "USPS COLLECTION BOX - BLUE BOX", "address": {"city": "WHITTIER", "state": "CA", "street": "13692 TELEGRAPH RD", "postcode": "90604"}}},
{"geometry": {"type": "Point", "coordinates": [-118.0086713394, 33.9498425206]}, "type": "Feature", "properties": {"collection_times": [{"days": "Mon-Fri", "time": "4:15pm"}, {"days": "Sat", "time": "1:30pm"}, {"days": "Sun", "time": "Closed"}], "id": "9060500013", "name": "USPS COLLECTION BOX - BLUE BOX", "address": {"city": "WHITTIER", "state": "CA", "street": "14831 WHITTIER BLVD", "postcode": "90605"}}},
{"geometry": {"type": "Point", "coordinates": [-118.018687453, 33.9551303471]}, "type": "Feature", "properties": {"collection_times": [{"days": "Mon-Fri", "time": "4:14pm"}, {"days": "Sat-Sun", "time": "Closed"}], "id": "9060500014", "name": "USPS COLLECTION BOX - BLUE BOX", "address": {"city": "WHITTIER", "state": "CA", "street": "14350 WHITTIER BLVD", "postcode": "90605"}}},
{"geometry": {"type": "Point", "coordinates": [-118.0490174842, 33.9472795308]}, "type": "Feature", "properties": {"collection_times": [{"days": "Mon-Fri", "time": "12:30pm"}, {"days": "Sat", "time": "12:00pm"}, {"days": "Sun", "time": "Closed"}], "id": "9060500015", "name": "USPS COLLECTION BOX - BLUE BOX", "address": {"city": "WHITTIER", "state": "CA", "street": "9845 PAINTER AVE", "postcode": "90605"}}},
{"geometry": {"type": "Point", "coordinates": [-118.0444258542, 33.9389299978]}, "type": "Feature", "properties": {"collection_times": [{"days": "Mon-Fri", "time": "5:00pm"}, {"days": "Sat", "time": "4:15pm"}, {"days": "Sun", "time": "Closed"}], "id": "9060500018", "name": "USPS COLLECTION BOX - BLUE BOX", "address": {"city": "WHITTIER", "state": "CA", "street": "13445 TELEGRAPH RD", "postcode": "90605"}}},
{"geometry": {"type": "Point", "coordinates": [-118.0257249063, 33.960662146]}, "type": "Feature", "properties": {"collection_times": [{"days": "Mon-Fri", "time": "5:50pm"}, {"days": "Sat", "time": "5:00pm"}, {"days": "Sun", "time": "Closed"}], "id": "9060500019", "name": "USPS COLLECTION BOX - BLUE BOX", "address": {"city": "WHITTIER", "state": "CA", "street": "8520 MICHIGAN AVE", "postcode": "90605"}}},
{"geometry": {"type": "Point", "coordinates": [-118.0257249063, 33.960662146]}, "type": "Feature", "properties": {"collection_times": [{"days": "Mon-Sat", "time": "5:00pm"}, {"days": "Sun", "time": "Closed"}], "id": "9060500023", "name": "USPS COLLECTION BOX - EXPRESS", "address": {"city": "WHITTIER", "state": "CA", "street": "8520 MICHIGAN AVE", "postcode": "90605"}}},
{"geometry": {"type": "Point", "coordinates": [-118.0259259789, 33.9604785046]}, "type": "Feature", "properties": {"collection_times": [{"days": "Mon-Fri", "time": "5:50pm"}, {"days": "Sat", "time": "5:00pm"}, {"days": "Sun", "time": "Closed"}], "id": "9060500030", "name": "USPS COLLECTION BOX - PO LOBBY", "address": {"city": "WHITTIER", "state": "CA", "street": "8520 MICHIGAN AVE LBBY", "postcode": "90605"}}},
{"geometry": {"type": "Point", "coordinates": [-118.0325666004, 33.9458805939]}, "type": "Feature", "properties": {"collection_times": [{"days": "Mon-Fri", "time": "5:00pm"}, {"days": "Sat", "time": "4:15pm"}, {"days": "Sun", "time": "Closed"}], "id": "9060500031", "name": "USPS COLLECTION BOX - BLUE BOX", "address": {"city": "WHITTIER", "state": "CA", "street": "13445 TELEGRAPH RD", "postcode": "90605"}}},
{"geometry": {"type": "Point", "coordinates": [-118.0444258542, 33.9389299978]}, "type": "Feature", "properties": {"collection_times": [{"days": "Mon-Fri", "time": "5:00pm"}, {"days": "Sat-Sun", "time": "Closed"}], "id": "9060500033", "name": "USPS COLLECTION BOX - PO LOBBY", "address": {"city": "WHITTIER", "state": "CA", "street": "13445 TELEGRAPH RD (SF PLAZA LOBBY)", "postcode": "90605"}}},
{"geometry": {"type": "Point", "coordinates": [-118.0259259789, 33.9604785046]}, "type": "Feature", "properties": {"collection_times": [{"days": "Mon-Fri", "time": "5:50pm"}, {"days": "Sat", "time": "5:00pm"}, {"days": "Sun", "time": "Closed"}], "id": "9060500034", "name": "USPS COLLECTION BOX - PO LOBBY", "address": {"city": "WHITTIER", "state": "CA", "street": "8520 MICHIGAN AVE LBBY", "postcode": "90605"}}},
{"geometry": {"type": "Point", "coordinates": [-118.0259259789, 33.9604785046]}, "type": "Feature", "properties": {"collection_times": [{"days": "Mon-Fri", "time": "5:50pm"}, {"days": "Sat", "time": "5:00pm"}, {"days": "Sun", "time": "Closed"}], "id": "9060500035", "name": "USPS COLLECTION BOX - APC", "address": {"city": "WHITTIER", "state": "CA", "street": "8520 MICHIGAN AVE", "postcode": "90605"}}},
{"geometry": {"type": "Point", "coordinates": [-118.0257249063, 33.960662146]}, "type": "Feature", "properties": {"collection_times": [{"days": "Mon-Fri", "time": "5:50pm"}, {"days": "Sat", "time": "5:00pm"}, {"days": "Sun", "time": "Closed"}], "id": "9060500037", "name": "USPS COLLECTION BOX - BLUE BOX", "address": {"city": "WHITTIER", "state": "CA", "street": "8520 MICHIGAN AVE", "postcode": "90605"}}},
{"geometry": {"type": "Point", "coordinates": [-118.0715885938, 33.9690087119]}, "type": "Feature", "properties": {"collection_times": [{"days": "Mon-Fri", "time": "5:00pm"}, {"days": "Sat", "time": "4:30pm"}, {"days": "Sun", "time": "Closed"}], "id": "9060600003", "name": "USPS COLLECTION BOX - BLUE BOX", "address": {"city": "WHITTIER", "state": "CA", "street": "8232 NORWALK BLVD", "postcode": "90606"}}},
{"geometry": {"type": "Point", "coordinates": [-118.0718916584, 33.9721582634]}, "type": "Feature", "properties": {"collection_times": [{"days": "Mon-Fri", "time": "12:30pm"}, {"days": "Sat", "time": "12:45pm"}, {"days": "Sun", "time": "Closed"}], "id": "9060600026", "name": "USPS COLLECTION BOX - BLUE BOX", "address": {"city": "WHITTIER", "state": "CA", "street": "11221 WASHINGTON BLVD", "postcode": "90606"}}},
{"geometry": {"type": "Point", "coordinates": [-118.0715885938, 33.9690087119]}, "type": "Feature", "properties": {"collection_times": [{"days": "Mon-Fri", "time": "5:00pm"}, {"days": "Sat-Sun", "time": "Closed"}], "id": "9060600027", "name": "USPS COLLECTION BOX - PO LOBBY", "address": {"city": "WHITTIER", "state": "CA", "street": "8232 NORWALK BLVD", "postcode": "90606"}}},
{"geometry": {"type": "Point", "coordinates": [-118.0611193838, 33.969650047]}, "type": "Feature", "properties": {"collection_times": [{"days": "Mon-Sat", "time": "12:30pm"}, {"days": "Sun", "time": "Closed"}], "id": "9060600028", "name": "USPS COLLECTION BOX - BLUE BOX", "address": {"city": "WHITTIER", "state": "CA", "street": "11747 WASHINGTON BLVD", "postcode": "90606"}}},
{"geometry": {"type": "Point", "coordinates": [-118.0160742966, 33.8588717932]}, "type": "Feature", "properties": {"collection_times": [{"days": "Mon-Fri", "time": "11:30am"}, {"days": "Sat", "time": "10:00am"}, {"days": "Sun", "time": "Closed"}], "id": "9062000019", "name": "USPS COLLECTION BOX - BLUE BOX", "address": {"city": "BUENA PARK", "state": "CA", "street": "6800 ORANGETHORPE AVE", "postcode": "90620"}}},
{"geometry": {"type": "Point", "coordinates": [-118.0111507927, 33.8384475805]}, "type": "Feature", "properties": {"collection_times": [{"days": "Mon-Sat", "time": "3:00pm"}, {"days": "Sun", "time": "Closed"}], "id": "9062000054", "name": "USPS COLLECTION BOX - BLUE BOX", "address": {"city": "BUENA PARK", "state": "CA", "street": "8545 KNOTT AVE", "postcode": "90620"}}},
{"geometry": {"type": "Point", "coordinates": [-118.000120912, 33.8686950844]}, "type": "Feature", "properties": {"collection_times": [{"days": "Mon-Fri", "time": "11:45am"}, {"days": "Sat", "time": "10:00am"}, {"days": "Sun", "time": "Closed"}], "id": "9062100001", "name": "USPS COLLECTION BOX - BLUE BOX", "address": {"city": "BUENA PARK", "state": "CA", "street": "6280 AUTO CENTER DR", "postcode": "90621"}}},
{"geometry": {"type": "Point", "coordinates": [-117.9969896954, 33.8703730421]}, "type": "Feature", "properties": {"collection_times": [{"days": "Mon-Fri", "time": "11:45am"}, {"days": "Sat", "time": "10:00am"}, {"days": "Sun", "time": "Closed"}], "id": "9062100006", "name": "USPS COLLECTION BOX - EXPRESS", "address": {"city": "BUENA PARK", "state": "CA", "street": "7001 VILLAGE DR NE", "postcode": "90621"}}},
{"geometry": {"type": "Point", "coordinates": [-117.9932137391, 33.8750119182]}, "type": "Feature", "properties": {"collection_times": [{"days": "Mon-Fri", "time": "11:45am"}, {"days": "Sat", "time": "10:00am"}, {"days": "Sun", "time": "Closed"}], "id": "9062100014", "name": "USPS COLLECTION BOX - BLUE BOX", "address": {"city": "BUENA PARK", "state": "CA", "street": "7001 VILLAGE(AT KNOTT AVE) NE", "postcode": "90621"}}},
{"geometry": {"type": "Point", "coordinates": [-117.9919975328, 33.8698532013]}, "type": "Feature", "properties": {"collection_times": [{"days": "Mon-Fri", "time": "5:00pm"}, {"days": "Sat", "time": "10:00am"}, {"days": "Sun", "time": "Closed"}], "id": "9062100017", "name": "USPS COLLECTION BOX - BLUE BOX", "address": {"city": "BUENA PARK", "state": "CA", "street": "8082 COMMONWEALTH AVE", "postcode": "90621"}}},
{"geometry": {"type": "Point", "coordinates": [-117.9919975328, 33.8698532013]}, "type": "Feature", "properties": {"collection_times": [{"days": "Mon-Fri", "time": "5:00pm"}, {"days": "Sat", "time": "10:00am"}, {"days": "Sun", "time": "Closed"}], "id": "9062100025", "name": "USPS COLLECTION BOX - BLUE BOX", "address": {"city": "BUENA PARK", "state": "CA", "street": "8082 COMMONWEALTH AVE", "postcode": "90621"}}},
{"geometry": {"type": "Point", "coordinates": [-117.9919975328, 33.8698532013]}, "type": "Feature", "properties": {"collection_times": [{"days": "Mon-Fri", "time": "4:00pm"}, {"days": "Sat", "time": "10:00am"}, {"days": "Sun", "time": "Closed"}], "id": "9062100027", "name": "USPS COLLECTION BOX - PO LOBBY", "address": {"city": "BUENA PARK", "state": "CA", "street": "8082 COMMONWEALTH AVE", "postcode": "90621"}}},
{"geometry": {"type": "Point", "coordinates": [-117.997524578, 33.882347059]}, "type": "Feature", "properties": {"collection_times": [{"days": "Mon-Sat", "time": "2:00pm"}, {"days": "Sun", "time": "Closed"}], "id": "9062100029", "name": "USPS COLLECTION BOX - BLUE BOX", "address": {"city": "BUENA PARK", "state": "CA", "street": "5423 BEACH BLVD", "postcode": "90621"}}},
{"geometry": {"type": "Point", "coordinates": [-118.0042636343, 33.8466068746]}, "type": "Feature", "properties": {"collection_times": [{"days": "Mon-Fri", "time": "5:45pm"}, {"days": "Sat", "time": "4:30pm"}, {"days": "Sun", "time": "Closed"}], "id": "9062200001", "name": "USPS COLLECTION BOX - BLUE BOX", "address": {"city": "BUENA PARK", "state": "CA", "street": "7377 LA PALMA AVE", "postcode": "90622"}}},
{"geometry": {"type": "Point", "coordinates": [-118.00458911, 33.8466710371]}, "type": "Feature", "properties": {"collection_times": [{"days": "Mon-Fri", "time": "2:30pm"}, {"days": "Sat", "time": "4:30pm"}, {"days": "Sun", "time": "Closed"}], "id": "9062200002", "name": "USPS COLLECTION BOX - EXPRESS", "address": {"city": "BUENA PARK", "state": "CA", "street": "7377 LA PALMA AVE", "postcode": "90622"}}},
{"geometry": {"type": "Point", "coordinates": [-118.0042636343, 33.8466068746]}, "type": "Feature", "properties": {"collection_times": [{"days": "Mon-Fri", "time": "5:45pm"}, {"days": "Sat", "time": "4:30pm"}, {"days": "Sun", "time": "Closed"}], "id": "9062200003", "name": "USPS COLLECTION BOX - BLUE BOX", "address": {"city": "BUENA PARK", "state": "CA", "street": "7377 LA PALMA AVE", "postcode": "90622"}}},
{"geometry": {"type": "Point", "coordinates": [-118.0042636343, 33.8466068746]}, "type": "Feature", "properties": {"collection_times": [{"days": "Mon-Fri", "time": "5:45pm"}, {"days": "Sat", "time": "4:30pm"}, {"days": "Sun", "time": "Closed"}], "id": "9062200004", "name": "USPS COLLECTION BOX - BLUE BOX", "address": {"city": "BUENA PARK", "state": "CA", "street": "7377 LA PALMA AVE", "postcode": "90622"}}},
{"geometry": {"type": "Point", "coordinates": [-118.0042636343, 33.8466068746]}, "type": "Feature", "properties": {"collection_times": [{"days": "Mon-Fri", "time": "5:45pm"}, {"days": "Sat", "time": "5:00pm"}, {"days": "Sun", "time": "Closed"}], "id": "9062200005", "name": "USPS COLLECTION BOX - PO LOBBY", "address": {"city": "BUENA PARK", "state": "CA", "street": "7377 LA PALMA AVE LBBY", "postcode": "90622"}}},
{"geometry": {"type": "Point", "coordinates": [-118.0042636343, 33.8466068746]}, "type": "Feature", "properties": {"collection_times": [{"days": "Mon-Fri", "time": "5:45pm"}, {"days": "Sat", "time": "5:00pm"}, {"days": "Sun", "time": "Closed"}], "id": "9062200006", "name": "USPS COLLECTION BOX - APC", "address": {"city": "BUENA PARK", "state": "CA", "street": "7377 LA PALMA AVE", "postcode": "90622"}}},
{"geometry": {"type": "Point", "coordinates": [-118.0384736246, 33.8462839268]}, "type": "Feature", "properties": {"collection_times": [{"days": "Mon-Fri", "time": "11:00am"}, {"days": "Sat", "time": "10:00am"}, {"days": "Sun", "time": "Closed"}], "id": "9062300007", "name": "USPS COLLECTION BOX - BLUE BOX", "address": {"city": "BUENA PARK", "state": "CA", "street": "5420 LA PALMA AVE", "postcode": "90623"}}},
{"geometry": {"type": "Point", "coordinates": [-118.0525102016, 33.8509452409]}, "type": "Feature", "properties": {"collection_times": [{"days": "Mon-Fri", "time": "11:00am"}, {"days": "Sat", "time": "10:00am"}, {"days": "Sun", "time": "Closed"}], "id": "9062300012", "name": "USPS COLLECTION BOX - BLUE BOX", "address": {"city": "BUENA PARK", "state": "CA", "street": "7400 ORLEANS LN NE", "postcode": "90623"}}},
{"geometry": {"type": "Point", "coordinates": [-118.03132, 33.85969]}, "type": "Feature", "properties": {"collection_times": [{"days": "Mon-Fri", "time": "3:45pm"}, {"days": "Sat", "time": "10:00am"}, {"days": "Sun", "time": "Closed"}], "id": "9062300021", "name": "USPS COLLECTION BOX - BLUE BOX", "address": {"city": "BUENA PARK", "state": "CA", "street": "50 CENTERPOINTE DR", "postcode": "90623"}}},
{"geometry": {"type": "Point", "coordinates": [-118.0399965598, 33.8496430208]}, "type": "Feature", "properties": {"collection_times": [{"days": "Mon-Fri", "time": "11:15am"}, {"days": "Sat", "time": "10:00am"}, {"days": "Sun", "time": "Closed"}], "id": "9062300022", "name": "USPS COLLECTION BOX - BLUE BOX", "address": {"city": "BUENA PARK", "state": "CA", "street": "5600 ORANGETHORPE AVE", "postcode": "90623"}}},
{"geometry": {"type": "Point", "coordinates": [-118.03865927, 33.846253237]}, "type": "Feature", "properties": {"collection_times": [{"days": "Mon-Sat", "time": "3:00pm"}, {"days": "Sun", "time": "Closed"}], "id": "9062300023", "name": "USPS COLLECTION BOX - BLUE BOX", "address": {"city": "BUENA PARK", "state": "CA", "street": "5418 LA PALMA AVE", "postcode": "90623"}}},
{"geometry": {"type": "Point", "coordinates": [-118.0628223108, 33.8177053742]}, "type": "Feature", "properties": {"collection_times": [{"days": "Mon-Fri", "time": "4:45pm"}, {"days": "Sat", "time": "12:00pm"}, {"days": "Sun", "time": "Closed"}], "id": "9063000006", "name": "USPS COLLECTION BOX - BLUE BOX", "address": {"city": "CYPRESS", "state": "CA", "street": "4037 BALL RD", "postcode": "90630"}}},
{"geometry": {"type": "Point", "coordinates": [-118.031744954, 33.807995094]}, "type": "Feature", "properties": {"collection_times": [{"days": "Mon-Fri", "time": "4:15pm"}, {"days": "Sat", "time": "1:00pm"}, {"days": "Sun", "time": "Closed"}], "id": "9063000008", "name": "USPS COLLECTION BOX - BLUE BOX", "address": {"city": "CYPRESS", "state": "CA", "street": "5796 CORPORATE AVE", "postcode": "90630"}}},
{"geometry": {"type": "Point", "coordinates": [-118.0282989945, 33.8160948141]}, "type": "Feature", "properties": {"collection_times": [{"days": "Mon-Sat", "time": "1:00pm"}, {"days": "Sun", "time": "Closed"}], "id": "9063000034", "name": "USPS COLLECTION BOX - BLUE BOX", "address": {"city": "CYPRESS", "state": "CA", "street": "10051 VALLEY VIEW ST", "postcode": "90630"}}},
{"geometry": {"type": "Point", "coordinates": [-118.0323486749, 33.8316536233]}, "type": "Feature", "properties": {"collection_times": [{"days": "Mon-Fri", "time": "3:15pm"}, {"days": "Sat", "time": "12:15pm"}, {"days": "Sun", "time": "Closed"}], "id": "9063000055", "name": "USPS COLLECTION BOX - EXPRESS", "address": {"city": "CYPRESS", "state": "CA", "street": "5762 LINCOLN AVE", "postcode": "90630"}}},
{"geometry": {"type": "Point", "coordinates": [-118.0398097248, 33.8201404791]}, "type": "Feature", "properties": {"collection_times": [{"days": "Mon-Fri", "time": "5:30pm"}, {"days": "Sat", "time": "5:00pm"}, {"days": "Sun", "time": "Closed"}], "id": "9063000059", "name": "USPS COLLECTION BOX - BLUE BOX", "address": {"city": "CYPRESS", "state": "CA", "street": "5762 LINCOLN AVE", "postcode": "90630"}}},
{"geometry": {"type": "Point", "coordinates": [-118.0265221902, 33.8171594771]}, "type": "Feature", "properties": {"collection_times": [{"days": "Mon-Fri", "time": "4:00pm"}, {"days": "Sat", "time": "12:00pm"}, {"days": "Sun", "time": "Closed"}], "id": "9063000064", "name": "USPS COLLECTION BOX - BLUE BOX", "address": {"city": "CYPRESS", "state": "CA", "street": "6101 BALL RD", "postcode": "90630"}}},
{"geometry": {"type": "Point", "coordinates": [-118.0323328846, 33.8316779325]}, "type": "Feature", "properties": {"collection_times": [{"days": "Mon-Fri", "time": "5:30pm"}, {"days": "Sat", "time": "5:00pm"}, {"days": "Sun", "time": "Closed"}], "id": "9063000069", "name": "USPS COLLECTION BOX - PO LOBBY", "address": {"city": "CYPRESS", "state": "CA", "street": "5762 LINCOLN AVE LBBY", "postcode": "90630"}}},
{"geometry": {"type": "Point", "coordinates": [-118.0301163658, 33.8099179332]}, "type": "Feature", "properties": {"collection_times": [{"days": "Mon-Fri", "time": "5:00pm"}, {"days": "Sat", "time": "3:00pm"}, {"days": "Sun", "time": "Closed"}], "id": "9063000070", "name": "USPS COLLECTION BOX - PO LOBBY", "address": {"city": "CYPRESS", "state": "CA", "street": "5907 CERRITOS AVE LBBY", "postcode": "90630"}}},
{"geometry": {"type": "Point", "coordinates": [-118.0323328846, 33.8316779325]}, "type": "Feature", "properties": {"collection_times": [{"days": "Mon-Fri", "time": "5:30pm"}, {"days": "Sat", "time": "5:00pm"}, {"days": "Sun", "time": "Closed"}], "id": "9063000071", "name": "USPS COLLECTION BOX - APC", "address": {"city": "CYPRESS", "state": "CA", "street": "5762 LINCOLN AVE LBBY", "postcode": "90630"}}},
{"geometry": {"type": "Point", "coordinates": [-118.0323486749, 33.8316536233]}, "type": "Feature", "properties": {"collection_times": [{"days": "Mon-Fri", "time": "5:30pm"}, {"days": "Sat", "time": "5:00pm"}, {"days": "Sun", "time": "Closed"}], "id": "9063000075", "name": "USPS COLLECTION BOX - BLUE BOX", "address": {"city": "CYPRESS", "state": "CA", "street": "5762 LINCOLN AVE", "postcode": "90630"}}},
{"geometry": {"type": "Point", "coordinates": [-117.9243381948, 33.9261135467]}, "type": "Feature", "properties": {"collection_times": [{"days": "Mon-Sat", "time": "1:45pm"}, {"days": "Sun", "time": "Closed"}], "id": "9063100007", "name": "USPS COLLECTION BOX - BLUE BOX", "address": {"city": "LA HABRA", "state": "CA", "street": "601 S PALM ST", "postcode": "90631"}}},
{"geometry": {"type": "Point", "coordinates": [-117.9461188352, 33.9331001023]}, "type": "Feature", "properties": {"collection_times": [{"days": "Mon-Fri", "time": "5:00pm"}, {"days": "Sat", "time": "3:15pm"}, {"days": "Sun", "time": "Closed"}], "id": "9063100011", "name": "USPS COLLECTION BOX - BLUE BOX", "address": {"city": "LA HABRA", "state": "CA", "street": "200 N EUCLID ST", "postcode": "90631"}}},
{"geometry": {"type": "Point", "coordinates": [-117.9460642596, 33.9327297365]}, "type": "Feature", "properties": {"collection_times": [{"days": "Mon-Sat", "time": "2:30pm"}, {"days": "Sun", "time": "Closed"}], "id": "9063100012", "name": "USPS COLLECTION BOX - BLUE BOX", "address": {"city": "LA HABRA", "state": "CA", "street": "100 E ERNA", "postcode": "90631"}}},
{"geometry": {"type": "Point", "coordinates": [-117.9330554194, 33.9399328733]}, "type": "Feature", "properties": {"collection_times": [{"days": "Mon-Sat", "time": "2:00pm"}, {"days": "Sun", "time": "Closed"}], "id": "9063100017", "name": "USPS COLLECTION BOX - BLUE BOX", "address": {"city": "LA HABRA", "state": "CA", "street": "851 N HARBOR BLVD", "postcode": "90631"}}},
{"geometry": {"type": "Point", "coordinates": [-117.9618521895, 33.9393283813]}, "type": "Feature", "properties": {"collection_times": [{"days": "Mon-Sat", "time": "2:15pm"}, {"days": "Sun", "time": "Closed"}], "id": "9063100023", "name": "USPS COLLECTION BOX - BLUE BOX", "address": {"city": "LA HABRA", "state": "CA", "street": "1387 W WHITTIER BLVD", "postcode": "90631"}}},
{"geometry": {"type": "Point", "coordinates": [-117.9687071964, 33.9317942932]}, "type": "Feature", "properties": {"collection_times": [{"days": "Mon-Sat", "time": "2:30pm"}, {"days": "Sun", "time": "Closed"}], "id": "9063100030", "name": "USPS COLLECTION BOX - BLUE BOX", "address": {"city": "LA HABRA", "state": "CA", "street": "2080 W LA HABRA BLVD", "postcode": "90631"}}},
{"geometry": {"type": "Point", "coordinates": [-117.9526662942, 33.9318027298]}, "type": "Feature", "properties": {"collection_times": [{"days": "Mon-Sat", "time": "4:25pm"}, {"days": "Sun", "time": "Closed"}], "id": "9063100038", "name": "USPS COLLECTION BOX - EXPRESS", "address": {"city": "LA HABRA", "state": "CA", "street": "1001 W IMPERIAL HWY", "postcode": "90631"}}},
{"geometry": {"type": "Point", "coordinates": [-117.9576399843, 33.9173485093]}, "type": "Feature", "properties": {"collection_times": [{"days": "Mon-Fri", "time": "5:15pm"}, {"days": "Sat", "time": "5:00pm"}, {"days": "Sun", "time": "Closed"}], "id": "9063100041", "name": "USPS COLLECTION BOX - BLUE BOX", "address": {"city": "LA HABRA", "state": "CA", "street": "1001 W IMPERIAL HWY", "postcode": "90631"}}},
{"geometry": {"type": "Point", "coordinates": [-117.9661664408, 33.9396158403]}, "type": "Feature", "properties": {"collection_times": [{"days": "Mon-Sat", "time": "2:15pm"}, {"days": "Sun", "time": "Closed"}], "id": "9063100045", "name": "USPS COLLECTION BOX - BLUE BOX", "address": {"city": "LA HABRA", "state": "CA", "street": "1800 W WHITTIER BLVD", "postcode": "90631"}}},
{"geometry": {"type": "Point", "coordinates": [-117.9578206653, 33.9173762118]}, "type": "Feature", "properties": {"collection_times": [{"days": "Mon-Fri", "time": "5:15pm"}, {"days": "Sat", "time": "5:00pm"}, {"days": "Sun", "time": "Closed"}], "id": "9063100051", "name": "USPS COLLECTION BOX - BLUE BOX", "address": {"city": "LA HABRA", "state": "CA", "street": "1001 W IMPERIAL HWY", "postcode": "90631"}}},
{"geometry": {"type": "Point", "coordinates": [-117.9330554194, 33.9289420016]}, "type": "Feature", "properties": {"collection_times": [{"days": "Mon-Sat", "time": "1:45pm"}, {"days": "Sun", "time": "Closed"}], "id": "9063100056", "name": "USPS COLLECTION BOX - BLUE BOX", "address": {"city": "LA HABRA", "state": "CA", "street": "401 S HARBOR BLVD", "postcode": "90631"}}},
{"geometry": {"type": "Point", "coordinates": [-117.9461188352, 33.9331001023]}, "type": "Feature", "properties": {"collection_times": [{"days": "Mon-Fri", "time": "5:00pm"}, {"days": "Sat", "time": "3:15pm"}, {"days": "Sun", "time": "Closed"}], "id": "9063100057", "name": "USPS COLLECTION BOX - BLUE BOX", "address": {"city": "LA HABRA", "state": "CA", "street": "200 N EUCLID ST", "postcode": "90631"}}},
{"geometry": {"type": "Point", "coordinates": [-117.9461188352, 33.9331001023]}, "type": "Feature", "properties": {"collection_times": [{"days": "Mon-Fri", "time": "5:00pm"}, {"days": "Sat", "time": "3:15pm"}, {"days": "Sun", "time": "Closed"}], "id": "9063100058", "name": "USPS COLLECTION BOX - BLUE BOX", "address": {"city": "LA HABRA", "state": "CA", "street": "200 N EUCLID ST LBBY", "postcode": "90631"}}},
{"geometry": {"type": "Point", "coordinates": [-117.9578206653, 33.9173762118]}, "type": "Feature", "properties": {"collection_times": [{"days": "Mon-Fri", "time": "5:15pm"}, {"days": "Sat", "time": "5:00pm"}, {"days": "Sun", "time": "Closed"}], "id": "9063100060", "name": "USPS COLLECTION BOX - APC", "address": {"city": "LA HABRA", "state": "CA", "street": "1001 W IMPERIAL HWY LBBY", "postcode": "90631"}}},
{"geometry": {"type": "Point", "coordinates": [-117.9648260279, 33.9471153253]}, "type": "Feature", "properties": {"collection_times": [{"days": "Mon-Sat", "time": "2:15pm"}, {"days": "Sun", "time": "Closed"}], "id": "9063100061", "name": "USPS COLLECTION BOX - BLUE BOX", "address": {"city": "LA HABRA", "state": "CA", "street": "1245 HACIENDA RD", "postcode": "90631"}}},
{"geometry": {"type": "Point", "coordinates": [-118.0277749437, 33.8845680278]}, "type": "Feature", "properties": {"collection_times": [{"days": "Mon-Fri", "time": "4:00pm"}, {"days": "Sat", "time": "12:00pm"}, {"days": "Sun", "time": "Closed"}], "id": "9063800004", "name": "USPS COLLECTION BOX - BLUE BOX", "address": {"city": "LA MIRADA", "state": "CA", "street": "14251 FIRESTONE BLVD", "postcode": "90638"}}},
{"geometry": {"type": "Point", "coordinates": [-118.0119552335, 33.916043017]}, "type": "Feature", "properties": {"collection_times": [{"days": "Mon-Fri", "time": "2:30pm"}, {"days": "Sat", "time": "12:00pm"}, {"days": "Sun", "time": "Closed"}], "id": "9063800015", "name": "USPS COLLECTION BOX - BLUE BOX", "address": {"city": "LA MIRADA", "state": "CA", "street": "12675 LA MIRADA BLVD", "postcode": "90638"}}},
{"geometry": {"type": "Point", "coordinates": [-117.9937673463, 33.9055679742]}, "type": "Feature", "properties": {"collection_times": [{"days": "Mon-Sat", "time": "10:00am"}, {"days": "Sun", "time": "Closed"}], "id": "9063800016", "name": "USPS COLLECTION BOX - BLUE BOX", "address": {"city": "LA MIRADA", "state": "CA", "street": "13710 AVENIDA SANTA TECLA", "postcode": "90638"}}},
{"geometry": {"type": "Point", "coordinates": [-117.9952849757, 33.9173478207]}, "type": "Feature", "properties": {"collection_times": [{"days": "Mon-Fri", "time": "2:30pm"}, {"days": "Sat", "time": "12:00pm"}, {"days": "Sun", "time": "Closed"}], "id": "9063800019", "name": "USPS COLLECTION BOX - BLUE BOX", "address": {"city": "LA MIRADA", "state": "CA", "street": "15745 IMPERIAL HWY", "postcode": "90638"}}},
{"geometry": {"type": "Point", "coordinates": [-118.0116278302, 33.9064567906]}, "type": "Feature", "properties": {"collection_times": [{"days": "Mon-Fri", "time": "4:00pm"}, {"days": "Sat", "time": "12:00pm"}, {"days": "Sun", "time": "Closed"}], "id": "9063800020", "name": "USPS COLLECTION BOX - BLUE BOX", "address": {"city": "LA MIRADA", "state": "CA", "street": "13710 LA MIRADA BLVD", "postcode": "90638"}}},
{"geometry": {"type": "Point", "coordinates": [-118.0117129789, 33.9160220674]}, "type": "Feature", "properties": {"collection_times": [{"days": "Mon-Fri", "time": "2:30pm"}, {"days": "Sat", "time": "12:00pm"}, {"days": "Sun", "time": "Closed"}], "id": "9063800021", "name": "USPS COLLECTION BOX - BLUE BOX", "address": {"city": "LA MIRADA", "state": "CA", "street": "12764 LA MIRADA BLVD", "postcode": "90638"}}},
{"geometry": {"type": "Point", "coordinates": [-118.0165309188, 33.8733855167]}, "type": "Feature", "properties": {"collection_times": [{"days": "Mon-Fri", "time": "4:00pm"}, {"days": "Sat", "time": "12:00pm"}, {"days": "Sun", "time": "Closed"}], "id": "9063800029", "name": "USPS COLLECTION BOX - BLUE BOX", "address": {"city": "LA MIRADA", "state": "CA", "street": "14747 ARTESIA BLVD", "postcode": "90638"}}},
{"geometry": {"type": "Point", "coordinates": [-118.0293695724, 33.9161542152]}, "type": "Feature", "properties": {"collection_times": [{"days": "Mon-Fri", "time": "2:30pm"}, {"days": "Sat", "time": "12:00pm"}, {"days": "Sun", "time": "Closed"}], "id": "9063800034", "name": "USPS COLLECTION BOX - BLUE BOX", "address": {"city": "LA MIRADA", "state": "CA", "street": "12721 VALLEY VIEW AVE", "postcode": "90638"}}},
{"geometry": {"type": "Point", "coordinates": [-118.009191512, 33.8984572666]}, "type": "Feature", "properties": {"collection_times": [{"days": "Mon-Fri", "time": "2:30pm"}, {"days": "Sat", "time": "12:00pm"}, {"days": "Sun", "time": "Closed"}], "id": "9063800037", "name": "USPS COLLECTION BOX - BLUE BOX", "address": {"city": "LA MIRADA", "state": "CA", "street": "15056 ROSECRANS AVE", "postcode": "90638"}}},
{"geometry": {"type": "Point", "coordinates": [-118.0031942394, 33.8954630799]}, "type": "Feature", "properties": {"collection_times": [{"days": "Mon-Fri", "time": "5:35pm"}, {"days": "Sat", "time": "5:00pm"}, {"days": "Sun", "time": "Closed"}], "id": "9063800038", "name": "USPS COLLECTION BOX - BLUE BOX", "address": {"city": "LA MIRADA", "state": "CA", "street": "14901 ADELFA DR", "postcode": "90638"}}},
{"geometry": {"type": "Point", "coordinates": [-117.9862974383, 33.8974941291]}, "type": "Feature", "properties": {"collection_times": [{"days": "Mon-Fri", "time": "2:30pm"}, {"days": "Sat", "time": "12:00pm"}, {"days": "Sun", "time": "Closed"}], "id": "9063800039", "name": "USPS COLLECTION BOX - BLUE BOX", "address": {"city": "LA MIRADA", "state": "CA", "street": "14742 BEACH BLVD", "postcode": "90638"}}},
{"geometry": {"type": "Point", "coordinates": [-118.0070961781, 33.902673813]}, "type": "Feature", "properties": {"collection_times": [{"days": "Mon-Fri", "time": "3:30pm"}, {"days": "Sat", "time": "5:00pm"}, {"days": "Sun", "time": "Closed"}], "id": "9063800051", "name": "USPS COLLECTION BOX - EXPRESS", "address": {"city": "LA MIRADA", "state": "CA", "street": "14901 ADELFA DR", "postcode": "90638"}}},
{"geometry": {"type": "Point", "coordinates": [-118.0031942394, 33.8954630799]}, "type": "Feature", "properties": {"collection_times": [{"days": "Mon-Fri", "time": "5:35pm"}, {"days": "Sat", "time": "5:00pm"}, {"days": "Sun", "time": "Closed"}], "id": "9063800053", "name": "USPS COLLECTION BOX - BLUE BOX", "address": {"city": "LA MIRADA", "state": "CA", "street": "14901 ADELFA DR", "postcode": "90638"}}},
{"geometry": {"type": "Point", "coordinates": [-118.0287816418, 33.8798255453]}, "type": "Feature", "properties": {"collection_times": [{"days": "Mon-Fri", "time": "4:00pm"}, {"days": "Sat", "time": "12:00pm"}, {"days": "Sun", "time": "Closed"}], "id": "9063800054", "name": "USPS COLLECTION BOX - BLUE BOX", "address": {"city": "LA MIRADA", "state": "CA", "street": "16700 VALLEY VIEW AVE", "postcode": "90638"}}},
{"geometry": {"type": "Point", "coordinates": [-118.0031942394, 33.8954630799]}, "type": "Feature", "properties": {"collection_times": [{"days": "Mon-Fri", "time": "5:35pm"}, {"days": "Sat", "time": "5:00pm"}, {"days": "Sun", "time": "Closed"}], "id": "9063800056", "name": "USPS COLLECTION BOX - PO LOBBY", "address": {"city": "LA MIRADA", "state": "CA", "street": "14901 ADELFA DR LBBY", "postcode": "90638"}}},
{"geometry": {"type": "Point", "coordinates": [-117.9778314595, 33.9087609551]}, "type": "Feature", "properties": {"collection_times": [{"days": "Mon-Fri", "time": "2:30pm"}, {"days": "Sat", "time": "12:00pm"}, {"days": "Sun", "time": "Closed"}], "id": "9063800057", "name": "USPS COLLECTION BOX - BLUE BOX", "address": {"city": "LA MIRADA", "state": "CA", "street": "13525 BEACH BLVD", "postcode": "90638"}}},
{"geometry": {"type": "Point", "coordinates": [-118.0031942394, 33.8954630799]}, "type": "Feature", "properties": {"collection_times": [{"days": "Mon-Fri", "time": "5:35pm"}, {"days": "Sat", "time": "5:00pm"}, {"days": "Sun", "time": "Closed"}], "id": "9063800061", "name": "USPS COLLECTION BOX - APC", "address": {"city": "LA MIRADA", "state": "CA", "street": "14901 ADELFA DR", "postcode": "90638"}}},
{"geometry": {"type": "Point", "coordinates": [-118.1020068017, 34.0154979261]}, "type": "Feature", "properties": {"collection_times": [{"days": "Mon-Sat", "time": "2:00pm"}, {"days": "Sun", "time": "Closed"}], "id": "9064000004", "name": "USPS COLLECTION BOX - BLUE BOX", "address": {"city": "MONTEBELLO", "state": "CA", "street": "433 N 4TH ST", "postcode": "90640"}}},
{"geometry": {"type": "Point", "coordinates": [-118.1046250986, 34.016883128]}, "type": "Feature", "properties": {"collection_times": [{"days": "Mon-Sat", "time": "2:00pm"}, {"days": "Sun", "time": "Closed"}], "id": "9064000005", "name": "USPS COLLECTION BOX - BLUE BOX", "address": {"city": "MONTEBELLO", "state": "CA", "street": "621 W BEVERLY BLVD", "postcode": "90640"}}},
{"geometry": {"type": "Point", "coordinates": [-118.092608267, 34.0402668809]}, "type": "Feature", "properties": {"collection_times": [{"days": "Mon-Sat", "time": "2:00pm"}, {"days": "Sun", "time": "Closed"}], "id": "9064000006", "name": "USPS COLLECTION BOX - BLUE BOX", "address": {"city": "MONTEBELLO", "state": "CA", "street": "1709 PARAMOUNT BLVD", "postcode": "90640"}}},
{"geometry": {"type": "Point", "coordinates": [-118.0958554151, 34.0383148386]}, "type": "Feature", "properties": {"collection_times": [{"days": "Mon-Sat", "time": "2:15pm"}, {"days": "Sun", "time": "Closed"}], "id": "9064000007", "name": "USPS COLLECTION BOX - BLUE BOX", "address": {"city": "MONTEBELLO", "state": "CA", "street": "1635 NEIL ARMSTRONG ST", "postcode": "90640"}}},
{"geometry": {"type": "Point", "coordinates": [-118.1242887877, 33.9757328401]}, "type": "Feature", "properties": {"collection_times": [{"days": "Mon-Sat", "time": "3:00pm"}, {"days": "Sun", "time": "Closed"}], "id": "9064000015", "name": "USPS COLLECTION BOX - BLUE BOX", "address": {"city": "MONTEBELLO", "state": "CA", "street": "7801 TELEGRAPH RD STE M", "postcode": "90640"}}},
{"geometry": {"type": "Point", "coordinates": [-118.1098935892, 34.0142936738]}, "type": "Feature", "properties": {"collection_times": [{"days": "Mon-Sat", "time": "3:00pm"}, {"days": "Sun", "time": "Closed"}], "id": "9064000020", "name": "USPS COLLECTION BOX - BLUE BOX", "address": {"city": "MONTEBELLO", "state": "CA", "street": "1000 W MADISON AVE", "postcode": "90640"}}},
{"geometry": {"type": "Point", "coordinates": [-118.1352073599, 34.0230459553]}, "type": "Feature", "properties": {"collection_times": [{"days": "Mon-Sat", "time": "3:00pm"}, {"days": "Sun", "time": "Closed"}], "id": "9064000024", "name": "USPS COLLECTION BOX - BLUE BOX", "address": {"city": "MONTEBELLO", "state": "CA", "street": "3001 W BEVERLY BLVD", "postcode": "90640"}}},
{"geometry": {"type": "Point", "coordinates": [-118.118285992, 33.996941194]}, "type": "Feature", "properties": {"collection_times": [{"days": "Mon-Fri", "time": "3:00pm"}, {"days": "Sat", "time": "1:00pm"}, {"days": "Sun", "time": "Closed"}], "id": "9064000026", "name": "USPS COLLECTION BOX - BLUE BOX", "address": {"city": "MONTEBELLO", "state": "CA", "street": "909 S GREENWOOD AVE", "postcode": "90640"}}},
{"geometry": {"type": "Point", "coordinates": [-118.1131881774, 34.0140406489]}, "type": "Feature", "properties": {"collection_times": [{"days": "Mon-Fri", "time": "5:00pm"}, {"days": "Sat", "time": "3:30pm"}, {"days": "Sun", "time": "Closed"}], "id": "9064000030", "name": "USPS COLLECTION BOX - EXPRESS", "address": {"city": "MONTEBELLO", "state": "CA", "street": "145 N 5TH ST", "postcode": "90640"}}},
{"geometry": {"type": "Point", "coordinates": [-118.1306101039, 34.0207927611]}, "type": "Feature", "properties": {"collection_times": [{"days": "Mon-Fri", "time": "3:00pm"}, {"days": "Sat", "time": "1:30pm"}, {"days": "Sun", "time": "Closed"}], "id": "9064000034", "name": "USPS COLLECTION BOX - BLUE BOX", "address": {"city": "MONTEBELLO", "state": "CA", "street": "2605 W BEVERLY BLVD", "postcode": "90640"}}},
{"geometry": {"type": "Point", "coordinates": [-118.1072591395, 34.0098587607]}, "type": "Feature", "properties": {"collection_times": [{"days": "Mon-Fri", "time": "3:00pm"}, {"days": "Sat", "time": "1:00pm"}, {"days": "Sun", "time": "Closed"}], "id": "9064000042", "name": "USPS COLLECTION BOX - BLUE BOX", "address": {"city": "MONTEBELLO", "state": "CA", "street": "700 W WHITTIER BLVD", "postcode": "90640"}}},
{"geometry": {"type": "Point", "coordinates": [-118.0895845496, 34.0243062385]}, "type": "Feature", "properties": {"collection_times": [{"days": "Mon-Sat", "time": "2:00pm"}, {"days": "Sun", "time": "Closed"}], "id": "9064000046", "name": "USPS COLLECTION BOX - BLUE BOX", "address": {"city": "MONTEBELLO", "state": "CA", "street": "500 E AZALEA DR", "postcode": "90640"}}},
{"geometry": {"type": "Point", "coordinates": [-118.0987962511, 34.0156682722]}, "type": "Feature", "properties": {"collection_times": [{"days": "Mon-Fri", "time": "2:00pm"}, {"days": "Sat", "time": "1:00pm"}, {"days": "Sun", "time": "Closed"}], "id": "9064000050", "name": "USPS COLLECTION BOX - BLUE BOX", "address": {"city": "MONTEBELLO", "state": "CA", "street": "105 E BEVERLY BLVD", "postcode": "90640"}}},
{"geometry": {"type": "Point", "coordinates": [-118.1179329783, 34.0239276917]}, "type": "Feature", "properties": {"collection_times": [{"days": "Mon-Fri", "time": "2:00pm"}, {"days": "Sat", "time": "3:00pm"}, {"days": "Sun", "time": "Closed"}], "id": "9064000051", "name": "USPS COLLECTION BOX - BLUE BOX", "address": {"city": "MONTEBELLO", "state": "CA", "street": "1818 GERMAIN DR", "postcode": "90640"}}},
{"geometry": {"type": "Point", "coordinates": [-118.1134026312, 34.0186424947]}, "type": "Feature", "properties": {"collection_times": [{"days": "Mon-Sat", "time": "3:00pm"}, {"days": "Sun", "time": "Closed"}], "id": "9064000058", "name": "USPS COLLECTION BOX - BLUE BOX", "address": {"city": "MONTEBELLO", "state": "CA", "street": "1457 W BEVERLY BLVD", "postcode": "90640"}}},
{"geometry": {"type": "Point", "coordinates": [-118.1076237629, 34.0174560416]}, "type": "Feature", "properties": {"collection_times": [{"days": "Mon-Sat", "time": "3:00pm"}, {"days": "Sun", "time": "Closed"}], "id": "9064000059", "name": "USPS COLLECTION BOX - BLUE BOX", "address": {"city": "MONTEBELLO", "state": "CA", "street": "901 W BEVERLY BLVD", "postcode": "90640"}}},
{"geometry": {"type": "Point", "coordinates": [-118.0830482942, 34.0373715211]}, "type": "Feature", "properties": {"collection_times": [{"days": "Mon-Sat", "time": "2:00pm"}, {"days": "Sun", "time": "Closed"}], "id": "9064000060", "name": "USPS COLLECTION BOX - BLUE BOX", "address": {"city": "MONTEBELLO", "state": "CA", "street": "1600 MONTEBELLO TOWN CTR", "postcode": "90640"}}},
{"geometry": {"type": "Point", "coordinates": [-118.1243789217, 34.0327845054]}, "type": "Feature", "properties": {"collection_times": [{"days": "Mon-Fri", "time": "5:00pm"}, {"days": "Sat", "time": "2:00pm"}, {"days": "Sun", "time": "Closed"}], "id": "9064000061", "name": "USPS COLLECTION BOX - BLUE BOX", "address": {"city": "MONTEBELLO", "state": "CA", "street": "2547 VIA CAMPO", "postcode": "90640"}}},
{"geometry": {"type": "Point", "coordinates": [-118.1243789217, 34.0327845054]}, "type": "Feature", "properties": {"collection_times": [{"days": "Mon-Fri", "time": "5:00pm"}, {"days": "Sat", "time": "2:00pm"}, {"days": "Sun", "time": "Closed"}], "id": "9064000062", "name": "USPS COLLECTION BOX - BLUE BOX", "address": {"city": "MONTEBELLO", "state": "CA", "street": "2547 VIA CAMPO", "postcode": "90640"}}},
{"geometry": {"type": "Point", "coordinates": [-118.1054716885, 34.0079269887]}, "type": "Feature", "properties": {"collection_times": [{"days": "Mon-Fri", "time": "5:45pm"}, {"days": "Sat", "time": "3:30pm"}, {"days": "Sun", "time": "Closed"}], "id": "9064000064", "name": "USPS COLLECTION BOX - PO LOBBY", "address": {"city": "MONTEBELLO", "state": "CA", "street": "145 N 5TH ST", "postcode": "90640"}}},
{"geometry": {"type": "Point", "coordinates": [-118.1054716885, 34.0079269887]}, "type": "Feature", "properties": {"collection_times": [{"days": "Mon-Fri", "time": "5:45pm"}, {"days": "Sat", "time": "3:30pm"}, {"days": "Sun", "time": "Closed"}], "id": "9064000066", "name": "USPS COLLECTION BOX - BLUE BOX", "address": {"city": "MONTEBELLO", "state": "CA", "street": "145 N 5TH ST", "postcode": "90640"}}},
{"geometry": {"type": "Point", "coordinates": [-118.1054716885, 34.0079269887]}, "type": "Feature", "properties": {"collection_times": [{"days": "Mon-Fri", "time": "5:45pm"}, {"days": "Sat", "time": "3:30pm"}, {"days": "Sun", "time": "Closed"}], "id": "9064000071", "name": "USPS COLLECTION BOX - BLUE BOX", "address": {"city": "MONTEBELLO", "state": "CA", "street": "145 N 5TH ST", "postcode": "90640"}}},
{"geometry": {"type": "Point", "coordinates": [-118.1045804805, 34.0107825085]}, "type": "Feature", "properties": {"collection_times": [{"days": "Mon-Fri", "time": "5:00pm"}, {"days": "Sat", "time": "3:30pm"}, {"days": "Sun", "time": "Closed"}], "id": "9064000072", "name": "USPS COLLECTION BOX - BLUE BOX", "address": {"city": "MONTEBELLO", "state": "CA", "street": "145 N 5TH ST", "postcode": "90640"}}},
{"geometry": {"type": "Point", "coordinates": [-118.106121133, 34.0158587286]}, "type": "Feature", "properties": {"collection_times": [{"days": "Mon-Fri", "time": "2:00pm"}, {"days": "Sat", "time": "1:00pm"}, {"days": "Sun", "time": "Closed"}], "id": "9064000076", "name": "USPS COLLECTION BOX - BLUE BOX", "address": {"city": "MONTEBELLO", "state": "CA", "street": "400 N MONTEBELLO BLVD", "postcode": "90640"}}},
{"geometry": {"type": "Point", "coordinates": [-118.1275427338, 34.0140188967]}, "type": "Feature", "properties": {"collection_times": [{"days": "Mon-Fri", "time": "3:00pm"}, {"days": "Sat", "time": "1:30pm"}, {"days": "Sun", "time": "Closed"}], "id": "9064000080", "name": "USPS COLLECTION BOX - BLUE BOX", "address": {"city": "MONTEBELLO", "state": "CA", "street": "2417 W WHITTIER BLVD", "postcode": "90640"}}},
{"geometry": {"type": "Point", "coordinates": [-118.1210424447, 34.0079840359]}, "type": "Feature", "properties": {"collection_times": [{"days": "Mon-Fri", "time": "3:00pm"}, {"days": "Sat", "time": "1:30pm"}, {"days": "Sun", "time": "Closed"}], "id": "9064000082", "name": "USPS COLLECTION BOX - BLUE BOX", "address": {"city": "MONTEBELLO", "state": "CA", "street": "480 S VAIL AVE", "postcode": "90640"}}},
{"geometry": {"type": "Point", "coordinates": [-118.1216380058, 34.0204320479]}, "type": "Feature", "properties": {"collection_times": [{"days": "Mon-Sat", "time": "3:00pm"}, {"days": "Sun", "time": "Closed"}], "id": "9064000083", "name": "USPS COLLECTION BOX - BLUE BOX", "address": {"city": "MONTEBELLO", "state": "CA", "street": "2101 W BEVERLY BLVD", "postcode": "90640"}}},
{"geometry": {"type": "Point", "coordinates": [-118.1159065696, 34.019333079]}, "type": "Feature", "properties": {"collection_times": [{"days": "Mon-Fri", "time": "2:30pm"}, {"days": "Sat", "time": "1:00pm"}, {"days": "Sun", "time": "Closed"}], "id": "9064000084", "name": "USPS COLLECTION BOX - BLUE BOX", "address": {"city": "MONTEBELLO", "state": "CA", "street": "1550 W BEVERLY BLVD", "postcode": "90640"}}},
{"geometry": {"type": "Point", "coordinates": [-118.1131881774, 34.0140406489]}, "type": "Feature", "properties": {"collection_times": [{"days": "Mon-Fri", "time": "2:30pm"}, {"days": "Sat", "time": "1:00pm"}, {"days": "Sun", "time": "Closed"}], "id": "9064000085", "name": "USPS COLLECTION BOX - BLUE BOX", "address": {"city": "MONTEBELLO", "state": "CA", "street": "802 W BEVERLY BLVD", "postcode": "90640"}}},
{"geometry": {"type": "Point", "coordinates": [-118.1413721272, 34.0248882543]}, "type": "Feature", "properties": {"collection_times": [{"days": "Mon-Fri", "time": "3:00pm"}, {"days": "Sat", "time": "1:00pm"}, {"days": "Sun", "time": "Closed"}], "id": "9064000086", "name": "USPS COLLECTION BOX - BLUE BOX", "address": {"city": "MONTEBELLO", "state": "CA", "street": "3500 W BEVERLY BLVD", "postcode": "90640"}}},
{"geometry": {"type": "Point", "coordinates": [-118.1251525768, 33.9765655636]}, "type": "Feature", "properties": {"collection_times": [{"days": "Mon-Fri", "time": "3:00pm"}, {"days": "Sat", "time": "1:00pm"}, {"days": "Sun", "time": "Closed"}], "id": "9064000087", "name": "USPS COLLECTION BOX - BLUE BOX", "address": {"city": "MONTEBELLO", "state": "CA", "street": "7709 TELEGRAPH RD", "postcode": "90640"}}},
{"geometry": {"type": "Point", "coordinates": [-118.1054716885, 34.0079269887]}, "type": "Feature", "properties": {"collection_times": [{"days": "Mon-Fri", "time": "5:45pm"}, {"days": "Sat", "time": "3:30pm"}, {"days": "Sun", "time": "Closed"}], "id": "9064000089", "name": "USPS COLLECTION BOX - PO LOBBY", "address": {"city": "MONTEBELLO", "state": "CA", "street": "145 N 5TH ST", "postcode": "90640"}}},
{"geometry": {"type": "Point", "coordinates": [-118.1231995116, 34.0131426548]}, "type": "Feature", "properties": {"collection_times": [{"days": "Mon-Fri", "time": "3:00pm"}, {"days": "Sat", "time": "1:30pm"}, {"days": "Sun", "time": "Closed"}], "id": "9064000091", "name": "USPS COLLECTION BOX - BLUE BOX", "address": {"city": "MONTEBELLO", "state": "CA", "street": "2051 W WHITTIER BLVD", "postcode": "90640"}}},
{"geometry": {"type": "Point", "coordinates": [-118.0819562779, 33.9062236824]}, "type": "Feature", "properties": {"collection_times": [{"days": "Mon-Fri", "time": "4:30pm"}, {"days": "Sat", "time": "10:00am"}, {"days": "Sun", "time": "Closed"}], "id": "9065000001", "name": "USPS COLLECTION BOX - EXPRESS", "address": {"city": "NORWALK", "state": "CA", "street": "12825 ALONDRA BLVD", "postcode": "90650"}}},
{"geometry": {"type": "Point", "coordinates": [-118.0724414503, 33.9156430406]}, "type": "Feature", "properties": {"collection_times": [{"days": "Mon-Fri", "time": "5:00pm"}, {"days": "Sat-Sun", "time": "Closed"}], "id": "9065000002", "name": "USPS COLLECTION BOX - BLUE BOX", "address": {"city": "NORWALK", "state": "CA", "street": "12700 NORWALK BLVD", "postcode": "90650"}}},
{"geometry": {"type": "Point", "coordinates": [-118.0974542216, 33.8874353564]}, "type": "Feature", "properties": {"collection_times": [{"days": "Mon-Fri", "time": "4:30pm"}, {"days": "Sat-Sun", "time": "Closed"}], "id": "9065000003", "name": "USPS COLLECTION BOX - BLUE BOX", "address": {"city": "NORWALK", "state": "CA", "street": "11110 ALONDRA BLVD", "postcode": "90650"}}},
{"geometry": {"type": "Point", "coordinates": [-118.0781561734, 33.9043060866]}, "type": "Feature", "properties": {"collection_times": [{"days": "Mon-Fri", "time": "5:20pm"}, {"days": "Sat", "time": "4:45pm"}, {"days": "Sun", "time": "Closed"}], "id": "9065000004", "name": "USPS COLLECTION BOX - BLUE BOX", "address": {"city": "NORWALK", "state": "CA", "street": "14011 CLARKDALE AVE", "postcode": "90650"}}},
{"geometry": {"type": "Point", "coordinates": [-118.0620192398, 33.8882375665]}, "type": "Feature", "properties": {"collection_times": [{"days": "Mon-Sat", "time": "10:00am"}, {"days": "Sun", "time": "Closed"}], "id": "9065000010", "name": "USPS COLLECTION BOX - BLUE BOX", "address": {"city": "NORWALK", "state": "CA", "street": "12646 OLAND ST", "postcode": "90650"}}},
{"geometry": {"type": "Point", "coordinates": [-118.081517045, 33.8877567097]}, "type": "Feature", "properties": {"collection_times": [{"days": "Mon-Sat", "time": "10:00am"}, {"days": "Sun", "time": "Closed"}], "id": "9065000014", "name": "USPS COLLECTION BOX - BLUE BOX", "address": {"city": "NORWALK", "state": "CA", "street": "11829 ALONDRA BLVD", "postcode": "90650"}}},
{"geometry": {"type": "Point", "coordinates": [-118.059246384, 33.8878258968]}, "type": "Feature", "properties": {"collection_times": [{"days": "Mon-Fri", "time": "4:30pm"}, {"days": "Sat", "time": "10:00am"}, {"days": "Sun", "time": "Closed"}], "id": "9065000016", "name": "USPS COLLECTION BOX - BLUE BOX", "address": {"city": "NORWALK", "state": "CA", "street": "12825 ALONDRA BLVD", "postcode": "90650"}}},
{"geometry": {"type": "Point", "coordinates": [-118.0819562779, 33.9062236824]}, "type": "Feature", "properties": {"collection_times": [{"days": "Mon-Fri", "time": "4:30pm"}, {"days": "Sat", "time": "10:00am"}, {"days": "Sun", "time": "Closed"}], "id": "9065000021", "name": "USPS COLLECTION BOX - EXPRESS", "address": {"city": "NORWALK", "state": "CA", "street": "14635 CARMENITA RD", "postcode": "90650"}}},
{"geometry": {"type": "Point", "coordinates": [-118.0727384371, 33.9185600189]}, "type": "Feature", "properties": {"collection_times": [{"days": "Mon-Fri", "time": "5:00pm"}, {"days": "Sat", "time": "3:30pm"}, {"days": "Sun", "time": "Closed"}], "id": "9065000022", "name": "USPS COLLECTION BOX - BLUE BOX", "address": {"city": "NORWALK", "state": "CA", "street": "12415 NORWALK BLVD", "postcode": "90650"}}},
{"geometry": {"type": "Point", "coordinates": [-118.0819562779, 33.9062236824]}, "type": "Feature", "properties": {"collection_times": [{"days": "Mon-Fri", "time": "5:00pm"}, {"days": "Sat", "time": "4:45pm"}, {"days": "Sun", "time": "Closed"}], "id": "9065000023", "name": "USPS COLLECTION BOX - EXPRESS", "address": {"city": "NORWALK", "state": "CA", "street": "14011 CLARKDALE AVE", "postcode": "90650"}}},
{"geometry": {"type": "Point", "coordinates": [-118.0819562779, 33.9062236824]}, "type": "Feature", "properties": {"collection_times": [{"days": "Mon-Fri", "time": "5:00pm"}, {"days": "Sat", "time": "3:30pm"}, {"days": "Sun", "time": "Closed"}], "id": "9065000027", "name": "USPS COLLECTION BOX - EXPRESS", "address": {"city": "NORWALK", "state": "CA", "street": "12415 NORWALK BLVD", "postcode": "90650"}}},
{"geometry": {"type": "Point", "coordinates": [-118.0681658946, 33.917081655]}, "type": "Feature", "properties": {"collection_times": [{"days": "Mon-Fri", "time": "5:00pm"}, {"days": "Sat-Sun", "time": "Closed"}], "id": "9065000031", "name": "USPS COLLECTION BOX - BLUE BOX", "address": {"city": "NORWALK", "state": "CA", "street": "12400 IMPERIAL HWY", "postcode": "90650"}}},
{"geometry": {"type": "Point", "coordinates": [-118.0581533299, 33.9045245456]}, "type": "Feature", "properties": {"collection_times": [{"days": "Mon-Sat", "time": "10:00am"}, {"days": "Sun", "time": "Closed"}], "id": "9065000033", "name": "USPS COLLECTION BOX - BLUE BOX", "address": {"city": "NORWALK", "state": "CA", "street": "12845 REXTON ST", "postcode": "90650"}}},
{"geometry": {"type": "Point", "coordinates": [-118.0819562779, 33.9062236824]}, "type": "Feature", "properties": {"collection_times": [{"days": "Mon-Fri", "time": "5:00pm"}, {"days": "Sat-Sun", "time": "Closed"}], "id": "9065000043", "name": "USPS COLLECTION BOX - EXPRESS", "address": {"city": "NORWALK", "state": "CA", "street": "12700 NORWALK BLVD", "postcode": "90650"}}},
{"geometry": {"type": "Point", "coordinates": [-118.072651675, 33.9148801683]}, "type": "Feature", "properties": {"collection_times": [{"days": "Mon-Fri", "time": "5:00pm"}, {"days": "Sat-Sun", "time": "Closed"}], "id": "9065000044", "name": "USPS COLLECTION BOX - BLUE BOX", "address": {"city": "NORWALK", "state": "CA", "street": "12727 NORWALK BLVD", "postcode": "90650"}}},
{"geometry": {"type": "Point", "coordinates": [-118.0874682361, 33.8836654301]}, "type": "Feature", "properties": {"collection_times": [{"days": "Mon-Sat", "time": "10:00am"}, {"days": "Sun", "time": "Closed"}], "id": "9065000060", "name": "USPS COLLECTION BOX - BLUE BOX", "address": {"city": "NORWALK", "state": "CA", "street": "11559 ELMHURST DR", "postcode": "90650"}}},
{"geometry": {"type": "Point", "coordinates": [-118.0924627643, 33.9183157895]}, "type": "Feature", "properties": {"collection_times": [{"days": "Mon-Fri", "time": "3:30pm"}, {"days": "Sat", "time": "10:00am"}, {"days": "Sun", "time": "Closed"}], "id": "9065000065", "name": "USPS COLLECTION BOX - BLUE BOX", "address": {"city": "NORWALK", "state": "CA", "street": "11300 FIRESTONE BLVD", "postcode": "90650"}}},
{"geometry": {"type": "Point", "coordinates": [-118.062126772, 33.9024587318]}, "type": "Feature", "properties": {"collection_times": [{"days": "Mon-Sat", "time": "10:00am"}, {"days": "Sun", "time": "Closed"}], "id": "9065000083", "name": "USPS COLLECTION BOX - BLUE BOX", "address": {"city": "NORWALK", "state": "CA", "street": "12737 ROSECRANS AVE", "postcode": "90650"}}},
{"geometry": {"type": "Point", "coordinates": [-118.0947032131, 33.9320307074]}, "type": "Feature", "properties": {"collection_times": [{"days": "Mon-Sat", "time": "10:00am"}, {"days": "Sun", "time": "Closed"}], "id": "9065000084", "name": "USPS COLLECTION BOX - BLUE BOX", "address": {"city": "NORWALK", "state": "CA", "street": "11202 CECILIA ST", "postcode": "90650"}}},
{"geometry": {"type": "Point", "coordinates": [-118.1055367513, 33.8912978814]}, "type": "Feature", "properties": {"collection_times": [{"days": "Mon-Sat", "time": "10:00am"}, {"days": "Sun", "time": "Closed"}], "id": "9065000086", "name": "USPS COLLECTION BOX - BLUE BOX", "address": {"city": "NORWALK", "state": "CA", "street": "15330 PIUMA AVE", "postcode": "90650"}}},
{"geometry": {"type": "Point", "coordinates": [-118.1003786513, 33.9228663886]}, "type": "Feature", "properties": {"collection_times": [{"days": "Mon-Sat", "time": "10:00am"}, {"days": "Sun", "time": "Closed"}], "id": "9065000096", "name": "USPS COLLECTION BOX - BLUE BOX", "address": {"city": "NORWALK", "state": "CA", "street": "10929 FIRESTONE BLVD", "postcode": "90650"}}},
{"geometry": {"type": "Point", "coordinates": [-118.0992942768, 33.9020497954]}, "type": "Feature", "properties": {"collection_times": [{"days": "Mon-Sat", "time": "10:00am"}, {"days": "Sun", "time": "Closed"}], "id": "9065000102", "name": "USPS COLLECTION BOX - BLUE BOX", "address": {"city": "NORWALK", "state": "CA", "street": "11018 ROSECRANS AVE", "postcode": "90650"}}},
{"geometry": {"type": "Point", "coordinates": [-118.0915386345, 33.9020628548]}, "type": "Feature", "properties": {"collection_times": [{"days": "Mon-Sat", "time": "10:00am"}, {"days": "Sun", "time": "Closed"}], "id": "9065000103", "name": "USPS COLLECTION BOX - BLUE BOX", "address": {"city": "NORWALK", "state": "CA", "street": "11360 ROSECRANS AVE", "postcode": "90650"}}},
{"geometry": {"type": "Point", "coordinates": [-118.0466728652, 33.8984304049]}, "type": "Feature", "properties": {"collection_times": [{"days": "Mon-Fri", "time": "4:30pm"}, {"days": "Sat", "time": "10:00am"}, {"days": "Sun", "time": "Closed"}], "id": "9065000104", "name": "USPS COLLECTION BOX - BLUE BOX", "address": {"city": "NORWALK", "state": "CA", "street": "14635 CARMENITA RD", "postcode": "90650"}}},
{"geometry": {"type": "Point", "coordinates": [-118.0819562779, 33.9062236824]}, "type": "Feature", "properties": {"collection_times": [{"days": "Mon-Fri", "time": "5:00pm"}, {"days": "Sat-Sun", "time": "Closed"}], "id": "9065000109", "name": "USPS COLLECTION BOX - EXPRESS", "address": {"city": "NORWALK", "state": "CA", "street": "12400 IMPERIAL HWY", "postcode": "90650"}}},
{"geometry": {"type": "Point", "coordinates": [-118.0727384371, 33.9185600189]}, "type": "Feature", "properties": {"collection_times": [{"days": "Mon-Fri", "time": "5:00pm"}, {"days": "Sat", "time": "3:30pm"}, {"days": "Sun", "time": "Closed"}], "id": "9065000112", "name": "USPS COLLECTION BOX - BLUE BOX", "address": {"city": "NORWALK", "state": "CA", "street": "12415 NORWALK BLVD", "postcode": "90650"}}},
{"geometry": {"type": "Point", "coordinates": [-118.0781561734, 33.9043060866]}, "type": "Feature", "properties": {"collection_times": [{"days": "Mon-Fri", "time": "5:20pm"}, {"days": "Sat", "time": "4:45pm"}, {"days": "Sun", "time": "Closed"}], "id": "9065000113", "name": "USPS COLLECTION BOX - PO LOBBY", "address": {"city": "NORWALK", "state": "CA", "street": "14011 CLARKDALE AVE LBBY", "postcode": "90650"}}},
{"geometry": {"type": "Point", "coordinates": [-118.0727384371, 33.9185600189]}, "type": "Feature", "properties": {"collection_times": [{"days": "Mon-Fri", "time": "5:00pm"}, {"days": "Sat", "time": "3:30pm"}, {"days": "Sun", "time": "Closed"}], "id": "9065000115", "name": "USPS COLLECTION BOX - PO LOBBY", "address": {"city": "NORWALK", "state": "CA", "street": "12415 NORWALK BLVD LBBY", "postcode": "90650"}}},
{"geometry": {"type": "Point", "coordinates": [-118.1001738163, 33.9850273734]}, "type": "Feature", "properties": {"collection_times": [{"days": "Mon-Fri", "time": "11:00am"}, {"days": "Sat", "time": "10:45am"}, {"days": "Sun", "time": "Closed"}], "id": "9066000014", "name": "USPS COLLECTION BOX - BLUE BOX", "address": {"city": "PICO RIVERA", "state": "CA", "street": "8729 WASHINGTON BLVD", "postcode": "90660"}}},
{"geometry": {"type": "Point", "coordinates": [-118.0912458997, 33.9913423402]}, "type": "Feature", "properties": {"collection_times": [{"days": "Mon-Fri", "time": "5:00pm"}, {"days": "Sat", "time": "11:30am"}, {"days": "Sun", "time": "Closed"}], "id": "9066000019", "name": "USPS COLLECTION BOX - EXPRESS", "address": {"city": "PICO RIVERA", "state": "CA", "street": "6320 PASSONS BLVD", "postcode": "90660"}}},
{"geometry": {"type": "Point", "coordinates": [-118.0818195447, 34.0003068379]}, "type": "Feature", "properties": {"collection_times": [{"days": "Mon-Fri", "time": "5:00pm"}, {"days": "Sat", "time": "10:00am"}, {"days": "Sun", "time": "Closed"}], "id": "9066000030", "name": "USPS COLLECTION BOX - BLUE BOX", "address": {"city": "PICO RIVERA", "state": "CA", "street": "9160 WHITTIER BL (CROSSROAD PLAZA) SE", "postcode": "90660"}}},
{"geometry": {"type": "Point", "coordinates": [-118.0882116688, 33.9821224111]}, "type": "Feature", "properties": {"collection_times": [{"days": "Mon-Sat", "time": "11:00am"}, {"days": "Sun", "time": "Closed"}], "id": "9066000031", "name": "USPS COLLECTION BOX - BLUE BOX", "address": {"city": "PICO RIVERA", "state": "CA", "street": "6615 PASSONS (CITY HALL) NW", "postcode": "90660"}}},
{"geometry": {"type": "Point", "coordinates": [-118.0860344898, 33.9855643324]}, "type": "Feature", "properties": {"collection_times": [{"days": "Mon-Fri", "time": "5:00pm"}, {"days": "Sat", "time": "2:00pm"}, {"days": "Sun", "time": "Closed"}], "id": "9066000056", "name": "USPS COLLECTION BOX - BLUE BOX", "address": {"city": "PICO RIVERA", "state": "CA", "street": "6320 PASSONS BLVD (M.O.) NE", "postcode": "90660"}}},
{"geometry": {"type": "Point", "coordinates": [-118.0860344898, 33.9855643324]}, "type": "Feature", "properties": {"collection_times": [{"days": "Mon-Fri", "time": "5:00pm"}, {"days": "Sat", "time": "2:00pm"}, {"days": "Sun", "time": "Closed"}], "id": "9066000058", "name": "USPS COLLECTION BOX - BLUE BOX", "address": {"city": "PICO RIVERA", "state": "CA", "street": "6320 PASSONS BLVD (M.O.) NE", "postcode": "90660"}}},
{"geometry": {"type": "Point", "coordinates": [-118.0860344898, 33.9855643324]}, "type": "Feature", "properties": {"collection_times": [{"days": "Mon-Fri", "time": "5:00pm"}, {"days": "Sat", "time": "2:00pm"}, {"days": "Sun", "time": "Closed"}], "id": "9066000059", "name": "USPS COLLECTION BOX - BLUE BOX", "address": {"city": "PICO RIVERA", "state": "CA", "street": "6320 PASSONS BLVD (M.O.) NE", "postcode": "90660"}}},
{"geometry": {"type": "Point", "coordinates": [-118.0607699504, 34.0134409503]}, "type": "Feature", "properties": {"collection_times": [{"days": "Mon-Fri", "time": "11:00am"}, {"days": "Sat-Sun", "time": "Closed"}], "id": "9066000063", "name": "USPS COLLECTION BOX - EXPRESS", "address": {"city": "PICO RIVERA", "state": "CA", "street": "3729 SAN GABRIEL RIVER PKWY STE A", "postcode": "90660"}}},
{"geometry": {"type": "Point", "coordinates": [-118.0912458997, 33.9913423402]}, "type": "Feature", "properties": {"collection_times": [{"days": "Mon-Fri", "time": "5:00pm"}, {"days": "Sat-Sun", "time": "Closed"}], "id": "9066000064", "name": "USPS COLLECTION BOX - EXPRESS", "address": {"city": "PICO RIVERA", "state": "CA", "street": "9160 WHITTIER BLVD", "postcode": "90660"}}},
{"geometry": {"type": "Point", "coordinates": [-118.0860344898, 33.9855643324]}, "type": "Feature", "properties": {"collection_times": [{"days": "Mon-Fri", "time": "5:00pm"}, {"days": "Sat", "time": "2:00pm"}, {"days": "Sun", "time": "Closed"}], "id": "9066000065", "name": "USPS COLLECTION BOX - PO LOBBY", "address": {"city": "PICO RIVERA", "state": "CA", "street": "6320 PASSONS BLVD LBBY", "postcode": "90660"}}},
{"geometry": {"type": "Point", "coordinates": [-118.0818195447, 34.0003068379]}, "type": "Feature", "properties": {"collection_times": [{"days": "Mon-Fri", "time": "5:00pm"}, {"days": "Sat-Sun", "time": "Closed"}], "id": "9066000068", "name": "USPS COLLECTION BOX - PO LOBBY", "address": {"city": "PICO RIVERA", "state": "CA", "street": "9160 WHITTIER BLVD LBBY", "postcode": "90660"}}},
{"geometry": {"type": "Point", "coordinates": [-118.0818195447, 34.0003068379]}, "type": "Feature", "properties": {"collection_times": [{"days": "Mon-Fri", "time": "5:00pm"}, {"days": "Sat-Sun", "time": "Closed"}], "id": "9066000069", "name": "USPS COLLECTION BOX - PO LOBBY", "address": {"city": "PICO RIVERA", "state": "CA", "street": "9160 WHITTIER BLVD LBBY", "postcode": "90660"}}},
{"geometry": {"type": "Point", "coordinates": [-118.1001862015, 33.9693785725]}, "type": "Feature", "properties": {"collection_times": [{"days": "Mon-Fri", "time": "5:00pm"}, {"days": "Sat-Sun", "time": "Closed"}], "id": "9066000070", "name": "USPS COLLECTION BOX - PO LOBBY", "address": {"city": "PICO RIVERA", "state": "CA", "street": "9240 SLAUSON AVE LBBY", "postcode": "90660"}}},
{"geometry": {"type": "Point", "coordinates": [-118.0742356571, 33.9400050338]}, "type": "Feature", "properties": {"collection_times": [{"days": "Mon-Sat", "time": "1:00pm"}, {"days": "Sun", "time": "Closed"}], "id": "9067000003", "name": "USPS COLLECTION BOX - BLUE BOX", "address": {"city": "SANTA FE SPGS", "state": "CA", "street": "12150 MORA DR", "postcode": "90670"}}},
{"geometry": {"type": "Point", "coordinates": [-118.029207507, 33.9002516978]}, "type": "Feature", "properties": {"collection_times": [{"days": "Mon-Fri", "time": "5:00pm"}, {"days": "Sat", "time": "1:00pm"}, {"days": "Sun", "time": "Closed"}], "id": "9067000005", "name": "USPS COLLECTION BOX - BLUE BOX", "address": {"city": "SANTA FE SPGS", "state": "CA", "street": "14515 VALLEY VIEW AVE", "postcode": "90670"}}},
{"geometry": {"type": "Point", "coordinates": [-118.062474679, 33.9644958333]}, "type": "Feature", "properties": {"collection_times": [{"days": "Mon-Sat", "time": "1:00pm"}, {"days": "Sun", "time": "Closed"}], "id": "9067000011", "name": "USPS COLLECTION BOX - BLUE BOX", "address": {"city": "SANTA FE SPGS", "state": "CA", "street": "11823 SLAUSON AVE", "postcode": "90670"}}},
{"geometry": {"type": "Point", "coordinates": [-118.0775301978, 33.9407893356]}, "type": "Feature", "properties": {"collection_times": [{"days": "Mon-Fri", "time": "5:00pm"}, {"days": "Sat", "time": "1:00pm"}, {"days": "Sun", "time": "Closed"}], "id": "9067000013", "name": "USPS COLLECTION BOX - BLUE BOX", "address": {"city": "SANTA FE SPGS", "state": "CA", "street": "12020 MORA DR", "postcode": "90670"}}},
{"geometry": {"type": "Point", "coordinates": [-118.0604149582, 33.9631299962]}, "type": "Feature", "properties": {"collection_times": [{"days": "Mon-Fri", "time": "5:00pm"}, {"days": "Sat", "time": "1:00pm"}, {"days": "Sun", "time": "Closed"}], "id": "9067000020", "name": "USPS COLLECTION BOX - BLUE BOX", "address": {"city": "SANTA FE SPGS", "state": "CA", "street": "8500 SORENSEN AVE", "postcode": "90670"}}},
{"geometry": {"type": "Point", "coordinates": [-118.062474679, 33.9644958333]}, "type": "Feature", "properties": {"collection_times": [{"days": "Mon-Sat", "time": "1:00pm"}, {"days": "Sun", "time": "Closed"}], "id": "9067000021", "name": "USPS COLLECTION BOX - BLUE BOX", "address": {"city": "SANTA FE SPGS", "state": "CA", "street": "11823 SLAUSON AVE", "postcode": "90670"}}},
{"geometry": {"type": "Point", "coordinates": [-118.0465697958, 33.8904650783]}, "type": "Feature", "properties": {"collection_times": [{"days": "Mon-Sat", "time": "1:00pm"}, {"days": "Sun", "time": "Closed"}], "id": "9067000022", "name": "USPS COLLECTION BOX - BLUE BOX", "address": {"city": "SANTA FE SPGS", "state": "CA", "street": "15511 CARMENITA RD", "postcode": "90670"}}},
{"geometry": {"type": "Point", "coordinates": [-118.0657739516, 33.9624079107]}, "type": "Feature", "properties": {"collection_times": [{"days": "Mon-Sat", "time": "1:00pm"}, {"days": "Sun", "time": "Closed"}], "id": "9067000023", "name": "USPS COLLECTION BOX - BLUE BOX", "address": {"city": "SANTA FE SPGS", "state": "CA", "street": "8623 DICE RD", "postcode": "90670"}}},
{"geometry": {"type": "Point", "coordinates": [-118.0402125743, 33.8951874505]}, "type": "Feature", "properties": {"collection_times": [{"days": "Mon-Sat", "time": "1:00pm"}, {"days": "Sun", "time": "Closed"}], "id": "9067000026", "name": "USPS COLLECTION BOX - BLUE BOX", "address": {"city": "SANTA FE SPGS", "state": "CA", "street": "13660 EXCELSIOR DR", "postcode": "90670"}}},
{"geometry": {"type": "Point", "coordinates": [-118.0303117828, 33.8942197001]}, "type": "Feature", "properties": {"collection_times": [{"days": "Mon-Fri", "time": "1:25pm"}, {"days": "Sat", "time": "1:00pm"}, {"days": "Sun", "time": "Closed"}], "id": "9067000028", "name": "USPS COLLECTION BOX - BLUE BOX", "address": {"city": "SANTA FE SPGS", "state": "CA", "street": "14110 GANNET ST", "postcode": "90670"}}},
{"geometry": {"type": "Point", "coordinates": [-118.0726918956, 33.9382518886]}, "type": "Feature", "properties": {"collection_times": [{"days": "Mon-Sat", "time": "1:00pm"}, {"days": "Sun", "time": "Closed"}], "id": "9067000030", "name": "USPS COLLECTION BOX - BLUE BOX", "address": {"city": "SANTA FE SPGS", "state": "CA", "street": "10555 NORWALK BLVD", "postcode": "90670"}}},
{"geometry": {"type": "Point", "coordinates": [-118.0364384857, 33.9024636485]}, "type": "Feature", "properties": {"collection_times": [{"days": "Mon-Sat", "time": "1:00pm"}, {"days": "Sun", "time": "Closed"}], "id": "9067000032", "name": "USPS COLLECTION BOX - BLUE BOX", "address": {"city": "SANTA FE SPGS", "state": "CA", "street": "13840 ROSECRANS AVE", "postcode": "90670"}}},
{"geometry": {"type": "Point", "coordinates": [-118.0660883178, 33.935921795]}, "type": "Feature", "properties": {"collection_times": [{"days": "Mon-Fri", "time": "3:45pm"}, {"days": "Sat", "time": "3:00pm"}, {"days": "Sun", "time": "Closed"}], "id": "9067000035", "name": "USPS COLLECTION BOX - EXPRESS", "address": {"city": "SANTA FE SPGS", "state": "CA", "street": "11760 TELEGRAPH RD", "postcode": "90670"}}},
{"geometry": {"type": "Point", "coordinates": [-118.0801123914, 33.9468970297]}, "type": "Feature", "properties": {"collection_times": [{"days": "Mon-Sat", "time": "1:00pm"}, {"days": "Sun", "time": "Closed"}], "id": "9067000036", "name": "USPS COLLECTION BOX - BLUE BOX", "address": {"city": "SANTA FE SPGS", "state": "CA", "street": "10001 PIONEER BLVD", "postcode": "90670"}}},
{"geometry": {"type": "Point", "coordinates": [-118.0547925435, 33.9351714635]}, "type": "Feature", "properties": {"collection_times": [{"days": "Mon-Fri", "time": "5:00pm"}, {"days": "Sat", "time": "11:00am"}, {"days": "Sun", "time": "Closed"}], "id": "9067000037", "name": "USPS COLLECTION BOX - BLUE BOX", "address": {"city": "SANTA FE SPGS", "state": "CA", "street": "13010 FLORENCE AVE", "postcode": "90670"}}},
{"geometry": {"type": "Point", "coordinates": [-118.0544305581, 33.9457790565]}, "type": "Feature", "properties": {"collection_times": [{"days": "Mon-Fri", "time": "5:00pm"}, {"days": "Sat", "time": "11:30am"}, {"days": "Sun", "time": "Closed"}], "id": "9067000039", "name": "USPS COLLECTION BOX - BLUE BOX", "address": {"city": "SANTA FE SPGS", "state": "CA", "street": "13001 LOS NIETOS RD", "postcode": "90670"}}},
{"geometry": {"type": "Point", "coordinates": [-118.0632270409, 33.917224793]}, "type": "Feature", "properties": {"collection_times": [{"days": "Mon-Fri", "time": "5:00pm"}, {"days": "Sat", "time": "1:00pm"}, {"days": "Sun", "time": "Closed"}], "id": "9067000040", "name": "USPS COLLECTION BOX - BLUE BOX", "address": {"city": "SANTA FE SPGS", "state": "CA", "street": "12623 IMPERIAL HWY", "postcode": "90670"}}},
{"geometry": {"type": "Point", "coordinates": [-118.072623284, 33.9412625192]}, "type": "Feature", "properties": {"collection_times": [{"days": "Mon-Sat", "time": "10:00am"}, {"days": "Sun", "time": "Closed"}], "id": "9067000042", "name": "USPS COLLECTION BOX - BLUE BOX", "address": {"city": "SANTA FE SPGS", "state": "CA", "street": "10400 NORWALK BLVD", "postcode": "90670"}}},
{"geometry": {"type": "Point", "coordinates": [-118.0464297082, 33.9401842179]}, "type": "Feature", "properties": {"collection_times": [{"days": "Mon-Fri", "time": "5:45pm"}, {"days": "Sat", "time": "3:00pm"}, {"days": "Sun", "time": "Closed"}], "id": "9067000044", "name": "USPS COLLECTION BOX - BLUE BOX", "address": {"city": "SANTA FE SPGS", "state": "CA", "street": "11760 TELEGRAPH RD", "postcode": "90670"}}},
{"geometry": {"type": "Point", "coordinates": [-118.0639356334, 33.9208020609]}, "type": "Feature", "properties": {"collection_times": [{"days": "Mon-Sat", "time": "1:00pm"}, {"days": "Sun", "time": "Closed"}], "id": "9067000046", "name": "USPS COLLECTION BOX - BLUE BOX", "address": {"city": "SANTA FE SPGS", "state": "CA", "street": "12150 BLOOMFIELD AVE", "postcode": "90670"}}},
{"geometry": {"type": "Point", "coordinates": [-118.0683374237, 33.9472589382]}, "type": "Feature", "properties": {"collection_times": [{"days": "Mon-Sat", "time": "1:00pm"}, {"days": "Sun", "time": "Closed"}], "id": "9067000051", "name": "USPS COLLECTION BOX - BLUE BOX", "address": {"city": "SANTA FE SPGS", "state": "CA", "street": "9704 JORDAN CIR", "postcode": "90670"}}},
{"geometry": {"type": "Point", "coordinates": [-118.0782269606, 33.9353039549]}, "type": "Feature", "properties": {"collection_times": [{"days": "Mon-Sat", "time": "1:00pm"}, {"days": "Sun", "time": "Closed"}], "id": "9067000052", "name": "USPS COLLECTION BOX - BLUE BOX", "address": {"city": "SANTA FE SPGS", "state": "CA", "street": "11947 FLORENCE AVE", "postcode": "90670"}}},
{"geometry": {"type": "Point", "coordinates": [-118.0780275004, 33.9475287853]}, "type": "Feature", "properties": {"collection_times": [{"days": "Mon-Fri", "time": "5:00pm"}, {"days": "Sat", "time": "1:00pm"}, {"days": "Sun", "time": "Closed"}], "id": "9067000053", "name": "USPS COLLECTION BOX - BLUE BOX", "address": {"city": "SANTA FE SPGS", "state": "CA", "street": "12060 SLUSHER", "postcode": "90670"}}},
{"geometry": {"type": "Point", "coordinates": [-118.0660883178, 33.935921795]}, "type": "Feature", "properties": {"collection_times": [{"days": "Mon-Fri", "time": "3:45pm"}, {"days": "Sat", "time": "3:00pm"}, {"days": "Sun", "time": "Closed"}], "id": "9067000054", "name": "USPS COLLECTION BOX - EXPRESS", "address": {"city": "SANTA FE SPGS", "state": "CA", "street": "11760 TELEGRAPH RD", "postcode": "90670"}}},
{"geometry": {"type": "Point", "coordinates": [-118.0512933252, 33.9397068455]}, "type": "Feature", "properties": {"collection_times": [{"days": "Mon-Fri", "time": "5:00pm"}, {"days": "Sat", "time": "11:30am"}, {"days": "Sun", "time": "Closed"}], "id": "9067000056", "name": "USPS COLLECTION BOX - BLUE BOX", "address": {"city": "SANTA FE SPGS", "state": "CA", "street": "10518 PAINTER AVE", "postcode": "90670"}}},
{"geometry": {"type": "Point", "coordinates": [-118.0413546409, 33.9169134025]}, "type": "Feature", "properties": {"collection_times": [{"days": "Mon-Fri", "time": "4:30pm"}, {"days": "Sat", "time": "1:00pm"}, {"days": "Sun", "time": "Closed"}], "id": "9067000057", "name": "USPS COLLECTION BOX - BLUE BOX", "address": {"city": "SANTA FE SPGS", "state": "CA", "street": "13640 IMPERIAL HWY", "postcode": "90670"}}},
{"geometry": {"type": "Point", "coordinates": [-118.0817971308, 33.9423733177]}, "type": "Feature", "properties": {"collection_times": [{"days": "Mon-Sat", "time": "1:00pm"}, {"days": "Sun", "time": "Closed"}], "id": "9067000058", "name": "USPS COLLECTION BOX - BLUE BOX", "address": {"city": "SANTA FE SPGS", "state": "CA", "street": "10330 PIONEER BLVD", "postcode": "90670"}}},
{"geometry": {"type": "Point", "coordinates": [-118.0817971308, 33.9423733177]}, "type": "Feature", "properties": {"collection_times": [{"days": "Mon-Sat", "time": "1:00pm"}, {"days": "Sun", "time": "Closed"}], "id": "9067000059", "name": "USPS COLLECTION BOX - BLUE BOX", "address": {"city": "SANTA FE SPGS", "state": "CA", "street": "10330 PIONEER BLVD", "postcode": "90670"}}},
{"geometry": {"type": "Point", "coordinates": [-118.0623918719, 33.9577541501]}, "type": "Feature", "properties": {"collection_times": [{"days": "Mon-Fri", "time": "5:00pm"}, {"days": "Sat", "time": "11:30am"}, {"days": "Sun", "time": "Closed"}], "id": "9067000061", "name": "USPS COLLECTION BOX - BLUE BOX", "address": {"city": "SANTA FE SPGS", "state": "CA", "street": "8940 SORENSEN AVE", "postcode": "90670"}}},
{"geometry": {"type": "Point", "coordinates": [-118.0464297082, 33.9401842179]}, "type": "Feature", "properties": {"collection_times": [{"days": "Mon-Fri", "time": "5:45pm"}, {"days": "Sat", "time": "3:00pm"}, {"days": "Sun", "time": "Closed"}], "id": "9067000067", "name": "USPS COLLECTION BOX - PO LOBBY", "address": {"city": "SANTA FE SPGS", "state": "CA", "street": "11760 TELEGRAPH RD", "postcode": "90670"}}},
{"geometry": {"type": "Point", "coordinates": [-118.029207507, 33.9002516978]}, "type": "Feature", "properties": {"collection_times": [{"days": "Mon-Fri", "time": "5:00pm"}, {"days": "Sat", "time": "1:00pm"}, {"days": "Sun", "time": "Closed"}], "id": "9067000069", "name": "USPS COLLECTION BOX - BLUE BOX", "address": {"city": "SANTA FE SPGS", "state": "CA", "street": "14515 VALLEY VIEW AVE", "postcode": "90670"}}},
{"geometry": {"type": "Point", "coordinates": [-117.9930905869, 33.8108117193]}, "type": "Feature", "properties": {"collection_times": [{"days": "Mon-Fri", "time": "5:00pm"}, {"days": "Sat", "time": "3:45pm"}, {"days": "Sun", "time": "Closed"}], "id": "9068000009", "name": "USPS COLLECTION BOX - PO LOBBY", "address": {"city": "STANTON", "state": "CA", "street": "10440 BEACH BLVD LBBY", "postcode": "90680"}}},
{"geometry": {"type": "Point", "coordinates": [-117.9930905869, 33.8108117193]}, "type": "Feature", "properties": {"collection_times": [{"days": "Mon-Fri", "time": "5:00pm"}, {"days": "Sat", "time": "3:45pm"}, {"days": "Sun", "time": "Closed"}], "id": "9068000021", "name": "USPS COLLECTION BOX - BLUE BOX", "address": {"city": "STANTON", "state": "CA", "street": "10440 BEACH BLVD (MAIN OFFICE) SE", "postcode": "90680"}}},
{"geometry": {"type": "Point", "coordinates": [-117.9930764655, 33.8114912862]}, "type": "Feature", "properties": {"collection_times": [{"days": "Mon-Fri", "time": "5:00pm"}, {"days": "Sat", "time": "3:45pm"}, {"days": "Sun", "time": "Closed"}], "id": "9068000022", "name": "USPS COLLECTION BOX - BLUE BOX", "address": {"city": "STANTON", "state": "CA", "street": "10440 BEACH BLVD", "postcode": "90680"}}},
{"geometry": {"type": "Point", "coordinates": [-117.9930905869, 33.8108117193]}, "type": "Feature", "properties": {"collection_times": [{"days": "Mon-Fri", "time": "5:00pm"}, {"days": "Sat", "time": "3:45pm"}, {"days": "Sun", "time": "Closed"}], "id": "9068000023", "name": "USPS COLLECTION BOX - BLUE BOX", "address": {"city": "STANTON", "state": "CA", "street": "10440 BEACH BLVD (MAIN OFFICE) SE", "postcode": "90680"}}},
{"geometry": {"type": "Point", "coordinates": [-117.9930905869, 33.8108117193]}, "type": "Feature", "properties": {"collection_times": [{"days": "Mon-Fri", "time": "5:00pm"}, {"days": "Sat", "time": "3:45pm"}, {"days": "Sun", "time": "Closed"}], "id": "9068000025", "name": "USPS COLLECTION BOX - PO LOBBY", "address": {"city": "STANTON", "state": "CA", "street": "10440 BEACH BLVD LBBY", "postcode": "90680"}}}
]}
