{"type": "FeatureCollection", "features": [
{"geometry": {"type": "Point", "coordinates": [-118.0839489331, 33.8657305893]}, "type": "Feature", "properties": {"collection_times": [{"days": "Mon-Sat", "time": "5:00pm"}, {"days": "Sun", "time": "Closed"}], "id": "9070100003", "name": "USPS COLLECTION BOX - BLUE BOX", "address": {"city": "ARTESIA", "state": "CA", "street": "11721 183RD ST", "postcode": "90701"}}},
{"geometry": {"type": "Point", "coordinates": [-118.0810481718, 33.8662322518]}, "type": "Feature", "properties": {"collection_times": [{"days": "Mon-Sat", "time": "5:00pm"}, {"days": "Sun", "time": "Closed"}], "id": "9070100016", "name": "USPS COLLECTION BOX - BLUE BOX", "address": {"city": "ARTESIA", "state": "CA", "street": "11721 183RD ST", "postcode": "90701"}}},
{"geometry": {"type": "Point", "coordinates": [-118.0909165614, 33.8649924229]}, "type": "Feature", "properties": {"collection_times": [{"days": "Mon-Fri", "time": "2:30pm"}, {"days": "Sat", "time": "3:00pm"}, {"days": "Sun", "time": "Closed"}], "id": "9070100022", "name": "USPS COLLECTION BOX - BLUE BOX", "address": {"city": "ARTESIA", "state": "CA", "street": "18300 GRIDLEY RD", "postcode": "90701"}}},
{"geometry": {"type": "Point", "coordinates": [-118.0811001058, 33.8731591584]}, "type": "Feature", "properties": {"collection_times": [{"days": "Mon-Fri", "time": "4:00pm"}, {"days": "Sat", "time": "1:00pm"}, {"days": "Sun", "time": "Closed"}], "id": "9070100037", "name": "USPS COLLECTION BOX - BLUE BOX", "address": {"city": "ARTESIA", "state": "CA", "street": "11851 ARTESIA BLVD", "postcode": "90701"}}},
{"geometry": {"type": "Point", "coordinates": [-118.082107406, 33.8633219696]}, "type": "Feature", "properties": {"collection_times": [{"days": "Mon-Fri", "time": "4:00pm"}, {"days": "Sat", "time": "3:00pm"}, {"days": "Sun", "time": "Closed"}], "id": "9070100061", "name": "USPS COLLECTION BOX - BLUE BOX", "address": {"city": "ARTESIA", "state": "CA", "street": "18550 PIONEER BLVD", "postcode": "90701"}}},
{"geometry": {"type": "Point", "coordinates": [-118.0765081212, 33.8628914878]}, "type": "Feature", "properties": {"collection_times": [{"days": "Mon-Fri", "time": "2:30pm"}, {"days": "Sat", "time": "1:00pm"}, {"days": "Sun", "time": "Closed"}], "id": "9070100087", "name": "USPS COLLECTION BOX - BLUE BOX", "address": {"city": "ARTESIA", "state": "CA", "street": "12000 186TH ST", "postcode": "90701"}}},
{"geometry": {"type": "Point", "coordinates": [-118.0810481718, 33.8662322518]}, "type": "Feature", "properties": {"collection_times": [{"days": "Mon-Sat", "time": "5:00pm"}, {"days": "Sun", "time": "Closed"}], "id": "9070100114", "name": "USPS COLLECTION BOX - PO LOBBY", "address": {"city": "ARTESIA", "state": "CA", "street": "11721 183RD ST LBBY", "postcode": "90701"}}},
{"geometry": {"type": "Point", "coordinates": [-118.0810481718, 33.8662322518]}, "type": "Feature", "properties": {"collection_times": [{"days": "Mon-Sat", "time": "5:00pm"}, {"days": "Sun", "time": "Closed"}], "id": "9070100117", "name": "USPS COLLECTION BOX - BLUE BOX", "address": {"city": "ARTESIA", "state": "CA", "street": "11721 183RD ST", "postcode": "90701"}}},
{"geometry": {"type": "Point", "coordinates": [-118.0797617313, 33.8605404158]}, "type": "Feature", "properties": {"collection_times": [{"days": "Mon-Fri", "time": "4:00pm"}, {"days": "Sat", "time": "3:00pm"}, {"days": "Sun", "time": "Closed"}], "id": "9070100122", "name": "USPS COLLECTION BOX - BLUE BOX", "address": {"city": "ARTESIA", "state": "CA", "street": "18747 CLARKDALE AVE", "postcode": "90701"}}},
{"geometry": {"type": "Point", "coordinates": [-118.083939269, 33.865738102]}, "type": "Feature", "properties": {"collection_times": [{"days": "Mon-Sat", "time": "5:00pm"}, {"days": "Sun", "time": "Closed"}], "id": "9070100133", "name": "USPS COLLECTION BOX - PO LOBBY", "address": {"city": "ARTESIA", "state": "CA", "street": "11721 183RD ST LBBY", "postcode": "90701"}}},
{"geometry": {"type": "Point", "coordinates": [-118.0989642313, 33.855822125]}, "type": "Feature", "properties": {"collection_times": [{"days": "Mon-Fri", "time": "4:00pm"}, {"days": "Sat", "time": "1:00pm"}, {"days": "Sun", "time": "Closed"}], "id": "9070300001", "name": "USPS COLLECTION BOX - BLUE BOX", "address": {"city": "ARTESIA", "state": "CA", "street": "19202 ALLINGHAM AVE", "postcode": "90703"}}},
{"geometry": {"type": "Point", "coordinates": [-118.0545334755, 33.8877312601]}, "type": "Feature", "properties": {"collection_times": [{"days": "Mon-Sat", "time": "3:00pm"}, {"days": "Sun", "time": "Closed"}], "id": "9070300002", "name": "USPS COLLECTION BOX - BLUE BOX", "address": {"city": "ARTESIA", "state": "CA", "street": "13030 ALONDRA BLVD", "postcode": "90703"}}},
{"geometry": {"type": "Point", "coordinates": [-118.047899388, 33.887763687]}, "type": "Feature", "properties": {"collection_times": [{"days": "Mon-Sat", "time": "3:00pm"}, {"days": "Sun", "time": "Closed"}], "id": "9070300007", "name": "USPS COLLECTION BOX - BLUE BOX", "address": {"city": "ARTESIA", "state": "CA", "street": "13336 ALONDRA BLVD", "postcode": "90703"}}},
{"geometry": {"type": "Point", "coordinates": [-118.0468560718, 33.8733098074]}, "type": "Feature", "properties": {"collection_times": [{"days": "Mon-Fri", "time": "3:00pm"}, {"days": "Sat", "time": "1:00pm"}, {"days": "Sun", "time": "Closed"}], "id": "9070300008", "name": "USPS COLLECTION BOX - BLUE BOX", "address": {"city": "ARTESIA", "state": "CA", "street": "13363 ARTESIA BLVD", "postcode": "90703"}}},
{"geometry": {"type": "Point", "coordinates": [-118.0974938133, 33.8729123331]}, "type": "Feature", "properties": {"collection_times": [{"days": "Mon-Fri", "time": "4:00pm"}, {"days": "Sat", "time": "1:00pm"}, {"days": "Sun", "time": "Closed"}], "id": "9070300009", "name": "USPS COLLECTION BOX - BLUE BOX", "address": {"city": "ARTESIA", "state": "CA", "street": "11050 ARTESIA BLVD", "postcode": "90703"}}},
{"geometry": {"type": "Point", "coordinates": [-118.0304815538, 33.8732400128]}, "type": "Feature", "properties": {"collection_times": [{"days": "Mon-Sat", "time": "3:00pm"}, {"days": "Sun", "time": "Closed"}], "id": "9070300010", "name": "USPS COLLECTION BOX - BLUE BOX", "address": {"city": "ARTESIA", "state": "CA", "street": "14108 ARTESIA BLVD", "postcode": "90703"}}},
{"geometry": {"type": "Point", "coordinates": [-118.0543005451, 33.8733280962]}, "type": "Feature", "properties": {"collection_times": [{"days": "Mon-Fri", "time": "3:00pm"}, {"days": "Sat", "time": "1:00pm"}, {"days": "Sun", "time": "Closed"}], "id": "9070300011", "name": "USPS COLLECTION BOX - BLUE BOX", "address": {"city": "ARTESIA", "state": "CA", "street": "13047 ARTESIA BLVD", "postcode": "90703"}}},
{"geometry": {"type": "Point", "coordinates": [-118.0888842379, 33.8537531298]}, "type": "Feature", "properties": {"collection_times": [{"days": "Mon-Fri", "time": "2:00pm"}, {"days": "Sat", "time": "1:00pm"}, {"days": "Sun", "time": "Closed"}], "id": "9070300012", "name": "USPS COLLECTION BOX - BLUE BOX", "address": {"city": "ARTESIA", "state": "CA", "street": "11503 BINGHAM ST", "postcode": "90703"}}},
{"geometry": {"type": "Point", "coordinates": [-118.0638666879, 33.8648900625]}, "type": "Feature", "properties": {"collection_times": [{"days": "Mon-Fri", "time": "4:30pm"}, {"days": "Sat", "time": "1:00pm"}, {"days": "Sun", "time": "Closed"}], "id": "9070300013", "name": "USPS COLLECTION BOX - BLUE BOX", "address": {"city": "ARTESIA", "state": "CA", "street": "18125 BLOOMFIELD AVE", "postcode": "90703"}}},
{"geometry": {"type": "Point", "coordinates": [-118.0462602291, 33.8671153377]}, "type": "Feature", "properties": {"collection_times": [{"days": "Mon-Fri", "time": "4:30pm"}, {"days": "Sat", "time": "1:00pm"}, {"days": "Sun", "time": "Closed"}], "id": "9070300014", "name": "USPS COLLECTION BOX - PO LOBBY", "address": {"city": "ARTESIA", "state": "CA", "street": "18122 CARMENITA RD", "postcode": "90703"}}},
{"geometry": {"type": "Point", "coordinates": [-118.0462602291, 33.8671153377]}, "type": "Feature", "properties": {"collection_times": [{"days": "Mon-Fri", "time": "4:30pm"}, {"days": "Sat", "time": "1:00pm"}, {"days": "Sun", "time": "Closed"}], "id": "9070300015", "name": "USPS COLLECTION BOX - PO LOBBY", "address": {"city": "ARTESIA", "state": "CA", "street": "18122 CARMENITA RD", "postcode": "90703"}}},
{"geometry": {"type": "Point", "coordinates": [-118.0462175499, 33.8671559925]}, "type": "Feature", "properties": {"collection_times": [{"days": "Mon-Fri", "time": "4:30pm"}, {"days": "Sat", "time": "1:00pm"}, {"days": "Sun", "time": "Closed"}], "id": "9070300017", "name": "USPS COLLECTION BOX - BLUE BOX", "address": {"city": "ARTESIA", "state": "CA", "street": "18122 CARMENITA RD", "postcode": "90703"}}},
{"geometry": {"type": "Point", "coordinates": [-118.0462175499, 33.8671559925]}, "type": "Feature", "properties": {"collection_times": [{"days": "Mon-Fri", "time": "4:30pm"}, {"days": "Sat", "time": "1:00pm"}, {"days": "Sun", "time": "Closed"}], "id": "9070300019", "name": "USPS COLLECTION BOX - BLUE BOX", "address": {"city": "ARTESIA", "state": "CA", "street": "18122 CARMENITA RD", "postcode": "90703"}}},
{"geometry": {"type": "Point", "coordinates": [-118.0660968806, 33.8774104588]}, "type": "Feature", "properties": {"collection_times": [{"days": "Mon-Sat", "time": "3:30pm"}, {"days": "Sun", "time": "Closed"}], "id": "9070300021", "name": "USPS COLLECTION BOX - BLUE BOX", "address": {"city": "ARTESIA", "state": "CA", "street": "16922 CHAPARRAL AVE", "postcode": "90703"}}},
{"geometry": {"type": "Point", "coordinates": [-118.080323219, 33.8461336679]}, "type": "Feature", "properties": {"collection_times": [{"days": "Mon-Fri", "time": "1:30pm"}, {"days": "Sat", "time": "1:00pm"}, {"days": "Sun", "time": "Closed"}], "id": "9070300022", "name": "USPS COLLECTION BOX - BLUE BOX", "address": {"city": "ARTESIA", "state": "CA", "street": "11871 DEL AMO BLVD", "postcode": "90703"}}},
{"geometry": {"type": "Point", "coordinates": [-118.0345269792, 33.8766632502]}, "type": "Feature", "properties": {"collection_times": [{"days": "Mon-Sat", "time": "3:00pm"}, {"days": "Sun", "time": "Closed"}], "id": "9070300024", "name": "USPS COLLECTION BOX - BLUE BOX", "address": {"city": "ARTESIA", "state": "CA", "street": "17023 EDWARDS RD", "postcode": "90703"}}},
{"geometry": {"type": "Point", "coordinates": [-118.0345269792, 33.8766632502]}, "type": "Feature", "properties": {"collection_times": [{"days": "Mon-Sat", "time": "3:00pm"}, {"days": "Sun", "time": "Closed"}], "id": "9070300025", "name": "USPS COLLECTION BOX - BLUE BOX", "address": {"city": "ARTESIA", "state": "CA", "street": "17023 EDWARDS RD", "postcode": "90703"}}},
{"geometry": {"type": "Point", "coordinates": [-118.0690472666, 33.8669317977]}, "type": "Feature", "properties": {"collection_times": [{"days": "Mon-Fri", "time": "3:00pm"}, {"days": "Sat", "time": "2:00pm"}, {"days": "Sun", "time": "Closed"}], "id": "9070300026", "name": "USPS COLLECTION BOX - BLUE BOX", "address": {"city": "ARTESIA", "state": "CA", "street": "18401 KAMSTRA AVE", "postcode": "90703"}}},
{"geometry": {"type": "Point", "coordinates": [-118.1068865075, 33.8651485735]}, "type": "Feature", "properties": {"collection_times": [{"days": "Mon-Fri", "time": "4:00pm"}, {"days": "Sat", "time": "3:30pm"}, {"days": "Sun", "time": "Closed"}], "id": "9070300027", "name": "USPS COLLECTION BOX - BLUE BOX", "address": {"city": "ARTESIA", "state": "CA", "street": "10735 LA JARA ST", "postcode": "90703"}}},
{"geometry": {"type": "Point", "coordinates": [-118.0632992014, 33.8773531611]}, "type": "Feature", "properties": {"collection_times": [{"days": "Mon-Sat", "time": "3:00pm"}, {"days": "Sun", "time": "Closed"}], "id": "9070300029", "name": "USPS COLLECTION BOX - BLUE BOX", "address": {"city": "ARTESIA", "state": "CA", "street": "12614 LUCAS ST", "postcode": "90703"}}},
{"geometry": {"type": "Point", "coordinates": [-118.0725523065, 33.8754438653]}, "type": "Feature", "properties": {"collection_times": [{"days": "Mon-Fri", "time": "2:30pm"}, {"days": "Sat", "time": "1:00pm"}, {"days": "Sun", "time": "Closed"}], "id": "9070300031", "name": "USPS COLLECTION BOX - BLUE BOX", "address": {"city": "ARTESIA", "state": "CA", "street": "17100 NORWALK BLVD", "postcode": "90703"}}},
{"geometry": {"type": "Point", "coordinates": [-118.0486726613, 33.8707197267]}, "type": "Feature", "properties": {"collection_times": [{"days": "Mon-Fri", "time": "3:00pm"}, {"days": "Sat", "time": "1:00pm"}, {"days": "Sun", "time": "Closed"}], "id": "9070300032", "name": "USPS COLLECTION BOX - BLUE BOX", "address": {"city": "ARTESIA", "state": "CA", "street": "12517 PINEGROVE LN", "postcode": "90703"}}},
{"geometry": {"type": "Point", "coordinates": [-118.0820053316, 33.8535378312]}, "type": "Feature", "properties": {"collection_times": [{"days": "Mon-Sat", "time": "3:30pm"}, {"days": "Sun", "time": "Closed"}], "id": "9070300033", "name": "USPS COLLECTION BOX - BLUE BOX", "address": {"city": "ARTESIA", "state": "CA", "street": "19430 PIONEER BLVD", "postcode": "90703"}}},
{"geometry": {"type": "Point", "coordinates": [-118.0498347625, 33.8575752702]}, "type": "Feature", "properties": {"collection_times": [{"days": "Mon-Sat", "time": "3:00pm"}, {"days": "Sun", "time": "Closed"}], "id": "9070300034", "name": "USPS COLLECTION BOX - BLUE BOX", "address": {"city": "ARTESIA", "state": "CA", "street": "19034 PIRES AVE", "postcode": "90703"}}},
{"geometry": {"type": "Point", "coordinates": [-118.064982552, 33.8850755172]}, "type": "Feature", "properties": {"collection_times": [{"days": "Mon-Fri", "time": "3:00pm"}, {"days": "Sat", "time": "2:30pm"}, {"days": "Sun", "time": "Closed"}], "id": "9070300035", "name": "USPS COLLECTION BOX - BLUE BOX", "address": {"city": "ARTESIA", "state": "CA", "street": "12538 SANDYCREEK LN", "postcode": "90703"}}},
{"geometry": {"type": "Point", "coordinates": [-118.1076808359, 33.8583411769]}, "type": "Feature", "properties": {"collection_times": [{"days": "Mon-Fri", "time": "1:30pm"}, {"days": "Sat", "time": "3:00pm"}, {"days": "Sun", "time": "Closed"}], "id": "9070300037", "name": "USPS COLLECTION BOX - BLUE BOX", "address": {"city": "ARTESIA", "state": "CA", "street": "10723 SOUTH ST", "postcode": "90703"}}},
{"geometry": {"type": "Point", "coordinates": [-118.0648440324, 33.8584591827]}, "type": "Feature", "properties": {"collection_times": [{"days": "Mon-Fri", "time": "12:30pm"}, {"days": "Sat", "time": "1:00pm"}, {"days": "Sun", "time": "Closed"}], "id": "9070300040", "name": "USPS COLLECTION BOX - BLUE BOX", "address": {"city": "ARTESIA", "state": "CA", "street": "12506 SOUTH ST", "postcode": "90703"}}},
{"geometry": {"type": "Point", "coordinates": [-118.0923299884, 33.858273353]}, "type": "Feature", "properties": {"collection_times": [{"days": "Mon-Fri", "time": "4:00pm"}, {"days": "Sat", "time": "3:00pm"}, {"days": "Sun", "time": "Closed"}], "id": "9070300041", "name": "USPS COLLECTION BOX - BLUE BOX", "address": {"city": "ARTESIA", "state": "CA", "street": "11338 SOUTH ST", "postcode": "90703"}}},
{"geometry": {"type": "Point", "coordinates": [-118.1008782589, 33.8583974266]}, "type": "Feature", "properties": {"collection_times": [{"days": "Mon-Fri", "time": "4:00pm"}, {"days": "Sat", "time": "3:00pm"}, {"days": "Sun", "time": "Closed"}], "id": "9070300042", "name": "USPS COLLECTION BOX - BLUE BOX", "address": {"city": "ARTESIA", "state": "CA", "street": "10929 SOUTH ST NW", "postcode": "90703"}}},
{"geometry": {"type": "Point", "coordinates": [-118.0949309897, 33.8466863222]}, "type": "Feature", "properties": {"collection_times": [{"days": "Mon-Fri", "time": "1:30pm"}, {"days": "Sat", "time": "3:00pm"}, {"days": "Sun", "time": "Closed"}], "id": "9070300043", "name": "USPS COLLECTION BOX - BLUE BOX", "address": {"city": "ARTESIA", "state": "CA", "street": "20222 STATE RD", "postcode": "90703"}}},
{"geometry": {"type": "Point", "coordinates": [-118.0989180959, 33.868535385]}, "type": "Feature", "properties": {"collection_times": [{"days": "Mon-Fri", "time": "4:00pm"}, {"days": "Sat", "time": "3:00pm"}, {"days": "Sun", "time": "Closed"}], "id": "9070300044", "name": "USPS COLLECTION BOX - BLUE BOX", "address": {"city": "ARTESIA", "state": "CA", "street": "18000 STUDEBAKER RD", "postcode": "90703"}}},
{"geometry": {"type": "Point", "coordinates": [-118.0989180959, 33.868535385]}, "type": "Feature", "properties": {"collection_times": [{"days": "Mon-Fri", "time": "4:00pm"}, {"days": "Sat", "time": "3:00pm"}, {"days": "Sun", "time": "Closed"}], "id": "9070300045", "name": "USPS COLLECTION BOX - BLUE BOX", "address": {"city": "ARTESIA", "state": "CA", "street": "18000 STUDEBAKER RD", "postcode": "90703"}}},
{"geometry": {"type": "Point", "coordinates": [-118.0989180959, 33.868535385]}, "type": "Feature", "properties": {"collection_times": [{"days": "Mon-Fri", "time": "4:00pm"}, {"days": "Sat", "time": "3:00pm"}, {"days": "Sun", "time": "Closed"}], "id": "9070300046", "name": "USPS COLLECTION BOX - BLUE BOX", "address": {"city": "ARTESIA", "state": "CA", "street": "18000 STUDEBAKER RD", "postcode": "90703"}}},
{"geometry": {"type": "Point", "coordinates": [-118.0998159617, 33.8745116937]}, "type": "Feature", "properties": {"collection_times": [{"days": "Mon-Fri", "time": "4:00pm"}, {"days": "Sat", "time": "1:00pm"}, {"days": "Sun", "time": "Closed"}], "id": "9070300047", "name": "USPS COLLECTION BOX - BLUE BOX", "address": {"city": "ARTESIA", "state": "CA", "street": "17215 STUDEBAKER RD", "postcode": "90703"}}},
{"geometry": {"type": "Point", "coordinates": [-118.0998159617, 33.8745116937]}, "type": "Feature", "properties": {"collection_times": [{"days": "Mon-Fri", "time": "4:00pm"}, {"days": "Sat", "time": "1:00pm"}, {"days": "Sun", "time": "Closed"}], "id": "9070300048", "name": "USPS COLLECTION BOX - BLUE BOX", "address": {"city": "ARTESIA", "state": "CA", "street": "17215 STUDEBAKER RD", "postcode": "90703"}}},
{"geometry": {"type": "Point", "coordinates": [-118.0527424756, 33.8594762852]}, "type": "Feature", "properties": {"collection_times": [{"days": "Mon-Sat", "time": "3:00pm"}, {"days": "Sun", "time": "Closed"}], "id": "9070300050", "name": "USPS COLLECTION BOX - BLUE BOX", "address": {"city": "ARTESIA", "state": "CA", "street": "18943 VICKIE AVE", "postcode": "90703"}}},
{"geometry": {"type": "Point", "coordinates": [-118.1020304609, 33.865564975]}, "type": "Feature", "properties": {"collection_times": [{"days": "Mon-Fri", "time": "4:00pm"}, {"days": "Sat", "time": "3:00pm"}, {"days": "Sun", "time": "Closed"}], "id": "9070300051", "name": "USPS COLLECTION BOX - BLUE BOX", "address": {"city": "ARTESIA", "state": "CA", "street": "10900 183RD ST", "postcode": "90703"}}},
{"geometry": {"type": "Point", "coordinates": [-118.3266403373, 33.3441773529]}, "type": "Feature", "properties": {"collection_times": [{"days": "Mon-Fri", "time": "3:15pm"}, {"days": "Sat", "time": "12:15pm"}, {"days": "Sun", "time": "Closed"}], "id": "9070400003", "name": "USPS COLLECTION BOX - BLUE BOX", "address": {"city": "AVALON", "state": "CA", "street": "118 METROPOLE ST", "postcode": "90704"}}},
{"geometry": {"type": "Point", "coordinates": [-118.4330049526, 33.3816855254]}, "type": "Feature", "properties": {"collection_times": [{"days": "Mon-Fri", "time": "8:00am"}, {"days": "Sat-Sun", "time": "Closed"}], "id": "9070400004", "name": "USPS COLLECTION BOX - BLUE BOX", "address": {"city": "AVALON", "state": "CA", "street": "1 ISTHMUS AVE", "postcode": "90704"}}},
{"geometry": {"type": "Point", "coordinates": [-118.3247998848, 33.3427642558]}, "type": "Feature", "properties": {"collection_times": [{"days": "Mon-Fri", "time": "3:15pm"}, {"days": "Sat", "time": "12:15pm"}, {"days": "Sun", "time": "Closed"}], "id": "9070400005", "name": "USPS COLLECTION BOX - BLUE BOX", "address": {"city": "AVALON", "state": "CA", "street": "604 CRESCENT AVE", "postcode": "90704"}}},
{"geometry": {"type": "Point", "coordinates": [-118.4330049526, 33.3816855254]}, "type": "Feature", "properties": {"collection_times": [{"days": "Mon-Fri", "time": "3:15pm"}, {"days": "Sat", "time": "12:15pm"}, {"days": "Sun", "time": "Closed"}], "id": "9070400006", "name": "USPS COLLECTION BOX - PO LOBBY", "address": {"city": "AVALON", "state": "CA", "street": "118 METROPOLE ST LBBY", "postcode": "90704"}}},
{"geometry": {"type": "Point", "coordinates": [-118.1251126193, 33.8706844989]}, "type": "Feature", "properties": {"collection_times": [{"days": "Mon-Sat", "time": "2:30pm"}, {"days": "Sun", "time": "Closed"}], "id": "9070600013", "name": "USPS COLLECTION BOX - BLUE BOX", "address": {"city": "BELLFLOWER", "state": "CA", "street": "17832 BELLFLOWER BLVD", "postcode": "90706"}}},
{"geometry": {"type": "Point", "coordinates": [-118.1253394844, 33.9008005907]}, "type": "Feature", "properties": {"collection_times": [{"days": "Mon-Sat", "time": "2:45pm"}, {"days": "Sun", "time": "Closed"}], "id": "9070600017", "name": "USPS COLLECTION BOX - BLUE BOX", "address": {"city": "BELLFLOWER", "state": "CA", "street": "14343 BELLFLOWER BLVD", "postcode": "90706"}}},
{"geometry": {"type": "Point", "coordinates": [-118.1339877802, 33.8799210967]}, "type": "Feature", "properties": {"collection_times": [{"days": "Mon-Sat", "time": "2:30pm"}, {"days": "Sun", "time": "Closed"}], "id": "9070600027", "name": "USPS COLLECTION BOX - BLUE BOX", "address": {"city": "BELLFLOWER", "state": "CA", "street": "17011 CLARK AVE", "postcode": "90706"}}},
{"geometry": {"type": "Point", "coordinates": [-118.1392357033, 33.8965383896]}, "type": "Feature", "properties": {"collection_times": [{"days": "Mon-Sat", "time": "3:00pm"}, {"days": "Sun", "time": "Closed"}], "id": "9070600028", "name": "USPS COLLECTION BOX - BLUE BOX", "address": {"city": "BELLFLOWER", "state": "CA", "street": "9135 SOMERSET BLVD", "postcode": "90706"}}},
{"geometry": {"type": "Point", "coordinates": [-118.120707639, 33.8821649693]}, "type": "Feature", "properties": {"collection_times": [{"days": "Mon-Sat", "time": "3:00pm"}, {"days": "Sun", "time": "Closed"}], "id": "9070600031", "name": "USPS COLLECTION BOX - BLUE BOX", "address": {"city": "BELLFLOWER", "state": "CA", "street": "10005 FLOWER ST", "postcode": "90706"}}},
{"geometry": {"type": "Point", "coordinates": [-118.1283087966, 33.8854415211]}, "type": "Feature", "properties": {"collection_times": [{"days": "Mon-Fri", "time": "5:00pm"}, {"days": "Sat", "time": "4:30pm"}, {"days": "Sun", "time": "Closed"}], "id": "9070600033", "name": "USPS COLLECTION BOX - BLUE BOX", "address": {"city": "BELLFLOWER", "state": "CA", "street": "9835 FLOWER ST", "postcode": "90706"}}},
{"geometry": {"type": "Point", "coordinates": [-118.1226209077, 33.8820459932]}, "type": "Feature", "properties": {"collection_times": [{"days": "Mon-Sat", "time": "3:00pm"}, {"days": "Sun", "time": "Closed"}], "id": "9070600034", "name": "USPS COLLECTION BOX - BLUE BOX", "address": {"city": "BELLFLOWER", "state": "CA", "street": "9910 FLOWER ST", "postcode": "90706"}}},
{"geometry": {"type": "Point", "coordinates": [-118.1234964343, 33.8730294461]}, "type": "Feature", "properties": {"collection_times": [{"days": "Mon-Sat", "time": "2:45pm"}, {"days": "Sun", "time": "Closed"}], "id": "9070600040", "name": "USPS COLLECTION BOX - BLUE BOX", "address": {"city": "BELLFLOWER", "state": "CA", "street": "9843 RAMONA ST", "postcode": "90706"}}},
{"geometry": {"type": "Point", "coordinates": [-118.1136507063, 33.9019877736]}, "type": "Feature", "properties": {"collection_times": [{"days": "Mon-Sat", "time": "2:45pm"}, {"days": "Sun", "time": "Closed"}], "id": "9070600042", "name": "USPS COLLECTION BOX - BLUE BOX", "address": {"city": "BELLFLOWER", "state": "CA", "street": "10318 ROSECRANS AVE", "postcode": "90706"}}},
{"geometry": {"type": "Point", "coordinates": [-118.1172564955, 33.8836224314]}, "type": "Feature", "properties": {"collection_times": [{"days": "Mon-Sat", "time": "2:45pm"}, {"days": "Sun", "time": "Closed"}], "id": "9070600047", "name": "USPS COLLECTION BOX - BLUE BOX", "address": {"city": "BELLFLOWER", "state": "CA", "street": "16606 WOODRUFF AVE", "postcode": "90706"}}},
{"geometry": {"type": "Point", "coordinates": [-118.1283087966, 33.8854415211]}, "type": "Feature", "properties": {"collection_times": [{"days": "Mon-Fri", "time": "5:00pm"}, {"days": "Sat", "time": "4:30pm"}, {"days": "Sun", "time": "Closed"}], "id": "9070600049", "name": "USPS COLLECTION BOX - EXPRESS", "address": {"city": "BELLFLOWER", "state": "CA", "street": "9835 FLOWER ST", "postcode": "90706"}}},
{"geometry": {"type": "Point", "coordinates": [-118.1241446958, 33.882084997]}, "type": "Feature", "properties": {"collection_times": [{"days": "Mon-Fri", "time": "5:00pm"}, {"days": "Sat", "time": "4:30pm"}, {"days": "Sun", "time": "Closed"}], "id": "9070600055", "name": "USPS COLLECTION BOX - BLUE BOX", "address": {"city": "BELLFLOWER", "state": "CA", "street": "9835 FLOWER ST", "postcode": "90706"}}},
{"geometry": {"type": "Point", "coordinates": [-118.1226209077, 33.8820459932]}, "type": "Feature", "properties": {"collection_times": [{"days": "Mon-Sat", "time": "3:00pm"}, {"days": "Sun", "time": "Closed"}], "id": "9070600057", "name": "USPS COLLECTION BOX - BLUE BOX", "address": {"city": "BELLFLOWER", "state": "CA", "street": "9910 FLOWER ST", "postcode": "90706"}}},
{"geometry": {"type": "Point", "coordinates": [-118.1241446958, 33.882084997]}, "type": "Feature", "properties": {"collection_times": [{"days": "Mon-Fri", "time": "5:00pm"}, {"days": "Sat", "time": "4:30pm"}, {"days": "Sun", "time": "Closed"}], "id": "9070600061", "name": "USPS COLLECTION BOX - PO LOBBY", "address": {"city": "BELLFLOWER", "state": "CA", "street": "9835 FLOWER ST LBBY", "postcode": "90706"}}},
{"geometry": {"type": "Point", "coordinates": [-118.1241446958, 33.882084997]}, "type": "Feature", "properties": {"collection_times": [{"days": "Mon-Fri", "time": "5:00pm"}, {"days": "Sat", "time": "4:30pm"}, {"days": "Sun", "time": "Closed"}], "id": "9070600062", "name": "USPS COLLECTION BOX - APC", "address": {"city": "BELLFLOWER", "state": "CA", "street": "9835 FLOWER ST", "postcode": "90706"}}},
{"geometry": {"type": "Point", "coordinates": [-118.2981307515, 33.8098712669]}, "type": "Feature", "properties": {"collection_times": [{"days": "Mon-Sat", "time": "1:00pm"}, {"days": "Sun", "time": "Closed"}], "id": "9071000008", "name": "USPS COLLECTION BOX - BLUE BOX", "address": {"city": "HARBOR CITY", "state": "CA", "street": "1232 OAKHEATH DR", "postcode": "90710"}}},
{"geometry": {"type": "Point", "coordinates": [-118.3041094261, 33.8072947823]}, "type": "Feature", "properties": {"collection_times": [{"days": "Mon-Sat", "time": "2:10pm"}, {"days": "Sun", "time": "Closed"}], "id": "9071000015", "name": "USPS COLLECTION BOX - BLUE BOX", "address": {"city": "HARBOR CITY", "state": "CA", "street": "1500 240TH ST", "postcode": "90710"}}},
{"geometry": {"type": "Point", "coordinates": [-118.3040727544, 33.7894533952]}, "type": "Feature", "properties": {"collection_times": [{"days": "Mon-Sat", "time": "1:00pm"}, {"days": "Sun", "time": "Closed"}], "id": "9071000022", "name": "USPS COLLECTION BOX - BLUE BOX", "address": {"city": "HARBOR CITY", "state": "CA", "street": "1544 PACIFIC COAST HWY", "postcode": "90710"}}},
{"geometry": {"type": "Point", "coordinates": [-118.2998594181, 33.7902840239]}, "type": "Feature", "properties": {"collection_times": [{"days": "Mon-Fri", "time": "5:00pm"}, {"days": "Sat", "time": "4:30pm"}, {"days": "Sun", "time": "Closed"}], "id": "9071000024", "name": "USPS COLLECTION BOX - BLUE BOX", "address": {"city": "HARBOR CITY", "state": "CA", "street": "25690 FRAMPTON AVE", "postcode": "90710"}}},
{"geometry": {"type": "Point", "coordinates": [-118.2998594181, 33.7902840239]}, "type": "Feature", "properties": {"collection_times": [{"days": "Mon-Fri", "time": "5:00pm"}, {"days": "Sat", "time": "4:30pm"}, {"days": "Sun", "time": "Closed"}], "id": "9071000028", "name": "USPS COLLECTION BOX - BLUE BOX", "address": {"city": "HARBOR CITY", "state": "CA", "street": "25690 FRAMPTON AVE", "postcode": "90710"}}},
{"geometry": {"type": "Point", "coordinates": [-118.2987286023, 33.7948004077]}, "type": "Feature", "properties": {"collection_times": [{"days": "Mon-Sat", "time": "1:00pm"}, {"days": "Sun", "time": "Closed"}], "id": "9071000029", "name": "USPS COLLECTION BOX - BLUE BOX", "address": {"city": "HARBOR CITY", "state": "CA", "street": "1065 LOMITA BLVD", "postcode": "90710"}}},
{"geometry": {"type": "Point", "coordinates": [-118.2987286023, 33.7948004077]}, "type": "Feature", "properties": {"collection_times": [{"days": "Mon-Fri", "time": "5:00pm"}, {"days": "Sat", "time": "3:30pm"}, {"days": "Sun", "time": "Closed"}], "id": "9071000031", "name": "USPS COLLECTION BOX - PO LOBBY", "address": {"city": "HARBOR CITY", "state": "CA", "street": "25690 FRAMPTON AVE LBBY", "postcode": "90710"}}},
{"geometry": {"type": "Point", "coordinates": [-118.2869858234, 33.7977219984]}, "type": "Feature", "properties": {"collection_times": [{"days": "Mon-Sat", "time": "1:00pm"}, {"days": "Sun", "time": "Closed"}], "id": "9071000032", "name": "USPS COLLECTION BOX - BLUE BOX", "address": {"city": "HARBOR CITY", "state": "CA", "street": "760 LOMITA BLVD", "postcode": "90710"}}},
{"geometry": {"type": "Point", "coordinates": [-118.1337656186, 33.8500307558]}, "type": "Feature", "properties": {"collection_times": [{"days": "Mon-Sat", "time": "5:00pm"}, {"days": "Sun", "time": "Closed"}], "id": "9071200012", "name": "USPS COLLECTION BOX - BLUE BOX", "address": {"city": "LAKEWOOD", "state": "CA", "street": "5200 CLARK AVE", "postcode": "90712"}}},
{"geometry": {"type": "Point", "coordinates": [-118.1337656186, 33.8500307558]}, "type": "Feature", "properties": {"collection_times": [{"days": "Mon-Sat", "time": "5:00pm"}, {"days": "Sun", "time": "Closed"}], "id": "9071200051", "name": "USPS COLLECTION BOX - BLUE BOX", "address": {"city": "LAKEWOOD", "state": "CA", "street": "5201 CIVIC CENTER WAY", "postcode": "90712"}}},
{"geometry": {"type": "Point", "coordinates": [-118.1550471328, 33.8311420521]}, "type": "Feature", "properties": {"collection_times": [{"days": "Mon-Fri", "time": "3:00pm"}, {"days": "Sat-Sun", "time": "Closed"}], "id": "9071200052", "name": "USPS COLLECTION BOX - BLUE BOX", "address": {"city": "LAKEWOOD", "state": "CA", "street": "4010 WATSON PLAZA DR", "postcode": "90712"}}},
{"geometry": {"type": "Point", "coordinates": [-118.1461798042, 33.8490825151]}, "type": "Feature", "properties": {"collection_times": [{"days": "Mon-Fri", "time": "3:00pm"}, {"days": "Sat-Sun", "time": "Closed"}], "id": "9071200053", "name": "USPS COLLECTION BOX - EXPRESS", "address": {"city": "LAKEWOOD", "state": "CA", "street": "4010 WATSON PLAZA DR", "postcode": "90712"}}},
{"geometry": {"type": "Point", "coordinates": [-118.1550471328, 33.8311420521]}, "type": "Feature", "properties": {"collection_times": [{"days": "Mon-Fri", "time": "3:00pm"}, {"days": "Sat-Sun", "time": "Closed"}], "id": "9071200056", "name": "USPS COLLECTION BOX - BLUE BOX", "address": {"city": "LAKEWOOD", "state": "CA", "street": "4010 WATSON PLAZA DR", "postcode": "90712"}}},
{"geometry": {"type": "Point", "coordinates": [-118.1546449268, 33.8382776606]}, "type": "Feature", "properties": {"collection_times": [{"days": "Mon-Sat", "time": "3:00pm"}, {"days": "Sun", "time": "Closed"}], "id": "9071200066", "name": "USPS COLLECTION BOX - BLUE BOX", "address": {"city": "LAKEWOOD", "state": "CA", "street": "4371 CLUBHOUSE DR", "postcode": "90712"}}},
{"geometry": {"type": "Point", "coordinates": [-118.1135792279, 33.8487131896]}, "type": "Feature", "properties": {"collection_times": [{"days": "Mon-Fri", "time": "3:00pm"}, {"days": "Sat-Sun", "time": "Closed"}], "id": "9071300008", "name": "USPS COLLECTION BOX - BLUE BOX", "address": {"city": "LAKEWOOD", "state": "CA", "street": "5500 WOODRUFF AVE", "postcode": "90713"}}},
{"geometry": {"type": "Point", "coordinates": [-118.1236336575, 33.8609963875]}, "type": "Feature", "properties": {"collection_times": [{"days": "Mon-Fri", "time": "3:00pm"}, {"days": "Sat-Sun", "time": "Closed"}], "id": "9071300035", "name": "USPS COLLECTION BOX - BLUE BOX", "address": {"city": "LAKEWOOD", "state": "CA", "street": "5822 ADENMOOR AVE", "postcode": "90713"}}},
{"geometry": {"type": "Point", "coordinates": [-118.1337096384, 33.8522239541]}, "type": "Feature", "properties": {"collection_times": [{"days": "Mon-Sat", "time": "5:00pm"}, {"days": "Sun", "time": "Closed"}], "id": "9071400000", "name": "USPS COLLECTION BOX - PO LOBBY", "address": {"city": "LAKEWOOD", "state": "CA", "street": "5200 CLARK AVE LBBY", "postcode": "90714"}}},
{"geometry": {"type": "Point", "coordinates": [-118.1337096384, 33.8522239541]}, "type": "Feature", "properties": {"collection_times": [{"days": "Mon-Sat", "time": "5:00pm"}, {"days": "Sun", "time": "Closed"}], "id": "9071400003", "name": "USPS COLLECTION BOX - BLUE BOX", "address": {"city": "LAKEWOOD", "state": "CA", "street": "5200 CLARK AVE", "postcode": "90714"}}},
{"geometry": {"type": "Point", "coordinates": [-118.1337096384, 33.8522239541]}, "type": "Feature", "properties": {"collection_times": [{"days": "Mon-Sat", "time": "5:00pm"}, {"days": "Sun", "time": "Closed"}], "id": "9071400006", "name": "USPS COLLECTION BOX - BLUE BOX", "address": {"city": "LAKEWOOD", "state": "CA", "street": "5200 CLARK AVE", "postcode": "90714"}}},
{"geometry": {"type": "Point", "coordinates": [-118.133768067, 33.8522235638]}, "type": "Feature", "properties": {"collection_times": [{"days": "Mon-Sat", "time": "5:00pm"}, {"days": "Sun", "time": "Closed"}], "id": "9071400007", "name": "USPS COLLECTION BOX - APC", "address": {"city": "LAKEWOOD", "state": "CA", "street": "5200 CLARK AVE", "postcode": "90714"}}},
{"geometry": {"type": "Point", "coordinates": [-118.0714457096, 33.8313722727]}, "type": "Feature", "properties": {"collection_times": [{"days": "Mon-Fri", "time": "3:00pm"}, {"days": "Sat", "time": "1:00pm"}, {"days": "Sun", "time": "Closed"}], "id": "9071600019", "name": "USPS COLLECTION BOX - BLUE BOX", "address": {"city": "HAWAIIAN GDNS", "state": "CA", "street": "21101 NORWALK BLVD", "postcode": "90716"}}},
{"geometry": {"type": "Point", "coordinates": [-118.0714457096, 33.8313722727]}, "type": "Feature", "properties": {"collection_times": [{"days": "Mon-Fri", "time": "3:00pm"}, {"days": "Sat", "time": "1:00pm"}, {"days": "Sun", "time": "Closed"}], "id": "9071600020", "name": "USPS COLLECTION BOX - BLUE BOX", "address": {"city": "HAWAIIAN GDNS", "state": "CA", "street": "12221 CARSON ST", "postcode": "90716"}}},
{"geometry": {"type": "Point", "coordinates": [-118.0714457096, 33.8313722727]}, "type": "Feature", "properties": {"collection_times": [{"days": "Mon-Fri", "time": "3:00pm"}, {"days": "Sat", "time": "1:00pm"}, {"days": "Sun", "time": "Closed"}], "id": "9071600021", "name": "USPS COLLECTION BOX - BLUE BOX", "address": {"city": "HAWAIIAN GDNS", "state": "CA", "street": "21815 PIONEER BLVD", "postcode": "90716"}}},
{"geometry": {"type": "Point", "coordinates": [-118.3173686759, 33.7937705951]}, "type": "Feature", "properties": {"collection_times": [{"days": "Mon-Fri", "time": "5:00pm"}, {"days": "Sat", "time": "4:45pm"}, {"days": "Sun", "time": "Closed"}], "id": "9071700001", "name": "USPS COLLECTION BOX - BLUE BOX", "address": {"city": "LOMITA", "state": "CA", "street": "25131 NARBONNE AVE", "postcode": "90717"}}},
{"geometry": {"type": "Point", "coordinates": [-118.3173686759, 33.7937705951]}, "type": "Feature", "properties": {"collection_times": [{"days": "Mon-Fri", "time": "3:00pm"}, {"days": "Sat", "time": "1:00pm"}, {"days": "Sun", "time": "Closed"}], "id": "9071700006", "name": "USPS COLLECTION BOX - EXPRESS", "address": {"city": "LOMITA", "state": "CA", "street": "2031 PALOS VERDES DR N", "postcode": "90717"}}},
{"geometry": {"type": "Point", "coordinates": [-118.3173686759, 33.7937705951]}, "type": "Feature", "properties": {"collection_times": [{"days": "Mon-Fri", "time": "5:00pm"}, {"days": "Sat", "time": "4:45pm"}, {"days": "Sun", "time": "Closed"}], "id": "9071700007", "name": "USPS COLLECTION BOX - BLUE BOX", "address": {"city": "LOMITA", "state": "CA", "street": "25131 NARBONNE AVE", "postcode": "90717"}}},
{"geometry": {"type": "Point", "coordinates": [-118.3173599858, 33.7938010559]}, "type": "Feature", "properties": {"collection_times": [{"days": "Mon-Fri", "time": "5:00pm"}, {"days": "Sat", "time": "4:45pm"}, {"days": "Sun", "time": "Closed"}], "id": "9071700008", "name": "USPS COLLECTION BOX - PO LOBBY", "address": {"city": "LOMITA", "state": "CA", "street": "25131 NARBONNE AVE LBBY", "postcode": "90717"}}},
{"geometry": {"type": "Point", "coordinates": [-118.3173686759, 33.7937705951]}, "type": "Feature", "properties": {"collection_times": [{"days": "Mon-Fri", "time": "5:00pm"}, {"days": "Sat", "time": "4:45pm"}, {"days": "Sun", "time": "Closed"}], "id": "9071700009", "name": "USPS COLLECTION BOX - BLUE BOX", "address": {"city": "LOMITA", "state": "CA", "street": "25131 NARBONNE AVE", "postcode": "90717"}}},
{"geometry": {"type": "Point", "coordinates": [-118.3173686759, 33.7937705951]}, "type": "Feature", "properties": {"collection_times": [{"days": "Mon-Fri", "time": "5:00pm"}, {"days": "Sat", "time": "4:45pm"}, {"days": "Sun", "time": "Closed"}], "id": "9071700010", "name": "USPS COLLECTION BOX - EXPRESS", "address": {"city": "LOMITA", "state": "CA", "street": "25131 NARBONNE AVE", "postcode": "90717"}}},
{"geometry": {"type": "Point", "coordinates": [-118.3198782691, 33.8065365056]}, "type": "Feature", "properties": {"collection_times": [{"days": "Mon-Fri", "time": "3:00pm"}, {"days": "Sat", "time": "1:00pm"}, {"days": "Sun", "time": "Closed"}], "id": "9071700013", "name": "USPS COLLECTION BOX - BLUE BOX", "address": {"city": "LOMITA", "state": "CA", "street": "24020 NARBONNE AVE", "postcode": "90717"}}},
{"geometry": {"type": "Point", "coordinates": [-118.3248750878, 33.8045195606]}, "type": "Feature", "properties": {"collection_times": [{"days": "Mon-Fri", "time": "3:00pm"}, {"days": "Sat", "time": "1:00pm"}, {"days": "Sun", "time": "Closed"}], "id": "9071700015", "name": "USPS COLLECTION BOX - BLUE BOX", "address": {"city": "LOMITA", "state": "CA", "street": "2380 LOMITA BLVD", "postcode": "90717"}}},
{"geometry": {"type": "Point", "coordinates": [-118.3151594458, 33.7763367462]}, "type": "Feature", "properties": {"collection_times": [{"days": "Mon-Fri", "time": "3:00pm"}, {"days": "Sat", "time": "1:00pm"}, {"days": "Sun", "time": "Closed"}], "id": "9071700016", "name": "USPS COLLECTION BOX - BLUE BOX", "address": {"city": "LOMITA", "state": "CA", "street": "2031 PALOS VERDES DR N", "postcode": "90717"}}},
{"geometry": {"type": "Point", "coordinates": [-118.3199835525, 33.794446665]}, "type": "Feature", "properties": {"collection_times": [{"days": "Mon-Fri", "time": "3:00pm"}, {"days": "Sat", "time": "1:00pm"}, {"days": "Sun", "time": "Closed"}], "id": "9071700017", "name": "USPS COLLECTION BOX - BLUE BOX", "address": {"city": "LOMITA", "state": "CA", "street": "25332 NARBONNE AVE", "postcode": "90717"}}},
{"geometry": {"type": "Point", "coordinates": [-118.3180990988, 33.7895125432]}, "type": "Feature", "properties": {"collection_times": [{"days": "Mon-Fri", "time": "3:00pm"}, {"days": "Sat", "time": "1:00pm"}, {"days": "Sun", "time": "Closed"}], "id": "9071700019", "name": "USPS COLLECTION BOX - BLUE BOX", "address": {"city": "LOMITA", "state": "CA", "street": "2130 PACIFIC COAST HWY", "postcode": "90717"}}},
{"geometry": {"type": "Point", "coordinates": [-118.3173686759, 33.7937705951]}, "type": "Feature", "properties": {"collection_times": [{"days": "Mon-Fri", "time": "5:00pm"}, {"days": "Sat", "time": "4:45pm"}, {"days": "Sun", "time": "Closed"}], "id": "9071700020", "name": "USPS COLLECTION BOX - BLUE BOX", "address": {"city": "LOMITA", "state": "CA", "street": "25131 NARBONNE AVE", "postcode": "90717"}}},
{"geometry": {"type": "Point", "coordinates": [-118.3124220788, 33.7852006577]}, "type": "Feature", "properties": {"collection_times": [{"days": "Mon-Fri", "time": "3:00pm"}, {"days": "Sat", "time": "1:00pm"}, {"days": "Sun", "time": "Closed"}], "id": "9071700021", "name": "USPS COLLECTION BOX - BLUE BOX", "address": {"city": "LOMITA", "state": "CA", "street": "1892 262ND ST", "postcode": "90717"}}},
{"geometry": {"type": "Point", "coordinates": [-118.3093203603, 33.797877246]}, "type": "Feature", "properties": {"collection_times": [{"days": "Mon-Fri", "time": "3:00pm"}, {"days": "Sat", "time": "1:00pm"}, {"days": "Sun", "time": "Closed"}], "id": "9071700022", "name": "USPS COLLECTION BOX - BLUE BOX", "address": {"city": "LOMITA", "state": "CA", "street": "1801 LOMITA BLVD", "postcode": "90717"}}},
{"geometry": {"type": "Point", "coordinates": [-118.3150517965, 33.8002892993]}, "type": "Feature", "properties": {"collection_times": [{"days": "Mon-Fri", "time": "3:00pm"}, {"days": "Sat", "time": "1:00pm"}, {"days": "Sun", "time": "Closed"}], "id": "9071700024", "name": "USPS COLLECTION BOX - BLUE BOX", "address": {"city": "LOMITA", "state": "CA", "street": "2005 LOMITA BLVD", "postcode": "90717"}}},
{"geometry": {"type": "Point", "coordinates": [-118.3199923311, 33.7960310346]}, "type": "Feature", "properties": {"collection_times": [{"days": "Mon-Fri", "time": "5:00pm"}, {"days": "Sat", "time": "4:45pm"}, {"days": "Sun", "time": "Closed"}], "id": "9071700029", "name": "USPS COLLECTION BOX - APC", "address": {"city": "LOMITA", "state": "CA", "street": "25131 NARBONNE AVE LBBY", "postcode": "90717"}}},
{"geometry": {"type": "Point", "coordinates": [-118.0692412043, 33.8080270339]}, "type": "Feature", "properties": {"collection_times": [{"days": "Mon-Fri", "time": "5:00pm"}, {"days": "Sat", "time": "3:00pm"}, {"days": "Sun", "time": "Closed"}], "id": "9072000002", "name": "USPS COLLECTION BOX - BLUE BOX", "address": {"city": "LOS ALAMITOS", "state": "CA", "street": "10650 REAGAN ST", "postcode": "90720"}}},
{"geometry": {"type": "Point", "coordinates": [-118.0579167381, 33.8103231573]}, "type": "Feature", "properties": {"collection_times": [{"days": "Mon-Fri", "time": "12:00pm"}, {"days": "Sat", "time": "1:00pm"}, {"days": "Sun", "time": "Closed"}], "id": "9072000003", "name": "USPS COLLECTION BOX - BLUE BOX", "address": {"city": "LOS ALAMITOS", "state": "CA", "street": "4332 CERRITOS AVE", "postcode": "90720"}}},
{"geometry": {"type": "Point", "coordinates": [-118.061984934, 33.8029982754]}, "type": "Feature", "properties": {"collection_times": [{"days": "Mon-Fri", "time": "3:00pm"}, {"days": "Sat", "time": "1:00pm"}, {"days": "Sun", "time": "Closed"}], "id": "9072000004", "name": "USPS COLLECTION BOX - BLUE BOX", "address": {"city": "LOS ALAMITOS", "state": "CA", "street": "4050 KATELLA AVE", "postcode": "90720"}}},
{"geometry": {"type": "Point", "coordinates": [-118.0541300865, 33.7997971884]}, "type": "Feature", "properties": {"collection_times": [{"days": "Mon-Sat", "time": "3:00pm"}, {"days": "Sun", "time": "Closed"}], "id": "9072000006", "name": "USPS COLLECTION BOX - BLUE BOX", "address": {"city": "LOS ALAMITOS", "state": "CA", "street": "4501 HOWARD AVE", "postcode": "90720"}}},
{"geometry": {"type": "Point", "coordinates": [-118.0426046772, 33.8028742033]}, "type": "Feature", "properties": {"collection_times": [{"days": "Mon-Fri", "time": "3:00pm"}, {"days": "Sat", "time": "1:00pm"}, {"days": "Sun", "time": "Closed"}], "id": "9072000007", "name": "USPS COLLECTION BOX - BLUE BOX", "address": {"city": "LOS ALAMITOS", "state": "CA", "street": "5182 KATELLA AVE", "postcode": "90720"}}},
{"geometry": {"type": "Point", "coordinates": [-118.0447611511, 33.8028965033]}, "type": "Feature", "properties": {"collection_times": [{"days": "Mon-Fri", "time": "12:00pm"}, {"days": "Sat", "time": "1:00pm"}, {"days": "Sun", "time": "Closed"}], "id": "9072000008", "name": "USPS COLLECTION BOX - BLUE BOX", "address": {"city": "LOS ALAMITOS", "state": "CA", "street": "5046 KATELLA AVE", "postcode": "90720"}}},
{"geometry": {"type": "Point", "coordinates": [-118.0602944857, 33.8031485111]}, "type": "Feature", "properties": {"collection_times": [{"days": "Mon-Fri", "time": "12:00pm"}, {"days": "Sat", "time": "1:00pm"}, {"days": "Sun", "time": "Closed"}], "id": "9072000011", "name": "USPS COLLECTION BOX - BLUE BOX", "address": {"city": "LOS ALAMITOS", "state": "CA", "street": "4141 KATELLA AVE", "postcode": "90720"}}},
{"geometry": {"type": "Point", "coordinates": [-118.0673354574, 33.8031757192]}, "type": "Feature", "properties": {"collection_times": [{"days": "Mon-Fri", "time": "12:00pm"}, {"days": "Sat", "time": "1:00pm"}, {"days": "Sun", "time": "Closed"}], "id": "9072000013", "name": "USPS COLLECTION BOX - BLUE BOX", "address": {"city": "LOS ALAMITOS", "state": "CA", "street": "3791 KATELLA AVE", "postcode": "90720"}}},
{"geometry": {"type": "Point", "coordinates": [-118.0758651484, 33.8047438078]}, "type": "Feature", "properties": {"collection_times": [{"days": "Mon-Sat", "time": "3:00pm"}, {"days": "Sun", "time": "Closed"}], "id": "9072000014", "name": "USPS COLLECTION BOX - BLUE BOX", "address": {"city": "LOS ALAMITOS", "state": "CA", "street": "10911 OAK ST", "postcode": "90720"}}},
{"geometry": {"type": "Point", "coordinates": [-118.0574306078, 33.8029228276]}, "type": "Feature", "properties": {"collection_times": [{"days": "Mon-Fri", "time": "3:00pm"}, {"days": "Sat", "time": "1:00pm"}, {"days": "Sun", "time": "Closed"}], "id": "9072000015", "name": "USPS COLLECTION BOX - BLUE BOX", "address": {"city": "LOS ALAMITOS", "state": "CA", "street": "4320 KATELLA AVE", "postcode": "90720"}}},
{"geometry": {"type": "Point", "coordinates": [-118.0743977224, 33.8008571196]}, "type": "Feature", "properties": {"collection_times": [{"days": "Mon-Sat", "time": "3:00pm"}, {"days": "Sun", "time": "Closed"}], "id": "9072000016", "name": "USPS COLLECTION BOX - BLUE BOX", "address": {"city": "LOS ALAMITOS", "state": "CA", "street": "11152 WALLINGSFORD RD", "postcode": "90720"}}},
{"geometry": {"type": "Point", "coordinates": [-118.0682086805, 33.7988629415]}, "type": "Feature", "properties": {"collection_times": [{"days": "Mon-Sat", "time": "3:00pm"}, {"days": "Sun", "time": "Closed"}], "id": "9072000018", "name": "USPS COLLECTION BOX - BLUE BOX", "address": {"city": "LOS ALAMITOS", "state": "CA", "street": "3342 BRADBURY RD", "postcode": "90720"}}},
{"geometry": {"type": "Point", "coordinates": [-118.071760228, 33.7987903908]}, "type": "Feature", "properties": {"collection_times": [{"days": "Mon-Fri", "time": "3:00pm"}, {"days": "Sat", "time": "1:00pm"}, {"days": "Sun", "time": "Closed"}], "id": "9072000019", "name": "USPS COLLECTION BOX - BLUE BOX", "address": {"city": "LOS ALAMITOS", "state": "CA", "street": "11278 LOS ALAMITOS BLVD", "postcode": "90720"}}},
{"geometry": {"type": "Point", "coordinates": [-118.0695487737, 33.8006879565]}, "type": "Feature", "properties": {"collection_times": [{"days": "Mon-Sat", "time": "3:00pm"}, {"days": "Sun", "time": "Closed"}], "id": "9072000020", "name": "USPS COLLECTION BOX - BLUE BOX", "address": {"city": "LOS ALAMITOS", "state": "CA", "street": "3642 HOWARD AVE", "postcode": "90720"}}},
{"geometry": {"type": "Point", "coordinates": [-118.0631820274, 33.8089780102]}, "type": "Feature", "properties": {"collection_times": [{"days": "Mon-Fri", "time": "3:00pm"}, {"days": "Sat", "time": "1:00pm"}, {"days": "Sun", "time": "Closed"}], "id": "9072000024", "name": "USPS COLLECTION BOX - BLUE BOX", "address": {"city": "LOS ALAMITOS", "state": "CA", "street": "10599 BLOOMFIELD ST", "postcode": "90720"}}},
{"geometry": {"type": "Point", "coordinates": [-118.0559975249, 33.8102646172]}, "type": "Feature", "properties": {"collection_times": [{"days": "Mon-Fri", "time": "12:00pm"}, {"days": "Sat", "time": "1:00pm"}, {"days": "Sun", "time": "Closed"}], "id": "9072000025", "name": "USPS COLLECTION BOX - BLUE BOX", "address": {"city": "LOS ALAMITOS", "state": "CA", "street": "4430 CERRITOS AVE", "postcode": "90720"}}},
{"geometry": {"type": "Point", "coordinates": [-118.0682086805, 33.7988629415]}, "type": "Feature", "properties": {"collection_times": [{"days": "Mon-Fri", "time": "12:00pm"}, {"days": "Sat", "time": "1:00pm"}, {"days": "Sun", "time": "Closed"}], "id": "9072000026", "name": "USPS COLLECTION BOX - EXPRESS", "address": {"city": "LOS ALAMITOS", "state": "CA", "street": "10415 LOS ALAMITOS BLVD", "postcode": "90720"}}},
{"geometry": {"type": "Point", "coordinates": [-118.0719178468, 33.8073293231]}, "type": "Feature", "properties": {"collection_times": [{"days": "Mon-Fri", "time": "3:00pm"}, {"days": "Sat", "time": "1:00pm"}, {"days": "Sun", "time": "Closed"}], "id": "9072000027", "name": "USPS COLLECTION BOX - BLUE BOX", "address": {"city": "LOS ALAMITOS", "state": "CA", "street": "10701 LOS ALAMITOS BLVD", "postcode": "90720"}}},
{"geometry": {"type": "Point", "coordinates": [-118.0781453364, 33.7995038146]}, "type": "Feature", "properties": {"collection_times": [{"days": "Mon-Sat", "time": "3:00pm"}, {"days": "Sun", "time": "Closed"}], "id": "9072000030", "name": "USPS COLLECTION BOX - BLUE BOX", "address": {"city": "LOS ALAMITOS", "state": "CA", "street": "11251 FOSTER RD", "postcode": "90720"}}},
{"geometry": {"type": "Point", "coordinates": [-118.0844540566, 33.7885567123]}, "type": "Feature", "properties": {"collection_times": [{"days": "Mon-Sat", "time": "3:00pm"}, {"days": "Sun", "time": "Closed"}], "id": "9072000031", "name": "USPS COLLECTION BOX - BLUE BOX", "address": {"city": "LOS ALAMITOS", "state": "CA", "street": "2851 BOSTONIAN DR", "postcode": "90720"}}},
{"geometry": {"type": "Point", "coordinates": [-118.0637756059, 33.795570145]}, "type": "Feature", "properties": {"collection_times": [{"days": "Mon-Sat", "time": "3:00pm"}, {"days": "Sun", "time": "Closed"}], "id": "9072000032", "name": "USPS COLLECTION BOX - BLUE BOX", "address": {"city": "LOS ALAMITOS", "state": "CA", "street": "3332 MONTECITO RD SW", "postcode": "90720"}}},
{"geometry": {"type": "Point", "coordinates": [-118.0712262095, 33.7922120555]}, "type": "Feature", "properties": {"collection_times": [{"days": "Mon-Sat", "time": "3:00pm"}, {"days": "Sun", "time": "Closed"}], "id": "9072000034", "name": "USPS COLLECTION BOX - BLUE BOX", "address": {"city": "LOS ALAMITOS", "state": "CA", "street": "11752 PASEO BONITA", "postcode": "90720"}}},
{"geometry": {"type": "Point", "coordinates": [-118.0725511235, 33.7956899549]}, "type": "Feature", "properties": {"collection_times": [{"days": "Mon-Sat", "time": "3:00pm"}, {"days": "Sun", "time": "Closed"}], "id": "9072000035", "name": "USPS COLLECTION BOX - BLUE BOX", "address": {"city": "LOS ALAMITOS", "state": "CA", "street": "11511 DAVENPORT RD", "postcode": "90720"}}},
{"geometry": {"type": "Point", "coordinates": [-118.0682086805, 33.7988629415]}, "type": "Feature", "properties": {"collection_times": [{"days": "Mon-Fri", "time": "12:00pm"}, {"days": "Sat", "time": "1:00pm"}, {"days": "Sun", "time": "Closed"}], "id": "9072000038", "name": "USPS COLLECTION BOX - EXPRESS", "address": {"city": "LOS ALAMITOS", "state": "CA", "street": "5046 KATELLA AVE", "postcode": "90720"}}},
{"geometry": {"type": "Point", "coordinates": [-118.0682086805, 33.7988629415]}, "type": "Feature", "properties": {"collection_times": [{"days": "Mon-Fri", "time": "12:00pm"}, {"days": "Sat", "time": "1:00pm"}, {"days": "Sun", "time": "Closed"}], "id": "9072000039", "name": "USPS COLLECTION BOX - EXPRESS", "address": {"city": "LOS ALAMITOS", "state": "CA", "street": "4332 CERRITOS AVE", "postcode": "90720"}}},
{"geometry": {"type": "Point", "coordinates": [-118.0692412043, 33.8080270339]}, "type": "Feature", "properties": {"collection_times": [{"days": "Mon-Fri", "time": "5:00pm"}, {"days": "Sat", "time": "3:00pm"}, {"days": "Sun", "time": "Closed"}], "id": "9072000042", "name": "USPS COLLECTION BOX - BLUE BOX", "address": {"city": "LOS ALAMITOS", "state": "CA", "street": "10650 REAGAN ST", "postcode": "90720"}}},
{"geometry": {"type": "Point", "coordinates": [-118.0692412043, 33.8080270339]}, "type": "Feature", "properties": {"collection_times": [{"days": "Mon-Fri", "time": "5:00pm"}, {"days": "Sat", "time": "3:00pm"}, {"days": "Sun", "time": "Closed"}], "id": "9072000044", "name": "USPS COLLECTION BOX - BLUE BOX", "address": {"city": "LOS ALAMITOS", "state": "CA", "street": "10650 REAGAN ST", "postcode": "90720"}}},
{"geometry": {"type": "Point", "coordinates": [-118.0692412043, 33.8080270339]}, "type": "Feature", "properties": {"collection_times": [{"days": "Mon-Fri", "time": "5:00pm"}, {"days": "Sat", "time": "3:00pm"}, {"days": "Sun", "time": "Closed"}], "id": "9072000045", "name": "USPS COLLECTION BOX - BLUE BOX", "address": {"city": "LOS ALAMITOS", "state": "CA", "street": "10650 REAGAN ST", "postcode": "90720"}}},
{"geometry": {"type": "Point", "coordinates": [-118.0719904991, 33.8110492572]}, "type": "Feature", "properties": {"collection_times": [{"days": "Mon-Fri", "time": "12:00pm"}, {"days": "Sat", "time": "1:00pm"}, {"days": "Sun", "time": "Closed"}], "id": "9072000046", "name": "USPS COLLECTION BOX - BLUE BOX", "address": {"city": "LOS ALAMITOS", "state": "CA", "street": "10415 LOS ALAMITOS BLVD", "postcode": "90720"}}},
{"geometry": {"type": "Point", "coordinates": [-118.0579167381, 33.8103231573]}, "type": "Feature", "properties": {"collection_times": [{"days": "Mon-Fri", "time": "12:00pm"}, {"days": "Sat", "time": "1:00pm"}, {"days": "Sun", "time": "Closed"}], "id": "9072000047", "name": "USPS COLLECTION BOX - BLUE BOX", "address": {"city": "LOS ALAMITOS", "state": "CA", "street": "4332 CERRITOS AVE", "postcode": "90720"}}},
{"geometry": {"type": "Point", "coordinates": [-118.0579167381, 33.8103231573]}, "type": "Feature", "properties": {"collection_times": [{"days": "Mon-Fri", "time": "12:00pm"}, {"days": "Sat", "time": "1:00pm"}, {"days": "Sun", "time": "Closed"}], "id": "9072000049", "name": "USPS COLLECTION BOX - BLUE BOX", "address": {"city": "LOS ALAMITOS", "state": "CA", "street": "4332 CERRITOS AVE", "postcode": "90720"}}},
{"geometry": {"type": "Point", "coordinates": [-118.0718709221, 33.8053535467]}, "type": "Feature", "properties": {"collection_times": [{"days": "Mon-Fri", "time": "12:00pm"}, {"days": "Sat", "time": "1:00pm"}, {"days": "Sun", "time": "Closed"}], "id": "9072000051", "name": "USPS COLLECTION BOX - BLUE BOX", "address": {"city": "LOS ALAMITOS", "state": "CA", "street": "10832 LOS ALAMITOS BLVD", "postcode": "90720"}}},
{"geometry": {"type": "Point", "coordinates": [-118.0682086805, 33.7988629415]}, "type": "Feature", "properties": {"collection_times": [{"days": "Mon-Fri", "time": "4:30pm"}, {"days": "Sat", "time": "3:00pm"}, {"days": "Sun", "time": "Closed"}], "id": "9072000052", "name": "USPS COLLECTION BOX - EXPRESS", "address": {"city": "LOS ALAMITOS", "state": "CA", "street": "10650 REAGAN ST", "postcode": "90720"}}},
{"geometry": {"type": "Point", "coordinates": [-118.0692412043, 33.8080270339]}, "type": "Feature", "properties": {"collection_times": [{"days": "Mon-Fri", "time": "5:00pm"}, {"days": "Sat", "time": "3:00pm"}, {"days": "Sun", "time": "Closed"}], "id": "9072000053", "name": "USPS COLLECTION BOX - PO LOBBY", "address": {"city": "LOS ALAMITOS", "state": "CA", "street": "10650 REAGAN ST LBBY", "postcode": "90720"}}},
{"geometry": {"type": "Point", "coordinates": [-118.0692412043, 33.8080270339]}, "type": "Feature", "properties": {"collection_times": [{"days": "Mon-Fri", "time": "5:00pm"}, {"days": "Sat", "time": "3:00pm"}, {"days": "Sun", "time": "Closed"}], "id": "9072000054", "name": "USPS COLLECTION BOX - PO LOBBY", "address": {"city": "LOS ALAMITOS", "state": "CA", "street": "10650 REAGAN ST LBBY", "postcode": "90720"}}},
{"geometry": {"type": "Point", "coordinates": [-118.0692412043, 33.8080270339]}, "type": "Feature", "properties": {"collection_times": [{"days": "Mon-Fri", "time": "5:00pm"}, {"days": "Sat", "time": "3:00pm"}, {"days": "Sun", "time": "Closed"}], "id": "9072000056", "name": "USPS COLLECTION BOX - APC", "address": {"city": "LOS ALAMITOS", "state": "CA", "street": "10650 REAGAN ST", "postcode": "90720"}}},
{"geometry": {"type": "Point", "coordinates": [-118.0637756061, 33.7955701446]}, "type": "Feature", "properties": {"collection_times": [{"days": "Mon-Fri", "time": "3:00pm"}, {"days": "Sat", "time": "1:00pm"}, {"days": "Sun", "time": "Closed"}], "id": "9072000059", "name": "USPS COLLECTION BOX - BLUE BOX", "address": {"city": "LOS ALAMITOS", "state": "CA", "street": "21500 PIONEER BL (MED BLDG) E", "postcode": "90720"}}},
{"geometry": {"type": "Point", "coordinates": [-118.1520589785, 33.914429461]}, "type": "Feature", "properties": {"collection_times": [{"days": "Mon-Fri", "time": "4:00pm"}, {"days": "Sat", "time": "3:00pm"}, {"days": "Sun", "time": "Closed"}], "id": "9072300001", "name": "USPS COLLECTION BOX - BLUE BOX", "address": {"city": "PARAMOUNT", "state": "CA", "street": "13120 DOWNEY AVE", "postcode": "90723"}}},
{"geometry": {"type": "Point", "coordinates": [-118.162436718, 33.8853472262]}, "type": "Feature", "properties": {"collection_times": [{"days": "Mon-Fri", "time": "4:45pm"}, {"days": "Sat", "time": "3:00pm"}, {"days": "Sun", "time": "Closed"}], "id": "9072300008", "name": "USPS COLLECTION BOX - BLUE BOX", "address": {"city": "PARAMOUNT", "state": "CA", "street": "7820 JACKSON ST", "postcode": "90723"}}},
{"geometry": {"type": "Point", "coordinates": [-118.1728199083, 33.8963077126]}, "type": "Feature", "properties": {"collection_times": [{"days": "Mon-Fri", "time": "5:00pm"}, {"days": "Sat", "time": "4:30pm"}, {"days": "Sun", "time": "Closed"}], "id": "9072300009", "name": "USPS COLLECTION BOX - BLUE BOX", "address": {"city": "PARAMOUNT", "state": "CA", "street": "7200 SOMERSET BLVD", "postcode": "90723"}}},
{"geometry": {"type": "Point", "coordinates": [-118.1495238974, 33.9036846447]}, "type": "Feature", "properties": {"collection_times": [{"days": "Mon-Fri", "time": "4:15pm"}, {"days": "Sat", "time": "3:00pm"}, {"days": "Sun", "time": "Closed"}], "id": "9072300011", "name": "USPS COLLECTION BOX - BLUE BOX", "address": {"city": "PARAMOUNT", "state": "CA", "street": "8558 ROSECRANS AVE", "postcode": "90723"}}},
{"geometry": {"type": "Point", "coordinates": [-118.162436718, 33.8853472262]}, "type": "Feature", "properties": {"collection_times": [{"days": "Mon-Fri", "time": "4:45pm"}, {"days": "Sat", "time": "3:00pm"}, {"days": "Sun", "time": "Closed"}], "id": "9072300016", "name": "USPS COLLECTION BOX - BLUE BOX", "address": {"city": "PARAMOUNT", "state": "CA", "street": "7820 JACKSON ST", "postcode": "90723"}}},
{"geometry": {"type": "Point", "coordinates": [-118.1527159343, 33.8893340354]}, "type": "Feature", "properties": {"collection_times": [{"days": "Mon-Fri", "time": "4:45pm"}, {"days": "Sat", "time": "3:00pm"}, {"days": "Sun", "time": "Closed"}], "id": "9072300021", "name": "USPS COLLECTION BOX - BLUE BOX", "address": {"city": "PARAMOUNT", "state": "CA", "street": "8425 ALONDRA BLVD", "postcode": "90723"}}},
{"geometry": {"type": "Point", "coordinates": [-118.1587275142, 33.896193451]}, "type": "Feature", "properties": {"collection_times": [{"days": "Mon-Fri", "time": "4:00pm"}, {"days": "Sat", "time": "3:00pm"}, {"days": "Sun", "time": "Closed"}], "id": "9072300022", "name": "USPS COLLECTION BOX - BLUE BOX", "address": {"city": "PARAMOUNT", "state": "CA", "street": "15110 CALIFORNIA AVE", "postcode": "90723"}}},
{"geometry": {"type": "Point", "coordinates": [-118.1601291246, 33.8866311083]}, "type": "Feature", "properties": {"collection_times": [{"days": "Mon-Fri", "time": "4:45pm"}, {"days": "Sat", "time": "3:00pm"}, {"days": "Sun", "time": "Closed"}], "id": "9072300025", "name": "USPS COLLECTION BOX - BLUE BOX", "address": {"city": "PARAMOUNT", "state": "CA", "street": "16259 PARAMOUNT BLVD", "postcode": "90723"}}},
{"geometry": {"type": "Point", "coordinates": [-118.159972974, 33.8871646228]}, "type": "Feature", "properties": {"collection_times": [{"days": "Mon-Fri", "time": "4:45pm"}, {"days": "Sat", "time": "3:00pm"}, {"days": "Sun", "time": "Closed"}], "id": "9072300028", "name": "USPS COLLECTION BOX - BLUE BOX", "address": {"city": "PARAMOUNT", "state": "CA", "street": "16212 PARAMOUNT BLVD", "postcode": "90723"}}},
{"geometry": {"type": "Point", "coordinates": [-118.1687469806, 33.8858195984]}, "type": "Feature", "properties": {"collection_times": [{"days": "Mon-Fri", "time": "4:45pm"}, {"days": "Sat", "time": "3:00pm"}, {"days": "Sun", "time": "Closed"}], "id": "9072300029", "name": "USPS COLLECTION BOX - BLUE BOX", "address": {"city": "PARAMOUNT", "state": "CA", "street": "16312 GARFIELD AVE", "postcode": "90723"}}},
{"geometry": {"type": "Point", "coordinates": [-118.1667288526, 33.8925423542]}, "type": "Feature", "properties": {"collection_times": [{"days": "Mon-Fri", "time": "4:00pm"}, {"days": "Sat", "time": "3:00pm"}, {"days": "Sun", "time": "Closed"}], "id": "9072300030", "name": "USPS COLLECTION BOX - BLUE BOX", "address": {"city": "PARAMOUNT", "state": "CA", "street": "15505 MINNESOTA AVE", "postcode": "90723"}}},
{"geometry": {"type": "Point", "coordinates": [-118.1724645775, 33.8892547394]}, "type": "Feature", "properties": {"collection_times": [{"days": "Mon-Fri", "time": "5:00pm"}, {"days": "Sat", "time": "3:00pm"}, {"days": "Sun", "time": "Closed"}], "id": "9072300031", "name": "USPS COLLECTION BOX - BLUE BOX", "address": {"city": "PARAMOUNT", "state": "CA", "street": "7251 ALONDRA BLVD", "postcode": "90723"}}},
{"geometry": {"type": "Point", "coordinates": [-118.1728199083, 33.8963077126]}, "type": "Feature", "properties": {"collection_times": [{"days": "Mon-Fri", "time": "5:00pm"}, {"days": "Sat", "time": "4:30pm"}, {"days": "Sun", "time": "Closed"}], "id": "9072300033", "name": "USPS COLLECTION BOX - PO LOBBY", "address": {"city": "PARAMOUNT", "state": "CA", "street": "7200 SOMERSET BLVD LBBY", "postcode": "90723"}}},
{"geometry": {"type": "Point", "coordinates": [-118.1513444713, 33.8840191349]}, "type": "Feature", "properties": {"collection_times": [{"days": "Mon-Fri", "time": "4:30pm"}, {"days": "Sat", "time": "3:00pm"}, {"days": "Sun", "time": "Closed"}], "id": "9072300040", "name": "USPS COLLECTION BOX - BLUE BOX", "address": {"city": "PARAMOUNT", "state": "CA", "street": "16600 DOWNEY AVE", "postcode": "90723"}}},
{"geometry": {"type": "Point", "coordinates": [-118.1514062309, 33.9055710331]}, "type": "Feature", "properties": {"collection_times": [{"days": "Mon-Fri", "time": "4:00pm"}, {"days": "Sat", "time": "3:00pm"}, {"days": "Sun", "time": "Closed"}], "id": "9072300041", "name": "USPS COLLECTION BOX - BLUE BOX", "address": {"city": "PARAMOUNT", "state": "CA", "street": "13950 DOWNEY AVE", "postcode": "90723"}}},
{"geometry": {"type": "Point", "coordinates": [-118.1774109373, 33.9055338261]}, "type": "Feature", "properties": {"collection_times": [{"days": "Mon-Fri", "time": "4:15pm"}, {"days": "Sat", "time": "3:00pm"}, {"days": "Sun", "time": "Closed"}], "id": "9072300043", "name": "USPS COLLECTION BOX - BLUE BOX", "address": {"city": "PARAMOUNT", "state": "CA", "street": "14109 ORANGE AVE", "postcode": "90723"}}},
{"geometry": {"type": "Point", "coordinates": [-118.1599901765, 33.8982032087]}, "type": "Feature", "properties": {"collection_times": [{"days": "Mon-Fri", "time": "4:00pm"}, {"days": "Sat", "time": "3:00pm"}, {"days": "Sun", "time": "Closed"}], "id": "9072300045", "name": "USPS COLLECTION BOX - BLUE BOX", "address": {"city": "PARAMOUNT", "state": "CA", "street": "14900 PARAMOUNT BLVD", "postcode": "90723"}}},
{"geometry": {"type": "Point", "coordinates": [-118.1429206205, 33.901427559]}, "type": "Feature", "properties": {"collection_times": [{"days": "Mon-Fri", "time": "4:30pm"}, {"days": "Sat", "time": "3:00pm"}, {"days": "Sun", "time": "Closed"}], "id": "9072300047", "name": "USPS COLLECTION BOX - BLUE BOX", "address": {"city": "PARAMOUNT", "state": "CA", "street": "14525 LAKEWOOD BLVD", "postcode": "90723"}}},
{"geometry": {"type": "Point", "coordinates": [-118.1846911408, 33.8892490185]}, "type": "Feature", "properties": {"collection_times": [{"days": "Mon-Fri", "time": "5:00pm"}, {"days": "Sat", "time": "3:00pm"}, {"days": "Sun", "time": "Closed"}], "id": "9072300050", "name": "USPS COLLECTION BOX - BLUE BOX", "address": {"city": "PARAMOUNT", "state": "CA", "street": "6431 ALONDRA BLVD", "postcode": "90723"}}},
{"geometry": {"type": "Point", "coordinates": [-118.1728199083, 33.8963077126]}, "type": "Feature", "properties": {"collection_times": [{"days": "Mon-Fri", "time": "5:00pm"}, {"days": "Sat", "time": "4:30pm"}, {"days": "Sun", "time": "Closed"}], "id": "9072300051", "name": "USPS COLLECTION BOX - BLUE BOX", "address": {"city": "PARAMOUNT", "state": "CA", "street": "7200 SOMERSET BLVD", "postcode": "90723"}}},
{"geometry": {"type": "Point", "coordinates": [-118.2994171032, 33.7635042367]}, "type": "Feature", "properties": {"collection_times": [{"days": "Mon-Sat", "time": "1:00pm"}, {"days": "Sun", "time": "Closed"}], "id": "9073100001", "name": "USPS COLLECTION BOX - BLUE BOX", "address": {"city": "SAN PEDRO", "state": "CA", "street": "1001 WESTMONT DR", "postcode": "90731"}}},
{"geometry": {"type": "Point", "coordinates": [-118.2804514298, 33.7364674802]}, "type": "Feature", "properties": {"collection_times": [{"days": "Mon-Fri", "time": "5:00pm"}, {"days": "Sat", "time": "3:30pm"}, {"days": "Sun", "time": "Closed"}], "id": "9073100008", "name": "USPS COLLECTION BOX - BLUE BOX", "address": {"city": "SAN PEDRO", "state": "CA", "street": "839 S BEACON ST", "postcode": "90731"}}},
{"geometry": {"type": "Point", "coordinates": [-118.2858982523, 33.7386990951]}, "type": "Feature", "properties": {"collection_times": [{"days": "Mon-Fri", "time": "3:00pm"}, {"days": "Sat", "time": "1:00pm"}, {"days": "Sun", "time": "Closed"}], "id": "9073100011", "name": "USPS COLLECTION BOX - BLUE BOX", "address": {"city": "SAN PEDRO", "state": "CA", "street": "407 W 6TH ST", "postcode": "90731"}}},
{"geometry": {"type": "Point", "coordinates": [-118.2948078198, 33.7360640912]}, "type": "Feature", "properties": {"collection_times": [{"days": "Mon-Fri", "time": "2:00pm"}, {"days": "Sat", "time": "1:00pm"}, {"days": "Sun", "time": "Closed"}], "id": "9073100016", "name": "USPS COLLECTION BOX - BLUE BOX", "address": {"city": "SAN PEDRO", "state": "CA", "street": "800 W 9TH ST", "postcode": "90731"}}},
{"geometry": {"type": "Point", "coordinates": [-118.2879958417, 33.7354148]}, "type": "Feature", "properties": {"collection_times": [{"days": "Mon-Fri", "time": "2:00pm"}, {"days": "Sat", "time": "1:00pm"}, {"days": "Sun", "time": "Closed"}], "id": "9073100022", "name": "USPS COLLECTION BOX - BLUE BOX", "address": {"city": "SAN PEDRO", "state": "CA", "street": "951 S PACIFIC AVE", "postcode": "90731"}}},
{"geometry": {"type": "Point", "coordinates": [-118.2965536078, 33.7360173494]}, "type": "Feature", "properties": {"collection_times": [{"days": "Mon-Sat", "time": "2:00pm"}, {"days": "Sun", "time": "Closed"}], "id": "9073100032", "name": "USPS COLLECTION BOX - BLUE BOX", "address": {"city": "SAN PEDRO", "state": "CA", "street": "891 W 9TH ST", "postcode": "90731"}}},
{"geometry": {"type": "Point", "coordinates": [-118.2923945835, 33.7272451321]}, "type": "Feature", "properties": {"collection_times": [{"days": "Mon-Fri", "time": "12:00pm"}, {"days": "Sat", "time": "1:30pm"}, {"days": "Sun", "time": "Closed"}], "id": "9073100040", "name": "USPS COLLECTION BOX - BLUE BOX", "address": {"city": "SAN PEDRO", "state": "CA", "street": "1840 S GAFFEY ST", "postcode": "90731"}}},
{"geometry": {"type": "Point", "coordinates": [-118.2804514298, 33.7364674802]}, "type": "Feature", "properties": {"collection_times": [{"days": "Mon-Fri", "time": "5:00pm"}, {"days": "Sat", "time": "3:30pm"}, {"days": "Sun", "time": "Closed"}], "id": "9073100041", "name": "USPS COLLECTION BOX - BLUE BOX", "address": {"city": "SAN PEDRO", "state": "CA", "street": "839 S BEACON ST", "postcode": "90731"}}},
{"geometry": {"type": "Point", "coordinates": [-118.2804514298, 33.7364674802]}, "type": "Feature", "properties": {"collection_times": [{"days": "Mon-Fri", "time": "5:00pm"}, {"days": "Sat", "time": "3:30pm"}, {"days": "Sun", "time": "Closed"}], "id": "9073100043", "name": "USPS COLLECTION BOX - PO LOBBY", "address": {"city": "SAN PEDRO", "state": "CA", "street": "839 S BEACON ST LBBY", "postcode": "90731"}}},
{"geometry": {"type": "Point", "coordinates": [-118.2945531763, 33.7215349259]}, "type": "Feature", "properties": {"collection_times": [{"days": "Mon-Fri", "time": "12:00pm"}, {"days": "Sat", "time": "1:30pm"}, {"days": "Sun", "time": "Closed"}], "id": "9073100044", "name": "USPS COLLECTION BOX - BLUE BOX", "address": {"city": "SAN PEDRO", "state": "CA", "street": "2500 VIA CABRILLO MARINA", "postcode": "90731"}}},
{"geometry": {"type": "Point", "coordinates": [-118.2922979942, 33.7327232678]}, "type": "Feature", "properties": {"collection_times": [{"days": "Mon-Fri", "time": "12:00pm"}, {"days": "Sat", "time": "1:00pm"}, {"days": "Sun", "time": "Closed"}], "id": "9073100045", "name": "USPS COLLECTION BOX - BLUE BOX", "address": {"city": "SAN PEDRO", "state": "CA", "street": "2900 S PACIFIC AVE", "postcode": "90731"}}},
{"geometry": {"type": "Point", "coordinates": [-118.2839728711, 33.7396081689]}, "type": "Feature", "properties": {"collection_times": [{"days": "Mon-Fri", "time": "3:00pm"}, {"days": "Sat", "time": "1:00pm"}, {"days": "Sun", "time": "Closed"}], "id": "9073100067", "name": "USPS COLLECTION BOX - BLUE BOX", "address": {"city": "SAN PEDRO", "state": "CA", "street": "325 W 5TH ST", "postcode": "90731"}}},
{"geometry": {"type": "Point", "coordinates": [-118.2899505903, 33.7360451639]}, "type": "Feature", "properties": {"collection_times": [{"days": "Mon-Fri", "time": "2:00pm"}, {"days": "Sat", "time": "1:00pm"}, {"days": "Sun", "time": "Closed"}], "id": "9073100069", "name": "USPS COLLECTION BOX - BLUE BOX", "address": {"city": "SAN PEDRO", "state": "CA", "street": "599 W 9TH ST", "postcode": "90731"}}},
{"geometry": {"type": "Point", "coordinates": [-118.2922979942, 33.7327232678]}, "type": "Feature", "properties": {"collection_times": [{"days": "Mon-Fri", "time": "4:30pm"}, {"days": "Sat", "time": "4:00pm"}, {"days": "Sun", "time": "Closed"}], "id": "9073100071", "name": "USPS COLLECTION BOX - EXPRESS", "address": {"city": "SAN PEDRO", "state": "CA", "street": "839 S BEACON ST", "postcode": "90731"}}},
{"geometry": {"type": "Point", "coordinates": [-118.2989375295, 33.7405865433]}, "type": "Feature", "properties": {"collection_times": [{"days": "Mon-Sat", "time": "1:00pm"}, {"days": "Sun", "time": "Closed"}], "id": "9073100073", "name": "USPS COLLECTION BOX - BLUE BOX", "address": {"city": "SAN PEDRO", "state": "CA", "street": "301 S BANDINI ST", "postcode": "90731"}}},
{"geometry": {"type": "Point", "coordinates": [-118.2824127757, 33.7387340296]}, "type": "Feature", "properties": {"collection_times": [{"days": "Mon-Fri", "time": "3:00pm"}, {"days": "Sat", "time": "1:00pm"}, {"days": "Sun", "time": "Closed"}], "id": "9073100077", "name": "USPS COLLECTION BOX - BLUE BOX", "address": {"city": "SAN PEDRO", "state": "CA", "street": "222 W 6TH ST", "postcode": "90731"}}},
{"geometry": {"type": "Point", "coordinates": [-118.2803626486, 33.7383779594]}, "type": "Feature", "properties": {"collection_times": [{"days": "Mon-Fri", "time": "3:00pm"}, {"days": "Sat-Sun", "time": "Closed"}], "id": "9073100078", "name": "USPS COLLECTION BOX - BLUE BOX", "address": {"city": "SAN PEDRO", "state": "CA", "street": "638 S BEACON ST", "postcode": "90731"}}},
{"geometry": {"type": "Point", "coordinates": [-118.3052513061, 33.7141954928]}, "type": "Feature", "properties": {"collection_times": [{"days": "Mon-Fri", "time": "12:00pm"}, {"days": "Sat", "time": "1:00pm"}, {"days": "Sun", "time": "Closed"}], "id": "9073100079", "name": "USPS COLLECTION BOX - BLUE BOX", "address": {"city": "SAN PEDRO", "state": "CA", "street": "1182 W 37TH ST", "postcode": "90731"}}},
{"geometry": {"type": "Point", "coordinates": [-118.3089366355, 33.7510848394]}, "type": "Feature", "properties": {"collection_times": [{"days": "Mon-Fri", "time": "12:00pm"}, {"days": "Sat", "time": "1:00pm"}, {"days": "Sun", "time": "Closed"}], "id": "9073200006", "name": "USPS COLLECTION BOX - BLUE BOX", "address": {"city": "SAN PEDRO", "state": "CA", "street": "900 N WESTERN AVE", "postcode": "90732"}}},
{"geometry": {"type": "Point", "coordinates": [-118.3195756798, 33.7421851623]}, "type": "Feature", "properties": {"collection_times": [{"days": "Mon-Fri", "time": "12:00pm"}, {"days": "Sat", "time": "1:00pm"}, {"days": "Sun", "time": "Closed"}], "id": "9073200016", "name": "USPS COLLECTION BOX - BLUE BOX", "address": {"city": "SAN PEDRO", "state": "CA", "street": "300 S MIRALESTE DR", "postcode": "90732"}}},
{"geometry": {"type": "Point", "coordinates": [-118.3090045103, 33.7370282028]}, "type": "Feature", "properties": {"collection_times": [{"days": "Mon-Fri", "time": "4:45pm"}, {"days": "Sat", "time": "1:00pm"}, {"days": "Sun", "time": "Closed"}], "id": "9073200021", "name": "USPS COLLECTION BOX - BLUE BOX", "address": {"city": "SAN PEDRO", "state": "CA", "street": "1441 W 8TH ST", "postcode": "90732"}}},
{"geometry": {"type": "Point", "coordinates": [-118.3134190659, 33.7394710614]}, "type": "Feature", "properties": {"collection_times": [{"days": "Mon-Fri", "time": "12:00pm"}, {"days": "Sat", "time": "2:00pm"}, {"days": "Sun", "time": "Closed"}], "id": "9073200024", "name": "USPS COLLECTION BOX - BLUE BOX", "address": {"city": "SAN PEDRO", "state": "CA", "street": "28649 S WESTERN AVE", "postcode": "90732"}}},
{"geometry": {"type": "Point", "coordinates": [-118.313028183, 33.7336906954]}, "type": "Feature", "properties": {"collection_times": [{"days": "Mon-Fri", "time": "5:00pm"}, {"days": "Sat", "time": "2:00pm"}, {"days": "Sun", "time": "Closed"}], "id": "9073200025", "name": "USPS COLLECTION BOX - BLUE BOX", "address": {"city": "SAN PEDRO", "state": "CA", "street": "28649 S WESTERN AVE (EASTVIEW STA)", "postcode": "90732"}}},
{"geometry": {"type": "Point", "coordinates": [-118.3088688397, 33.7525227297]}, "type": "Feature", "properties": {"collection_times": [{"days": "Mon-Fri", "time": "12:00pm"}, {"days": "Sat", "time": "1:00pm"}, {"days": "Sun", "time": "Closed"}], "id": "9073200028", "name": "USPS COLLECTION BOX - BLUE BOX", "address": {"city": "SAN PEDRO", "state": "CA", "street": "1000 N WESTERN AVE", "postcode": "90732"}}},
{"geometry": {"type": "Point", "coordinates": [-118.3089366355, 33.7510848394]}, "type": "Feature", "properties": {"collection_times": [{"days": "Mon-Fri", "time": "12:00pm"}, {"days": "Sat", "time": "1:00pm"}, {"days": "Sun", "time": "Closed"}], "id": "9073200030", "name": "USPS COLLECTION BOX - BLUE BOX", "address": {"city": "SAN PEDRO", "state": "CA", "street": "900 N WESTERN AVE", "postcode": "90732"}}},
{"geometry": {"type": "Point", "coordinates": [-118.3123262591, 33.7233188913]}, "type": "Feature", "properties": {"collection_times": [{"days": "Mon-Fri", "time": "12:00pm"}, {"days": "Sat", "time": "1:00pm"}, {"days": "Sun", "time": "Closed"}], "id": "9073200031", "name": "USPS COLLECTION BOX - BLUE BOX", "address": {"city": "SAN PEDRO", "state": "CA", "street": "2470 S WESTERN AVE", "postcode": "90732"}}},
{"geometry": {"type": "Point", "coordinates": [-118.3112166436, 33.7641570007]}, "type": "Feature", "properties": {"collection_times": [{"days": "Mon-Fri", "time": "12:00pm"}, {"days": "Sat", "time": "1:00pm"}, {"days": "Sun", "time": "Closed"}], "id": "9073200032", "name": "USPS COLLECTION BOX - BLUE BOX", "address": {"city": "SAN PEDRO", "state": "CA", "street": "28110 S WESTERN AVE", "postcode": "90732"}}},
{"geometry": {"type": "Point", "coordinates": [-118.3132534964, 33.7232781648]}, "type": "Feature", "properties": {"collection_times": [{"days": "Mon-Fri", "time": "12:00pm"}, {"days": "Sat", "time": "1:00pm"}, {"days": "Sun", "time": "Closed"}], "id": "9073200033", "name": "USPS COLLECTION BOX - BLUE BOX", "address": {"city": "SAN PEDRO", "state": "CA", "street": "1602 W 25TH ST", "postcode": "90732"}}},
{"geometry": {"type": "Point", "coordinates": [-118.303767551, 33.7379071413]}, "type": "Feature", "properties": {"collection_times": [{"days": "Mon-Fri", "time": "12:00pm"}, {"days": "Sat", "time": "1:00pm"}, {"days": "Sun", "time": "Closed"}], "id": "9073200034", "name": "USPS COLLECTION BOX - BLUE BOX", "address": {"city": "SAN PEDRO", "state": "CA", "street": "1300 W 7TH ST", "postcode": "90732"}}},
{"geometry": {"type": "Point", "coordinates": [-118.3074572, 33.7388215685]}, "type": "Feature", "properties": {"collection_times": [{"days": "Mon-Fri", "time": "12:00pm"}, {"days": "Sat", "time": "1:00pm"}, {"days": "Sun", "time": "Closed"}], "id": "9073200035", "name": "USPS COLLECTION BOX - BLUE BOX", "address": {"city": "SAN PEDRO", "state": "CA", "street": "1360 W 6TH ST", "postcode": "90732"}}},
{"geometry": {"type": "Point", "coordinates": [-118.3074572, 33.7388215685]}, "type": "Feature", "properties": {"collection_times": [{"days": "Mon-Fri", "time": "12:00pm"}, {"days": "Sat", "time": "1:00pm"}, {"days": "Sun", "time": "Closed"}], "id": "9073200036", "name": "USPS COLLECTION BOX - BLUE BOX", "address": {"city": "SAN PEDRO", "state": "CA", "street": "1360 W 6TH ST", "postcode": "90732"}}},
{"geometry": {"type": "Point", "coordinates": [-118.3134190659, 33.7394710614]}, "type": "Feature", "properties": {"collection_times": [{"days": "Mon-Fri", "time": "12:00pm"}, {"days": "Sat-Sun", "time": "Closed"}], "id": "9073200037", "name": "USPS COLLECTION BOX - EXPRESS", "address": {"city": "SAN PEDRO", "state": "CA", "street": "1360 W 6TH ST", "postcode": "90732"}}},
{"geometry": {"type": "Point", "coordinates": [-118.3090045103, 33.7370282028]}, "type": "Feature", "properties": {"collection_times": [{"days": "Mon-Fri", "time": "4:45pm"}, {"days": "Sat", "time": "1:00pm"}, {"days": "Sun", "time": "Closed"}], "id": "9073200038", "name": "USPS COLLECTION BOX - BLUE BOX", "address": {"city": "SAN PEDRO", "state": "CA", "street": "1441 W 8TH ST", "postcode": "90732"}}},
{"geometry": {"type": "Point", "coordinates": [-118.3134190659, 33.7394710614]}, "type": "Feature", "properties": {"collection_times": [{"days": "Mon-Fri", "time": "5:00pm"}, {"days": "Sat", "time": "1:00pm"}, {"days": "Sun", "time": "Closed"}], "id": "9073200039", "name": "USPS COLLECTION BOX - PO LOBBY", "address": {"city": "SAN PEDRO", "state": "CA", "street": "28649 S WESTERN AVE LBBY", "postcode": "90732"}}},
{"geometry": {"type": "Point", "coordinates": [-118.3134190659, 33.7394710614]}, "type": "Feature", "properties": {"collection_times": [{"days": "Mon-Fri", "time": "5:00pm"}, {"days": "Sat", "time": "2:00pm"}, {"days": "Sun", "time": "Closed"}], "id": "9073200042", "name": "USPS COLLECTION BOX - BLUE BOX", "address": {"city": "SAN PEDRO", "state": "CA", "street": "28649 S WESTERN AVE", "postcode": "90732"}}},
{"geometry": {"type": "Point", "coordinates": [-118.0802385121, 33.7594473022]}, "type": "Feature", "properties": {"collection_times": [{"days": "Mon-Fri", "time": "3:30pm"}, {"days": "Sat-Sun", "time": "Closed"}], "id": "9074000001", "name": "USPS COLLECTION BOX - BLUE BOX", "address": {"city": "SEAL BEACH", "state": "CA", "street": "2800 WESTMINSTER AVE", "postcode": "90740"}}},
{"geometry": {"type": "Point", "coordinates": [-118.0884259911, 33.7611917439]}, "type": "Feature", "properties": {"collection_times": [{"days": "Mon-Sat", "time": "3:00pm"}, {"days": "Sun", "time": "Closed"}], "id": "9074000003", "name": "USPS COLLECTION BOX - EXPRESS", "address": {"city": "SEAL BEACH", "state": "CA", "street": "2929 WESTMINSTER AVE", "postcode": "90740"}}},
{"geometry": {"type": "Point", "coordinates": [-118.0793797564, 33.7596581064]}, "type": "Feature", "properties": {"collection_times": [{"days": "Mon-Fri", "time": "5:00pm"}, {"days": "Sat", "time": "3:15pm"}, {"days": "Sun", "time": "Closed"}], "id": "9074000005", "name": "USPS COLLECTION BOX - BLUE BOX", "address": {"city": "SEAL BEACH", "state": "CA", "street": "2929 WESTMINSTER AVE", "postcode": "90740"}}},
{"geometry": {"type": "Point", "coordinates": [-118.0773255459, 33.7717906349]}, "type": "Feature", "properties": {"collection_times": [{"days": "Mon-Fri", "time": "2:15pm"}, {"days": "Sat", "time": "1:30pm"}, {"days": "Sun", "time": "Closed"}], "id": "9074000007", "name": "USPS COLLECTION BOX - BLUE BOX", "address": {"city": "SEAL BEACH", "state": "CA", "street": "13001 SEAL BEACH BLVD", "postcode": "90740"}}},
{"geometry": {"type": "Point", "coordinates": [-118.086496356, 33.7675641438]}, "type": "Feature", "properties": {"collection_times": [{"days": "Mon-Fri", "time": "2:15pm"}, {"days": "Sat", "time": "1:00pm"}, {"days": "Sun", "time": "Closed"}], "id": "9074000013", "name": "USPS COLLECTION BOX - BLUE BOX", "address": {"city": "SEAL BEACH", "state": "CA", "street": "1360 PELHAM RD", "postcode": "90740"}}},
{"geometry": {"type": "Point", "coordinates": [-118.0891615495, 33.7690629637]}, "type": "Feature", "properties": {"collection_times": [{"days": "Mon-Fri", "time": "2:00pm"}, {"days": "Sat", "time": "1:00pm"}, {"days": "Sun", "time": "Closed"}], "id": "9074000014", "name": "USPS COLLECTION BOX - BLUE BOX", "address": {"city": "SEAL BEACH", "state": "CA", "street": "1330 OAKMONT RD", "postcode": "90740"}}},
{"geometry": {"type": "Point", "coordinates": [-118.0888285707, 33.7723935667]}, "type": "Feature", "properties": {"collection_times": [{"days": "Mon-Fri", "time": "2:15pm"}, {"days": "Sat", "time": "1:00pm"}, {"days": "Sun", "time": "Closed"}], "id": "9074000015", "name": "USPS COLLECTION BOX - BLUE BOX", "address": {"city": "SEAL BEACH", "state": "CA", "street": "13141 SAINT ANDREWS DR", "postcode": "90740"}}},
{"geometry": {"type": "Point", "coordinates": [-118.0854167043, 33.773047576]}, "type": "Feature", "properties": {"collection_times": [{"days": "Mon-Fri", "time": "2:30pm"}, {"days": "Sat", "time": "1:00pm"}, {"days": "Sun", "time": "Closed"}], "id": "9074000016", "name": "USPS COLLECTION BOX - BLUE BOX", "address": {"city": "SEAL BEACH", "state": "CA", "street": "1581 NORTHWOOD RD", "postcode": "90740"}}},
{"geometry": {"type": "Point", "coordinates": [-118.0931215969, 33.7707579117]}, "type": "Feature", "properties": {"collection_times": [{"days": "Mon-Fri", "time": "2:15pm"}, {"days": "Sat", "time": "1:15pm"}, {"days": "Sun", "time": "Closed"}], "id": "9074000017", "name": "USPS COLLECTION BOX - BLUE BOX", "address": {"city": "SEAL BEACH", "state": "CA", "street": "13240 EL DORADO DR", "postcode": "90740"}}},
{"geometry": {"type": "Point", "coordinates": [-118.0792385417, 33.7712389675]}, "type": "Feature", "properties": {"collection_times": [{"days": "Mon-Fri", "time": "2:30pm"}, {"days": "Sat", "time": "1:00pm"}, {"days": "Sun", "time": "Closed"}], "id": "9074000019", "name": "USPS COLLECTION BOX - BLUE BOX", "address": {"city": "SEAL BEACH", "state": "CA", "street": "1920 MCKINNEY WAY", "postcode": "90740"}}},
{"geometry": {"type": "Point", "coordinates": [-118.0844388013, 33.7703967877]}, "type": "Feature", "properties": {"collection_times": [{"days": "Mon-Fri", "time": "2:30pm"}, {"days": "Sat", "time": "1:15pm"}, {"days": "Sun", "time": "Closed"}], "id": "9074000020", "name": "USPS COLLECTION BOX - BLUE BOX", "address": {"city": "SEAL BEACH", "state": "CA", "street": "1581 INTERLACHEN RD", "postcode": "90740"}}},
{"geometry": {"type": "Point", "coordinates": [-118.0631596123, 33.7764834331]}, "type": "Feature", "properties": {"collection_times": [{"days": "Mon-Fri", "time": "3:15pm"}, {"days": "Sat", "time": "1:45pm"}, {"days": "Sun", "time": "Closed"}], "id": "9074000021", "name": "USPS COLLECTION BOX - BLUE BOX", "address": {"city": "SEAL BEACH", "state": "CA", "street": "4000 LAMPSON AVE", "postcode": "90740"}}},
{"geometry": {"type": "Point", "coordinates": [-118.0526378341, 33.7805826164]}, "type": "Feature", "properties": {"collection_times": [{"days": "Mon-Fri", "time": "3:00pm"}, {"days": "Sat", "time": "1:45pm"}, {"days": "Sun", "time": "Closed"}], "id": "9074000022", "name": "USPS COLLECTION BOX - BLUE BOX", "address": {"city": "SEAL BEACH", "state": "CA", "street": "3940 HEATHER ST", "postcode": "90740"}}},
{"geometry": {"type": "Point", "coordinates": [-118.0814124899, 33.7608045013]}, "type": "Feature", "properties": {"collection_times": [{"days": "Mon-Fri", "time": "2:00pm"}, {"days": "Sat", "time": "1:00pm"}, {"days": "Sun", "time": "Closed"}], "id": "9074000023", "name": "USPS COLLECTION BOX - BLUE BOX", "address": {"city": "SEAL BEACH", "state": "CA", "street": "13901 THUNDERBIRD DR", "postcode": "90740"}}},
{"geometry": {"type": "Point", "coordinates": [-118.08119507, 33.7687734909]}, "type": "Feature", "properties": {"collection_times": [{"days": "Mon-Fri", "time": "2:30pm"}, {"days": "Sat", "time": "1:00pm"}, {"days": "Sun", "time": "Closed"}], "id": "9074000024", "name": "USPS COLLECTION BOX - BLUE BOX", "address": {"city": "SEAL BEACH", "state": "CA", "street": "1701 SUNNINGDALE RD", "postcode": "90740"}}},
{"geometry": {"type": "Point", "coordinates": [-118.0802658584, 33.7728996788]}, "type": "Feature", "properties": {"collection_times": [{"days": "Mon-Sat", "time": "12:30pm"}, {"days": "Sun", "time": "Closed"}], "id": "9074000025", "name": "USPS COLLECTION BOX - BLUE BOX", "address": {"city": "SEAL BEACH", "state": "CA", "street": "1880 SAINT JOHN RD", "postcode": "90740"}}},
{"geometry": {"type": "Point", "coordinates": [-118.084888477, 33.7674646209]}, "type": "Feature", "properties": {"collection_times": [{"days": "Mon-Fri", "time": "2:15pm"}, {"days": "Sat", "time": "1:15pm"}, {"days": "Sun", "time": "Closed"}], "id": "9074000026", "name": "USPS COLLECTION BOX - BLUE BOX", "address": {"city": "SEAL BEACH", "state": "CA", "street": "13451 SAINT ANDREWS DR", "postcode": "90740"}}},
{"geometry": {"type": "Point", "coordinates": [-118.0816894815, 33.7636424136]}, "type": "Feature", "properties": {"collection_times": [{"days": "Mon-Sat", "time": "12:30pm"}, {"days": "Sun", "time": "Closed"}], "id": "9074000028", "name": "USPS COLLECTION BOX - BLUE BOX", "address": {"city": "SEAL BEACH", "state": "CA", "street": "13790 SAINT ANDREWS DR", "postcode": "90740"}}},
{"geometry": {"type": "Point", "coordinates": [-118.1048896727, 33.7469165567]}, "type": "Feature", "properties": {"collection_times": [{"days": "Mon-Sat", "time": "1:15pm"}, {"days": "Sun", "time": "Closed"}], "id": "9074000030", "name": "USPS COLLECTION BOX - BLUE BOX", "address": {"city": "SEAL BEACH", "state": "CA", "street": "430 COASTLINE DR", "postcode": "90740"}}},
{"geometry": {"type": "Point", "coordinates": [-118.0968644791, 33.7452497676]}, "type": "Feature", "properties": {"collection_times": [{"days": "Mon-Sat", "time": "12:30pm"}, {"days": "Sun", "time": "Closed"}], "id": "9074000033", "name": "USPS COLLECTION BOX - BLUE BOX", "address": {"city": "SEAL BEACH", "state": "CA", "street": "600 SANDPIPER DR", "postcode": "90740"}}},
{"geometry": {"type": "Point", "coordinates": [-118.105257573, 33.7463061499]}, "type": "Feature", "properties": {"collection_times": [{"days": "Mon-Fri", "time": "4:15pm"}, {"days": "Sat", "time": "1:00pm"}, {"days": "Sun", "time": "Closed"}], "id": "9074000037", "name": "USPS COLLECTION BOX - BLUE BOX", "address": {"city": "SEAL BEACH", "state": "CA", "street": "600 PACIFIC COAST HWY", "postcode": "90740"}}},
{"geometry": {"type": "Point", "coordinates": [-118.1074931188, 33.7449998273]}, "type": "Feature", "properties": {"collection_times": [{"days": "Mon-Fri", "time": "4:00pm"}, {"days": "Sat", "time": "1:30pm"}, {"days": "Sun", "time": "Closed"}], "id": "9074000038", "name": "USPS COLLECTION BOX - BLUE BOX", "address": {"city": "SEAL BEACH", "state": "CA", "street": "412 MARINA DR", "postcode": "90740"}}},
{"geometry": {"type": "Point", "coordinates": [-118.1071834302, 33.7488199377]}, "type": "Feature", "properties": {"collection_times": [{"days": "Mon-Sat", "time": "1:00pm"}, {"days": "Sun", "time": "Closed"}], "id": "9074000040", "name": "USPS COLLECTION BOX - BLUE BOX", "address": {"city": "SEAL BEACH", "state": "CA", "street": "333 1ST ST BLDG H", "postcode": "90740"}}},
{"geometry": {"type": "Point", "coordinates": [-118.1043017421, 33.7420640591]}, "type": "Feature", "properties": {"collection_times": [{"days": "Mon-Fri", "time": "5:00pm"}, {"days": "Sat-Sun", "time": "Closed"}], "id": "9074000042", "name": "USPS COLLECTION BOX - PO LOBBY", "address": {"city": "SEAL BEACH", "state": "CA", "street": "221 MAIN ST LBBY", "postcode": "90740"}}},
{"geometry": {"type": "Point", "coordinates": [-118.1043017421, 33.7420640591]}, "type": "Feature", "properties": {"collection_times": [{"days": "Mon-Fri", "time": "5:00pm"}, {"days": "Sat", "time": "2:30pm"}, {"days": "Sun", "time": "Closed"}], "id": "9074000043", "name": "USPS COLLECTION BOX - BLUE BOX", "address": {"city": "SEAL BEACH", "state": "CA", "street": "221 MAIN ST", "postcode": "90740"}}},
{"geometry": {"type": "Point", "coordinates": [-118.0822312298, 33.7724113287]}, "type": "Feature", "properties": {"collection_times": [{"days": "Mon-Fri", "time": "2:30pm"}, {"days": "Sat", "time": "1:15pm"}, {"days": "Sun", "time": "Closed"}], "id": "9074000045", "name": "USPS COLLECTION BOX - BLUE BOX", "address": {"city": "SEAL BEACH", "state": "CA", "street": "13141 DEL MONTE DR", "postcode": "90740"}}},
{"geometry": {"type": "Point", "coordinates": [-118.0887420251, 33.7615971639]}, "type": "Feature", "properties": {"collection_times": [{"days": "Mon-Fri", "time": "1:45pm"}, {"days": "Sat", "time": "1:15pm"}, {"days": "Sun", "time": "Closed"}], "id": "9074000047", "name": "USPS COLLECTION BOX - BLUE BOX", "address": {"city": "SEAL BEACH", "state": "CA", "street": "13800 EL DORADO DR", "postcode": "90740"}}},
{"geometry": {"type": "Point", "coordinates": [-118.0907101043, 33.7639201134]}, "type": "Feature", "properties": {"collection_times": [{"days": "Mon-Fri", "time": "1:45pm"}, {"days": "Sat", "time": "1:15pm"}, {"days": "Sun", "time": "Closed"}], "id": "9074000048", "name": "USPS COLLECTION BOX - BLUE BOX", "address": {"city": "SEAL BEACH", "state": "CA", "street": "13700 EL DORADO DR", "postcode": "90740"}}},
{"geometry": {"type": "Point", "coordinates": [-118.078908345, 33.7683328458]}, "type": "Feature", "properties": {"collection_times": [{"days": "Mon-Fri", "time": "2:30pm"}, {"days": "Sat", "time": "1:15pm"}, {"days": "Sun", "time": "Closed"}], "id": "9074000049", "name": "USPS COLLECTION BOX - BLUE BOX", "address": {"city": "SEAL BEACH", "state": "CA", "street": "13421 DEL MONTE DR", "postcode": "90740"}}},
{"geometry": {"type": "Point", "coordinates": [-118.0795767168, 33.7665146379]}, "type": "Feature", "properties": {"collection_times": [{"days": "Mon-Sat", "time": "12:30pm"}, {"days": "Sun", "time": "Closed"}], "id": "9074000050", "name": "USPS COLLECTION BOX - BLUE BOX", "address": {"city": "SEAL BEACH", "state": "CA", "street": "13610 BURNING TREE LN", "postcode": "90740"}}},
{"geometry": {"type": "Point", "coordinates": [-118.0839430183, 33.7663584873]}, "type": "Feature", "properties": {"collection_times": [{"days": "Mon-Fri", "time": "2:00pm"}, {"days": "Sat", "time": "1:15pm"}, {"days": "Sun", "time": "Closed"}], "id": "9074000051", "name": "USPS COLLECTION BOX - BLUE BOX", "address": {"city": "SEAL BEACH", "state": "CA", "street": "13531 SAINT ANDREWS DR", "postcode": "90740"}}},
{"geometry": {"type": "Point", "coordinates": [-118.0841507378, 33.7646064333]}, "type": "Feature", "properties": {"collection_times": [{"days": "Mon-Fri", "time": "2:00pm"}, {"days": "Sat", "time": "1:30pm"}, {"days": "Sun", "time": "Closed"}], "id": "9074000052", "name": "USPS COLLECTION BOX - BLUE BOX", "address": {"city": "SEAL BEACH", "state": "CA", "street": "1661 GOLDEN RAIN RD", "postcode": "90740"}}},
{"geometry": {"type": "Point", "coordinates": [-118.0720838547, 33.7807929526]}, "type": "Feature", "properties": {"collection_times": [{"days": "Mon-Fri", "time": "2:15pm"}, {"days": "Sat", "time": "1:30pm"}, {"days": "Sun", "time": "Closed"}], "id": "9074000054", "name": "USPS COLLECTION BOX - BLUE BOX", "address": {"city": "SEAL BEACH", "state": "CA", "street": "12535 SEAL BEACH BLVD", "postcode": "90740"}}},
{"geometry": {"type": "Point", "coordinates": [-118.0790857888, 33.7596203531]}, "type": "Feature", "properties": {"collection_times": [{"days": "Mon-Fri", "time": "5:00pm"}, {"days": "Sat", "time": "3:15pm"}, {"days": "Sun", "time": "Closed"}], "id": "9074000055", "name": "USPS COLLECTION BOX - PO LOBBY", "address": {"city": "SEAL BEACH", "state": "CA", "street": "2929 WESTMINSTER AVE LBBY", "postcode": "90740"}}},
{"geometry": {"type": "Point", "coordinates": [-118.0802385121, 33.7594473022]}, "type": "Feature", "properties": {"collection_times": [{"days": "Mon-Fri", "time": "3:30pm"}, {"days": "Sat-Sun", "time": "Closed"}], "id": "9074000058", "name": "USPS COLLECTION BOX - BLUE BOX", "address": {"city": "SEAL BEACH", "state": "CA", "street": "2800 WESTMINSTER AVE", "postcode": "90740"}}},
{"geometry": {"type": "Point", "coordinates": [-118.1009380751, 33.7437451883]}, "type": "Feature", "properties": {"collection_times": [{"days": "Mon-Fri", "time": "4:15pm"}, {"days": "Sat", "time": "2:15pm"}, {"days": "Sun", "time": "Closed"}], "id": "9074000059", "name": "USPS COLLECTION BOX - BLUE BOX", "address": {"city": "SEAL BEACH", "state": "CA", "street": "1077 PACIFIC COAST HWY", "postcode": "90740"}}},
{"geometry": {"type": "Point", "coordinates": [-118.0790857888, 33.7596203531]}, "type": "Feature", "properties": {"collection_times": [{"days": "Mon-Fri", "time": "5:00pm"}, {"days": "Sat", "time": "3:15pm"}, {"days": "Sun", "time": "Closed"}], "id": "9074000060", "name": "USPS COLLECTION BOX - BLUE BOX", "address": {"city": "SEAL BEACH", "state": "CA", "street": "2929 WESTMINSTER AVE", "postcode": "90740"}}},
{"geometry": {"type": "Point", "coordinates": [-118.1043017421, 33.7420640591]}, "type": "Feature", "properties": {"collection_times": [{"days": "Mon-Fri", "time": "5:00pm"}, {"days": "Sat", "time": "2:30pm"}, {"days": "Sun", "time": "Closed"}], "id": "9074000062", "name": "USPS COLLECTION BOX - BLUE BOX", "address": {"city": "SEAL BEACH", "state": "CA", "street": "221 MAIN ST", "postcode": "90740"}}},
{"geometry": {"type": "Point", "coordinates": [-118.0790857888, 33.7596203531]}, "type": "Feature", "properties": {"collection_times": [{"days": "Mon-Fri", "time": "5:00pm"}, {"days": "Sat", "time": "3:15pm"}, {"days": "Sun", "time": "Closed"}], "id": "9074000067", "name": "USPS COLLECTION BOX - BLUE BOX", "address": {"city": "SEAL BEACH", "state": "CA", "street": "2929 WESTMINSTER AVE", "postcode": "90740"}}},
{"geometry": {"type": "Point", "coordinates": [-118.0720838547, 33.7807929526]}, "type": "Feature", "properties": {"collection_times": [{"days": "Mon-Fri", "time": "2:15pm"}, {"days": "Sat", "time": "1:30pm"}, {"days": "Sun", "time": "Closed"}], "id": "9074000069", "name": "USPS COLLECTION BOX - BLUE BOX", "address": {"city": "SEAL BEACH", "state": "CA", "street": "12535 SEAL BEACH BLVD", "postcode": "90740"}}},
{"geometry": {"type": "Point", "coordinates": [-118.0884259911, 33.7611917439]}, "type": "Feature", "properties": {"collection_times": [{"days": "Mon-Fri", "time": "1:15pm"}, {"days": "Sat", "time": "2:30pm"}, {"days": "Sun", "time": "Closed"}], "id": "9074000070", "name": "USPS COLLECTION BOX - EXPRESS", "address": {"city": "SEAL BEACH", "state": "CA", "street": "221 MAIN ST", "postcode": "90740"}}},
{"geometry": {"type": "Point", "coordinates": [-118.0993818158, 33.7466634035]}, "type": "Feature", "properties": {"collection_times": [{"days": "Mon-Sat", "time": "1:00pm"}, {"days": "Sun", "time": "Closed"}], "id": "9074000074", "name": "USPS COLLECTION BOX - BLUE BOX", "address": {"city": "SEAL BEACH", "state": "CA", "street": "640 BALBOA DR", "postcode": "90740"}}},
{"geometry": {"type": "Point", "coordinates": [-118.0831717291, 33.7655860151]}, "type": "Feature", "properties": {"collection_times": [{"days": "Mon-Fri", "time": "3:00pm"}, {"days": "Sat", "time": "1:15pm"}, {"days": "Sun", "time": "Closed"}], "id": "9074000075", "name": "USPS COLLECTION BOX - BLUE BOX", "address": {"city": "SEAL BEACH", "state": "CA", "street": "13580 SAINT ANDREWS DR", "postcode": "90740"}}},
{"geometry": {"type": "Point", "coordinates": [-118.0945375988, 33.7757310712]}, "type": "Feature", "properties": {"collection_times": [{"days": "Mon-Sat", "time": "1:00pm"}, {"days": "Sun", "time": "Closed"}], "id": "9074000076", "name": "USPS COLLECTION BOX - BLUE BOX", "address": {"city": "SEAL BEACH", "state": "CA", "street": "100 HARVARD LN", "postcode": "90740"}}},
{"geometry": {"type": "Point", "coordinates": [-118.1020931718, 33.7414903592]}, "type": "Feature", "properties": {"collection_times": [{"days": "Mon-Sat", "time": "1:00pm"}, {"days": "Sun", "time": "Closed"}], "id": "9074000077", "name": "USPS COLLECTION BOX - BLUE BOX", "address": {"city": "SEAL BEACH", "state": "CA", "street": "1115 ELECTRIC AVE", "postcode": "90740"}}},
{"geometry": {"type": "Point", "coordinates": [-118.0790857888, 33.7596203531]}, "type": "Feature", "properties": {"collection_times": [{"days": "Mon-Fri", "time": "5:00pm"}, {"days": "Sat", "time": "3:00pm"}, {"days": "Sun", "time": "Closed"}], "id": "9074000078", "name": "USPS COLLECTION BOX - APC", "address": {"city": "SEAL BEACH", "state": "CA", "street": "2929 WESTMINSTER AVE", "postcode": "90740"}}},
{"geometry": {"type": "Point", "coordinates": [-118.0691122618, 33.7168327273]}, "type": "Feature", "properties": {"collection_times": [{"days": "Mon-Fri", "time": "5:00pm"}, {"days": "Sat-Sun", "time": "Closed"}], "id": "9074200002", "name": "USPS COLLECTION BOX - PO LOBBY", "address": {"city": "SUNSET BEACH", "state": "CA", "street": "16885 PACIFIC COAST HWY LBBY", "postcode": "90742"}}},
{"geometry": {"type": "Point", "coordinates": [-118.0686084206, 33.7163209183]}, "type": "Feature", "properties": {"collection_times": [{"days": "Mon-Fri", "time": "5:00pm"}, {"days": "Sat", "time": "1:00pm"}, {"days": "Sun", "time": "Closed"}], "id": "9074200003", "name": "USPS COLLECTION BOX - BLUE BOX", "address": {"city": "SUNSET BEACH", "state": "CA", "street": "16885 PACIFIC COAST HWY", "postcode": "90742"}}},
{"geometry": {"type": "Point", "coordinates": [-118.0842678208, 33.7283739633]}, "type": "Feature", "properties": {"collection_times": [{"days": "Mon-Fri", "time": "5:00pm"}, {"days": "Sat", "time": "2:15pm"}, {"days": "Sun", "time": "Closed"}], "id": "9074300001", "name": "USPS COLLECTION BOX - BLUE BOX", "address": {"city": "SURFSIDE", "state": "CA", "street": "B89 SURFSIDE AVE", "postcode": "90743"}}},
{"geometry": {"type": "Point", "coordinates": [-118.0842678208, 33.7283739633]}, "type": "Feature", "properties": {"collection_times": [{"days": "Mon-Fri", "time": "5:00pm"}, {"days": "Sat-Sun", "time": "Closed"}], "id": "9074300002", "name": "USPS COLLECTION BOX - PO LOBBY", "address": {"city": "SURFSIDE", "state": "CA", "street": "B89 SURFSIDE AVE", "postcode": "90743"}}},
{"geometry": {"type": "Point", "coordinates": [-118.262663227, 33.7831577926]}, "type": "Feature", "properties": {"collection_times": [{"days": "Mon-Fri", "time": "5:00pm"}, {"days": "Sat", "time": "4:15pm"}, {"days": "Sun", "time": "Closed"}], "id": "9074400001", "name": "USPS COLLECTION BOX - BLUE BOX", "address": {"city": "WILMINGTON", "state": "CA", "street": "1008 N AVALON BLVD", "postcode": "90744"}}},
{"geometry": {"type": "Point", "coordinates": [-118.2629400882, 33.7864179225]}, "type": "Feature", "properties": {"collection_times": [{"days": "Mon-Sat", "time": "2:30pm"}, {"days": "Sun", "time": "Closed"}], "id": "9074400004", "name": "USPS COLLECTION BOX - BLUE BOX", "address": {"city": "WILMINGTON", "state": "CA", "street": "1161 N AVALON BLVD", "postcode": "90744"}}},
{"geometry": {"type": "Point", "coordinates": [-118.2631599723, 33.7901230183]}, "type": "Feature", "properties": {"collection_times": [{"days": "Mon-Sat", "time": "2:30pm"}, {"days": "Sun", "time": "Closed"}], "id": "9074400005", "name": "USPS COLLECTION BOX - BLUE BOX", "address": {"city": "WILMINGTON", "state": "CA", "street": "1342 N AVALON BLVD", "postcode": "90744"}}},
{"geometry": {"type": "Point", "coordinates": [-118.2626694017, 33.7837205974]}, "type": "Feature", "properties": {"collection_times": [{"days": "Mon-Fri", "time": "5:00pm"}, {"days": "Sat", "time": "4:15pm"}, {"days": "Sun", "time": "Closed"}], "id": "9074400011", "name": "USPS COLLECTION BOX - PO LOBBY", "address": {"city": "WILMINGTON", "state": "CA", "street": "1008 N AVALON BLVD LBBY", "postcode": "90744"}}},
{"geometry": {"type": "Point", "coordinates": [-118.2812641226, 33.7836131268]}, "type": "Feature", "properties": {"collection_times": [{"days": "Mon-Sat", "time": "2:30pm"}, {"days": "Sun", "time": "Closed"}], "id": "9074400024", "name": "USPS COLLECTION BOX - BLUE BOX", "address": {"city": "WILMINGTON", "state": "CA", "street": "1111 FIGUEROA PL", "postcode": "90744"}}},
{"geometry": {"type": "Point", "coordinates": [-118.2738638421, 33.7765164444]}, "type": "Feature", "properties": {"collection_times": [{"days": "Mon-Sat", "time": "2:30pm"}, {"days": "Sun", "time": "Closed"}], "id": "9074400047", "name": "USPS COLLECTION BOX - BLUE BOX", "address": {"city": "WILMINGTON", "state": "CA", "street": "602 N WILMINGTON BLVD", "postcode": "90744"}}},
{"geometry": {"type": "Point", "coordinates": [-118.2751257485, 33.8139844153]}, "type": "Feature", "properties": {"collection_times": [{"days": "Mon-Sat", "time": "1:00pm"}, {"days": "Sun", "time": "Closed"}], "id": "9074500001", "name": "USPS COLLECTION BOX - BLUE BOX", "address": {"city": "CARSON", "state": "CA", "street": "103 E 233RD ST", "postcode": "90745"}}},
{"geometry": {"type": "Point", "coordinates": [-118.2635954475, 33.8348778365]}, "type": "Feature", "properties": {"collection_times": [{"days": "Mon-Sat", "time": "5:00pm"}, {"days": "Sun", "time": "Closed"}], "id": "9074500002", "name": "USPS COLLECTION BOX - BLUE BOX", "address": {"city": "CARSON", "state": "CA", "street": "21350 AVALON BLVD", "postcode": "90745"}}},
{"geometry": {"type": "Point", "coordinates": [-118.2635954475, 33.8348778365]}, "type": "Feature", "properties": {"collection_times": [{"days": "Mon-Sat", "time": "5:00pm"}, {"days": "Sun", "time": "Closed"}], "id": "9074500003", "name": "USPS COLLECTION BOX - BLUE BOX", "address": {"city": "CARSON", "state": "CA", "street": "21350 AVALON BLVD", "postcode": "90745"}}},
{"geometry": {"type": "Point", "coordinates": [-118.2696692055, 33.8258541157]}, "type": "Feature", "properties": {"collection_times": [{"days": "Mon-Fri", "time": "5:00pm"}, {"days": "Sat", "time": "1:00pm"}, {"days": "Sun", "time": "Closed"}], "id": "9074500005", "name": "USPS COLLECTION BOX - BLUE BOX", "address": {"city": "CARSON", "state": "CA", "street": "1430 E WATSON CENTER RD", "postcode": "90745"}}},
{"geometry": {"type": "Point", "coordinates": [-118.2635954475, 33.8348778365]}, "type": "Feature", "properties": {"collection_times": [{"days": "Mon-Sat", "time": "5:00pm"}, {"days": "Sun", "time": "Closed"}], "id": "9074500007", "name": "USPS COLLECTION BOX - BLUE BOX", "address": {"city": "CARSON", "state": "CA", "street": "21350 AVALON BLVD", "postcode": "90745"}}},
{"geometry": {"type": "Point", "coordinates": [-118.2696692055, 33.8258541157]}, "type": "Feature", "properties": {"collection_times": [{"days": "Mon-Sat", "time": "4:00pm"}, {"days": "Sun", "time": "Closed"}], "id": "9074500008", "name": "USPS COLLECTION BOX - EXPRESS", "address": {"city": "CARSON", "state": "CA", "street": "21350 AVALON BLVD", "postcode": "90745"}}},
{"geometry": {"type": "Point", "coordinates": [-118.2637789233, 33.8133153604]}, "type": "Feature", "properties": {"collection_times": [{"days": "Mon-Fri", "time": "1:30pm"}, {"days": "Sat", "time": "1:00pm"}, {"days": "Sun", "time": "Closed"}], "id": "9074500014", "name": "USPS COLLECTION BOX - BLUE BOX", "address": {"city": "CARSON", "state": "CA", "street": "23400 AVALON BLVD", "postcode": "90745"}}},
{"geometry": {"type": "Point", "coordinates": [-118.2640295934, 33.8087486389]}, "type": "Feature", "properties": {"collection_times": [{"days": "Mon-Sat", "time": "1:00pm"}, {"days": "Sun", "time": "Closed"}], "id": "9074500016", "name": "USPS COLLECTION BOX - BLUE BOX", "address": {"city": "CARSON", "state": "CA", "street": "23820 AVALON BLVD", "postcode": "90745"}}},
{"geometry": {"type": "Point", "coordinates": [-118.2836501508, 33.8170790359]}, "type": "Feature", "properties": {"collection_times": [{"days": "Mon-Fri", "time": "1:30pm"}, {"days": "Sat", "time": "1:00pm"}, {"days": "Sun", "time": "Closed"}], "id": "9074500017", "name": "USPS COLLECTION BOX - BLUE BOX", "address": {"city": "CARSON", "state": "CA", "street": "23015 CAROLDALE AVE", "postcode": "90745"}}},
{"geometry": {"type": "Point", "coordinates": [-118.2616944324, 33.8307090891]}, "type": "Feature", "properties": {"collection_times": [{"days": "Mon-Fri", "time": "2:00pm"}, {"days": "Sat", "time": "1:00pm"}, {"days": "Sun", "time": "Closed"}], "id": "9074500018", "name": "USPS COLLECTION BOX - BLUE BOX", "address": {"city": "CARSON", "state": "CA", "street": "750 E CARSON ST", "postcode": "90745"}}},
{"geometry": {"type": "Point", "coordinates": [-118.2799723314, 33.8155837758]}, "type": "Feature", "properties": {"collection_times": [{"days": "Mon-Sat", "time": "1:00pm"}, {"days": "Sun", "time": "Closed"}], "id": "9074500023", "name": "USPS COLLECTION BOX - BLUE BOX", "address": {"city": "CARSON", "state": "CA", "street": "238 W 231ST ST", "postcode": "90745"}}},
{"geometry": {"type": "Point", "coordinates": [-118.2804691742, 33.8133822892]}, "type": "Feature", "properties": {"collection_times": [{"days": "Mon-Sat", "time": "1:00pm"}, {"days": "Sun", "time": "Closed"}], "id": "9074500024", "name": "USPS COLLECTION BOX - BLUE BOX", "address": {"city": "CARSON", "state": "CA", "street": "254 W 234TH ST", "postcode": "90745"}}},
{"geometry": {"type": "Point", "coordinates": [-118.2772535734, 33.8285871783]}, "type": "Feature", "properties": {"collection_times": [{"days": "Mon-Fri", "time": "1:30pm"}, {"days": "Sat", "time": "1:00pm"}, {"days": "Sun", "time": "Closed"}], "id": "9074500025", "name": "USPS COLLECTION BOX - BLUE BOX", "address": {"city": "CARSON", "state": "CA", "street": "21923 MAIN ST", "postcode": "90745"}}},
{"geometry": {"type": "Point", "coordinates": [-118.2752582399, 33.8078969084]}, "type": "Feature", "properties": {"collection_times": [{"days": "Mon-Sat", "time": "1:00pm"}, {"days": "Sun", "time": "Closed"}], "id": "9074500026", "name": "USPS COLLECTION BOX - BLUE BOX", "address": {"city": "CARSON", "state": "CA", "street": "110 E SEPULVEDA BLVD", "postcode": "90745"}}},
{"geometry": {"type": "Point", "coordinates": [-118.2666119928, 33.7992648569]}, "type": "Feature", "properties": {"collection_times": [{"days": "Mon-Sat", "time": "1:00pm"}, {"days": "Sun", "time": "Closed"}], "id": "9074500027", "name": "USPS COLLECTION BOX - BLUE BOX", "address": {"city": "CARSON", "state": "CA", "street": "455 E LOMITA BLVD", "postcode": "90745"}}},
{"geometry": {"type": "Point", "coordinates": [-118.2683479037, 33.7993332804]}, "type": "Feature", "properties": {"collection_times": [{"days": "Mon-Sat", "time": "1:00pm"}, {"days": "Sun", "time": "Closed"}], "id": "9074500028", "name": "USPS COLLECTION BOX - BLUE BOX", "address": {"city": "CARSON", "state": "CA", "street": "402 E 249TH ST", "postcode": "90745"}}},
{"geometry": {"type": "Point", "coordinates": [-118.2406106786, 33.8316270422]}, "type": "Feature", "properties": {"collection_times": [{"days": "Mon-Fri", "time": "2:00pm"}, {"days": "Sat", "time": "1:00pm"}, {"days": "Sun", "time": "Closed"}], "id": "9074500030", "name": "USPS COLLECTION BOX - BLUE BOX", "address": {"city": "CARSON", "state": "CA", "street": "1820 E CARSON ST", "postcode": "90745"}}},
{"geometry": {"type": "Point", "coordinates": [-118.272112752, 33.8109158197]}, "type": "Feature", "properties": {"collection_times": [{"days": "Mon-Sat", "time": "1:00pm"}, {"days": "Sun", "time": "Closed"}], "id": "9074500033", "name": "USPS COLLECTION BOX - BLUE BOX", "address": {"city": "CARSON", "state": "CA", "street": "267 E 236TH ST", "postcode": "90745"}}},
{"geometry": {"type": "Point", "coordinates": [-118.2843126078, 33.8101906659]}, "type": "Feature", "properties": {"collection_times": [{"days": "Mon-Sat", "time": "1:00pm"}, {"days": "Sun", "time": "Closed"}], "id": "9074500034", "name": "USPS COLLECTION BOX - BLUE BOX", "address": {"city": "CARSON", "state": "CA", "street": "23617 CAROLDALE AVE", "postcode": "90745"}}},
{"geometry": {"type": "Point", "coordinates": [-118.2635954475, 33.8348778365]}, "type": "Feature", "properties": {"collection_times": [{"days": "Mon-Fri", "time": "5:00pm"}, {"days": "Sat", "time": "4:00pm"}, {"days": "Sun", "time": "Closed"}], "id": "9074500037", "name": "USPS COLLECTION BOX - PO LOBBY", "address": {"city": "CARSON", "state": "CA", "street": "21350 AVALON BLVD LBBY", "postcode": "90745"}}},
{"geometry": {"type": "Point", "coordinates": [-118.2635954475, 33.8348778365]}, "type": "Feature", "properties": {"collection_times": [{"days": "Mon-Fri", "time": "5:00pm"}, {"days": "Sat", "time": "4:00pm"}, {"days": "Sun", "time": "Closed"}], "id": "9074500038", "name": "USPS COLLECTION BOX - PO LOBBY", "address": {"city": "CARSON", "state": "CA", "street": "21350 AVALON BLVD LBBY", "postcode": "90745"}}},
{"geometry": {"type": "Point", "coordinates": [-118.2635954475, 33.8348778365]}, "type": "Feature", "properties": {"collection_times": [{"days": "Mon-Fri", "time": "5:00pm"}, {"days": "Sat", "time": "4:00pm"}, {"days": "Sun", "time": "Closed"}], "id": "9074500039", "name": "USPS COLLECTION BOX - BLUE BOX", "address": {"city": "CARSON", "state": "CA", "street": "21350 AVALON BLVD", "postcode": "90745"}}},
{"geometry": {"type": "Point", "coordinates": [-118.285914886, 33.8376724669]}, "type": "Feature", "properties": {"collection_times": [{"days": "Mon-Fri", "time": "1:45pm"}, {"days": "Sat", "time": "1:00pm"}, {"days": "Sun", "time": "Closed"}], "id": "9074500040", "name": "USPS COLLECTION BOX - BLUE BOX", "address": {"city": "CARSON", "state": "CA", "street": "21120 FIGUEROA ST", "postcode": "90745"}}},
{"geometry": {"type": "Point", "coordinates": [-118.2593462589, 33.832788731]}, "type": "Feature", "properties": {"collection_times": [{"days": "Mon-Fri", "time": "2:00pm"}, {"days": "Sat", "time": "1:00pm"}, {"days": "Sun", "time": "Closed"}], "id": "9074500041", "name": "USPS COLLECTION BOX - BLUE BOX", "address": {"city": "CARSON", "state": "CA", "street": "1 CIVIC PLAZA DR", "postcode": "90745"}}},
{"geometry": {"type": "Point", "coordinates": [-118.2653488457, 33.8448760362]}, "type": "Feature", "properties": {"collection_times": [{"days": "Mon-Fri", "time": "5:00pm"}, {"days": "Sat", "time": "1:00pm"}, {"days": "Sun", "time": "Closed"}], "id": "9074600001", "name": "USPS COLLECTION BOX - BLUE BOX", "address": {"city": "CARSON", "state": "CA", "street": "610 E CARSON PLAZA DR", "postcode": "90746"}}},
{"geometry": {"type": "Point", "coordinates": [-118.2660110497, 33.8677120455]}, "type": "Feature", "properties": {"collection_times": [{"days": "Mon-Fri", "time": "3:30pm"}, {"days": "Sat", "time": "1:00pm"}, {"days": "Sun", "time": "Closed"}], "id": "9074600002", "name": "USPS COLLECTION BOX - BLUE BOX", "address": {"city": "CARSON", "state": "CA", "street": "17906 AVALON BLVD", "postcode": "90746"}}},
{"geometry": {"type": "Point", "coordinates": [-118.2663151353, 33.863029983]}, "type": "Feature", "properties": {"collection_times": [{"days": "Mon-Fri", "time": "4:00pm"}, {"days": "Sat", "time": "1:00pm"}, {"days": "Sun", "time": "Closed"}], "id": "9074600003", "name": "USPS COLLECTION BOX - BLUE BOX", "address": {"city": "CARSON", "state": "CA", "street": "18401 AVALON BLVD", "postcode": "90746"}}},
{"geometry": {"type": "Point", "coordinates": [-118.2669006348, 33.8753444968]}, "type": "Feature", "properties": {"collection_times": [{"days": "Mon-Fri", "time": "3:30pm"}, {"days": "Sat", "time": "1:00pm"}, {"days": "Sun", "time": "Closed"}], "id": "9074600005", "name": "USPS COLLECTION BOX - BLUE BOX", "address": {"city": "CARSON", "state": "CA", "street": "541 E CHERITON DR", "postcode": "90746"}}},
{"geometry": {"type": "Point", "coordinates": [-118.2633942379, 33.8583163746]}, "type": "Feature", "properties": {"collection_times": [{"days": "Mon-Fri", "time": "3:15pm"}, {"days": "Sat", "time": "1:00pm"}, {"days": "Sun", "time": "Closed"}], "id": "9074600008", "name": "USPS COLLECTION BOX - BLUE BOX", "address": {"city": "CARSON", "state": "CA", "street": "657 E UNIVERSITY DR", "postcode": "90746"}}},
{"geometry": {"type": "Point", "coordinates": [-118.2444776476, 33.8535591245]}, "type": "Feature", "properties": {"collection_times": [{"days": "Mon-Fri", "time": "2:15pm"}, {"days": "Sat", "time": "1:00pm"}, {"days": "Sun", "time": "Closed"}], "id": "9074600009", "name": "USPS COLLECTION BOX - BLUE BOX", "address": {"city": "CARSON", "state": "CA", "street": "19442 NESTOR AVE", "postcode": "90746"}}},
{"geometry": {"type": "Point", "coordinates": [-118.2747443236, 33.8619447774]}, "type": "Feature", "properties": {"collection_times": [{"days": "Mon-Fri", "time": "3:15pm"}, {"days": "Sat", "time": "1:00pm"}, {"days": "Sun", "time": "Closed"}], "id": "9074600011", "name": "USPS COLLECTION BOX - BLUE BOX", "address": {"city": "CARSON", "state": "CA", "street": "18600 MILMORE AVE", "postcode": "90746"}}},
{"geometry": {"type": "Point", "coordinates": [-118.2618470341, 33.8506703387]}, "type": "Feature", "properties": {"collection_times": [{"days": "Mon-Fri", "time": "2:30pm"}, {"days": "Sat", "time": "1:00pm"}, {"days": "Sun", "time": "Closed"}], "id": "9074600012", "name": "USPS COLLECTION BOX - BLUE BOX", "address": {"city": "CARSON", "state": "CA", "street": "19915 GALWAY AVE", "postcode": "90746"}}},
{"geometry": {"type": "Point", "coordinates": [-118.2675634703, 33.8668404258]}, "type": "Feature", "properties": {"collection_times": [{"days": "Mon-Fri", "time": "3:30pm"}, {"days": "Sat", "time": "1:00pm"}, {"days": "Sun", "time": "Closed"}], "id": "9074600013", "name": "USPS COLLECTION BOX - BLUE BOX", "address": {"city": "CARSON", "state": "CA", "street": "500 E VICTORIA", "postcode": "90746"}}},
{"geometry": {"type": "Point", "coordinates": [-118.2442599832, 33.8468576619]}, "type": "Feature", "properties": {"collection_times": [{"days": "Mon-Fri", "time": "2:15pm"}, {"days": "Sat", "time": "1:00pm"}, {"days": "Sun", "time": "Closed"}], "id": "9074600014", "name": "USPS COLLECTION BOX - BLUE BOX", "address": {"city": "CARSON", "state": "CA", "street": "1555 E DEL AMO BLVD", "postcode": "90746"}}},
{"geometry": {"type": "Point", "coordinates": [-118.2568833383, 33.8404401096]}, "type": "Feature", "properties": {"collection_times": [{"days": "Mon-Fri", "time": "4:30pm"}, {"days": "Sat", "time": "1:00pm"}, {"days": "Sun", "time": "Closed"}], "id": "9074600017", "name": "USPS COLLECTION BOX - BLUE BOX", "address": {"city": "CARSON", "state": "CA", "street": "1007 E DOMINGUEZ ST", "postcode": "90746"}}},
{"geometry": {"type": "Point", "coordinates": [-118.2653488457, 33.8448760362]}, "type": "Feature", "properties": {"collection_times": [{"days": "Mon-Fri", "time": "5:00pm"}, {"days": "Sat", "time": "1:00pm"}, {"days": "Sun", "time": "Closed"}], "id": "9074600019", "name": "USPS COLLECTION BOX - BLUE BOX", "address": {"city": "CARSON", "state": "CA", "street": "610 E CARSON PLAZA DR", "postcode": "90746"}}},
{"geometry": {"type": "Point", "coordinates": [-118.2653488457, 33.8448760362]}, "type": "Feature", "properties": {"collection_times": [{"days": "Mon-Fri", "time": "5:00pm"}, {"days": "Sat", "time": "1:00pm"}, {"days": "Sun", "time": "Closed"}], "id": "9074600021", "name": "USPS COLLECTION BOX - BLUE BOX", "address": {"city": "CARSON", "state": "CA", "street": "610 E CARSON PLAZA DR", "postcode": "90746"}}},
{"geometry": {"type": "Point", "coordinates": [-118.2535093321, 33.8754528277]}, "type": "Feature", "properties": {"collection_times": [{"days": "Mon-Fri", "time": "3:30pm"}, {"days": "Sat", "time": "1:00pm"}, {"days": "Sun", "time": "Closed"}], "id": "9074600023", "name": "USPS COLLECTION BOX - BLUE BOX", "address": {"city": "CARSON", "state": "CA", "street": "1161 E WALNUT ST", "postcode": "90746"}}},
{"geometry": {"type": "Point", "coordinates": [-118.2653488457, 33.8448760362]}, "type": "Feature", "properties": {"collection_times": [{"days": "Mon-Fri", "time": "5:00pm"}, {"days": "Sat", "time": "1:00pm"}, {"days": "Sun", "time": "Closed"}], "id": "9074600024", "name": "USPS COLLECTION BOX - BLUE BOX", "address": {"city": "CARSON", "state": "CA", "street": "610 E CARSON PLAZA DR", "postcode": "90746"}}},
{"geometry": {"type": "Point", "coordinates": [-118.2535093321, 33.8754528277]}, "type": "Feature", "properties": {"collection_times": [{"days": "Mon-Fri", "time": "3:30pm"}, {"days": "Sat", "time": "1:00pm"}, {"days": "Sun", "time": "Closed"}], "id": "9074600026", "name": "USPS COLLECTION BOX - BLUE BOX", "address": {"city": "CARSON", "state": "CA", "street": "1161 E WALNUT ST", "postcode": "90746"}}},
{"geometry": {"type": "Point", "coordinates": [-118.2588835863, 33.8672987635]}, "type": "Feature", "properties": {"collection_times": [{"days": "Mon-Fri", "time": "3:45pm"}, {"days": "Sat", "time": "1:00pm"}, {"days": "Sun", "time": "Closed"}], "id": "9074600028", "name": "USPS COLLECTION BOX - BLUE BOX", "address": {"city": "CARSON", "state": "CA", "street": "1000 E VICTORIA ST", "postcode": "90746"}}},
{"geometry": {"type": "Point", "coordinates": [-118.2568833383, 33.8404401096]}, "type": "Feature", "properties": {"collection_times": [{"days": "Mon-Fri", "time": "4:30pm"}, {"days": "Sat", "time": "1:00pm"}, {"days": "Sun", "time": "Closed"}], "id": "9074600033", "name": "USPS COLLECTION BOX - BLUE BOX", "address": {"city": "CARSON", "state": "CA", "street": "1007 E DOMINGUEZ ST", "postcode": "90746"}}},
{"geometry": {"type": "Point", "coordinates": [-118.2631494719, 33.8436234521]}, "type": "Feature", "properties": {"collection_times": [{"days": "Mon-Fri", "time": "5:00pm"}, {"days": "Sat", "time": "1:00pm"}, {"days": "Sun", "time": "Closed"}], "id": "9074600034", "name": "USPS COLLECTION BOX - BLUE BOX", "address": {"city": "CARSON", "state": "CA", "street": "20700 AVALON BLVD", "postcode": "90746"}}},
{"geometry": {"type": "Point", "coordinates": [-118.2631494719, 33.8436234521]}, "type": "Feature", "properties": {"collection_times": [{"days": "Mon-Fri", "time": "5:00pm"}, {"days": "Sat", "time": "2:15pm"}, {"days": "Sun", "time": "Closed"}], "id": "9074600035", "name": "USPS COLLECTION BOX - PO LOBBY", "address": {"city": "CARSON", "state": "CA", "street": "20700 AVALON BLVD LBBY", "postcode": "90746"}}},
{"geometry": {"type": "Point", "coordinates": [-118.2610096096, 33.8588805025]}, "type": "Feature", "properties": {"collection_times": [{"days": "Mon-Fri", "time": "5:00pm"}, {"days": "Sat", "time": "1:00pm"}, {"days": "Sun", "time": "Closed"}], "id": "9074600036", "name": "USPS COLLECTION BOX - EXPRESS", "address": {"city": "CARSON", "state": "CA", "street": "20700 AVALON BLVD", "postcode": "90746"}}},
{"geometry": {"type": "Point", "coordinates": [-118.1611597013, 33.8080959513]}, "type": "Feature", "properties": {"collection_times": [{"days": "Mon-Fri", "time": "5:00pm"}, {"days": "Sat", "time": "1:00pm"}, {"days": "Sun", "time": "Closed"}], "id": "9075500000", "name": "USPS COLLECTION BOX - BLUE BOX", "address": {"city": "LONG BEACH", "state": "CA", "street": "2599 E 28TH ST", "postcode": "90755"}}},
{"geometry": {"type": "Point", "coordinates": [-118.1611597013, 33.8080959513]}, "type": "Feature", "properties": {"collection_times": [{"days": "Mon-Fri", "time": "5:00pm"}, {"days": "Sat", "time": "1:00pm"}, {"days": "Sun", "time": "Closed"}], "id": "9075500002", "name": "USPS COLLECTION BOX - BLUE BOX", "address": {"city": "LONG BEACH", "state": "CA", "street": "2599 E 28TH ST", "postcode": "90755"}}},
{"geometry": {"type": "Point", "coordinates": [-118.1611597013, 33.8080959513]}, "type": "Feature", "properties": {"collection_times": [{"days": "Mon-Fri", "time": "5:00pm"}, {"days": "Sat", "time": "1:00pm"}, {"days": "Sun", "time": "Closed"}], "id": "9075500003", "name": "USPS COLLECTION BOX - BLUE BOX", "address": {"city": "LONG BEACH", "state": "CA", "street": "2599 E 28TH ST", "postcode": "90755"}}},
{"geometry": {"type": "Point", "coordinates": [-118.1735604406, 33.8080471442]}, "type": "Feature", "properties": {"collection_times": [{"days": "Mon-Sat", "time": "1:00pm"}, {"days": "Sun", "time": "Closed"}], "id": "9075500004", "name": "USPS COLLECTION BOX - BLUE BOX", "address": {"city": "LONG BEACH", "state": "CA", "street": "1401 E 28TH ST", "postcode": "90755"}}},
{"geometry": {"type": "Point", "coordinates": [-118.1677822016, 33.7966736989]}, "type": "Feature", "properties": {"collection_times": [{"days": "Mon-Fri", "time": "3:15pm"}, {"days": "Sat", "time": "1:00pm"}, {"days": "Sun", "time": "Closed"}], "id": "9075500005", "name": "USPS COLLECTION BOX - BLUE BOX", "address": {"city": "LONG BEACH", "state": "CA", "street": "2175 CHERRY AVE", "postcode": "90755"}}},
{"geometry": {"type": "Point", "coordinates": [-118.1676870494, 33.8030503256]}, "type": "Feature", "properties": {"collection_times": [{"days": "Mon-Fri", "time": "5:00pm"}, {"days": "Sat", "time": "1:00pm"}, {"days": "Sun", "time": "Closed"}], "id": "9075500007", "name": "USPS COLLECTION BOX - BLUE BOX", "address": {"city": "LONG BEACH", "state": "CA", "street": "2501 CHERRY AVE", "postcode": "90755"}}},
{"geometry": {"type": "Point", "coordinates": [-118.1676929642, 33.793235315]}, "type": "Feature", "properties": {"collection_times": [{"days": "Mon-Sat", "time": "1:00pm"}, {"days": "Sun", "time": "Closed"}], "id": "9075500009", "name": "USPS COLLECTION BOX - BLUE BOX", "address": {"city": "LONG BEACH", "state": "CA", "street": "1990 CHERRY AVE", "postcode": "90755"}}},
{"geometry": {"type": "Point", "coordinates": [-118.1633066506, 33.8081054891]}, "type": "Feature", "properties": {"collection_times": [{"days": "Mon-Fri", "time": "5:00pm"}, {"days": "Sat", "time": "1:00pm"}, {"days": "Sun", "time": "Closed"}], "id": "9075500011", "name": "USPS COLLECTION BOX - BLUE BOX", "address": {"city": "LONG BEACH", "state": "CA", "street": "2801 JUNIPERO AVE", "postcode": "90755"}}},
{"geometry": {"type": "Point", "coordinates": [-118.1633066506, 33.8081054891]}, "type": "Feature", "properties": {"collection_times": [{"days": "Mon-Fri", "time": "5:00pm"}, {"days": "Sat", "time": "1:00pm"}, {"days": "Sun", "time": "Closed"}], "id": "9075500012", "name": "USPS COLLECTION BOX - BLUE BOX", "address": {"city": "LONG BEACH", "state": "CA", "street": "2801 JUNIPERO AVE", "postcode": "90755"}}},
{"geometry": {"type": "Point", "coordinates": [-118.1633066506, 33.8081054891]}, "type": "Feature", "properties": {"collection_times": [{"days": "Mon-Fri", "time": "5:00pm"}, {"days": "Sat", "time": "1:00pm"}, {"days": "Sun", "time": "Closed"}], "id": "9075500013", "name": "USPS COLLECTION BOX - BLUE BOX", "address": {"city": "LONG BEACH", "state": "CA", "street": "2801 JUNIPERO AVE", "postcode": "90755"}}},
{"geometry": {"type": "Point", "coordinates": [-118.1633066506, 33.8081054891]}, "type": "Feature", "properties": {"collection_times": [{"days": "Mon-Fri", "time": "5:00pm"}, {"days": "Sat", "time": "1:00pm"}, {"days": "Sun", "time": "Closed"}], "id": "9075500014", "name": "USPS COLLECTION BOX - BLUE BOX", "address": {"city": "LONG BEACH", "state": "CA", "street": "2801 JUNIPERO AVE", "postcode": "90755"}}},
{"geometry": {"type": "Point", "coordinates": [-118.1633066506, 33.8081054891]}, "type": "Feature", "properties": {"collection_times": [{"days": "Mon-Fri", "time": "5:00pm"}, {"days": "Sat", "time": "1:00pm"}, {"days": "Sun", "time": "Closed"}], "id": "9075500015", "name": "USPS COLLECTION BOX - BLUE BOX", "address": {"city": "LONG BEACH", "state": "CA", "street": "2801 JUNIPERO AVE", "postcode": "90755"}}},
{"geometry": {"type": "Point", "coordinates": [-118.1632509533, 33.8059308306]}, "type": "Feature", "properties": {"collection_times": [{"days": "Mon-Sat", "time": "1:00pm"}, {"days": "Sun", "time": "Closed"}], "id": "9075500016", "name": "USPS COLLECTION BOX - BLUE BOX", "address": {"city": "LONG BEACH", "state": "CA", "street": "2698 JUNIPERO AVE", "postcode": "90755"}}},
{"geometry": {"type": "Point", "coordinates": [-118.1513906067, 33.799057839]}, "type": "Feature", "properties": {"collection_times": [{"days": "Mon-Fri", "time": "5:00pm"}, {"days": "Sat", "time": "1:00pm"}, {"days": "Sun", "time": "Closed"}], "id": "9075500019", "name": "USPS COLLECTION BOX - BLUE BOX", "address": {"city": "LONG BEACH", "state": "CA", "street": "2325 REDONDO AVE", "postcode": "90755"}}},
{"geometry": {"type": "Point", "coordinates": [-118.165384079, 33.8045377953]}, "type": "Feature", "properties": {"collection_times": [{"days": "Mon-Fri", "time": "5:00pm"}, {"days": "Sat", "time": "1:00pm"}, {"days": "Sun", "time": "Closed"}], "id": "9075500020", "name": "USPS COLLECTION BOX - BLUE BOX", "address": {"city": "LONG BEACH", "state": "CA", "street": "2201 E WILLOW ST", "postcode": "90755"}}},
{"geometry": {"type": "Point", "coordinates": [-118.1551253014, 33.8043031572]}, "type": "Feature", "properties": {"collection_times": [{"days": "Mon-Fri", "time": "3:30pm"}, {"days": "Sat", "time": "1:00pm"}, {"days": "Sun", "time": "Closed"}], "id": "9075500022", "name": "USPS COLLECTION BOX - BLUE BOX", "address": {"city": "LONG BEACH", "state": "CA", "street": "3100 E WILLOW ST", "postcode": "90755"}}},
{"geometry": {"type": "Point", "coordinates": [-118.1551253014, 33.8043031572]}, "type": "Feature", "properties": {"collection_times": [{"days": "Mon-Fri", "time": "3:30pm"}, {"days": "Sat", "time": "1:00pm"}, {"days": "Sun", "time": "Closed"}], "id": "9075500023", "name": "USPS COLLECTION BOX - BLUE BOX", "address": {"city": "LONG BEACH", "state": "CA", "street": "3100 E WILLOW ST", "postcode": "90755"}}}
]}
